     2.11           OBSERVATION DATA    M (MIXED)           RINEX VERSION / TYPE
CONVBIN 2.4.3                           20210831 165318 UTC PGM / RUN BY / DATE 
log: logs/21_08_31_08_18_08_txlu_SNTX.rtcm                  COMMENT             
format: RTCM 3, station ID: 3938                            COMMENT             
3938                                                        MARKER NAME         
                                                            MARKER NUMBER       
                                                            OBSERVER / AGENCY   
1702670             LEICA GR10          4.50                REC # / TYPE / VERS 
                    GPPNULLANTENNA                          ANT # / TYPE        
 -1092200.8902 -5208620.0908  3503609.0493                  APPROX POSITION XYZ 
        0.0000        0.0000        0.0000                  ANTENNA: DELTA H/E/N
     1     1                                                WAVELENGTH FACT L1/2
     7    C1    L1    C2    L2    P2    C5    L5            # / TYPES OF OBSERV 
  2021     8    31     8    18   15.0000000     GPS         TIME OF FIRST OBS   
  2021     8    31     8    48   12.0000000     GPS         TIME OF LAST OBS    
                                                            END OF HEADER       
 21  8 31  8 18 15.0000000  0 20G 1G 7G 8G 9G13G14G17G19G21G30R 2R 3
                                R12R13R21R22E 1E 9E31E33
  22284669.216   117106726.551    22284668.662    91251991.272    22284668.358  
  22284669.966    87449831.236  
  20619906.856   108358341.706    20619903.032    84435053.333    20619902.442  
                                
  23931839.738   125762666.204    23931838.987    97996874.746    23931837.844  
  23931839.398    93913677.450  
  24626712.791   129414248.992    24626711.665   100842264.664    24626711.094  
  24626714.239    96640515.279  
  22927550.131   120485088.813                    93884464.828    22927545.325  
                                
  21241764.848   111626227.445    21241761.506    86981460.426    21241761.041  
  21241767.331    83357256.975  
  21386952.678   112389194.569    21386949.194    87575979.314    21386948.533  
                                
  23937969.813   125794879.971                    98021959.634    23937963.702  
                                
  22845861.160   120055810.337                    93549961.831    22845856.139  
                                
  20421234.466   107314311.060    20421232.929    83621531.110    20421232.054  
  20421234.805    80137311.279  
  22690625.560   121081525.766    22690625.238    94174518.247    22690624.470  
                                
  22591506.393   120934102.364    22591503.516    94059844.960    22591502.605  
                                
  20064699.622   107182023.370    20064698.479    83363791.171    20064697.728  
                                
  21826228.621   116550842.882    21826227.299    90650649.807    21826226.477  
                                
  22470747.572   120245508.709    22470744.981    93524274.088    22470744.159  
                                
  19817673.549   105788087.124    19817672.227    82279617.908    19817670.601  
                                
  25672087.141   134907728.725                                                  
  25672090.947   100742798.473  
  23738624.119   124747311.640                                                  
  23738628.800    93155478.030  
  24092269.202   126605729.118                                                  
  24092273.901    94543257.497  
  25084933.025   131822213.059                                                  
  25084936.742    98438679.434  
 21  8 31  8 18 16.0000000  0 20G 1G 7G 8G 9G13G14G17G19G21G30R 2R 3
                                R12R13R21R22E 1E 9E31E33
  22284293.234   117104750.740    22284292.662    91250451.681    22284292.376  
  22284293.966    87448355.799  
  20620122.999   108359477.595    20620119.193    84435938.442    20620118.603  
                                
  23932498.015   125766125.478    23932497.264    97999570.285    23932496.121  
  23932497.693    93916260.670  
  24627393.708   129417827.177    24627392.565   100845052.859    24627392.011  
  24627395.138    96643187.312  
  22927198.969   120483243.391                    93883026.834    22927194.163  
                                
  21241566.930   111625187.342    21241563.589    86980649.953    21241563.106  
  21241569.414    83356480.281  
  21386520.605   112386923.958    21386517.121    87574210.006    21386516.460  
                                
  23937283.786   125791274.969                    98019150.546    23937277.692  
                                
  22845929.831   120056171.283                    93550243.090    22845924.810  
                                
  20421069.964   107313446.622    20421068.427    83620857.521    20421067.569  
  20421070.303    80136665.759  
  22691241.112   121084810.521    22691240.808    94177073.054    22691240.004  
                                
  22591648.434   120934862.642    22591645.539    94060436.288    22591644.628  
                                
  20064643.210   107181721.959    20064642.048    83363556.740    20064641.298  
                                
  21825772.550   116548407.541    21825771.246    90648755.649    21825770.424  
                                
  22471372.595   120248853.302    22471370.021    93526875.436    22471369.182  
                                
  19817675.872   105788099.534    19817674.550    82279627.559    19817672.924  
                                
  25672324.781   134908977.477                                                  
  25672328.552   100743730.986  
  23738856.237   124748531.446                                                  
  23738860.919    93156388.920  
  24092193.991   126605333.974                                                  
  24092198.709    94542962.427  
  25084579.022   131820352.701                                                  
  25084582.721    98437290.215  
 21  8 31  8 18 17.0000000  0 20G 1G 7G 8G 9G13G14G17G19G21G30R 2R 3
                                R12R13R21R22E 1E 9E31E33
  22283917.234   117102774.970    22283916.698    91248912.120    22283916.376  
  22283918.002    87446880.384  
  20620339.179   108360613.535    20620335.355    84436823.587    20620334.747  
                                
  23933156.220   125769584.404    23933155.470    98002265.549    23933154.344  
  23933155.898    93918843.634  
  24628074.518   129421404.844    24628073.374   100847840.643    24628072.838  
  24628075.947    96645858.945  
  22926847.807   120481398.081                    93881588.928    22926843.018  
                                
  21241368.959   111624146.980    21241365.618    86979839.277    21241365.153  
  21241371.425    83355703.379  
  21386088.514   112384653.358    21386085.048    87572440.703    21386084.387  
                                
  23936597.722   125787669.635                    98016341.195    23936591.629  
                                
  22845998.537   120056532.332                    93550524.424    22845993.516  
                                
  20420905.461   107312582.180    20420903.925    83620183.928    20420903.067  
  20420905.801    80136020.232  
  22691856.646   121088095.037    22691856.325    94179627.675    22691855.538  
                                
  22591790.511   120935623.222    22591787.634    94061027.845    22591786.705  
                                
  20064586.726   107181420.327    20064585.582    83363322.137    20064584.832  
                                
  21825316.407   116545971.712    21825315.085    90646861.114    21825314.281  
                                
  22471997.635   120252197.996    22471995.044    93529476.860    22471994.222  
                                
  19817678.285   105788112.429    19817676.962    82279637.589    19817675.336  
                                
  25672562.332   134910225.808                                                  
  25672566.102   100744663.185  
  23739088.338   124749751.179                                                  
  23739093.020    93157299.766  
  24092118.727   126604938.431                                                  
  24092123.426    94542667.062  
  25084224.983   131818492.232                                                  
  25084228.682    98435900.905  
 21  8 31  8 18 18.0000000  0 20G 1G 7G 8G 9G13G14G17G19G21G30R 2R 3
                                R12R13R21R22E 1E 9E31E33
  22283541.323   117100799.494    22283540.769    91247372.788    22283540.466  
  22283542.074    87445405.191  
  20620555.394   108361749.762    20620551.552    84437708.957    20620550.980  
                                
  23933814.426   125773043.226    23933813.675    98004960.733    23933812.531  
  23933814.086    93921426.525  
  24628755.256   129424982.227    24628754.148   100850628.215    24628753.577  
  24628756.721    96648530.381  
  22926496.735   120479553.137                    93880151.310    22926491.946  
                                
  21241170.971   111623106.595    21241167.629    86979028.590    21241167.182  
  21241173.454    83354926.477  
  21385656.477   112382382.996    21385652.993    87570671.587    21385652.332  
                                
  23935911.641   125784064.281                    98013531.826    23935905.548  
                                
  22846067.315   120056893.744                    93550806.049    22846062.276  
                                
  20420741.013   107311717.982    20420739.494    83619510.527    20420738.636  
  20420741.352    80135374.892  
  22692472.181   121091379.598    22692471.859    94182182.333    22692471.073  
                                
  22591932.677   120936384.310    22591929.800    94061619.801    22591928.906  
                                
  20064530.278   107181118.740    20064529.116    83363087.574    20064528.366  
                                
  21824860.229   116543535.718    21824858.907    90644966.448    21824858.085  
                                
  22472622.729   120255543.013    22472620.138    93532078.540    22472619.316  
                                
  19817680.840   105788126.078    19817679.535    82279648.205    19817677.891  
                                
  25672799.829   134911473.985                                                  
  25672803.635   100745595.267  
  23739320.492   124750971.100                                                  
  23739325.174    93158210.743  
  24092043.427   126604542.744                                                  
  24092048.144    94542371.580  
  25083870.980   131816631.917                                                  
  25083874.679    98434511.709  
 21  8 31  8 18 19.0000000  0 20G 1G 7G 8G 9G13G14G17G19G21G30R 2R 3
                                R12R13R21R22E 1E 9E31E33
  22283165.502   117098824.537    22283164.966    91245833.860    22283164.644  
  22283166.270    87443930.385  
  20620771.734   108362886.544    20620767.892    84438594.757    20620767.303  
                                
  23934472.631   125776502.181    23934471.898    98007656.027    23934470.755  
  23934472.309    93924009.511  
  24629436.012   129428559.587    24629434.869   100853415.777    24629434.333  
  24629437.460    96651201.777  
  22926145.769   120477708.784                    93878714.153    22926140.962  
                                
  21240973.035   111622066.441    21240969.694    86978218.078    21240969.229  
  21240975.537    83354149.739  
  21385224.547   112380113.132    21385221.063    87568902.865    21385220.402  
                                
  23935225.614   125780459.117                    98010722.600    23935219.520  
                                
  22846136.200   120057255.776                    93551088.152    22846131.179  
                                
  20420576.654   107310854.271    20420575.117    83618837.510    20420574.259  
  20420576.993    80134729.915  
  22693087.750   121094664.427    22693087.429    94184737.201    22693086.643  
                                
  22592075.021   120937146.185    22592072.144    94062212.369    22592071.215  
                                
  20064473.865   107180817.440    20064472.721    83362853.229    20064471.971  
                                
  21824404.069   116541099.749    21824402.729    90643071.805    21824401.907  
                                
  22473247.931   120258888.589    22473245.340    93534680.655    22473244.518  
                                
  19817683.592   105788140.710    19817682.269    82279659.588    19817680.625  
                                
  25673037.362   134912722.232                                                  
  25673041.168   100746527.397  
  23739552.718   124752191.434                                                  
  23739557.418    93159122.030  
  24091968.145   126604147.142                                                  
  24091972.862    94542076.163  
  25083517.066   131814772.014                                                  
  25083520.765    98433122.812  
 21  8 31  8 18 20.0000000  0 20G 1G 7G 8G 9G13G14G17G19G21G30R 2R 3
                                R12R13R21R22E 1E 9E31E33
  22282789.949   117096851.050    22282789.413    91244296.085    22282789.091  
  22282790.717    87442456.679  
  20620988.325   108364024.793    20620984.501    84439481.699    20620983.911  
                                
  23935131.069   125779962.213    23935130.318    98010352.153    23935129.157  
  23935130.747    93926593.303  
  24630116.947   129432137.871    24630115.804   100856204.052    24630115.232  
  24630118.377    96653873.864  
  22925795.090   120475865.953                    93877278.179    22925790.301  
                                
  21240775.315   111621027.468    21240772.009    86977408.489    21240771.526  
  21240777.816    83353373.877  
  21384792.867   112377844.695    21384789.401    87567135.249    21384788.740  
                                
  23934539.783   125776855.113                    98007914.292    23934533.689  
                                
  22846205.389   120057619.328                    93551371.443    22846200.350  
                                
  20420412.562   107309991.993    20420411.043    83618165.607    20420410.186  
  20420412.902    80134086.008  
  22693703.553   121097950.505    22693703.231    94187293.036    22693702.463  
                                
  22592217.670   120937909.784    22592214.793    94062806.278    22592213.864  
                                
  20064417.685   107180517.377    20064416.541    83362619.849    20064415.791  
                                
  21823948.087   116538664.814    21823946.747    90641177.967    21823945.925  
                                
  22473873.436   120262235.722    22473870.827    93537283.980    22473869.987  
                                
  19817686.701   105788157.272    19817685.379    82279672.467    19817683.735  
                                
  25673275.109   134913971.485                                                  
  25673278.880   100747460.283  
  23739785.194   124753413.142                                                  
  23739789.876    93160034.348  
  24091893.059   126603752.579                                                  
  24091897.776    94541781.515  
  25083163.367   131812913.411                                                  
  25083167.065    98431734.898  
 21  8 31  8 18 21.0000000  0 20G 1G 7G 8G 9G13G14G17G19G21G30R 2R 3
                                R12R13R21R22E 1E 9E31E33
  22282414.360   117094877.252    22282413.806    91242758.063    22282413.484  
  22282415.110    87440982.746  
  20621204.861   108365162.713    20621201.037    84440368.391    20621200.448  
                                
  23935789.346   125783421.566    23935788.613    98013047.756    23935787.452  
  23935789.024    93929176.591  
  24630797.686   129435715.281    24630796.578   100858991.637    24630796.006  
  24630799.151    96656545.312  
  22925444.356   120474022.891                    93875842.026    22925439.585  
                                
  21240577.505   111619987.886    21240574.163    86976598.425    21240573.698  
  21240580.006    83352597.569  
  21384361.116   112375575.909    21384357.667    87565367.362    21384357.006  
                                
  23933853.845   125773250.451                    98005105.463    23933847.751  
                                
  22846274.524   120057982.674                    93551654.566    22846269.503  
                                
  20420248.417   107309129.376    20420246.881    83617493.436    20420246.023  
  20420248.757    80133441.846  
  22694319.266   121101236.034    22694318.944    94189848.448    22694318.158  
                                
  22592360.300   120938673.377    22592357.423    94063400.176    22592356.530  
                                
  20064361.397   107180216.744    20064360.272    83362386.026    20064359.503  
                                
  21823491.944   116536229.044    21823490.604    90639283.479    21823489.782  
                                
  22474498.869   120265582.576    22474496.278    93539887.087    22474495.456  
                                
  19817689.828   105788173.979    19817688.506    82279685.457    19817686.880  
                                
  25673512.678   134915219.993                                                  
  25673516.466   100748392.610  
  23740017.617   124754634.445                                                  
  23740022.298    93160946.345  
  24091817.848   126603357.265                                                  
  24091822.548    94541486.324  
  25082809.596   131811054.379                                                  
  25082813.295    98430346.667  
 21  8 31  8 18 22.0000000  0 20G 1G 7G 8G 9G13G14G17G19G21G30R 2R 3
                                R12R13R21R22E 1E 9E31E33
  22282038.842   117092903.905    22282038.288    91241220.386    22282037.984  
  22282039.593    87439509.146  
  20621421.488   108366301.095    20621417.681    84441255.443    20621417.074  
                                
  23936447.641   125786880.967    23936446.890    98015743.398    23936445.764  
  23936447.319    93931759.909  
  24631478.442   129439292.567    24631477.298   100861779.138    24631476.744  
  24631479.871    96659216.673  
  22925093.730   120472180.339                    93874406.274    22925088.941  
                                
  21240379.712   111618948.440    21240376.371    86975788.467    21240375.906  
  21240382.178    83351821.364  
  21383929.454   112373307.539    21383926.005    87563599.801    21383925.344  
                                
  23933167.942   125769645.933                    98002296.754    23933161.813  
                                
  22846343.767   120058346.522                    93551938.091    22846338.746  
                                
  20420084.344   107308267.162    20420082.807    83616821.578    20420081.950  
  20420084.684    80132797.987  
  22694935.014   121104521.775    22694934.693    94192404.024    22694933.924  
                                
  22592503.092   120939437.693    22592500.215    94063994.643    22592499.321  
                                
  20064305.164   107179916.302    20064304.020    83362152.354    20064303.270  
                                
  21823035.802   116533793.286    21823034.480    90637389.008    21823033.658  
                                
  22475124.392   120268929.918    22475121.784    93542490.575    22475120.962  
                                
  19817693.116   105788191.542    19817691.811    82279699.119    19817690.168  
                                
  25673750.247   134916468.481                                                  
  25673754.053   100749324.923  
  23740250.057   124755856.061                                                  
  23740254.756    93161858.611  
  24091742.620   126602961.971                                                  
  24091747.319    94541191.132  
  25082455.878   131809195.647                                                  
  25082459.577    98428958.657  
 21  8 31  8 18 23.0000000  0 20G 1G 7G 8G 9G13G14G17G19G21G30R 2R 3
                                R12R13R21R22E 1E 9E31E33
  22281663.450   117090931.137    22281662.878    91239683.168    22281662.574  
  22281664.182    87438035.959  
  20621638.221   108367440.063    20621634.397    84442142.953    20621633.807  
                                
  23937105.971   125790340.550    23937105.238    98018439.178    23937104.077  
  23937105.649    93934343.362  
  24632159.162   129442869.880    24632158.019   100864566.661    24632157.482  
  24632160.610    96661888.026  
  22924743.229   120470338.412                    93872971.011    22924738.441  
                                
  21240181.956   111617909.267    21240178.632    86974978.724    21240178.150  
  21240184.440    83351045.355  
  21383497.917   112371039.709    21383494.451    87561832.665    21383493.789  
                                
  23932482.058   125766041.638                    97999488.222    23932475.929  
                                
  22846413.116   120058711.016                    93552222.112    22846408.113  
                                
  20419920.378   107307405.476    20419918.823    83616150.137    20419917.966  
  20419920.717    80132154.516  
  22695550.834   121107807.868    22695550.513    94194959.877    22695549.727  
                                
  22592646.026   120940202.826    22592643.149    94064589.741    22592642.256  
                                
  20064248.983   107179616.183    20064247.822    83361918.932    20064247.089  
                                
  21822579.677   116531357.597    21822578.337    90635494.588    21822577.515  
                                
  22475750.023   120272277.867    22475747.450    93545094.535    22475746.610  
                                
  19817696.600   105788210.160    19817695.296    82279713.598    19817693.652  
                                
  25673987.851   134917717.091                                                  
  25673991.657   100750257.322  
  23740482.622   124757078.159                                                  
  23740487.322    93162771.203  
  24091667.427   126602566.795                                                  
  24091672.126    94540896.033  
  25082102.268   131807337.360                                                  
  25082105.967    98427570.966  
 21  8 31  8 18 24.0000000  0 20G 1G 7G 8G 9G13G14G17G19G21G30R 2R 3
                                R12R13R21R22E 1E 9E31E33
  22281288.057   117088958.469    22281287.503    91238146.024    22281287.182  
  22281288.790    87436562.869  
  20621854.972   108368579.125    20621851.148    84443030.538    20621850.576  
                                
  23937764.248   125793799.868    23937763.515    98021134.754    23937762.372  
  23937763.926    93936926.624  
  24632839.811   129446446.714    24632838.667   100867353.798    24632838.131  
  24632841.258    96664559.052  
  22924392.764   120468496.673                    93871535.892    22924387.958  
                                
  21239984.164   111616869.909    21239980.822    86974168.835    21239980.375  
  21239986.647    83350269.213  
  21383066.362   112368771.935    21383062.896    87560065.571    21383062.252  
                                
  23931796.119   125762437.132                    97996679.513    23931790.026  
                                
  22846482.520   120059075.700                    93552506.281    22846477.499  
                                
  20419756.412   107306543.857    20419754.875    83615478.744    20419754.017  
  20419756.733    80131511.097  
  22696166.619   121111093.856    22696166.297    94197515.647    22696165.511  
                                
  22592789.032   120940968.293    22592786.137    94065185.100    22592785.244  
                                
  20064192.785   107179315.947    20064191.624    83361685.411    20064190.856  
                                
  21822123.463   116528921.556    21822122.159    90633599.889    21822121.337  
                                
  22476375.707   120275625.932    22476373.098    93547698.583    22476372.294  
                                
  19817700.192   105788229.318    19817698.870    82279728.498    19817697.226  
                                
  25674225.420   134918965.368                                                  
  25674229.190   100751189.470  
  23740715.188   124758300.257                                                  
  23740719.887    93163683.805  
  24091592.162   126602171.299                                                  
  24091596.862    94540600.693  
  25081748.640   131805479.024                                                  
  25081752.339    98426183.252  
 21  8 31  8 18 25.0000000  0 20G 1G 7G 8G 9G13G14G17G19G21G30R 2R 3
                                R12R13R21R22E 1E 9E31E33
  22280912.826   117086986.649    22280912.272    91236609.541    22280911.968  
  22280913.594    87435090.413  
  20622071.902   108369719.073    20622068.078    84443918.809    20622067.488  
                                
  23938422.614   125797259.644    23938421.882    98023830.688    23938420.738  
  23938422.311    93939510.227  
  24633520.549   129450023.871    24633519.406   100870141.188    24633518.870  
  24633521.961    96667230.299  
  22924042.442   120466655.843                    93870101.481    22924037.671  
                                
  21239786.497   111615831.099    21239783.155    86973359.373    21239782.690  
  21239788.980    83349493.486  
  21382634.986   112366504.992    21382631.520    87558299.119    21382630.859  
                                
  23931110.324   125758833.174                    97993871.232    23931104.213  
                                
  22846552.102   120059441.309                    93552791.176    22846547.063  
                                
  20419592.606   107305683.054    20419591.088    83614807.986    20419590.212  
  20419592.946    80130868.294  
  22696782.528   121114380.458    22696782.207    94200071.896    22696781.403  
                                
  22592932.234   120941734.867    22592929.357    94065781.326    22592928.446  
                                
  20064136.712   107179016.359    20064135.551    83361452.400    20064134.783  
                                
  21821667.338   116526485.885    21821666.034    90631705.478    21821665.212  
                                
  22477001.551   120278974.905    22476998.942    93550303.340    22476998.102  
                                
  19817704.016   105788249.773    19817702.694    82279744.405    19817701.085  
                                
  25674463.024   134920214.043                                                  
  25674466.812   100752121.925  
  23740947.896   124759523.101                                                  
  23740952.560    93164596.971  
  24091516.987   126601776.214                                                  
  24091521.687    94540305.662  
  25081395.155   131803621.427                                                  
  25081398.854    98424796.086  
 21  8 31  8 18 26.0000000  0 20G 1G 7G 8G 9G13G14G17G19G21G30R 2R 3
                                R12R13R21R22E 1E 9E31E33
  22280537.862   117085016.193    22280537.308    91235074.123    22280537.004  
  22280538.613    87433618.969  
  20622289.082   108370860.374    20622285.276    84444808.132    20622284.669  
                                
  23939081.195   125800720.395    23939080.445    98026527.379    23939079.319  
  23939080.855    93942094.541  
  24634201.395   129453601.827    24634200.269   100872929.201    24634199.715  
  24634202.824    96669902.144  
  22923692.424   120464816.449                    93868668.185    22923687.635  
                                
  21239589.008   111614793.373    21239585.702    86972550.752    21239585.220  
  21239591.510    83348718.545  
  21382203.843   112364239.363    21382200.376    87556533.698    21382199.733  
                                
  23930424.708   125755230.256                    97991063.759    23930418.614  
                                
  22846621.934   120059808.359                    93553077.189    22846616.913  
                                
  20419429.051   107304823.575    20419427.515    83614138.264    20419426.657  
  20419429.391    80130226.466  
  22697398.634   121117668.184    22697398.313    94202629.018    22697397.544  
                                
  22593075.740   120942503.075    22593072.845    94066378.821    22593071.952  
                                
  20064080.818   107178717.898    20064079.657    83361220.261    20064078.924  
                                
  21821211.410   116524051.120    21821210.070    90629811.770    21821209.248  
                                
  22477627.646   120282325.331    22477625.037    93552909.224    22477624.215  
                                
  19817708.197   105788272.060    19817706.875    82279761.740    19817705.249  
                                
  25674700.825   134921463.616                                                  
  25674704.596   100753055.045  
  23741180.836   124760747.206                                                  
  23741185.518    93165511.073  
  24091441.973   126601382.067                                                  
  24091446.691    94540011.325  
  25081041.903   131801765.051                                                  
  25081045.619    98423409.824  
 21  8 31  8 18 27.0000000  0 20G 1G 7G 8G 9G13G14G17G19G21G30R 2R 3
                                R12R13R21R22E 1E 9E31E33
  22280163.006   117083046.368    22280162.452    91233539.195    22280162.148  
  22280163.774    87432147.998  
  20622506.370   108372002.267    20622502.563    84445697.920    20622501.956  
                                
  23939739.776   125804181.372    23939739.061    98029224.246    23939737.899  
  23939739.454    93944679.045  
  24634882.276   129457179.817    24634881.133   100875717.241    24634880.596  
  24634883.724    96672574.027  
  22923342.530   120462977.756                    93867235.435    22923337.759  
                                
  21239391.591   111613755.937    21239388.285    86971742.363    21239387.803  
  21239394.093    83347943.845  
  21381772.824   112361974.309    21381769.357    87554768.721    21381768.696  
                                
  23929739.163   125751627.598                    97988256.484    23929733.069  
                                
  22846691.909   120060176.098                    93553363.736    22846686.888  
                                
  20419265.603   107303964.671    20419264.067    83613468.988    20419263.209  
  20419265.943    80129585.077  
  22698014.830   121120956.273    22698014.508    94205186.420    22698013.704  
                                
  22593219.407   120943272.166    22593216.530    94066977.007    22593215.619  
                                
  20064025.031   107178419.765    20064023.869    83360988.380    20064023.101  
                                
  21820755.482   116521616.459    21820754.142    90627918.142    21820753.320  
                                
  22478253.884   120285676.455    22478251.275    93555515.653    22478250.471  
                                
  19817712.593   105788295.430    19817711.271    82279779.914    19817709.627  
                                
  25674938.626   134922713.360                                                  
  25674942.432   100753988.295  
  23741413.849   124761971.816                                                  
  23741418.548    93166425.555  
  24091366.995   126600988.079                                                  
  24091371.694    94539717.116  
  25080688.721   131799909.130                                                  
  25080692.420    98422023.913  
 21  8 31  8 18 28.0000000  0 20G 1G 7G 8G 9G13G14G17G19G21G30R 2R 3
                                R12R13R21R22E 1E 9E31E33
  22279788.310   117081077.268    22279787.738    91232004.836    22279787.435  
  22279789.061    87430677.568  
  20622723.818   108373144.930    20622720.012    84446588.304    20622719.404  
                                
  23940398.446   125807642.700    23940397.713    98031921.390    23940396.570  
  23940398.124    93947263.810  
  24635563.193   129460757.996    24635562.050   100878505.430    24635561.513  
  24635564.623    96675246.045  
  22922992.798   120461139.835                    93865803.286    22922988.009  
                                
  21239194.263   111612718.944    21239190.940    86970934.316    21239190.457  
  21239196.765    83347169.467  
  21381341.930   112359709.951    21381338.464    87553004.289    21381337.802  
                                
  23929053.689   125748025.366                    97985449.543    23929047.578  
                                
  22846762.045   120060544.630                    93553650.901    22846757.024  
                                
  20419102.298   107303106.468    20419100.779    83612800.256    20419099.904  
  20419102.638    80128944.213  
  22698631.097   121124244.850    22698630.775    94207744.210    22698629.989  
                                
  22593363.289   120944042.275    22593360.394    94067575.984    22593359.482  
                                
  20063969.280   107178122.088    20063968.136    83360756.852    20063967.386  
                                
  21820299.590   116519182.115    21820298.250    90626024.763    21820297.446  
                                
  22478880.265   120289028.342    22478877.656    93558122.678    22478876.834  
                                
  19817717.185   105788319.995    19817715.863    82279799.017    19817714.237  
                                
  25675176.499   134923963.376                                                  
  25675180.287   100754921.747  
  23741647.021   124763197.054                                                  
  23741651.703    93167340.507  
  24091292.088   126600594.394                                                  
  24091296.787    94539423.138  
  25080335.647   131798053.819                                                  
  25080339.346    98420638.461  
 21  8 31  8 18 29.0000000  0 20G 1G 7G 8G 9G13G14G17G19G21G30R 2R 3
                                R12R13R21R22E 1E 9E31E33
  22279413.668   117079108.614    22279413.114    91230470.822    22279412.811  
  22279414.437    87429207.458  
  20622941.355   108374288.026    20622937.531    84447479.026    20622936.942  
                                
  23941057.116   125811104.064    23941056.383    98034618.556    23941055.240  
  23941056.794    93949848.610  
  24636244.057   129464336.033    24636242.931   100881293.508    24636242.377  
  24636245.486    96677917.965  
  22922643.155   120459302.409                    93864371.521    22922638.366  
                                
  21238996.972   111611682.086    21238993.630    86970126.373    21238993.165  
  21238999.438    83346395.188  
  21380911.108   112357445.988    21380907.641    87551240.165    21380906.980  
                                
  23928368.215   125744423.228                    97982642.684    23928362.122  
                                
  22846832.288   120060913.695                    93553938.485    22846827.249  
                                
  20418939.047   107302248.635    20418937.528    83612131.819    20418936.652  
  20418939.386    80128303.628  
  22699247.399   121127533.583    22699247.078    94210302.116    22699246.291  
                                
  22593507.277   120944813.087    22593504.400    94068175.504    22593503.471  
                                
  20063913.600   107177824.597    20063912.438    83360525.470    20063911.706  
                                
  21819843.715   116516747.663    21819842.375    90624131.305    21819841.553  
                                
  22479506.717   120292380.638    22479504.126    93560730.017    22479503.304  
                                
  19817721.956   105788345.486    19817720.634    82279818.844    19817719.008  
                                
  25675414.353   134925213.372                                                  
  25675418.159   100755855.194  
  23741880.212   124764422.608                                                  
  23741884.912    93168255.701  
  24091217.163   126600200.699                                                  
  24091221.863    94539129.141  
  25079982.681   131796198.813                                                  
  25079986.379    98419253.225  
 21  8 31  8 18 30.0000000  0 20G 1G 7G 8G 9G13G14G17G19G21G30R 2R 3
                                R12R13R21R22E 1E 9E31E33
  22279039.062   117077139.990    22279038.508    91228936.829    22279038.187  
  22279039.830    87427737.395  
  20623158.875   108375431.185    20623155.069    84448369.799    20623154.461  
                                
  23941715.732   125814565.108    23941715.000    98037315.476    23941713.838  
  23941715.411    93952433.140  
  24636924.831   129467913.569    24636923.705   100884081.208    24636923.169  
  24636926.278    96680589.506  
  22922293.511   120457465.116                    93862939.862    22922288.740  
                                
  21238799.608   111610644.967    21238796.267    86969318.228    21238795.802  
  21238802.110    83345620.724  
  21380480.286   112355182.047    21380476.819    87549476.057    21380476.158  
                                
  23927682.706   125740820.814                    97979835.613    23927676.613  
                                
  22846902.549   120061282.858                    93554226.146    22846897.510  
                                
  20418775.813   107301390.828    20418774.295    83611463.394    20418773.419  
  20418776.153    80127663.067  
  22699863.684   121130822.104    22699863.344    94212859.852    22699862.558  
                                
  22593651.301   120945584.150    22593648.425    94068775.220    22593647.531  
                                
  20063857.884   107177526.917    20063856.723    83360293.936    20063855.990  
                                
  21819387.734   116514312.811    21819386.393    90622237.532    21819385.571  
                                
  22480133.205   120295733.018    22480130.596    93563337.428    22480129.756  
                                
  19817726.817   105788371.423    19817725.495    82279839.019    19817723.851  
                                
  25675652.154   134926462.960                                                  
  25675655.924   100756788.332  
  23742113.421   124765648.116                                                  
  23742118.120    93169170.860  
  24091142.167   126599806.621                                                  
  24091146.866    94538834.868  
  25079629.642   131794343.705                                                  
  25079633.341    98417867.927  
 21  8 31  8 18 31.0000000  0 20G 1G 7G 8G 9G13G14G17G19G21G30R 2R 3
                                R12R13R21R22E 1E 9E31E33
  22278664.277   117075170.505    22278663.723    91227402.163    22278663.419  
  22278665.028    87426266.669  
  20623376.251   108376573.454    20623372.427    84449259.881    20623371.838  
                                
  23942374.099   125818024.870    23942373.366    98040011.401    23942372.204  
  23942373.777    93955016.737  
  24637605.337   129471489.690    24637604.211   100886867.810    24637603.657  
  24637606.766    96683259.969  
  22921943.743   120455627.007                    93861507.573    22921938.954  
                                
  21238602.030   111609606.691    21238598.689    86968509.180    21238598.224  
  21238604.532    83344845.380  
  21380049.303   112352917.190    21380045.836    87547711.233    21380045.193  
                                
  23926996.947   125737217.206                    97977027.611    23926990.853  
                                
  22846972.631   120061651.239                    93554513.188    22846967.628  
                                
  20418612.419   107300532.111    20418610.882    83610794.262    20418610.025  
  20418612.741    80127021.813  
  22700479.719   121134109.481    22700479.379    94215416.705    22700478.611  
                                
  22593795.219   120946354.568    22593792.342    94069374.434    22593791.448  
                                
  20063801.954   107177228.092    20063800.793    83360061.517    20063800.042  
                                
  21818931.502   116511876.541    21818930.162    90620342.655    21818929.340  
                                
  22480759.514   120299084.588    22480756.923    93565944.203    22480756.083  
                                
  19817731.606   105788396.956    19817730.283    82279858.883    19817728.640  
                                
  25675889.705   134927711.242                                                  
  25675893.475   100757720.482  
  23742346.469   124766872.650                                                  
  23742351.150    93170085.266  
  24091066.938   126599411.236                                                  
  24091071.620    94538539.609  
  25079276.461   131792487.602                                                  
  25079280.160    98416481.865  
 21  8 31  8 18 32.0000000  0 20G 1G 7G 8G 9G13G14G17G19G21G30R 2R 3
                                R12R13R21R22E 1E 9E31E33
  22278289.564   117073201.405    22278289.010    91225867.807    22278288.706  
  22278290.332    87424796.255  
  20623593.700   108377716.134    20623589.876    84450150.279    20623589.286  
                                
  23943032.465   125821484.652    23943031.750    98042707.338    23943030.589  
  23943032.143    93957600.350  
  24638285.825   129475065.627    24638284.681   100889654.260    24638284.145  
  24638287.236    96685930.315  
  22921594.046   120453789.361                    93860075.642    22921589.275  
                                
  21238404.471   111608568.507    21238401.129    86967700.205    21238400.664  
  21238406.954    83344070.115  
  21379618.391   112350652.687    21379614.907    87545946.688    21379614.264  
                                
  23926311.223   125733613.656                    97974219.651    23926305.112  
                                
  22847042.839   120062020.082                    93554800.595    22847037.800  
                                
  20418449.096   107299673.750    20418447.542    83610125.413    20418446.666  
  20418449.400    80126380.829  
  22701095.789   121137397.018    22701095.467    94217973.681    22701094.699  
                                
  22593939.279   120947125.619    22593936.384    94069974.140    22593935.473  
                                
  20063746.024   107176929.425    20063744.880    83359829.216    20063744.130  
                                
  21818475.270   116509440.225    21818473.930    90618447.745    21818473.108  
                                
  22481385.913   120302436.607    22481383.322    93568551.330    22481382.500  
                                
  19817736.555   105788423.319    19817735.215    82279879.387    19817733.589  
                                
  25676127.220   134928959.453                                                  
  25676131.008   100758652.593  
  23742579.516   124768097.462                                                  
  23742584.198    93170999.919  
  24090991.692   126599015.807                                                  
  24090996.391    94538244.324  
  25078923.280   131790631.745                                                  
  25078926.997    98415096.007  
 21  8 31  8 18 33.0000000  0 20G 1G 7G 8G 9G13G14G17G19G21G30R 2R 3
                                R12R13R21R22E 1E 9E31E33
  22277914.958   117071232.754    22277914.404    91224333.790    22277914.082  
  22277915.690    87423326.141  
  20623811.237   108378859.240    20623807.395    84451041.013    20623806.806  
                                
  23943690.849   125824944.469    23943690.116    98045403.308    23943688.973  
  23943690.509    93960183.971  
  24638966.259   129478641.440    24638965.133   100892440.606    24638964.580  
  24638967.689    96688600.565  
  22921244.457   120451952.220                    93858644.104    22921239.668  
                                
  21238206.928   111607530.449    21238203.587    86966891.331    21238203.140  
  21238209.412    83343294.937  
  21379187.534   112348388.584    21379184.067    87544182.454    21379183.406  
                                
  23925625.517   125730010.212                    97971411.763    23925619.424  
                                
  22847113.118   120062389.447                    93555088.417    22847108.096  
                                
  20418285.809   107298815.785    20418284.272    83609456.869    20418283.415  
  20418286.131    80125740.129  
  22701711.931   121140684.741    22701711.591    94220530.801    22701710.805  
                                
  22594083.428   120947897.364    22594080.551    94070574.391    22594079.640  
                                
  20063690.165   107176630.944    20063689.004    83359597.063    20063688.254  
                                
  21818019.002   116507003.817    21818017.662    90616552.759    21818016.840  
                                
  22482012.400   120305789.097    22482009.809    93571158.823    22482008.970  
                                
  19817741.630   105788450.551    19817740.308    82279900.571    19817738.700  
                                
  25676364.753   134930207.642                                                  
  25676368.523   100759584.675  
  23742812.671   124769322.603                                                  
  23742817.353    93171914.786  
  24090916.445   126598620.370                                                  
  24090921.145    94537949.023  
  25078570.188   131788776.185                                                  
  25078573.887    98413710.348  
 21  8 31  8 18 34.0000000  0 20G 1G 7G 8G 9G13G14G17G19G21G30R 2R 3
                                R12R13R21R22E 1E 9E31E33
  22277540.512   117069265.022    22277539.923    91222800.497    22277539.637  
  22277541.245    87421856.730  
  20624028.917   108380003.261    20624025.094    84451932.465    20624024.504  
                                
  23944349.322   125828404.794    23944348.572    98048099.668    23944347.446  
  23944348.983    93962767.989  
  24639646.765   129482217.567    24639645.657   100895227.203    24639645.086  
  24639648.195    96691271.065  
  22920895.046   120450116.051                    93857213.325    22920890.257  
                                
  21238009.512   111606493.007    21238006.170    86966082.930    21238005.723  
  21238012.013    83342520.228  
  21378756.836   112346125.329    21378753.388    87542418.879    21378752.727  
                                
  23924939.918   125726407.361                    97968604.344    23924933.825  
                                
  22847183.593   120062759.783                    93555376.993    22847178.554  
                                
  20418122.718   107297958.679    20418121.182    83608788.990    20418120.324  
  20418123.040    80125100.088  
  22702328.162   121143973.104    22702327.840    94223088.414    22702327.036  
                                
  22594227.846   120948670.337    22594224.951    94071175.592    22594224.039  
                                
  20063634.414   107176333.124    20063633.253    83359365.426    20063632.502  
                                
  21817562.824   116504567.845    21817561.484    90614658.114    21817560.662  
                                
  22482639.067   120309142.511    22482636.476    93573767.034    22482635.636  
                                
  19817746.991   105788479.161    19817745.669    82279922.823    19817744.043  
                                
  25676602.357   134931456.293                                                  
  25676606.145   100760517.109  
  23743045.951   124770548.554                                                  
  23743050.633    93172830.266  
  24090841.288   126598225.402                                                  
  24090845.970    94537654.086  
  25078217.221   131786921.387                                                  
  25078220.920    98412325.286  
 21  8 31  8 18 35.0000000  0 20G 1G 7G 8G 9G13G14G17G19G21G30R 2R 3
                                R12R13R21R22E 1E 9E31E33
  22277166.174   117067297.908    22277165.620    91221267.679    22277165.298  
  22277166.925    87420387.780  
  20624246.741   108381147.931    20624242.899    84452824.418    20624242.327  
                                
  23945007.850   125831865.369    23945007.099    98050796.226    23945005.955  
  23945007.510    93965352.177  
  24640327.325   129485793.820    24640326.181   100898013.890    24640325.645  
  24640328.736    96693941.629  
  22920545.742   120448280.568                    93855783.080    22920540.971  
                                
  21237812.166   111605455.902    21237808.825    86965274.799    21237808.360  
  21237814.650    83341745.760  
  21378326.282   112343862.655    21378322.798    87540655.756    21378322.173  
                                
  23924254.373   125722804.806                    97965797.163    23924248.280  
                                
  22847254.194   120063130.826                    93555666.120    22847249.172  
                                
  20417959.717   107297102.175    20417958.181    83608121.584    20417957.323  
  20417960.039    80124460.488  
  22702944.464   121147261.875    22702944.143    94225646.348    22702943.339  
                                
  22594372.388   120949444.201    22594369.511    94071777.484    22594368.618  
                                
  20063578.734   107176035.692    20063577.573    83359134.090    20063576.822  
                                
  21817106.681   116502132.081    21817105.341    90612763.631    21817104.519  
                                
  22483265.877   120312496.624    22483263.268    93576375.788    22483262.428  
                                
  19817752.566   105788508.844    19817751.244    82279945.912    19817749.600  
                                
  25676839.997   134932705.118                                                  
  25676843.803   100761449.678  
  23743279.339   124771775.019                                                  
  23743284.038    93173746.133  
  24090766.149   126597830.639                                                  
  24090770.849    94537359.294  
  25077864.361   131785067.106                                                  
  25077868.096    98410940.582  
 21  8 31  8 18 36.0000000  0 20G 1G 7G 8G 9G13G14G17G19G21G30R 2R 3
                                R12R13R21R22E 1E 9E31E33
  22276791.925   117065331.206    22276791.371    91219735.184    22276791.050  
  22276792.676    87418919.138  
  20624464.636   108382293.002    20624460.812    84453716.681    20624460.222  
                                
  23945666.377   125835325.973    23945665.644    98053492.803    23945664.483  
  23945666.037    93967936.414  
  24641007.831   129489369.898    24641006.687   100900800.439    24641006.151  
  24641009.242    96696612.083  
  22920196.582   120446445.572                    93854353.214    22920191.793  
                                
  21237614.821   111604418.897    21237611.497    86964466.743    21237611.014  
  21237617.322    83340971.378  
  21377895.782   112341600.375    21377892.297    87538892.942    21377891.672  
                                
  23923568.846   125719202.336                    97962990.042    23923562.753  
                                
  22847324.901   120063502.354                    93555955.619    22847319.862  
                                
  20417796.805   107296246.038    20417795.269    83607454.465    20417794.411  
  20417797.127    80123821.170  
  22703560.821   121150550.802    22703560.499    94228204.404    22703559.695  
                                
  22594517.091   120950218.708    22594514.197    94072379.876    22594513.285  
                                
  20063523.090   107175738.442    20063521.929    83358902.893    20063521.196  
                                
  21816650.503   116499696.183    21816649.163    90610869.046    21816648.359  
                                
  22483892.758   120315851.200    22483890.149    93578984.903    22483889.327  
                                
  19817758.284   105788539.421    19817756.962    82279969.692    19817755.318  
                                
  25677077.620   134933953.905                                                  
  25677081.426   100762382.213  
  23743512.780   124773001.797                                                  
  23743517.479    93174662.238  
  24090691.028   126597435.845                                                  
  24090695.727    94537064.479  
  25077511.555   131783213.075                                                  
  25077515.254    98409556.087  
 21  8 31  8 18 37.0000000  0 20G 1G 7G 8G 9G13G14G17G19G21G30R 2R 3
                                R12R13R21R22E 1E 9E31E33
  22276417.784   117063365.008    22276417.230    91218203.072    22276416.908  
  22276418.534    87417450.878  
  20624682.638   108383438.605    20624678.814    84454609.356    20624678.224  
                                
  23946324.922   125838786.711    23946324.189    98056189.487    23946323.045  
  23946324.582    93970520.728  
  24641688.319   129492945.928    24641687.193   100903586.958    24641686.657  
  24641689.731    96699282.502  
  22919847.510   120444611.158                    93852923.800    22919842.704  
                                
  21237417.529   111603382.104    21237414.205    86963658.850    21237413.723  
  21237420.030    83340197.149  
  21377465.371   112339338.555    21377461.904    87537130.485    21377461.243  
                                
  23922883.337   125715600.060                    97960183.073    23922877.261  
                                
  22847395.698   120063874.477                    93556245.590    22847390.677  
                                
  20417633.983   107295390.383    20417632.446    83606787.717    20417631.588  
  20417634.304    80123182.201  
  22704177.195   121153840.014    22704176.873    94230762.680    22704176.087  
                                
  22594661.902   120950993.977    22594659.025    94072982.863    22594658.114  
                                
  20063467.482   107175441.428    20063466.338    83358671.882    20063465.588  
                                
  21816194.361   116497260.350    21816193.002    90608974.505    21816192.181  
                                
  22484519.728   120319206.356    22484517.155    93581594.462    22484516.315  
                                
  19817764.181   105788570.922    19817762.859    82279994.195    19817761.233  
                                
  25677315.278   134935202.754                                                  
  25677319.084   100763314.784  
  23743746.310   124774228.978                                                  
  23743750.992    93175578.637  
  24090615.924   126597041.129                                                  
  24090620.606    94536769.718  
  25077158.821   131781359.434                                                  
  25077162.538    98408171.874  
 21  8 31  8 18 38.0000000  0 20G 1G 7G 8G 9G13G14G17G19G21G30R 2R 3
                                R12R13R21R22E 1E 9E31E33
  22276043.714   117061399.297    22276043.160    91216671.343    22276042.856  
  22276044.500    87415982.968  
  20624900.729   108384584.651    20624896.887    84455502.379    20624896.316  
                                
  23946983.485   125842247.521    23946982.752    98058886.224    23946981.590  
  23946983.145    93973105.096  
  24642368.789   129496521.861    24642367.663   100906373.416    24642367.127  
  24642370.201    96701952.833  
  22919498.528   120442777.277                    93851494.797    22919493.739  
                                
  21237220.273   111602345.469    21237216.931    86962851.085    21237216.466  
  21237222.774    83339423.041  
  21377035.049   112337077.172    21377031.582    87535368.369    21377030.921  
                                
  23922197.899   125711997.922                    97957376.203    23922191.823  
                                
  22847466.620   120064247.135                    93556535.973    22847461.581  
                                
  20417471.232   107294535.141    20417469.695    83606121.295    20417468.837  
  20417471.553    80122543.547  
  22704793.658   121157129.453    22704793.319    94233321.130    22704792.532  
                                
  22594806.855   120951769.942    22594803.996    94073586.392    22594803.067  
                                
  20063411.927   107175144.625    20063410.765    83358441.031    20063410.033  
                                
  21815738.200   116494824.443    21815736.842    90607079.910    21815736.020  
                                
  22485146.824   120322561.975    22485144.233    93584204.383    22485143.411  
                                
  19817770.256   105788603.360    19817768.934    82280019.422    19817767.308  
                                
  25677552.936   134936451.593                                                  
  25677556.742   100764247.370  
  23743979.894   124775456.510                                                  
  23743984.576    93176495.301  
  24090540.803   126596646.422                                                  
  24090545.502    94536474.971  
  25076806.158   131779506.112                                                  
  25076809.857    98406787.898  
 21  8 31  8 18 39.0000000  0 20G 1G 7G 8G 9G13G14G17G19G21G30R 2R 3
                                R12R13R21R22E 1E 9E31E33
  22275669.876   117059434.807    22275669.322    91215140.567    22275669.018  
  22275670.662    87414515.977  
  20625119.071   108385731.947    20625115.229    84456396.374    20625114.639  
                                
  23947642.226   125845709.160    23947641.476    98061583.612    23947640.314  
  23947641.869    93975690.093  
  24643049.385   129500098.461    24643048.259   100909160.377    24643047.705  
  24643050.814    96704623.677  
  22919149.796   120440944.673                    93850066.794    22919145.008  
                                
  21237023.195   111601309.770    21237019.854    86962044.047    21237019.371  
  21237025.661    83338649.629  
  21376604.942   112334816.981    21376601.475    87533607.178    21376600.814  
                                
  23921512.604   125708396.676                    97954570.037    23921506.511  
                                
  22847537.775   120064621.089                    93556827.366    22847532.754  
                                
  20417308.713   107293681.096    20417307.176    83605455.806    20417306.319  
  20417309.035    80121905.786  
  22705410.282   121160419.896    22705409.943    94235880.361    22705409.157  
                                
  22594952.095   120952547.405    22594949.218    94074191.087    22594948.307  
                                
  20063356.551   107174848.801    20063355.389    83358210.948    20063354.657  
                                
  21815282.183   116492389.383    21815280.842    90605185.972    21815280.020  
                                
  22485774.151   120325918.876    22485771.543    93586815.306    22485770.721  
                                
  19817776.654   105788637.499    19817775.331    82280045.975    19817773.687  
                                
  25677790.737   134937701.222                                                  
  25677794.525   100765180.526  
  23744213.692   124776685.164                                                  
  23744218.374    93177412.804  
  24090465.842   126596252.519                                                  
  24090470.542    94536180.821  
  25076453.674   131777653.886                                                  
  25076457.408    98405404.742  
 21  8 31  8 18 40.0000000  0 20G 1G 7G 8G 9G13G14G17G19G21G30R 2R 3
                                R12R13R21R22E 1E 9E31E33
  22275296.270   117057471.391    22275295.716    91213610.630    22275295.395  
  22275297.039    87413049.792  
  20625337.591   108386880.326    20625333.749    84457291.214    20625333.177  
                                
  23948301.075   125849171.484    23948300.324    98064281.529    23948299.163  
  23948300.735    93978275.601  
  24643730.105   129503675.580    24643728.961   100911947.744    24643728.425  
  24643731.499    96707294.898  
  22918801.279   120439113.225                    93848639.692    22918796.508  
                                
  21236826.225   111600274.852    21236822.919    86961237.617    21236822.437  
  21236828.726    83337876.801  
  21376175.049   112332557.828    21376171.564    87531846.800    21376170.921  
                                
  23920827.434   125704796.178                    97951764.455    23920821.359  
                                
  22847609.180   120064996.205                    93557119.660    22847604.140  
                                
  20417146.409   107292828.075    20417144.854    83604791.114    20417143.978  
  20417146.730    80121268.794  
  22706027.067   121163711.161    22706026.728    94238440.237    22706025.942  
                                
  22595097.584   120953326.225    22595094.690    94074796.839    22595093.796  
                                
  20063301.336   107174553.827    20063300.174    83357981.524    20063299.441  
                                
  21814826.272   116489954.875    21814824.932    90603292.463    21814824.110  
                                
  22486401.658   120329276.909    22486399.085    93589427.107    22486398.245  
                                
  19817783.337   105788673.191    19817782.014    82280073.735    19817780.370  
                                
  25678028.645   134938951.470                                                  
  25678032.433   100766114.157  
  23744447.687   124777914.794                                                  
  23744452.387    93178331.035  
  24090391.007   126595859.242                                                  
  24090395.688    94535887.150  
  25076101.386   131775802.580                                                  
  25076105.085    98404022.282  
 21  8 31  8 18 41.0000000  0 20G 1G 7G 8G 9G13G14G17G19G21G30R 2R 3
                                R12R13R21R22E 1E 9E31E33
  22274922.665   117055508.157    22274922.111    91212080.840    22274921.807  
  22274923.451    87411583.736  
  20625556.147   108388028.892    20625552.323    84458186.201    20625551.716  
                                
  23948959.888   125852633.608    23948959.137    98066979.292    23948957.994  
  23948959.548    93980860.953  
  24644410.736   129507252.291    24644409.592   100914734.799    24644409.056  
  24644412.130    96709965.823  
  22918452.815   120437281.997                    93847212.765    22918448.026  
                                
  21236629.272   111599239.801    21236625.949    86960431.086    21236625.466  
  21236631.774    83337103.876  
  21375745.156   112330298.813    21375741.707    87530086.533    21375741.046  
                                
  23920142.282   125701195.546                    97948958.774    23920136.171  
                                
  22847680.584   120065371.554                    93557412.136    22847675.563  
                                
  20416984.104   107291975.207    20416982.568    83604126.544    20416981.692  
  20416984.426    80120631.910  
  22706643.835   121167002.352    22706643.495    94241000.052    22706642.709  
                                
  22595243.146   120954105.464    22595240.269    94075402.911    22595239.375  
                                
  20063246.102   107174258.785    20063244.941    83357752.046    20063244.190  
                                
  21814370.344   116487520.092    21814368.968    90601398.743    21814368.164  
                                
  22487029.236   120332635.200    22487026.663    93592039.107    22487025.823  
                                
  19817790.145   105788709.483    19817788.822    82280101.962    19817787.178  
                                
  25678266.517   134940201.449                                                  
  25678270.288   100767047.578  
  23744681.682   124779144.484                                                  
  23744686.381    93179249.309  
  24090316.135   126595465.715                                                  
  24090320.817    94535593.278  
  25075749.098   131773951.331                                                  
  25075752.815    98402639.854  
 21  8 31  8 18 42.0000000  0 20G 1G 7G 8G 9G13G14G17G19G21G30R 2R 3
                                R12R13R21R22E 1E 9E31E33
  22274549.166   117053545.343    22274548.594    91210551.374    22274548.291  
  22274549.935    87410118.000  
  20625774.793   108389177.864    20625770.969    84459081.499    20625770.379  
                                
  23949618.701   125856095.764    23949617.968    98069677.081    23949616.825  
  23949618.343    93983446.321  
  24645091.314   129510828.876    24645090.170   100917521.748    24645089.634  
  24645092.707    96712636.642  
  22918104.441   120435451.280                    93845786.237    22918099.634  
                                
  21236432.338   111598204.877    21236428.996    86959624.652    21236428.532  
  21236434.822    83336331.043  
  21375315.352   112328040.195    21375311.903    87528326.568    21375311.242  
                                
  23919457.112   125697595.010                    97946153.166    23919451.001  
                                
  22847752.114   120065747.398                    93557705.013    22847747.075  
                                
  20416821.871   107291122.697    20416820.335    83603462.250    20416819.477  
  20416822.193    80119995.304  
  22707260.620   121170293.716    22707260.280    94243560.001    22707259.512  
                                
  22595388.850   120954885.381    22595385.955    94076009.511    22595385.061  
                                
  20063190.905   107173963.915    20063189.744    83357522.705    20063188.993  
                                
  21813914.345   116485085.232    21813913.005    90599504.961    21813912.200  
                                
  22487656.903   120335993.936    22487654.330    93594651.456    22487653.490  
                                
  19817797.114   105788746.686    19817795.791    82280130.898    19817794.147  
                                
  25678504.354   134941451.380                                                  
  25678508.142   100767980.975  
  23744915.766   124780374.493                                                  
  23744920.448    93180167.818  
  24090241.229   126595072.152                                                  
  24090245.910    94535299.389  
  25075396.882   131772100.360                                                  
  25075400.581    98401257.635  
 21  8 31  8 18 43.0000000  0 20G 1G 7G 8G 9G13G14G17G19G21G30R 2R 3
                                R12R13R21R22E 1E 9E31E33
  22274175.793   117051583.198    22274175.221    91209022.427    22274174.917  
  22274176.544    87408652.764  
  20625993.563   108390327.501    20625989.739    84459977.318    20625989.131  
                                
  23950277.585   125859558.163    23950276.835    98072375.057    23950275.691  
  23950277.246    93986031.894  
  24645771.945   129514405.564    24645770.801   100920308.780    24645770.265  
  24645773.338    96715307.543  
  22917756.173   120433621.258                    93844360.244    22917751.402  
                                
  21236235.457   111597170.320    21236232.133    86958818.503    21236231.651  
  21236237.959    83335558.481  
  21374885.673   112325782.181    21374882.207    87526567.075    21374881.564  
                                
  23918771.996   125693994.788                    97943347.794    23918765.921  
                                
  22847823.786   120066123.970                    93557998.446    22847818.747  
                                
  20416659.782   107290270.844    20416658.245    83602798.467    20416657.351  
  20416660.103    80119359.172  
  22707877.512   121173585.521    22707877.172    94246120.296    22707876.386  
                                
  22595534.714   120955666.225    22595531.837    94076616.834    22595530.926  
                                
  20063135.779   107173669.454    20063134.618    83357293.678    20063133.885  
                                
  21813458.434   116482650.586    21813457.076    90597611.345    21813456.254  
                                
  22488284.696   120339353.370    22488282.105    93597264.348    22488281.283  
                                
  19817804.261   105788784.960    19817802.957    82280160.673    19817801.331  
                                
  25678742.262   134942701.528                                                  
  25678746.050   100768914.523  
  23745149.922   124781605.048                                                  
  23745154.603    93181086.744  
  24090166.393   126594678.836                                                  
  24090171.075    94535005.679  
  25075044.755   131770249.920                                                  
  25075048.454    98399875.811  
 21  8 31  8 18 44.0000000  0 20G 1G 7G 8G 9G13G14G17G19G21G30R 2R 3
                                R12R13R21R22E 1E 9E31E33
  22273802.420   117049621.143    22273801.866    91207493.551    22273801.544  
  22273803.188    87407187.600  
  20626212.351   108391477.245    20626208.527    84460873.222    20626207.938  
                                
  23950936.398   125863020.302    23950935.648    98075072.832    23950934.504  
  23950936.041    93988617.262  
  24646452.469   129517981.779    24646451.325   100923095.446    24646450.789  
  24646453.862    96717978.100  
  22917407.960   120431791.418                    93842934.399    22917403.189  
                                
  21236038.558   111596135.548    21236035.217    86958012.185    21236034.734  
  21236041.042    83334785.767  
  21374455.995   112323524.228    21374452.546    87524807.633    21374451.885  
                                
  23918086.880   125690394.340                    97940542.250    23918080.769  
                                
  22847895.459   120066500.726                    93558292.025    22847890.420  
                                
  20416497.674   107289419.035    20416496.137    83602134.720    20416495.261  
  20416497.995    80118723.085  
  22708494.368   121176877.165    22708494.029    94248680.462    22708493.243  
                                
  22595680.651   120956447.407    22595677.774    94077224.422    22595676.862  
                                
  20063080.617   107173374.853    20063079.456    83357064.548    20063078.723  
                                
  21813002.435   116480215.532    21813001.059    90595717.424    21813000.255  
                                
  22488912.506   120342712.922    22488909.915    93599877.339    22488909.075  
                                
  19817811.552   105788823.806    19817810.229    82280190.887    19817808.586  
                                
  25678980.081   134943951.324                                                  
  25678983.869   100769847.817  
  23745384.095   124782835.603                                                  
  23745388.777    93182005.665  
  24090091.468   126594285.165                                                  
  24090096.150    94534711.702  
  25074692.592   131768399.430                                                  
  25074696.309    98398493.963  
 21  8 31  8 18 45.0000000  0 20G 1G 7G 8G 9G13G14G17G19G21G30R 2R 3
                                R12R13R21R22E 1E 9E31E33
  22273429.136   117047659.506    22273428.564    91205965.009    22273428.260  
  22273429.886    87405722.737  
  20626431.211   108392627.414    20626427.405    84461769.458    20626426.797  
                                
  23951595.211   125866482.449    23951594.479    98077770.614    23951593.335  
  23951594.854    93991202.634  
  24647132.975   129521557.856    24647131.831   100925881.986    24647131.313  
  24647134.404    96720648.543  
  22917059.853   120429962.051                    93841508.916    22917055.082  
                                
  21235841.660   111595100.897    21235838.318    86957205.968    21235837.853  
  21235844.143    83334013.122  
  21374026.406   112321266.660    21374022.939    87523048.492    21374022.278  
                                
  23917401.746   125686793.974                    97937736.770    23917395.653  
                                
  22847967.257   120066877.973                    93558585.979    22847962.218  
                                
  20416335.637   107288567.596    20416334.101    83601471.263    20416333.243  
  20416335.959    80118087.261  
  22709111.243   121180168.975    22709110.903    94251240.763    22709110.135  
                                
  22595826.694   120957229.261    22595823.817    94077832.528    22595822.924  
                                
  20063025.509   107173080.410    20063024.348    83356835.537    20063023.597  
                                
  21812546.399   116477780.418    21812545.041    90593823.444    21812544.219  
                                
  22489540.405   120346072.948    22489537.814    93602490.693    22489536.975  
                                
  19817819.003   105788863.501    19817817.681    82280221.766    19817816.037  
                                
  25679217.918   134945201.077                                                  
  25679221.706   100770781.064  
  23745618.305   124784066.466                                                  
  23745623.004    93182924.803  
  24090016.543   126593891.477                                                  
  24090021.243    94534417.707  
  25074340.537   131766549.214                                                  
  25074344.235    98397112.303  
 21  8 31  8 18 46.0000000  0 20G 1G 7G 8G 9G13G14G17G19G21G30R 2R 3
                                R12R13R21R22E 1E 9E31E33
  22273055.798   117045697.665    22273055.227    91204436.307    22273054.923  
  22273056.567    87404257.717  
  20626650.053   108393777.368    20626646.229    84462665.524    20626645.639  
                                
  23952253.917   125869943.992    23952253.184    98080467.922    23952252.023  
  23952253.560    93993787.548  
  24647813.338   129525133.133    24647812.230   100928667.897    24647811.694  
  24647814.767    96723318.403  
  22916711.729   120428132.551                    93840083.332    22916706.940  
                                
  21235644.689   111594065.726    21235641.348    86956399.342    21235640.865  
  21235647.155    83333240.112  
  21373596.745   112319008.846    21373593.279    87521289.158    21373592.635  
                                
  23916716.522   125683193.080                    97934930.874    23916710.429  
                                
  22848039.019   120067255.076                    93558879.821    22848033.980  
                                
  20416173.583   107287715.905    20416172.029    83600807.610    20416171.171  
  20416173.887    80117451.263  
  22709728.046   121183460.315    22709727.706    94253800.687    22709726.920  
                                
  22595972.756   120958011.112    22595969.897    94078440.639    22595968.967  
                                
  20062970.276   107172785.484    20062969.115    83356606.150    20062968.382  
                                
  21812090.257   116475344.636    21812088.899    90591928.954    21812088.077  
                                
  22490168.251   120349432.772    22490165.678    93605103.892    22490164.856  
                                
  19817826.455   105788903.400    19817825.150    82280252.793    19817823.524  
                                
  25679455.611   134946450.163                                                  
  25679459.400   100771713.823  
  23745852.478   124785296.989                                                  
  23745857.160    93183843.715  
  24089941.511   126593497.131                                                  
  24089946.193    94534123.237  
  25073988.374   131764698.663                                                  
  25073992.073    98395730.394  
 21  8 31  8 18 47.0000000  0 20G 1G 7G 8G 9G13G14G17G19G21G30R 2R 3
                                R12R13R21R22E 1E 9E31E33
  22272682.407   117043735.470    22272681.836    91202907.322    22272681.532  
  22272683.176    87402792.444  
  20626868.823   108394926.991    20626864.999    84463561.332    20626864.392  
                                
  23952912.498   125873404.778    23952911.729    98083164.645    23952910.586  
  23952912.140    93996371.921  
  24648493.540   129528707.511    24648492.396   100931453.134    24648491.860  
  24648494.934    96725987.580  
  22916363.533   120426302.758                    93838657.521    22916358.744  
                                
  21235447.558   111593029.910    21235444.252    86955592.214    21235443.770  
  21235450.042    83332466.615  
  21373167.013   112316750.644    21373163.564    87519529.520    21373162.921  
                                
  23916031.156   125679591.526                    97932124.466    23916025.081  
                                
  22848110.727   120067631.909                    93559173.462    22848105.688  
                                
  20416011.440   107286863.823    20416009.903    83600143.650    20416009.010  
  20416011.761    80116814.972  
  22710344.724   121186751.035    22710344.384    94256360.139    22710343.598  
                                
  22596118.799   120958792.879    22596115.922    94079048.676    22596115.011  
                                
  20062914.972   107172489.946    20062913.810    83356376.285    20062913.060  
                                
  21811633.954   116472908.008    21811632.596    90590033.798    21811631.774  
                                
  22490796.062   120352792.248    22490793.471    93607716.816    22490792.649  
                                
  19817833.960   105788943.408    19817832.637    82280283.908    19817831.011  
                                
  25679693.144   134947698.445                                                  
  25679696.933   100772645.987  
  23746086.562   124786527.069                                                  
  23746091.226    93184762.285  
  24089866.319   126593101.999                                                  
  24089871.018    94533828.172  
  25073636.122   131762847.618                                                  
  25073639.839    98394348.116  
 21  8 31  8 18 48.0000000  0 20G 1G 7G 8G 9G13G14G17G19G21G30R 2R 3
                                R12R13R21R22E 1E 9E31E33
  22272309.159   117041774.026    22272308.587    91201378.921    22272308.284  
  22272309.928    87401327.738  
  20627087.719   108396077.333    20627083.913    84464457.704    20627083.305  
                                
  23953571.114   125876865.957    23953570.382    98085861.668    23953569.220  
  23953570.757    93998956.541  
  24649173.742   129532282.109    24649172.616   100934238.542    24649172.080  
  24649175.154    96728656.916  
  22916015.480   120424473.799                    93837232.358    22916010.692  
                                
  21235250.552   111591994.546    21235247.211    86954785.432    21235246.728  
  21235253.036    83331693.455  
  21372737.442   112314493.123    21372733.975    87517770.415    21372733.314  
                                
  23915345.879   125675990.374                    97929318.378    23915339.804  
                                
  22848182.596   120068009.564                    93559467.740    22848177.557  
                                
  20415849.421   107286012.466    20415847.885    83599480.253    20415847.027  
  20415849.743    80116179.214  
  22710961.491   121190042.256    22710961.151    94258919.975    22710960.383  
                                
  22596265.039   120959575.711    22596262.180    94079657.543    22596261.251  
                                
  20062859.721   107172194.891    20062858.559    83356146.798    20062857.826  
                                
  21811177.686   116470471.597    21811176.328    90588138.814    21811175.506  
                                
  22491424.015   120356152.514    22491421.406    93610330.356    22491420.602  
                                
  19817841.697   105788984.621    19817840.375    82280315.958    19817838.731  
                                
  25679930.731   134948947.026                                                  
  25679934.537   100773578.369  
  23746320.736   124787757.797                                                  
  23746325.435    93185681.331  
  24089791.197   126592707.186                                                  
  24089795.879    94533533.338  
  25073283.995   131760997.187                                                  
  25073287.712    98392966.310  
 21  8 31  8 18 49.0000000  0 20G 1G 7G 8G 9G13G14G17G19G21G30R 2R 3
                                R12R13R21R22E 1E 9E31E33
  22271936.072   117039813.510    22271935.518    91199851.244    22271935.196  
  22271936.858    87399863.713  
  20627306.811   108397228.617    20627302.969    84465354.809    20627302.397  
                                
  23954229.856   125880327.623    23954229.105    98088559.074    23954227.944  
  23954229.498    94001541.567  
  24649853.998   129535857.036    24649852.872   100937024.224    24649852.354  
  24649855.410    96731326.487  
  22915667.624   120422645.802                    93835807.945    22915662.835  
                                
  21235053.653   111590959.797    21235050.312    86953979.137    21235049.830  
  21235056.137    83330920.751  
  21372308.013   112312236.488    21372304.547    87516011.996    21372303.886  
                                
  23914660.727   125672389.829                    97926512.752    23914654.634  
                                
  22848254.644   120068388.219                    93559762.796    22848249.605  
                                
  20415687.582   107285161.978    20415686.045    83598817.539    20415685.169  
  20415687.885    80115544.116  
  22711578.401   121193334.147    22711578.062    94261480.335    22711577.275  
                                
  22596411.494   120960359.688    22596408.635    94080267.300    22596407.706  
                                
  20062804.612   107171900.526    20062803.469    83355917.847    20062802.700  
                                
  21810721.508   116468035.636    21810720.150    90586244.183    21810719.328  
                                
  22492052.129   120359513.766    22492049.556    93612944.660    22492048.716  
                                
  19817849.649   105789027.199    19817848.326    82280349.074    19817846.718  
                                
  25680168.425   134950196.077                                                  
  25680172.231   100774511.097  
  23746555.088   124788989.332                                                  
  23746559.806    93186600.973  
  24089716.129   126592312.838                                                  
  24089720.829    94533238.866  
  25072932.029   131759147.534                                                  
  25072935.745    98391585.073  
 21  8 31  8 18 50.0000000  0 20G 1G 7G 8G 9G13G14G17G19G21G30R 2R 3
                                R12R13R21R22E 1E 9E31E33
  22271563.253   117037854.240    22271562.681    91198324.538    22271562.377  
  22271564.021    87398400.625  
  20627526.118   108398381.163    20627522.311    84466252.896    20627521.704  
                                
  23954888.758   125883790.149    23954888.008    98091257.146    23954886.864  
  23954888.383    94004127.221  
  24650534.415   129539432.641    24650533.271   100939810.428    24650532.735  
  24650535.790    96733996.597  
  22915320.018   120420819.111                    93834384.547    22915315.247  
                                
  21234856.916   111589925.991    21234853.574    86953173.576    21234853.092  
  21234859.399    83330148.758  
  21371878.817   112309981.071    21371875.369    87514254.531    21371874.707  
                                
  23913975.754   125668790.191                    97923707.832    23913969.660  
                                
  22848326.960   120068768.189                    93560058.879    22848321.903  
                                
  20415525.974   107284312.693    20415524.437    83598155.756    20415523.544  
  20415526.296    80114909.907  
  22712195.490   121196627.037    22712195.150    94264041.464    22712194.364  
                                
  22596558.234   120961145.141    22596555.357    94080878.199    22596554.446  
                                
  20062749.701   107171607.181    20062748.557    83355689.688    20062747.807  
                                
  21810265.490   116465600.478    21810264.132    90584350.173    21810263.310  
                                
  22492680.511   120362876.362    22492677.938    93615560.013    22492677.116  
                                
  19817857.958   105789071.503    19817856.635    82280383.531    19817855.009  
                                
  25680406.261   134951445.906                                                  
  25680410.049   100775444.415  
  23746789.655   124790221.991                                                  
  23746794.336    93187521.478  
  24089641.258   126591919.310                                                  
  24089645.940    94532944.996  
  25072580.277   131757298.999                                                  
  25072583.976    98390204.669  
 21  8 31  8 18 51.0000000  0 20G 1G 7G 8G 9G13G14G17G19G21G30R 2R 3
                                R12R13R21R22E 1E 9E31E33
  22271190.683   117035896.350    22271190.112    91196798.907    22271189.808  
  22271191.452    87396938.564  
  20627745.710   108399535.067    20627741.868    84467152.040    20627741.296  
                                
  23955547.821   125887253.646    23955547.089    98093955.978    23955545.927  
  23955547.464    94006713.610  
  24651214.974   129543009.044    24651213.848   100942597.234    24651213.294  
  24651216.368    96736667.305  
  22914972.698   120418993.869                    93832962.276    22914967.909  
                                
  21234660.392   111588893.274    21234657.051    86952368.862    21234656.568  
  21234662.876    83329377.568  
  21371449.889   112307726.995    21371446.423    87512498.108    21371445.779  
                                
  23913290.959   125665191.606                    97920903.743    23913284.866  
                                
  22848399.544   120069149.624                    93560356.103    22848394.505  
                                
  20415364.617   107283464.767    20415363.080    83597495.034    20415362.187  
  20415364.939    80114276.713  
  22712812.793   121199921.076    22712812.454    94266603.497    22712811.685  
                                
  22596705.278   120961932.247    22596702.384    94081490.388    22596701.490  
                                
  20062694.986   107171314.975    20062693.860    83355462.416    20062693.092  
                                
  21809809.634   116463166.232    21809808.258    90582456.871    21809807.454  
                                
  22493309.161   120366240.381    22493306.570    93618176.472    22493305.748  
                                
  19817866.624   105789117.672    19817865.302    82280419.445    19817863.658  
                                
  25680644.277   134952696.673                                                  
  25680648.065   100776378.428  
  23747024.472   124791455.939                                                  
  23747029.153    93188442.928  
  24089566.548   126591526.722                                                  
  24089571.230    94532651.830  
  25072228.722   131755451.696                                                  
  25072232.439    98388825.200  
 21  8 31  8 18 52.0000000  0 20G 1G 7G 8G 9G13G14G17G19G21G30R 2R 3
                                R12R13R21R22E 1E 9E31E33
  22270818.096   117033938.383    22270817.507    91195273.227    22270817.185  
  22270818.847    87395476.450  
  20627965.285   108400688.907    20627961.443    84468051.139    20627960.871  
                                
  23956206.831   125890716.691    23956206.080    98096654.461    23956204.919  
  23956206.456    94009299.648  
  24651895.427   129546584.840    24651894.265   100945383.581    24651893.747  
  24651896.802    96739337.526  
  22914625.360   120417168.639                    93831540.021    22914620.589  
                                
  21234463.797   111587860.166    21234460.456    86951563.842    21234459.991  
  21234466.281    83328606.096  
  21371020.925   112305472.816    21371017.477    87510741.605    21371016.833  
                                
  23912606.093   125661592.646                    97918099.358    23912600.018  
                                
  22848472.146   120069531.046                    93560653.311    22848467.071  
                                
  20415203.242   107282616.708    20415201.687    83596834.209    20415200.812  
  20415203.546    80113643.423  
  22713430.043   121203214.785    22713429.685    94269165.270    22713428.899  
                                
  22596852.340   120962719.497    22596849.463    94082102.693    22596848.534  
                                
  20062640.235   107171022.423    20062639.074    83355234.876    20062638.341  
                                
  21809353.670   116460731.383    21809352.276    90580563.100    21809351.454  
                                
  22493937.811   120369604.322    22493935.202    93620792.873    22493934.380  
                                
  19817875.326   105789164.209    19817874.004    82280455.636    19817872.378  
                                
  25680882.185   134953946.910                                                  
  25680885.991   100777312.039  
  23747259.253   124792689.692                                                  
  23747263.934    93189364.240  
  24089491.748   126591133.621                                                  
  24089496.430    94532358.275  
  25071877.167   131753604.182                                                  
  25071880.866    98387445.559  
 21  8 31  8 18 53.0000000  0 20G 1G 7G 8G 9G13G14G17G19G21G30R 2R 3
                                R12R13R21R22E 1E 9E31E33
  22270445.563   117031980.821    22270445.009    91193747.855    22270444.687  
  22270446.349    87394014.634  
  20628184.931   108401843.146    20628181.089    84468950.548    20628180.517  
                                
  23956865.823   125894179.740    23956865.072    98099352.941    23956863.928  
  23956865.447    94011885.691  
  24652575.861   129550160.465    24652574.717   100948169.765    24652574.181  
  24652577.237    96742007.628  
  22914278.111   120415343.864                    93830118.121    22914273.340  
                                
  21234267.238   111586827.161    21234263.896    86950758.899    21234263.414  
  21234269.722    83327834.694  
  21370592.051   112303219.004    21370588.584    87508985.388    21370587.941  
                                
  23911921.245   125657993.730                    97915295.015    23911915.152  
                                
  22848544.819   120069912.941                    93560950.887    22848539.762  
                                
  20415041.920   107281769.019    20415040.383    83596173.675    20415039.508  
  20415042.224    80113010.404  
  22714047.310   121206508.649    22714046.971    94271727.160    22714046.167  
                                
  22596999.528   120963507.437    22596996.651    94082715.531    22596995.757  
                                
  20062585.502   107170730.014    20062584.341    83355007.445    20062583.591  
                                
  21808897.688   116458296.454    21808896.294    90578669.268    21808895.472  
                                
  22494566.497   120372968.678    22494563.924    93623409.597    22494563.084  
                                
  19817884.207   105789211.589    19817882.885    82280492.489    19817881.241  
                                
  25681120.075   134955197.084                                                  
  25681123.881   100778245.620  
  23747494.087   124793923.734                                                  
  23747498.769    93190285.760  
  24089416.930   126590740.472                                                  
  24089421.612    94532064.692  
  25071525.629   131751756.929                                                  
  25071529.328    98386066.123  
 21  8 31  8 18 54.0000000  0 20G 1G 7G 8G 9G13G14G17G19G21G30R 2R 3
                                R12R13R21R22E 1E 9E31E33
  22270072.940   117030022.552    22270072.351    91192221.931    22270072.029  
  22270073.691    87392552.284  
  20628404.434   108402996.689    20628400.610    84469849.410    20628400.020  
                                
  23957524.618   125897641.699    23957523.849    98102050.574    23957522.724  
  23957524.242    94014470.914  
  24653256.045   129553734.799    24653254.884   100950954.958    24653254.366  
  24653257.421    96744676.778  
  22913930.755   120413518.432                    93828695.708    22913925.966  
                                
  21234070.464   111585793.129    21234067.123    86949953.160    21234066.640  
  21234072.948    83327062.529  
  21370162.998   112300964.421    21370159.549    87507228.572    21370158.906  
                                
  23911236.200   125654393.778                    97912489.848    23911230.125  
                                
  22848617.350   120070294.205                    93561247.976    22848612.311  
                                
  20414880.474   107280920.565    20414878.937    83595512.537    20414878.043  
  20414880.777    80112376.820  
  22714664.399   121209801.568    22714664.060    94274288.317    22714663.273  
                                
  22597146.625   120964294.881    22597143.766    94083327.982    22597142.837  
                                
  20062530.573   107170436.630    20062529.412    83354779.257    20062528.679  
                                
  21808441.474   116455860.342    21808440.098    90576774.516    21808439.276  
                                
  22495195.076   120376332.371    22495192.502    93626025.798    22495191.681  
                                
  19817893.035   105789258.692    19817891.712    82280529.125    19817890.068  
                                
  25681357.751   134956446.083                                                  
  25681361.575   100779178.307  
  23747728.743   124795156.950                                                  
  23747733.443    93191206.673  
  24089341.898   126590346.173                                                  
  24089346.580    94531770.248  
  25071173.967   131749908.822                                                  
  25071177.666    98384686.033  
 21  8 31  8 18 55.0000000  0 20G 1G 7G 8G 9G13G14G17G19G21G30R 2R 3
                                R12R13R21R22E 1E 9E31E33
  22269700.389   117028064.844    22269699.817    91190696.444    22269699.513  
  22269701.157    87391090.363  
  20628624.044   108404150.784    20628620.220    84470748.708    20628619.630  
                                
  23958183.449   125901103.855    23958182.680    98104748.360    23958181.519  
  23958183.038    94017056.303  
  24653936.212   129557309.157    24653935.050   100953740.188    24653934.532  
  24653937.570    96747345.934  
  22913583.506   120411693.633                    93827273.788    22913578.718  
                                
  21233873.744   111584759.390    21233870.403    86949147.649    21233869.938  
  21233876.228    83326290.573  
  21369734.088   112298710.392    21369730.621    87505472.183    21369729.978  
                                
  23910551.191   125650794.082                    97909684.897    23910545.116  
                                
  22848690.023   120070676.092                    93561545.538    22848684.984  
                                
  20414719.116   107280072.653    20414717.580    83594851.826    20414716.686  
  20414719.438    80111743.637  
  22715281.542   121213094.815    22715281.202    94276849.729    22715280.434  
                                
  22597293.902   120965083.165    22597291.025    94083941.092    22597290.114  
                                
  20062475.715   107170143.586    20062474.554    83354551.332    20062473.821  
                                
  21807985.296   116453424.333    21807983.920    90574879.846    21807983.098  
                                
  22495823.797   120379696.707    22495821.206    93628642.503    22495820.384  
                                
  19817902.041   105789306.820    19817900.718    82280566.558    19817899.092  
                                
  25681595.463   134957695.204                                                  
  25681599.269   100780111.097  
  23747963.524   124796390.636                                                  
  23747968.206    93192127.927  
  24089266.902   126589952.006                                                  
  24089271.584    94531475.903  
  25070822.340   131748061.147                                                  
  25070826.075    98383306.282  
 21  8 31  8 18 56.0000000  0 20G 1G 7G 8G 9G13G14G17G19G21G30R 2R 3
                                R12R13R21R22E 1E 9E31E33
  22269327.981   117026107.807    22269327.409    91189171.476    22269327.105  
  22269328.749    87389628.936  
  20628843.797   108405305.548    20628839.955    84471648.526    20628839.384  
                                
  23958842.315   125904566.270    23958841.547    98107446.347    23958840.403  
  23958841.940    94019641.875  
  24654616.414   129560883.579    24654615.271   100956525.422    24654614.734  
  24654617.790    96750015.148  
  22913236.383   120409869.563                    93825852.431    22913231.612  
                                
  21233677.113   111583725.980    21233673.772    86948342.394    21233673.289  
  21233679.561    83325518.879  
  21369305.267   112296456.970    21369301.818    87503716.270    21369301.157  
                                
  23909866.254   125647194.711                    97906880.190    23909860.160  
                                
  22848762.839   120071058.720                    93561843.688    22848757.800  
                                
  20414557.884   107279225.354    20414556.347    83594191.592    20414555.454  
  20414558.206    80111110.910  
  22715898.791   121216388.467    22715898.434    94279411.451    22715897.648  
                                
  22597441.321   120965872.348    22597438.444    94084554.899    22597437.551  
                                
  20062420.947   107169850.948    20062419.785    83354323.722    20062419.035  
                                
  21807529.135   116450988.495    21807527.759    90572985.305    21807526.955  
                                
  22496452.644   120383061.726    22496450.035    93631259.741    22496449.213  
                                
  19817911.261   105789356.036    19817909.939    82280604.837    19817908.313  
                                
  25681833.210   134958944.534                                                  
  25681836.998   100781044.027  
  23748198.395   124797624.877                                                  
  23748203.059    93193049.594  
  24089191.924   126589558.054                                                  
  24089196.623    94531181.716  
  25070470.857   131746214.003                                                  
  25070474.556    98381926.912  
 21  8 31  8 18 57.0000000  0 20G 1G 7G 8G 9G13G14G17G19G21G30R 2R 3
                                R12R13R21R22E 1E 9E31E33
  22268955.680   117024151.434    22268955.126    91187647.031    22268954.804  
  22268956.466    87388168.023  
  20629063.676   108406460.996    20629059.834    84472548.875    20629059.244  
                                
  23959501.235   125908028.983    23959500.485    98110144.564    23959499.341  
  23959500.860    94022227.672  
  24655296.634   129564458.140    24655295.508   100959310.787    24655294.955  
  24655298.028    96752684.456  
  22912889.438   120408046.243                    93824431.654    22912884.649  
                                
  21233480.536   111582692.972    21233477.195    86947537.451    21233476.712  
  21233483.002    83324747.475  
  21368876.589   112294204.211    21368873.140    87501960.872    21368872.479  
                                
  23909181.406   125643595.689                    97904075.752    23909175.294  
                                
  22848835.799   120071442.109                    93562142.432    22848830.760  
                                
  20414396.777   107278378.698    20414395.222    83593531.862    20414394.347  
  20414397.081    80110478.673  
  22716516.095   121219682.534    22716515.755    94281973.501    22716514.969  
                                
  22597588.919   120966662.453    22597586.060    94085169.423    22597585.149  
                                
  20062366.250   107169558.739    20062365.088    83354096.448    20062364.338  
                                
  21807073.011   116448552.838    21807071.652    90571090.905    21807070.831  
                                
  22497081.598   120386427.457    22497079.025    93633877.529    22497078.185  
                                
  19817920.696   105789406.412    19817919.373    82280644.016    19817917.747  
                                
  25682070.975   134960194.089                                                  
  25682074.799   100781977.143  
  23748433.355   124798859.672                                                  
  23748438.054    93193971.690  
  24089116.999   126589164.350                                                  
  24089121.681    94530887.721  
  25070119.444   131744367.387                                                  
  25070123.161    98380547.958  
 21  8 31  8 18 58.0000000  0 20G 1G 7G 8G 9G13G14G17G19G21G30R 2R 3
                                R12R13R21R22E 1E 9E31E33
  22268583.557   117022195.832    22268582.985    91186123.186    22268582.664  
  22268584.326    87386707.647  
  20629283.679   108407617.201    20629279.855    84473449.812    20629279.265  
                                
  23960160.227   125911492.011    23960159.477    98112843.034    23960158.333  
  23960159.852    94024813.703  
  24655976.872   129568032.870    24655975.729   100962096.305    24655975.210  
  24655978.248    96755353.889  
  22912542.618   120406223.716                    93823011.503    22912537.847  
                                
  21233284.031   111581660.389    21233280.689    86946732.843    21233280.207  
  21233286.514    83323976.384  
  21368448.036   112291952.148    21368444.588    87500206.017    21368443.944  
                                
  23908496.593   125639997.078                    97901271.640    23908490.518  
                                
  22848908.919   120071826.281                    93562441.782    22848903.880  
                                
  20414235.795   107277532.735    20414234.258    83592872.665    20414233.365  
  20414236.099    80109846.945  
  22717133.487   121222977.041    22717133.148    94284535.895    22717132.379  
                                
  22597736.714   120967453.555    22597733.837    94085784.722    22597732.926  
                                
  20062311.624   107169267.022    20062310.462    83353869.560    20062309.730  
                                
  21806616.939   116446117.426    21806615.564    90569196.696    21806614.742  
                                
  22497710.712   120389793.953    22497708.121    93636495.917    22497707.299  
                                
  19817930.345   105789457.926    19817929.023    82280684.085    19817927.397  
                                
  25682308.812   134961443.915                                                  
  25682312.636   100782910.452  
  23748668.457   124800095.104                                                  
  23748673.121    93194894.244  
  24089042.146   126588770.929                                                  
  24089046.827    94530593.934  
  25069768.175   131742521.387                                                  
  25069771.892    98379169.439  
 21  8 31  8 18 59.0000000  0 20G 1G 7G 8G 9G13G14G17G19G21G30R 2R 3
                                R12R13R21R22E 1E 9E31E33
  22268211.631   117020241.369    22268211.042    91184600.225    22268210.738  
  22268212.418    87385248.154  
  20629503.933   108408774.545    20629500.091    84474351.638    20629499.501  
                                
  23960819.362   125914955.802    23960818.593    98115542.094    23960817.468  
  23960818.987    94027400.313  
  24656657.235   129571608.167    24656656.092   100964882.246    24656655.573  
  24656658.611    96758023.771  
  22912196.030   120404402.430                    93821592.323    22912191.259  
                                
  21233087.686   111580628.652    21233084.344    86945928.887    21233083.897  
  21233090.169    83323205.944  
  21368019.680   112289701.192    21368016.231    87498452.025    21368015.570  
                                
  23907811.959   125636399.297                    97898468.182    23907805.866  
                                
  22848982.271   120072211.712                    93562742.109    22848977.214  
                                
  20414075.027   107276687.893    20414073.473    83592214.346    20414072.597  
  20414075.331    80109216.061  
  22717751.058   121226272.475    22717750.701    94287099.008    22717749.915  
                                
  22597884.759   120968246.087    22597881.882    94086401.136    22597880.989  
                                
  20062257.195   107168976.212    20062256.033    83353643.374    20062255.283  
                                
  21806160.993   116443682.775    21806159.618    90567303.076    21806158.813  
                                
  22498340.059   120393161.683    22498337.451    93639115.265    22498336.629  
                                
  19817940.298   105789511.116    19817938.994    82280725.455    19817937.350  
                                
  25682546.792   134962694.456                                                  
  25682550.580   100783844.307  
  23748903.757   124801331.590                                                  
  23748908.438    93195817.601  
  24088967.399   126588378.241                                                  
  24088972.081    94530300.693  
  25069417.085   131740676.396                                                  
  25069420.784    98377791.699  
 21  8 31  8 19  0.0000000  0 20G 1G 7G 8G 9G13G14G17G19G21G30R 2R 3
                                R12R13R21R22E 1E 9E31E33
  22267839.723   117018287.012    22267839.169    91183077.352    22267838.848  
  22267840.510    87383788.736  
  20629724.186   108409932.006    20629720.362    84475253.555    20629719.755  
                                
  23961478.479   125918419.355    23961477.692    98118240.968    23961476.549  
  23961478.068    94029986.717  
  24657337.527   129575183.053    24657336.365   100967667.874    24657335.847  
  24657338.903    96760693.315  
  22911849.496   120402581.329                    93820173.281    22911844.708  
                                
  21232891.341   111579596.750    21232887.999    86945124.810    21232887.517  
  21232893.807    83322435.359  
  21367591.360   112287450.329    21367587.893    87496698.106    21367587.250  
                                
  23907127.272   125632801.323                    97895664.568    23907121.197  
                                
  22849055.659   120072597.322                    93563042.582    22849050.620  
                                
  20413914.278   107275843.133    20413912.723    83591556.092    20413911.847  
  20413914.581    80108585.222  
  22718368.576   121229567.742    22718368.237    94289661.996    22718367.468  
                                
  22598032.875   120969038.968    22598030.016    94087017.821    22598029.087  
                                
  20062202.712   107168685.256    20062201.569    83353417.075    20062200.836  
                                
  21805704.994   116441247.673    21805703.618    90565409.105    21805702.796  
                                
  22498969.406   120396529.557    22498966.815    93641734.722    22498965.993  
                                
  19817950.376   105789564.887    19817949.072    82280767.276    19817947.428  
                                
  25682784.700   134963944.655                                                  
  25682788.506   100784777.885  
  23749139.038   124802568.067                                                  
  23749143.720    93196740.944  
  24088892.618   126587985.225                                                  
  24088897.299    94530007.205  
  25069065.976   131738831.379                                                  
  25069069.693    98376413.927  
 21  8 31  8 19  1.0000000  0 20G 1G 7G 8G 9G13G14G17G19G21G30R 2R 3
                                R12R13R21R22E 1E 9E31E33
  22267467.941   117016333.160    22267467.351    91181554.869    22267467.029  
  22267468.709    87382329.699  
  20629944.529   108411089.968    20629940.705    84476155.862    20629940.115  
                                
  23962137.560   125921882.934    23962136.809    98120939.864    23962135.648  
  23962137.166    94032573.176  
  24658017.765   129578757.839    24658016.621   100970453.417    24658016.103  
  24658019.176    96763362.805  
  22911503.070   120400760.774                    93818754.667    22911498.281  
                                
  21232694.996   111578565.016    21232691.655    86944320.862    21232691.190  
  21232697.480    83321664.913  
  21367163.111   112285199.898    21367159.662    87494944.525    21367159.019  
                                
  23906442.656   125629203.496                    97892861.066    23906436.545  
                                
  22849129.136   120072983.469                    93563343.476    22849124.097  
                                
  20413753.599   107274998.798    20413752.045    83590898.169    20413751.187  
  20413753.903    80107954.726  
  22718986.147   121232863.236    22718985.808    94292225.158    22718985.040  
                                
  22598181.135   120969832.600    22598178.258    94087635.090    22598177.346  
                                
  20062148.301   107168394.569    20062147.157    83353190.985    20062146.425  
                                
  21805248.976   116438812.589    21805247.601    90563515.153    21805246.796  
                                
  22499598.878   120399897.956    22499596.287    93644354.590    22499595.465  
                                
  19817960.615   105789619.546    19817959.293    82280809.794    19817957.667  
                                
  25683022.590   134965194.891                                                  
  25683026.414   100785711.504  
  23749374.409   124803804.928                                                  
  23749379.091    93197664.572  
  24088817.854   126587592.252                                                  
  24088822.517    94529713.753  
  25068714.939   131736986.721                                                  
  25068718.656    98375036.422  
 21  8 31  8 19  2.0000000  0 20G 1G 7G 8G 9G13G14G17G19G21G30R 2R 3
                                R12R13R21R22E 1E 9E31E33
  22267096.372   117014380.630    22267095.782    91180033.418    22267095.461  
  22267097.158    87380871.639  
  20630165.140   108412249.251    20630161.298    84477059.202    20630160.726  
                                
  23962796.837   125925347.470    23962796.069    98123639.502    23962794.925  
  23962796.444    94035160.332  
  24658698.181   129582333.411    24658697.020   100973239.588    24658696.520  
  24658699.557    96766032.858  
  22911156.893   120398941.624                    93817337.150    22911152.104  
                                
  21232498.884   111577534.317    21232495.542    86943517.720    21232495.060  
  21232501.332    83320895.231  
  21366735.112   112282950.757    21366731.645    87493191.951    21366731.020  
                                
  23905758.183   125625606.663                    97890058.341    23905752.108  
                                
  22849202.900   120073371.039                    93563645.483    22849197.825  
                                
  20413593.171   107274155.769    20413591.635    83590241.265    20413590.759  
  20413593.475    80107325.189  
  22719603.933   121236159.820    22719603.594    94294789.171    22719602.790  
                                
  22598329.680   120970627.846    22598326.821    94088253.620    22598325.909  
                                
  20062094.104   107168105.003    20062092.943    83352965.767    20062092.192  
                                
  21804793.138   116436378.406    21804791.762    90561621.899    21804790.940  
                                
  22500228.583   120403267.727    22500226.010    93646975.523    22500225.188  
                                
  19817971.194   105789676.030    19817969.871    82280853.728    19817968.245  
                                
  25683260.695   134966445.984                                                  
  25683264.483   100786645.766  
  23749609.994   124805042.992                                                  
  23749614.676    93198589.111  
  24088743.233   126587200.166                                                  
  24088747.914    94529420.962  
  25068364.135   131735143.241                                                  
  25068367.851    98373659.794  
 21  8 31  8 19  3.0000000  0 20G 1G 7G 8G 9G13G14G17G19G21G30R 2R 3
                                R12R13R21R22E 1E 9E31E33
  22266724.714   117012427.591    22266724.142    91178511.567    22266723.821  
  22266725.500    87379413.198  
  20630385.644   108413408.027    20630381.802    84477962.141    20630381.230  
                                
  23963455.936   125928811.108    23963455.186    98126338.441    23963454.024  
  23963455.543    94037746.808  
  24659378.366   129585907.866    24659377.222   100976024.880    24659376.704  
  24659379.742    96768702.102  
  22910810.609   120397122.022                    93815919.274    22910805.856  
                                
  21232302.574   111576502.797    21232299.233    86942713.935    21232298.750  
  21232305.040    83320124.931  
  21366307.006   112280701.074    21366303.557    87491438.951    21366302.914  
                                
  23905073.567   125622008.991                    97887254.965    23905067.474  
                                
  22849276.574   120073758.163                    93563947.134    22849271.517  
                                
  20413432.654   107273312.185    20413431.099    83589583.928    20413430.224  
  20413432.958    80106695.234  
  22720221.558   121239455.639    22720221.219    94297352.583    22720220.450  
                                
  22598478.189   120971422.789    22598475.330    94088871.909    22598474.401  
                                
  20062039.747   107167814.661    20062038.603    83352739.946    20062037.835  
                                
  21804337.084   116433943.167    21804335.709    90559727.825    21804334.887  
                                
  22500858.234   120406636.987    22500855.625    93649596.059    22500854.803  
                                
  19817981.754   105789732.385    19817980.432    82280897.562    19817978.806  
                                
  25683498.585   134967696.118                                                  
  25683502.391   100787579.303  
  23749845.490   124806280.452                                                  
  23749850.172    93199513.171  
  24088668.451   126586807.129                                                  
  24088673.132    94529127.453  
  25068013.205   131733299.111                                                  
  25068016.939    98372282.690  
 21  8 31  8 19  4.0000000  0 20G 1G 7G 8G 9G13G14G17G19G21G30R 2R 3
                                R12R13R21R22E 1E 9E31E33
  22266353.199   117010475.314    22266352.628    91176990.314    22266352.306  
  22266354.004    87377955.336  
  20630606.290   108414567.560    20630602.484    84478865.671    20630601.877  
                                
  23964115.124   125932275.133    23964114.374    98129037.681    23964113.212  
  23964114.731    94040333.585  
  24660058.604   129589482.546    24660057.478   100978810.336    24660056.942  
  24660059.998    96771371.495  
  22910464.522   120395303.251                    93814502.047    22910459.769  
                                
  21232106.373   111575471.738    21232103.049    86941910.512    21232102.566  
  21232108.838    83319354.986  
  21365879.043   112278452.113    21365875.594    87489686.514    21365874.951  
                                
  23904389.041   125618411.768                    97884451.932    23904382.948  
                                
  22849350.391   120074146.106                    93564249.432    22849345.334  
                                
  20413272.262   107272469.327    20413270.707    83588927.155    20413269.831  
  20413272.565    80106065.826  
  22720839.308   121242751.973    22720838.951    94299916.400    22720838.164  
                                
  22598626.877   120972218.741    22598624.000    94089490.982    22598623.107  
                                
  20061985.479   107167524.782    20061984.317    83352514.477    20061983.584  
                                
  21803881.103   116431508.273    21803879.727    90557834.014    21803878.923  
                                
  22501488.009   120410007.054    22501485.401    93652217.217    22501484.596  
                                
  19817992.547   105789789.962    19817991.225    82280942.344    19817989.581  
                                
  25683736.547   134968946.572                                                  
  25683740.353   100788513.079  
  23750081.075   124807518.546                                                  
  23750085.757    93200437.737  
  24088593.705   126586414.420                                                  
  24088598.386    94528834.195  
  25067662.418   131731455.632                                                  
  25067666.135    98370906.055  
 21  8 31  8 19  5.0000000  0 20G 1G 7G 8G 9G13G14G17G19G21G30R 2R 3
                                R12R13R21R22E 1E 9E31E33
  22265981.953   117008524.419    22265981.381    91175470.141    22265981.059  
  22265982.739    87376498.486  
  20630827.223   108415728.463    20630823.381    84479770.264    20630822.809  
                                
  23964774.491   125935740.142    23964773.741    98131737.688    23964772.579  
  23964774.098    94042921.085  
  24660739.003   129593057.990    24660737.841   100981596.405    24660737.341  
  24660740.378    96774041.483  
  22910118.685   120393485.897                    93813085.930    22910113.932  
                                
  21231910.385   111574441.734    21231907.026    86941107.915    21231906.561  
  21231912.851    83318585.832  
  21365451.348   112276204.472    21365447.881    87487935.105    21365447.238  
                                
  23903704.693   125614815.584                    97881649.711    23903698.618  
                                
  22849424.458   120074535.484                    93564552.850    22849419.419  
                                
  20413112.119   107271627.786    20413110.565    83588271.408    20413109.689  
  20413112.423    80105437.396  
  22721457.237   121246049.448    22721456.897    94302481.108    22721456.111  
                                
  22598775.869   120973016.336    22598773.010    94090111.334    22598772.099  
                                
  20061931.425   107167236.019    20061930.263    83352289.883    20061929.531  
                                
  21803425.282   116429074.203    21803423.906    90555940.851    21803423.102  
                                
  22502118.053   120413378.513    22502115.444    93654839.463    22502114.622  
                                
  19818003.662   105789849.355    19818002.339    82280988.539    19818000.713  
                                
  25683974.652   134970197.914                                                  
  25683978.475   100789447.517  
  23750316.911   124808757.904                                                  
  23750321.592    93201363.225  
  24088519.155   126586022.627                                                  
  24088523.855    94528541.620  
  25067311.846   131729613.358                                                  
  25067315.545    98369530.333  
 21  8 31  8 19  6.0000000  0 20G 1G 7G 8G 9G13G14G17G19G21G30R 2R 3
                                R12R13R21R22E 1E 9E31E33
  22265610.813   117006574.015    22265610.223    91173950.345    22265609.902  
  22265611.617    87375042.026  
  20631048.245   108416889.870    20631044.403    84480675.255    20631043.813  
                                
  23965433.894   125939205.244    23965433.108    98134437.770    23965431.964  
  23965433.483    94045508.674  
  24661419.383   129596633.492    24661418.240   100984382.515    24661417.722  
  24661420.759    96776711.498  
  22909772.973   120391669.104                    93811670.247    22909768.202  
                                
  21231714.398   111573411.934    21231711.056    86940305.471    21231710.592  
  21231716.881    83317816.829  
  21365023.724   112273957.307    21365020.257    87486184.065    21365019.614  
                                
  23903020.417   125611219.561                    97878847.620    23903014.305  
                                
  22849498.686   120074925.460                    93564856.721    22849493.647  
                                
  20412952.067   107270786.723    20412950.512    83587616.032    20412949.636  
  20412952.370    80104809.336  
  22722075.237   121249347.183    22722074.880    94305046.008    22722074.111  
                                
  22598925.022   120973814.735    22598922.163    94090732.305    22598921.234  
                                
  20061877.425   107166947.541    20061876.281    83352065.507    20061875.530  
                                
  21802969.479   116426640.211    21802968.103    90554047.739    21802967.299  
                                
  22502748.187   120416750.555    22502745.613    93657462.156    22502744.791  
                                
  19818014.973   105789909.693    19818013.650    82281035.461    19818012.006  
                                
  25684212.792   134971449.310                                                  
  25684216.616   100790382.007  
  23750552.835   124809997.659                                                  
  23750557.517    93202289.018  
  24088444.605   126585630.905                                                  
  24088449.287    94528249.102  
  25066961.327   131727771.440                                                  
  25066965.044    98368154.879  
 21  8 31  8 19  7.0000000  0 20G 1G 7G 8G 9G13G14G17G19G21G30R 2R 3
                                R12R13R21R22E 1E 9E31E33
  22265239.727   117004623.874    22265239.137    91172430.753    22265238.816  
  22265240.495    87373585.748  
  20631269.285   108418051.522    20631265.461    84481580.437    20631264.871  
                                
  23966093.261   125942670.232    23966092.475    98137137.756    23966091.331  
  23966092.850    94048096.159  
  24662099.711   129600208.563    24662098.567   100987168.278    24662098.049  
  24662101.087    96779381.209  
  22909427.297   120389852.634                    93810254.811    22909422.544  
                                
  21231518.446   111572382.092    21231515.104    86939502.994    21231514.622  
  21231520.912    83317047.790  
  21364596.136   112271710.356    21364592.687    87484433.196    21364592.044  
                                
  23902336.087   125607623.462                    97876045.467    23902330.011  
                                
  22849572.949   120075315.739                    93565160.843    22849567.892  
                                
  20412792.067   107269945.857    20412790.513    83586960.807    20412789.637  
  20412792.353    80104181.419  
  22722693.237   121252644.896    22722692.880    94307610.899    22722692.093  
                                
  22599074.246   120974613.598    22599071.387    94091353.640    22599070.494  
                                
  20061823.442   107166659.100    20061822.281    83351841.169    20061821.530  
                                
  21802513.640   116424205.950    21802512.246    90552154.427    21802511.442  
                                
  22503378.409   120420122.907    22503375.800    93660085.099    22503374.978  
                                
  19818026.409   105789970.752    19818025.087    82281082.951    19818023.461  
                                
  25684450.879   134972700.500                                                  
  25684454.703   100791316.344  
  23750788.778   124811237.554                                                  
  23750793.460    93203214.909  
  24088370.038   126585238.980                                                  
  24088374.720    94527956.438  
  25066610.844   131725929.649                                                  
  25066614.543    98366779.520  
 21  8 31  8 19  8.0000000  0 20G 1G 7G 8G 9G13G14G17G19G21G30R 2R 3
                                R12R13R21R22E 1E 9E31E33
  22264868.534   117002673.258    22264867.926    91170910.795    22264867.605  
  22264869.320    87372129.112  
  20631490.253   108419212.715    20631486.429    84482485.261    20631485.839  
                                
  23966752.449   125946134.328    23966751.681    98139837.056    23966750.519  
  23966752.038    94050682.988  
  24662779.824   129603782.621    24662778.680   100989953.272    24662778.162  
  24662781.200    96782050.136  
  22909081.567   120388035.746                    93808839.052    22909076.814  
                                
  21231322.316   111571351.461    21231318.974    86938699.910    21231318.492  
  21231324.764    83316278.160  
  21364168.459   112269462.888    21364164.992    87482681.930    21364164.367  
                                
  23901651.632   125604026.597                    97873242.713    23901645.538  
                                
  22849647.142   120075705.633                    93565464.657    22849642.067  
                                
  20412631.943   107269104.474    20412630.406    83586305.187    20412629.531  
  20412632.247    80103553.114  
  22723311.076   121255941.886    22723310.737    94310175.224    22723309.951  
                                
  22599223.435   120975412.213    22599220.576    94091974.780    22599219.682  
                                
  20061769.299   107166369.907    20061768.138    83351616.243    20061767.405  
                                
  21802057.605   116421770.723    21802056.193    90550260.361    21802055.389  
                                
  22504008.524   120423494.788    22504005.916    93662707.673    22504005.094  
                                
  19818037.827   105790031.766    19818036.523    82281130.404    19818034.879  
                                
  25684688.805   134973950.760                                                  
  25684692.611   100792249.975  
  23751024.613   124812476.860                                                  
  23751029.295    93204140.363  
  24088295.274   126584846.154                                                  
  24088299.956    94527663.087  
  25066260.254   131724087.240                                                  
  25066263.970    98365403.691  
 21  8 31  8 19  9.0000000  0 20G 1G 7G 8G 9G13G14G17G19G21G30R 2R 3
                                R12R13R21R22E 1E 9E31E33
  22264497.519   117000723.690    22264496.947    91169391.655    22264496.626  
  22264498.323    87370673.279  
  20631711.418   108420374.947    20631707.594    84483390.897    20631707.004  
                                
  23967411.780   125949599.093    23967410.994    98142536.873    23967409.851  
  23967411.352    94053270.314  
  24663460.026   129607357.161    24663458.864   100992738.639    24663458.346  
  24663461.384    96784719.435  
  22908736.034   120386219.992                    93807424.181    22908731.280  
                                
  21231126.328   111570321.593    21231122.987    86937897.413    21231122.504  
  21231128.794    83315509.103  
  21363740.978   112267216.436    21363737.512    87480931.447    21363736.868  
                                
  23900967.302   125600430.434                    97870440.503    23900961.226  
                                
  22849721.548   120076096.652                    93565769.351    22849716.491  
                                
  20412472.033   107268264.124    20412470.496    83585650.369    20412469.603  
  20412472.337    80102925.573  
  22723929.077   121259239.683    22723928.737    94312740.179    22723927.969  
                                
  22599372.873   120976212.118    22599370.014    94092596.927    22599369.121  
                                
  20061715.299   107166081.483    20061714.137    83351391.914    20061713.405  
                                
  21801601.659   116419336.092    21801600.283    90548366.757    21801599.479  
                                
  22504638.836   120426867.735    22504636.245    93665331.074    22504635.423  
                                
  19818049.567   105790094.306    19818048.245    82281179.049    19818046.601  
                                
  25684926.838   134975201.639                                                  
  25684930.644   100793184.062  
  23751260.627   124813717.105                                                  
  23751265.309    93205066.526  
  24088220.635   126584453.939                                                  
  24088225.317    94527370.201  
  25065909.824   131722245.760                                                  
  25065913.541    98364028.559  
 21  8 31  8 19 10.0000000  0 20G 1G 7G 8G 9G13G14G17G19G21G30R 2R 3
                                R12R13R21R22E 1E 9E31E33
  22264126.469   116998773.781    22264125.897    91167872.246    22264125.576  
  22264127.255    87369217.172  
  20631932.511   108421536.845    20631928.705    84484296.269    20631928.116  
                                
  23968070.951   125953063.080    23968070.165    98145236.083    23968069.021  
  23968070.540    94055857.067  
  24664140.067   129610930.779    24664138.906   100995523.277    24664138.388  
  24664141.425    96787388.031  
  22908390.447   120384403.929                    93806009.074    22908385.676  
                                
  21230930.233   111569291.064    21230926.892    86937094.408    21230926.410  
  21230932.699    83314739.553  
  21363313.408   112264969.605    21363309.977    87479180.665    21363309.316  
                                
  23900282.864   125596833.616                    97867637.792    23900276.753  
                                
  22849795.883   120076487.368                    93566073.812    22849790.826  
                                
  20412312.052   107267423.364    20412310.497    83584995.231    20412309.622  
  20412312.355    80102297.739  
  22724546.987   121262536.878    22724546.630    94315304.662    22724545.844  
                                
  22599522.276   120977011.905    22599519.417    94093218.983    22599518.524  
                                
  20061661.192   107165792.421    20061660.030    83351167.090    20061659.280  
                                
  21801145.570   116416900.552    21801144.176    90546472.448    21801143.372  
                                
  22505269.077   120430240.330    22505266.504    93667954.201    22505265.682  
                                
  19818061.289   105790156.957    19818059.967    82281227.785    19818058.341  
                                
  25685164.711   134976451.688                                                  
  25685168.535   100794117.549  
  23751496.534   124814956.886                                                  
  23751501.216    93205992.339  
  24088145.853   126584060.922                                                  
  24088150.535    94527076.717  
  25065559.306   131720403.774                                                  
  25065563.004    98362653.057  
 21  8 31  8 19 11.0000000  0 20G 1G 7G 8G 9G13G14G17G19G21G30R 2R 3
                                R12R13R21R22E 1E 9E31E33
  22263755.526   116996824.412    22263754.954    91166353.253    22263754.632  
  22263756.312    87367761.479  
  20632153.730   108422699.268    20632149.888    84485202.056    20632149.298  
                                
  23968730.157   125956527.202    23968729.371    98147935.402    23968728.209  
  23968729.728    94058443.922  
  24664820.091   129614504.359    24664818.929   100998307.882    24664818.411  
  24664821.449    96790056.624  
  22908044.985   120382588.483                    93804594.445    22908040.214  
                                
  21230734.175   111568260.753    21230730.833    86936291.568    21230730.351  
  21230736.640    83313970.177  
  21362885.946   112262723.273    21362882.515    87477430.279    21362881.871  
                                
  23899598.427   125593236.977                    97864835.221    23899592.352  
                                
  22849870.361   120076878.709                    93566378.760    22849865.304  
                                
  20412152.160   107266583.123    20412150.605    83584340.497    20412149.730  
  20412152.463    80101670.282  
  22725164.934   121265834.377    22725164.577    94317869.379    22725163.790  
                                
  22599671.840   120977812.486    22599668.999    94093841.655    22599668.070  
                                
  20061607.138   107165503.676    20061605.976    83350942.510    20061605.226  
                                
  21800689.481   116414465.119    21800688.105    90544578.223    21800687.283  
                                
  22505899.442   120433613.522    22505896.851    93670577.797    22505896.029  
                                
  19818073.208   105790220.589    19818071.886    82281277.273    19818070.259  
                                
  25685402.601   134977701.833                                                  
  25685406.425   100795051.092  
  23751732.548   124816197.107                                                  
  23751737.230    93206918.473  
  24088071.071   126583668.011                                                  
  24088075.753    94526783.314  
  25065208.858   131718562.190                                                  
  25065212.575    98361277.851  
 21  8 31  8 19 12.0000000  0 20G 1G 7G 8G 9G13G14G17G19G21G30R 2R 3
                                R12R13R21R22E 1E 9E31E33
  22263384.851   116994876.528    22263384.279    91164835.421    22263383.940  
  22263385.637    87366306.881  
  20632375.216   108423863.185    20632371.375    84486109.004    20632370.803  
                                
  23969389.560   125959992.419    23969388.791    98150635.571    23969387.630  
  23969389.149    94061031.564  
  24665500.293   129618078.849    24665499.114   101001093.206    24665498.613  
  24665501.633    96792725.886  
  22907699.791   120380774.583                    93803181.014    22907695.038  
                                
  21230538.330   111567231.645    21230534.989    86935489.666    21230534.524  
  21230540.796    83313201.677  
  21362458.769   112260478.384    21362455.302    87475681.011    21362454.659  
                                
  23898914.222   125589641.503                    97862033.555    23898908.147  
                                
  22849945.125   120077271.602                    93566684.903    22849940.068  
                                
  20411992.536   107265744.302    20411990.963    83583686.875    20411990.088  
  20411992.822    80101043.892  
  22725783.113   121269133.110    22725782.755    94320435.062    22725781.987  
                                
  22599821.725   120978614.807    22599818.866    94094465.682    22599817.973  
                                
  20061553.316   107165216.186    20061552.155    83350718.909    20061551.404  
                                
  21800233.588   116412030.691    21800232.212    90542684.781    21800231.391  
                                
  22506530.094   120436988.247    22506527.503    93673202.586    22506526.681  
                                
  19818085.484   105790286.158    19818084.162    82281328.276    19818082.536  
                                
  25685640.706   134978953.000                                                  
  25685644.512   100795985.407  
  23751968.830   124817438.681                                                  
  23751973.476    93207845.625  
  24087996.522   126583276.145                                                  
  24088001.204    94526490.682  
  25064858.661   131716721.954                                                  
  25064862.378    98359903.653  
 21  8 31  8 19 13.0000000  0 20G 1G 7G 8G 9G13G14G17G19G21G30R 2R 3
                                R12R13R21R22E 1E 9E31E33
  22263014.230   116992928.832    22263013.640    91163317.734    22263013.318  
  22263015.016    87364852.437  
  20632596.721   108425027.304    20632592.915    84487016.110    20632592.325  
                                
  23970048.927   125963457.430    23970048.158    98153335.580    23970046.997  
  23970048.516    94063619.066  
  24666180.424   129621652.963    24666179.262   101003878.230    24666178.744  
  24666181.782    96795394.880  
  22907354.687   120378960.923                    93801767.766    22907349.933  
                                
  21230342.486   111566202.422    21230339.144    86934687.674    21230338.662  
  21230344.934    83312433.101  
  21362031.610   112258233.643    21362028.161    87473931.866    21362027.518  
                                
  23898230.000   125586045.894                    97859231.786    23898223.924  
                                
  22850019.943   120077664.762                    93566991.260    22850014.886  
                                
  20411832.930   107264905.642    20411831.393    83583033.370    20411830.517  
  20411833.233    80100417.618  
  22726401.292   121272431.792    22726400.934    94323000.699    22726400.148  
                                
  22599971.700   120979417.583    22599968.841    94095090.068    22599967.912  
                                
  20061499.477   107164928.648    20061498.315    83350495.267    20061497.583  
                                
  21799777.642   116409595.926    21799776.249    90540791.077    21799775.445  
                                
  22507160.781   120440363.188    22507158.172    93675827.539    22507157.350  
                                
  19818097.885   105790352.373    19818096.563    82281379.782    19818094.954  
                                
  25685878.739   134980203.896                                                  
  25685882.545   100796919.514  
  23752205.112   124818680.348                                                  
  23752209.776    93208772.836  
  24087921.901   126582884.018                                                  
  24087926.583    94526197.857  
  25064508.482   131714881.779                                                  
  25064512.217    98358529.494  
 21  8 31  8 19 14.0000000  0 20G 1G 7G 8G 9G13G14G17G19G21G30R 2R 3
                                R12R13R21R22E 1E 9E31E33
  22262643.680   116990981.576    22262643.090    91161800.391    22262642.768  
  22262644.466    87363398.318  
  20632818.333   108426191.849    20632814.509    84487923.549    20632813.919  
                                
  23970708.311   125966922.459    23970707.525    98156035.600    23970706.382  
  23970707.883    94066206.599  
  24666860.555   129625226.948    24666859.393   101006663.137    24666858.875  
  24666861.913    96798063.761  
  22907009.654   120377147.766                    93800354.916    22907004.901  
                                
  21230146.659   111565173.326    21230143.300    86933885.781    21230142.835  
  21230149.107    83311664.618  
  21361604.522   112255989.292    21361601.073    87472183.019    21361600.448  
                                
  23897545.813   125582450.379                    97856430.088    23897539.701  
                                
  22850094.868   120078058.413                    93567298.000    22850089.793  
                                
  20411673.413   107264067.373    20411671.858    83582380.171    20411670.983  
  20411673.717    80099791.644  
  22727019.488   121275730.656    22727019.149    94325566.480    22727018.380  
                                
  22600121.782   120980221.058    22600118.923    94095714.995    22600118.012  
                                
  20061445.673   107164641.296    20061444.548    83350271.770    20061443.797  
                                
  21799321.679   116407161.131    21799320.285    90538897.346    21799319.481  
                                
  22507791.557   120443738.588    22507788.949    93678452.851    22507788.127  
                                
  19818110.447   105790419.448    19818109.125    82281431.951    19818107.516  
                                
  25686116.772   134981454.761                                                  
  25686120.596   100797853.610  
  23752441.448   124819922.327                                                  
  23752446.112    93209700.296  
  24087847.262   126582491.884                                                  
  24087851.944    94525905.035  
  25064158.374   131713041.891                                                  
  25064162.073    98357155.545  
 21  8 31  8 19 15.0000000  0 20G 1G 7G 8G 9G13G14G17G19G21G30R 2R 3
                                R12R13R21R22E 1E 9E31E33
  22262273.148   116989034.511    22262272.576    91160283.200    22262272.254  
  22262273.952    87361944.336  
  20633039.980   108427356.569    20633036.138    84488831.124    20633035.566  
                                
  23971367.625   125970387.298    23971366.856    98158735.474    23971365.713  
  23971367.214    94068793.972  
  24667540.578   129628800.561    24667539.434   101009447.766    24667538.916  
  24667541.936    96800732.354  
  22906664.674   120375334.864                    93798942.263    22906659.903  
                                
  21229950.797   111564144.109    21229947.437    86933083.798    21229946.973  
  21229953.245    83310896.045  
  21361177.453   112253745.090    21361174.022    87470434.290    21361173.378  
                                
  23896861.554   125578854.746                    97853628.306    23896855.479  
                                
  22850169.811   120078452.330                    93567604.956    22850164.754  
                                
  20411513.950   107263229.259    20411512.377    83581727.097    20411511.502  
  20411514.218    80099165.772  
  22727637.703   121279029.442    22727637.346    94328132.200    22727636.559  
                                
  22600271.953   120981024.952    22600269.094    94096340.248    22600268.201  
                                
  20061391.887   107164353.848    20061390.726    83350048.202    20061389.993  
                                
  21798865.661   116404726.017    21798864.285    90537003.373    21798863.463  
                                
  22508422.370   120447114.210    22508419.761    93681078.337    22508418.957  
                                
  19818123.134   105790487.157    19818121.812    82281484.616    19818120.203  
                                
  25686354.770   134982705.373                                                  
  25686358.558   100798787.495  
  23752677.784   124821164.385                                                  
  23752682.465    93210627.805  
  24087772.605   126582099.499                                                  
  24087777.287    94525612.015  
  25063808.266   131711202.054                                                  
  25063811.983    98355781.636  
 21  8 31  8 19 16.0000000  0 20G 1G 7G 8G 9G13G14G17G19G21G30R 2R 3
                                R12R13R21R22E 1E 9E31E33
  22261902.830   116987088.335    22261902.222    91158766.699    22261901.901  
  22261903.598    87360491.018  
  20633261.788   108428522.179    20633257.964    84489739.389    20633257.374  
                                
  23972027.063   125973852.602    23972026.277    98161435.714    23972025.151  
  23972026.634    94071381.706  
  24668220.691   129632374.484    24668219.530   101012232.634    24668219.029  
  24668222.049    96803401.202  
  22906319.874   120373522.912                    93797530.350    22906315.103  
                                
  21229755.059   111563115.468    21229751.700    86932282.262    21229751.217  
  21229757.507    83310127.908  
  21360750.562   112251501.731    21360747.113    87468686.218    21360746.470  
                                
  23896177.439   125575259.645                    97850826.933    23896171.345  
                                
  22850244.950   120078847.204                    93567912.655    22850239.893  
                                
  20411354.612   107262391.973    20411353.057    83581074.667    20411352.164  
  20411354.915    80098540.534  
  22728256.007   121282328.854    22728255.649    94330698.412    22728254.863  
                                
  22600422.339   120981829.972    22600419.480    94096966.371    22600418.569  
                                
  20061338.191   107164067.014    20061337.030    83349825.107    20061336.297  
                                
  21798409.733   116402291.381    21798408.339    90535109.767    21798407.535  
                                
  22509053.343   120450490.758    22509050.752    93683704.548    22509049.930  
                                
  19818136.053   105790556.187    19818134.731    82281538.308    19818133.123  
                                
  25686592.821   134983956.399                                                  
  25686596.645   100799721.711  
  23752914.280   124822407.209                                                  
  23752918.962    93211555.890  
  24087698.020   126581707.559                                                  
  24087702.702    94525319.331  
  25063458.302   131709362.953                                                  
  25063462.018    98354408.288  
 21  8 31  8 19 17.0000000  0 20G 1G 7G 8G 9G13G14G17G19G21G30R 2R 3
                                R12R13R21R22E 1E 9E31E33
  22261532.673   116985143.283    22261532.101    91157251.072    22261531.780  
  22261533.477    87359038.555  
  20633483.811   108429688.937    20633479.987    84490648.551    20633479.415  
                                
  23972686.627   125977318.641    23972685.858    98164136.518    23972684.715  
  23972686.216    94073969.992  
  24668900.893   129635948.974    24668899.732   101015017.953    24668899.214  
  24668902.251    96806070.455  
  22905975.287   120371712.140                    93796119.359    22905970.534  
                                
  21229559.483   111562087.674    21229556.123    86931481.381    21229555.641  
  21229561.931    83309360.398  
  21360323.867   112249259.463    21360320.436    87466938.999    21360319.793  
                                
  23895493.466   125571665.380                    97848026.211    23895487.391  
                                
  22850320.339   120079243.290                    93568221.295    22850315.246  
                                
  20411195.470   107261555.793    20411193.933    83580423.096    20411193.058  
  20411195.774    80097916.114  
  22728874.472   121285629.130    22728874.132    94333265.289    22728873.346  
                                
  22600572.993   120982636.376    22600570.134    94097593.569    22600569.222  
                                
  20061284.655   107163781.114    20061283.494    83349602.742    20061282.761  
                                
  21797953.912   116399857.325    21797952.518    90533216.617    21797951.714  
                                
  22509684.566   120453868.480    22509681.975    93686331.665    22509681.153  
                                
  19818149.294   105790626.850    19818147.990    82281593.266    19818146.346  
                                
  25686831.015   134985208.114                                                  
  25686834.839   100800656.436  
  23753150.991   124823651.063                                                  
  23753155.673    93212484.742  
  24087623.560   126581316.309                                                  
  24087628.241    94525027.170  
  25063108.515   131707524.861                                                  
  25063112.250    98353035.687  
 21  8 31  8 19 18.0000000  0 20G 1G 7G 8G 9G13G14G17G19G21G30R 2R 3
                                R12R13R21R22E 1E 9E31E33
  22261162.445   116983197.720    22261161.873    91155735.053    22261161.533  
  22261163.249    87357585.704  
  20633705.744   108430855.186    20633701.920    84491557.317    20633701.330  
                                
  23973346.047   125980783.784    23973345.243    98166836.632    23973344.099  
  23973345.600    94076557.593  
  24669580.881   129639522.357    24669579.720   101017802.424    24669579.201  
  24669582.239    96808738.900  
  22905630.648   120369900.940                    93794708.037    22905625.859  
                                
  21229363.728   111561059.039    21229360.386    86930679.847    21229359.904  
  21229366.194    83308592.265  
  21359897.066   112247016.649    21359893.635    87465191.350    21359892.991  
                                
  23894809.333   125568070.276                    97845224.829    23894803.257  
                                
  22850395.621   120079638.930                    93568529.582    22850390.547  
                                
  20411036.257   107260719.047    20411034.702    83579771.088    20411033.827  
  20411036.543    80097291.271  
  22729492.793   121288928.593    22729492.436    94335831.535    22729491.650  
                                
  22600723.593   120983442.503    22600720.734    94098220.557    22600719.822  
                                
  20061230.995   107163494.453    20061229.833    83349379.784    20061229.101  
                                
  21797497.912   116397422.286    21797496.519    90531322.693    21797495.715  
                                
  22510315.664   120457245.701    22510313.073    93688958.394    22510312.251  
                                
  19818162.517   105790697.421    19818161.213    82281648.154    19818159.569  
                                
  25687069.030   134986458.852                                                  
  25687072.854   100801590.427  
  23753387.559   124824894.284                                                  
  23753392.241    93213413.112  
  24087548.921   126580924.108                                                  
  24087553.602    94524734.287  
  25062758.604   131705686.107                                                  
  25062762.321    98351662.585  
 21  8 31  8 19 19.0000000  0 20G 1G 7G 8G 9G13G14G17G19G21G30R 2R 3
                                R12R13R21R22E 1E 9E31E33
  22260792.342   116981252.741    22260791.734    91154219.490    22260791.412  
  22260793.128    87356133.265  
  20633927.767   108432021.964    20633923.943    84492466.496    20633923.371  
                                
  23974005.468   125984249.110    23974004.664    98169536.883    23974003.538  
  23974005.039    94079145.329  
  24670260.869   129643095.755    24670259.707   101020586.886    24670259.207  
  24670262.227    96811407.338  
  22905286.079   120368090.359                    93793297.192    22905281.326  
                                
  21229168.044   111560030.664    21229164.685    86929878.519    21229164.202  
  21229170.492    83307824.323  
  21359470.389   112244774.340    21359466.922    87463444.098    21359466.279  
                                
  23894125.253   125564475.386                    97842423.618    23894119.159  
                                
  22850471.029   120080035.171                    93568838.337    22850465.954  
                                
  20410877.133   107259882.832    20410875.561    83579119.492    20410874.685  
  20410877.437    80096666.820  
  22730111.187   121292228.354    22730110.811    94338398.014    22730110.043  
                                
  22600874.318   120984249.439    22600871.459    94098848.167    22600870.565  
                                
  20061177.388   107163208.082    20061176.226    83349157.053    20061175.476  
                                
  21797041.931   116394987.345    21797040.537    90529428.855    21797039.733  
                                
  22510946.905   120460623.537    22510944.296    93691585.602    22510943.474  
                                
  19818175.919   105790769.017    19818174.615    82281703.838    19818172.989  
                                
  25687307.046   134987709.690                                                  
  25687310.870   100802524.492  
  23753624.234   124826137.956                                                  
  23753628.898    93214341.830  
  24087474.300   126580532.007                                                  
  24087478.981    94524441.488  
  25062408.800   131703847.766                                                  
  25062412.499    98350289.806  
 21  8 31  8 19 20.0000000  0 20G 1G 7G 8G 9G13G14G17G19G21G30R 2R 3
                                R12R13R21R22E 1E 9E31E33
  22260422.328   116979308.323    22260421.738    91152704.352    22260421.416  
  22260423.114    87354681.282  
  20634149.914   108433189.358    20634146.090    84493376.149    20634145.518  
                                
  23974664.924   125987714.632    23974664.138    98172237.290    23974662.994  
  23974664.495    94081733.210  
  24670940.874   129646669.177    24670939.731   101023371.356    24670939.213  
  24670942.250    96814075.806  
  22904941.672   120366280.441                    93791886.857    22904936.919  
                                
  21228972.414   111559002.601    21228969.055    86929077.423    21228968.590  
  21228974.844    83307056.609  
  21359043.784   112242532.610    21359040.335    87461697.290    21359039.710  
                                
  23893441.227   125560880.783                    97839622.625    23893435.133  
                                
  22850546.561   120080432.120                    93569147.652    22850541.486  
                                
  20410718.117   107259047.183    20410716.562    83578468.334    20410715.669  
  20410718.421    80096042.790  
  22730729.634   121295528.466    22730729.258    94340964.768    22730728.490  
                                
  22601025.222   120985057.240    22601022.363    94099476.451    22601021.469  
                                
  20061123.852   107162922.045    20061122.691    83348934.575    20061121.940  
                                
  21796585.967   116392552.494    21796584.573    90527535.075    21796583.751  
                                
  22511578.236   120464001.994    22511575.645    93694213.294    22511574.823  
                                
  19818189.553   105790841.656    19818188.231    82281760.338    19818186.587  
                                
  25687545.097   134988960.678                                                  
  25687548.921   100803458.673  
  23753860.981   124827382.112                                                  
  23753865.663    93215270.904  
  24087399.732   126580140.082                                                  
  24087404.414    94524148.817  
  25062059.068   131702009.900                                                  
  25062062.767    98348917.374  
 21  8 31  8 19 21.0000000  0 20G 1G 7G 8G 9G13G14G17G19G21G30R 2R 3
                                R12R13R21R22E 1E 9E31E33
  22260052.457   116977364.635    22260051.867    91151189.790    22260051.545  
  22260053.261    87353229.827  
  20634372.205   108434357.450    20634368.381    84494286.351    20634367.791  
                                
  23975324.452   125991180.400    23975323.648    98174937.887    23975322.504  
  23975324.005    94084321.308  
  24671620.898   129650242.713    24671619.754   101026155.927    24671619.236  
  24671622.274    96816744.362  
  22904597.425   120364471.298                    93790477.140    22904592.636  
                                
  21228776.855   111557974.919    21228773.496    86928276.632    21228773.031  
  21228779.286    83306289.188  
  21358617.340   112240291.542    21358613.873    87459951.004    21358613.248  
                                
  23892757.272   125557286.539                    97836821.913    23892751.196  
                                
  22850622.236   120080829.841                    93569457.564    22850617.161  
                                
  20410559.226   107258212.168    20410557.653    83577817.671    20410556.778  
  20410559.529    80095419.249  
  22731348.152   121298829.022    22731347.812    94343531.858    22731347.026  
                                
  22601176.322   120985865.994    22601173.463    94100105.478    22601172.552  
                                
  20061070.370   107162636.461    20061069.209    83348712.457    20061068.476  
                                
  21796130.039   116390117.905    21796128.645    90525641.503    21796127.841  
                                
  22512209.727   120467381.181    22512207.118    93696841.548    22512206.296  
                                
  19818203.366   105790915.473    19818202.061    82281817.746    19818200.435  
                                
  25687783.219   134990211.915                                                  
  25687787.043   100804393.036  
  23754097.871   124828626.864                                                  
  23754102.535    93216200.424  
  24087325.218   126579748.413                                                  
  24087329.882    94523856.336  
  25061709.407   131700172.586                                                  
  25061713.106    98347545.356  
 21  8 31  8 19 22.0000000  0 20G 1G 7G 8G 9G13G14G17G19G21G30R 2R 3
                                R12R13R21R22E 1E 9E31E33
  22259682.711   116975421.625    22259682.121    91149675.757    22259681.800  
  22259683.515    87351778.876  
  20634594.621   108435526.229    20634590.797    84495197.088    20634590.207  
                                
  23975984.015   125994646.503    23975983.247    98177638.748    23975982.103  
  23975983.586    94086909.616  
  24672300.939   129653816.372    24672299.778   101028940.604    24672299.278  
  24672302.297    96819413.002  
  22904253.285   120362662.891                    93789067.989    22904248.514  
                                
  21228581.350   111556947.606    21228578.009    86927476.129    21228577.526  
  21228583.798    83305522.042  
  21358191.003   112238051.091    21358187.536    87458205.198    21358186.893  
                                
  23892073.389   125553692.667                    97834021.498    23892067.295  
                                
  22850698.055   120081228.292                    93569768.048    22850692.998  
                                
  20410400.442   107257377.805    20410398.887    83577167.518    20410398.011  
  20410400.727    80094796.179  
  22731966.760   121302129.993    22731966.420    94346099.275    22731965.634  
                                
  22601327.566   120986675.674    22601324.707    94100735.227    22601323.813  
                                
  20061016.995   107162351.325    20061015.834    83348490.684    20061015.101  
                                
  21795674.146   116387683.450    21795672.753    90523748.041    21795671.948  
                                
  22512841.343   120470761.078    22512838.734    93699470.359    22512837.913  
                                
  19818217.411   105790990.390    19818216.089    82281876.012    19818214.463  
                                
  25688021.342   134991463.351                                                  
  25688025.166   100805327.553  
  23754334.832   124829872.170                                                  
  23754339.514    93217130.356  
  24087250.705   126579356.978                                                  
  24087255.386    94523564.029  
  25061359.906   131698335.818                                                  
  25061363.605    98346173.742  
 21  8 31  8 19 23.0000000  0 20G 1G 7G 8G 9G13G14G17G19G21G30R 2R 3
                                R12R13R21R22E 1E 9E31E33
  22259313.090   116973479.238    22259312.501    91148162.208    22259312.161  
  22259313.894    87350328.389  
  20634817.144   108436695.613    20634813.302    84496108.298    20634812.730  
                                
  23976643.650   125998112.826    23976642.846    98180339.775    23976641.703  
  23976643.204    94089498.096  
  24672980.981   129657390.085    24672979.819   101031725.331    24672979.301  
  24672982.339    96822081.677  
  22903909.271   120360855.154                    93787659.367    22903904.518  
                                
  21228385.935   111555920.614    21228382.575    86926675.880    21228382.093  
  21228388.347    83304755.134  
  21357764.755   112235811.217    21357761.306    87456459.844    21357760.681  
                                
  23891389.541   125550099.059                    97831221.288    23891383.448  
                                
  22850774.016   120081627.430                    93570079.071    22850768.941  
                                
  20410241.782   107256544.011    20410240.210    83576517.813    20410239.334  
  20410242.068    80094173.549  
  22732585.421   121305431.315    22732585.081    94348666.967    22732584.295  
                                
  22601478.970   120987486.201    22601476.129    94101365.636    22601475.217  
                                
  20060963.674   107162066.555    20060962.513    83348269.204    20060961.780  
                                
  21795218.272   116385249.159    21795216.896    90521854.703    21795216.074  
                                
  22513473.067   120474141.640    22513470.476    93702099.689    22513469.654  
                                
  19818231.635   105791066.356    19818230.330    82281935.099    19818228.704  
                                
  25688259.518   134992714.961                                                  
  25688263.342   100806262.201  
  23754571.900   124831117.976                                                  
  23754576.582    93218060.666  
  24087176.244   126578965.707                                                  
  24087180.926    94523271.855  
  25061010.442   131696499.514                                                  
  25061014.177    98344802.486  
 21  8 31  8 19 24.0000000  0 20G 1G 7G 8G 9G13G14G17G19G21G30R 2R 3
                                R12R13R21R22E 1E 9E31E33
  22258943.595   116971537.519    22258943.005    91146649.178    22258942.683  
  22258944.381    87348878.398  
  20635039.792   108437865.674    20635035.968    84497020.035    20635035.378  
                                
  23977303.321   126001579.393    23977302.517    98183040.996    23977301.373  
  23977302.874    94092086.770  
  24673661.058   129660963.858    24673659.879   101034510.101    24673659.378  
  24673662.398    96824750.417  
  22903565.417   120359048.159                    93786251.319    22903560.646  
                                
  21228190.555   111554893.977    21228187.213    86925875.905    21228186.731  
  21228193.003    83303988.487  
  21357338.632   112233571.978    21357335.184    87454714.985    21357334.558  
                                
  23890705.747   125546505.798                    97828421.344    23890699.672  
                                
  22850850.120   120082027.322                    93570390.673    22850845.027  
                                
  20410083.248   107255710.856    20410081.676    83575868.599    20410080.800  
  20410083.517    80093551.382  
  22733204.172   121308733.051    22733203.832    94351234.985    22733203.046  
                                
  22601630.571   120988297.648    22601627.712    94101996.762    22601626.800  
                                
  20060910.442   107161782.209    20060909.281    83348048.046    20060908.548  
                                
  21794762.451   116382815.074    21794761.057    90519961.526    21794760.253  
                                
  22514104.933   120477522.885    22514102.342    93704729.549    22514101.520  
                                
  19818246.073   105791143.428    19818244.768    82281995.042    19818243.142  
                                
  25688497.748   134993966.779                                                  
  25688501.554   100807196.994  
  23754809.076   124832364.333                                                  
  23754813.740    93218991.389  
  24087101.838   126578574.671                                                  
  24087106.537    94522979.841  
  25060661.120   131694663.761                                                  
  25060664.837    98343431.617  
 21  8 31  8 19 25.0000000  0 20G 1G 7G 8G 9G13G14G17G19G21G30R 2R 3
                                R12R13R21R22E 1E 9E31E33
  22258574.170   116969596.185    22258573.563    91145136.450    22258573.241  
  22258574.975    87347428.705  
  20635262.529   108439036.120    20635258.705    84497932.070    20635258.115  
                                
  23977962.992   126005045.980    23977962.188    98185742.228    23977961.044  
  23977962.545    94094675.455  
  24674341.082   129664537.488    24674339.920   101037294.748    24674339.420  
  24674342.440    96827419.043  
  22903221.653   120357241.630                    93784843.639    22903216.864  
                                
  21227995.211   111553867.419    21227991.851    86925075.987    21227991.369  
  21227997.659    83303221.915  
  21356912.581   112231333.088    21356909.150    87452970.395    21356908.507  
                                
  23890021.989   125542912.639                    97825621.490    23890015.914  
                                
  22850926.296   120082427.651                    93570702.618    22850921.221  
                                
  20409924.750   107254878.039    20409923.196    83575219.653    20409922.302  
  20409925.054    80092929.486  
  22733822.922   121312034.922    22733822.583    94353803.106    22733821.814  
                                
  22601782.279   120989109.741    22601779.420    94102628.387    22601778.508  
                                
  20060857.246   107161497.977    20060856.067    83347826.978    20060855.334  
                                
  21794306.612   116380380.879    21794305.218    90518068.261    21794304.414  
                                
  22514736.871   120480904.537    22514734.280    93707359.725    22514733.458  
                                
  19818260.690   105791221.340    19818259.367    82282055.641    19818257.723  
                                
  25688735.924   134995218.524                                                  
  25688739.730   100808131.747  
  23755046.287   124833610.972                                                  
  23755050.969    93219922.329  
  24087027.413   126578183.574                                                  
  24087032.095    94522687.795  
  25060311.852   131692828.249                                                  
  25060315.551    98342060.944  
 21  8 31  8 19 26.0000000  0 20G 1G 7G 8G 9G13G14G17G19G21G30R 2R 3
                                R12R13R21R22E 1E 9E31E33
  22258204.836   116967655.399    22258204.264    91143624.156    22258203.924  
  22258205.640    87345979.417  
  20635485.356   108440207.132    20635481.532    84498844.545    20635480.960  
                                
  23978622.680   126008512.726    23978621.894    98188443.588    23978620.768  
  23978622.234    94097264.256  
  24675021.123   129668111.074    24675019.961   101040079.351    24675019.443  
  24675022.481    96830087.630  
  22902877.996   120355435.691                    93783436.412    22902873.225  
                                
  21227799.920   111552841.130    21227796.561    86924276.287    21227796.078  
  21227802.332    83302455.520  
  21356486.637   112229094.702    21356483.207    87451226.201    21356482.563  
                                
  23889338.267   125539319.648                    97822821.756    23889332.191  
                                
  22851002.596   120082828.599                    93571015.043    22850997.504  
                                
  20409766.377   107254045.744    20409764.805    83574571.107    20409763.929  
  20409766.681    80092307.956  
  22734441.762   121315337.093    22734441.423    94356371.466    22734440.637  
                                
  22601934.130   120989922.626    22601931.271    94103260.629    22601930.359  
                                
  20060804.086   107161214.064    20060802.925    83347606.157    20060802.174  
                                
  21793850.773   116377946.740    21793849.380    90516175.044    21793848.576  
                                
  22515368.935   120484286.786    22515366.326    93709990.368    22515365.504  
                                
  19818275.467   105791300.263    19818274.145    82282117.030    19818272.519  
                                
  25688974.154   134996470.371                                                  
  25688977.978   100809066.564  
  23755283.605   124834858.045                                                  
  23755288.287    93220853.574  
  24086953.025   126577792.600                                                  
  24086957.706    94522395.825  
  25059962.638   131690993.150                                                  
  25059966.337    98340690.576  
 21  8 31  8 19 27.0000000  0 20G 1G 7G 8G 9G13G14G17G19G21G30R 2R 3
                                R12R13R21R22E 1E 9E31E33
  22257835.572   116965714.875    22257834.965    91142112.059    22257834.661  
  22257836.376    87344530.326  
  20635708.254   108441378.394    20635704.412    84499757.219    20635703.822  
                                
  23979282.351   126011979.321    23979281.565    98191144.829    23979280.439  
  23979281.904    94099852.939  
  24675701.111   129671684.376    24675699.967   101042863.723    24675699.449  
  24675702.469    96832755.989  
  22902534.410   120353630.090                    93782029.447    22902529.622  
                                
  21227604.612   111551814.778    21227601.252    86923476.529    21227600.788  
  21227607.042    83301689.092  
  21356060.711   112226856.534    21356057.281    87449482.176    21356056.637  
                                
  23888654.544   125535726.633                    97820022.000    23888648.451  
                                
  22851078.951   120083229.876                    93571327.724    22851073.894  
                                
  20409608.022   107253213.643    20409606.467    83573922.717    20409605.574  
  20409608.326    80091686.593  
  22735060.584   121318639.247    22735060.245    94358939.805    22735059.459  
                                
  22602086.070   120990736.019    22602083.211    94103893.266    22602082.318  
                                
  20060750.944   107160930.171    20060749.782    83347385.349    20060749.032  
                                
  21793394.917   116375512.390    21793393.505    90514281.663    21793392.701  
                                
  22516001.051   120487669.349    22515998.424    93712621.253    22515997.602  
                                
  19818290.370   105791379.896    19818289.066    82282178.964    19818287.422  
                                
  25689212.330   134997722.013                                                  
  25689216.154   100810001.236  
  23755520.942   124836105.265                                                  
  23755525.624    93221784.942  
  24086878.582   126577401.432                                                  
  24086883.264    94522103.728  
  25059613.442   131689158.160                                                  
  25059617.141    98339320.300  
 21  8 31  8 19 28.0000000  0 20G 1G 7G 8G 9G13G14G17G19G21G30R 2R 3
                                R12R13R21R22E 1E 9E31E33
  22257466.345   116963774.565    22257465.737    91140600.136    22257465.433  
  22257467.149    87343081.389  
  20635931.152   108442549.826    20635927.346    84500670.023    20635926.738  
                                
  23979942.004   126015445.709    23979941.218    98193845.906    23979940.056  
  23979941.557    94102441.476  
  24676381.009   129675257.295    24676379.883   101045647.808    24676379.347  
  24676382.403    96835424.083  
  22902190.861   120351824.732                    93780622.673    22902186.072  
                                
  21227409.285   111550788.322    21227405.926    86922676.696    21227405.444  
  21227411.716    83300922.581  
  21355634.857   112224618.527    21355631.408    87447738.281    21355630.783  
                                
  23887970.786   125532133.459                    97817222.124    23887964.711  
                                
  22851155.359   120083631.432                    93571640.631    22851150.284  
                                
  20409449.702   107252381.716    20409448.148    83573274.466    20409447.272  
  20409450.006    80091065.340  
  22735679.389   121321941.320    22735679.049    94361508.084    22735678.263  
                                
  22602238.100   120991549.825    22602235.241    94104526.226    22602234.347  
                                
  20060697.783   107160646.228    20060696.622    83347164.504    20060695.889  
                                
  21792938.971   116373077.789    21792937.559    90512388.086    21792936.773  
                                
  22516633.186   120491052.143    22516630.595    93715252.319    22516629.773  
                                
  19818305.416   105791460.166    19818304.111    82282241.401    19818302.467  
                                
  25689450.471   134998973.400                                                  
  25689454.277   100810935.708  
  23755758.296   124837352.561                                                  
  23755762.960    93222716.369  
  24086804.104   126577010.018                                                  
  24086808.786    94521811.431  
  25059264.245   131687323.229                                                  
  25059267.962    98337950.062  
 21  8 31  8 19 29.0000000  0 20G 1G 7G 8G 9G13G14G17G19G21G30R 2R 3
                                R12R13R21R22E 1E 9E31E33
  22257097.188   116961834.669    22257096.599    91139088.531    22257096.259  
  22257097.975    87341632.756  
  20636154.157   108443721.695    20636150.333    84501583.168    20636149.744  
                                
  23980601.639   126018912.100    23980600.853    98196546.985    23980599.709  
  23980601.192    94105030.010  
  24677060.908   129678830.039    24677059.746   101048431.764    24677059.246  
  24677062.266    96838092.037  
  22901847.400   120350019.858                    93779216.275    22901842.629  
                                
  21227213.977   111549761.973    21227210.618    86921876.948    21227210.135  
  21227216.407    83300156.146  
  21355209.038   112222380.884    21355205.589    87445994.663    21355204.946  
                                
  23887287.046   125528540.386                    97814422.331    23887280.970  
                                
  22851231.856   120084033.475                    93571953.914    22851226.781  
                                
  20409291.472   107251550.172    20409289.917    83572626.510    20409289.024  
  20409291.776    80090444.373  
  22736298.229   121325243.527    22736297.871    94364076.468    22736297.103  
                                
  22602390.254   120992364.300    22602387.413    94105159.711    22602386.520  
                                
  20060644.676   107160362.422    20060643.479    83346943.767    20060642.747  
                                
  21792483.025   116370643.066    21792481.631    90510494.415    21792480.827  
                                
  22517265.428   120494435.360    22517262.819    93717883.717    22517261.997  
                                
  19818320.622   105791541.313    19818319.300    82282304.515    19818317.674  
                                
  25689688.593   135000224.740                                                  
  25689692.417   100811870.148  
  23755995.704   124838600.156                                                  
  23756000.386    93223648.012  
  24086729.608   126576618.580                                                  
  24086734.308    94521519.119  
  25058915.138   131685488.580                                                  
  25058918.837    98336580.027  
 21  8 31  8 19 30.0000000  0 20G 1G 7G 8G 9G13G14G17G19G21G30R 2R 3
                                R12R13R21R22E 1E 9E31E33
  22256728.247   116959895.826    22256727.621    91137577.747    22256727.300  
  22256729.033    87340184.926  
  20636377.359   108444894.614    20636373.535    84502497.131    20636372.946  
                                
  23981261.399   126022379.153    23981260.595    98199248.583    23981259.469  
  23981260.952    94107619.048  
  24677740.860   129682403.294    24677739.698   101051216.125    24677739.180  
  24677742.218    96840760.376  
  22901504.172   120348216.120                    93777810.763    22901499.383  
                                
  21227018.812   111548736.377    21227015.452    86921077.780    21227014.988  
  21227021.242    83299390.288  
  21354783.434   112220144.247    21354779.985    87444251.831    21354779.342  
                                
  23886603.430   125524948.040                    97811623.101    23886597.373  
                                
  22851308.603   120084436.647                    93572268.070    22851303.529  
                                
  20409133.438   107250719.641    20409131.884    83571979.341    20409130.990  
  20409133.724    80089824.176  
  22736917.212   121328546.565    22736916.872    94366645.493    22736916.086  
                                
  22602542.659   120993180.126    22602539.800    94105794.238    22602538.925  
                                
  20060591.677   107160079.415    20060590.515    83346723.650    20060589.765  
                                
  21792027.204   116368208.978    21792025.810    90508601.238    21792025.006  
                                
  22517897.866   120497819.665    22517895.239    93720515.955    22517894.417  
                                
  19818336.097   105791623.977    19818334.793    82282368.809    19818333.149  
                                
  25689926.823   135001476.690                                                  
  25689930.665   100812805.042  
  23756233.308   124839848.714                                                  
  23756237.972    93224580.373  
  24086655.237   126576227.752                                                  
  24086659.919    94521227.274  
  25058566.192   131683654.855                                                  
  25058569.909    98335210.683  
 21  8 31  8 19 31.0000000  0 20G 1G 7G 8G 9G13G14G17G19G21G30R 2R 3
                                R12R13R21R22E 1E 9E31E33
  22256359.376   116957957.391    22256358.769    91136067.273    22256358.447  
  22256360.163    87338737.391  
  20636600.651   108446067.989    20636596.827    84503411.442    20636596.237  
                                
  23981921.159   126025846.216    23981920.373    98201950.188    23981919.229  
  23981920.712    94110208.077  
  24678420.794   129685976.384    24678419.632   101054000.353    24678419.132  
  24678422.152    96843428.584  
  22901160.997   120346412.829                    93776405.603    22901156.226  
                                
  21226823.664   111547710.884    21226820.305    86920278.692    21226819.822  
  21226826.094    83298624.494  
  21354357.865   112217907.977    21354354.416    87442509.284    21354353.809  
                                
  23885919.851   125521355.761                    97808823.920    23885913.776  
                                
  22851385.404   120084840.287                    93572582.598    22851380.312  
                                
  20408975.458   107249889.474    20408973.904    83571332.457    20408973.028  
  20408975.744    80089204.244  
  22737536.230   121331849.762    22737535.873    94369214.646    22737535.105  
                                
  22602695.189   120993996.586    22602692.330    94106429.263    22602691.437  
                                
  20060538.731   107159796.567    20060537.552    83346503.657    20060536.819  
                                
  21791571.365   116365774.794    21791569.936    90506707.986    21791569.131  
                                
  22518530.376   120501204.368    22518527.767    93723148.499    22518526.945  
                                
  19818351.732   105791707.469    19818350.446    82282433.743    19818348.802  
                                
  25690165.053   135002728.573                                                  
  25690168.877   100813739.893  
  23756470.948   124841097.554                                                  
  23756475.630    93225512.943  
  24086580.849   126575836.890                                                  
  24086585.548    94520935.396  
  25058217.299   131681821.391                                                  
  25058221.016    98333841.535  
 21  8 31  8 19 32.0000000  0 20G 1G 7G 8G 9G13G14G17G19G21G30R 2R 3
                                R12R13R21R22E 1E 9E31E33
  22255990.810   116956020.520    22255990.220    91134558.016    22255989.863  
  22255991.596    87337291.024  
  20636824.228   108447242.848    20636820.404    84504326.910    20636819.814  
                                
  23982581.134   126029314.435    23982580.347    98204652.696    23982579.204  
  23982580.687    94112797.978  
  24679100.925   129689550.454    24679099.763   101056785.349    24679099.245  
  24679102.265    96846097.519  
  22900818.162   120344611.168                    93775001.709    22900813.409  
                                
  21226628.767   111546686.644    21226625.407    86919480.581    21226624.925  
  21226631.179    83297859.642  
  21353932.618   112215673.216    21353929.187    87440767.911    21353928.544  
                                
  23885236.504   125517764.721                    97806025.705    23885230.428  
                                
  22851462.509   120085245.558                    93572898.387    22851457.452  
                                
  20408817.764   107249060.800    20408816.210    83570686.735    20408815.334  
  20408818.068    80088585.435  
  22738155.499   121335154.302    22738155.142    94371784.841    22738154.373  
                                
  22602848.041   120994814.843    22602845.200    94107065.685    22602844.306  
                                
  20060486.035   107159515.058    20060484.856    83346284.708    20060484.123  
                                
  21791115.723   116363341.711    21791114.293    90504815.588    21791113.525  
                                
  22519163.207   120504590.714    22519160.580    93725782.326    22519159.758  
                                
  19818367.761   105791792.983    19818366.456    82282500.254    19818364.812  
                                
  25690403.497   135003981.568                                                  
  25690407.303   100814675.571  
  23756708.874   124842347.828                                                  
  23756713.556    93226446.594  
  24086506.692   126575447.148                                                  
  24086511.374    94520644.349  
  25057868.657   131679989.344                                                  
  25057872.373    98332473.453  
 21  8 31  8 19 33.0000000  0 20G 1G 7G 8G 9G13G14G17G19G21G30R 2R 3
                                R12R13R21R22E 1E 9E31E33
  22255622.101   116954082.983    22255621.511    91133048.245    22255621.189  
  22255622.905    87335844.162  
  20637047.680   108448417.059    20637043.856    84505241.879    20637043.249  
                                
  23983240.911   126032781.612    23983240.125    98207354.386    23983238.982  
  23983240.465    94115387.095  
  24679780.787   129693123.277    24679779.626   101059569.377    24679779.126  
  24679782.145    96848765.536  
  22900475.202   120342808.915                    93773597.361    22900470.431  
                                
  21226433.673   111545661.427    21226430.313    86918681.708    21226429.849  
  21226436.085    83297094.055  
  21353507.210   112213437.768    21353503.779    87439026.001    21353503.136  
                                
  23884552.960   125514172.710                    97803226.726    23884546.903  
                                
  22851539.543   120085650.224                    93573213.704    22851534.450  
                                
  20408659.945   107248231.443    20408658.390    83570040.480    20408657.497  
  20408660.231    80087966.110  
  22738774.589   121338457.912    22738774.250    94374354.319    22738773.464  
                                
  22603000.803   120995632.642    22602997.980    94107701.748    22602997.069  
                                
  20060433.161   107159232.624    20060431.981    83346065.032    20060431.249  
                                
  21790659.848   116360907.480    21790658.455    90502922.300    21790657.650  
                                
  22519795.896   120507976.439    22519793.269    93728415.670    22519792.465  
                                
  19818383.736   105791878.261    19818382.431    82282566.579    19818380.805  
                                
  25690641.709   135005233.433                                                  
  25690645.551   100815610.410  
  23756946.622   124843597.334                                                  
  23756951.304    93227379.665  
  24086432.303   126575056.288                                                  
  24086436.985    94520352.477  
  25057519.889   131678156.500                                                  
  25057523.588    98331104.766  
 21  8 31  8 19 34.0000000  0 20G 1G 7G 8G 9G13G14G17G19G21G30R 2R 3
                                R12R13R21R22E 1E 9E31E33
  22255253.463   116952145.713    22255252.855    91131538.684    22255252.516  
  22255254.249    87334397.508  
  20637271.168   108449591.548    20637267.344    84506157.070    20637266.736  
                                
  23983900.689   126036248.639    23983899.903    98210055.963    23983898.742  
  23983900.243    94117976.118  
  24680460.632   129696695.768    24680459.471   101062353.129    24680458.953  
  24680461.972    96851433.332  
  22900132.296   120341006.979                    93772193.252    22900127.542  
                                
  21226238.561   111544636.184    21226235.201    86917882.820    21226234.755  
  21226240.991    83296328.449  
  21353081.874   112211202.551    21353078.425    87437284.274    21353077.800  
                                
  23883869.416   125510580.622                    97800427.701    23883863.341  
                                
  22851616.612   120086055.242                    93573529.303    22851611.537  
                                
  20408502.162   107247402.309    20408500.607    83569394.404    20408499.731  
  20408502.465    80087346.954  
  22739393.697   121341761.496    22739393.322    94376923.770    22739392.572  
                                
  22603153.673   120996450.941    22603150.849    94108338.203    22603149.938  
                                
  20060380.286   107158950.178    20060379.107    83345845.355    20060378.374  
                                
  21790203.956   116358472.998    21790202.544    90501028.816    21790201.758  
                                
  22520428.656   120511362.459    22520426.029    93731049.244    22520425.207  
                                
  19818399.854   105791964.281    19818398.549    82282633.486    19818396.905  
                                
  25690879.903   135006485.110                                                  
  25690883.727   100816545.102  
  23757184.423   124844846.983                                                  
  23757189.104    93228312.844  
  24086357.897   126574665.253                                                  
  24086362.578    94520060.475  
  25057171.139   131676323.772                                                  
  25057174.838    98329736.177  
 21  8 31  8 19 35.0000000  0 20G 1G 7G 8G 9G13G14G17G19G21G30R 2R 3
                                R12R13R21R22E 1E 9E31E33
  22254885.075   116950209.869    22254884.467    91130030.241    22254884.146  
  22254885.861    87332951.904  
  20637494.942   108450767.435    20637491.100    84507073.347    20637490.510  
                                
  23984560.628   126039716.690    23984559.842    98212758.336    23984558.698  
  23984560.164    94120565.886  
  24681140.620   129700269.143    24681139.476   101065137.566    24681138.958  
  24681141.978    96854101.748  
  22899789.693   120339206.528                    93770790.308    22899784.922  
                                
  21226043.699   111543612.052    21226040.340    86917084.798    21226039.857  
  21226046.111    83295563.669  
  21352656.788   112208968.714    21352653.339    87435543.629    21352652.713  
                                
  23883186.069   125506989.644                    97797629.541    23883180.012  
                                
  22851693.967   120086461.737                    93573846.052    22851688.892  
                                
  20408344.646   107246574.565    20408343.092    83568749.412    20408342.216  
  20408344.950    80086728.820  
  22740012.984   121345066.215    22740012.627    94379494.103    22740011.876  
                                
  22603306.864   120997270.937    22603304.005    94108975.973    22603303.129  
                                
  20060327.644   107158668.926    20060326.465    83345626.605    20060325.714  
                                
  21789748.224   116356039.504    21789746.831    90499136.101    21789746.027  
                                
  22521061.666   120514749.884    22521059.057    93733683.910    22521058.235  
                                
  19818416.311   105792052.183    19818414.989    82282701.854    19818413.363  
                                
  25691118.276   135007737.747                                                  
  25691122.100   100817480.513  
  23757422.492   124846097.939                                                  
  23757427.173    93229246.991  
  24086283.669   126574275.194                                                  
  24086288.350    94519769.193  
  25056822.622   131674492.327                                                  
  25056826.321    98328368.535  
 21  8 31  8 19 36.0000000  0 20G 1G 7G 8G 9G13G14G17G19G21G30R 2R 3
                                R12R13R21R22E 1E 9E31E33
  22254516.830   116948274.832    22254516.240    91128522.425    22254515.919  
  22254517.634    87331506.909  
  20637718.841   108451944.151    20637715.017    84507990.270    20637714.427  
                                
  23985220.638   126043185.123    23985219.852    98215461.011    23985218.726  
  23985220.210    94123155.960  
  24681820.644   129703842.749    24681819.500   101067922.201    24681818.982  
  24681822.002    96856770.342  
  22899447.233   120337406.936                    93769388.031    22899442.480  
                                
  21225848.891   111542588.391    21225845.532    86916287.139    21225845.049  
  21225851.321    83294799.262  
  21352231.844   112206735.628    21352228.396    87433803.557    21352227.770  
                                
  23882502.811   125503399.120                    97794831.726    23882496.754  
                                
  22851771.483   120086869.094                    93574163.473    22851766.408  
                                
  20408187.274   107245747.541    20408185.719    83568104.975    20408184.843  
  20408187.577    80086111.257  
  22740632.396   121348371.450    22740632.056    94382064.838    22740631.270  
                                
  22603460.234   120998092.006    22603457.392    94109614.582    22603456.499  
                                
  20060275.091   107158388.237    20060273.930    83345408.289    20060273.179  
                                
  21789292.564   116353606.280    21789291.153    90497243.598    21789290.366  
                                
  22521694.855   120518138.107    22521692.228    93736319.196    22521691.406  
                                
  19818433.019   105792141.285    19818431.696    82282771.160    19818430.070  
                                
  25691356.720   135008990.727                                                  
  25691360.526   100818416.173  
  23757660.668   124847349.572                                                  
  23757665.350    93230181.658  
  24086209.512   126573885.490                                                  
  24086214.194    94519478.178  
  25056474.230   131672661.539                                                  
  25056477.929    98327001.400  
 21  8 31  8 19 37.0000000  0 20G 1G 7G 8G 9G13G14G17G19G21G30R 2R 3
                                R12R13R21R22E 1E 9E31E33
  22254148.532   116946339.322    22254147.924    91127014.235    22254147.585  
  22254149.318    87330061.563  
  20637942.668   108453120.378    20637938.862    84508906.808    20637938.254  
                                
  23985880.506   126046652.720    23985879.737    98218163.032    23985878.594  
  23985880.077    94125745.380  
  24682500.471   129707415.285    24682499.309   101070706.006    24682498.809  
  24682501.829    96859438.153  
  22899104.720   120335606.966                    93767985.459    22899099.949  
                                
  21225653.958   111541563.981    21225650.598    86915488.897    21225650.116  
  21225656.370    83294034.271  
  21351806.794   112204502.050    21351803.363    87432063.106    21351802.720  
                                
  23881819.411   125499807.810                    97792033.300    23881813.353  
                                
  22851848.927   120087276.073                    93574480.606    22851843.852  
                                
  20408029.812   107244920.050    20408028.239    83567460.179    20408027.364  
  20408030.098    80085493.315  
  22741251.665   121351675.957    22741251.325    94384635.009    22741250.539  
                                
  22603613.586   120998912.867    22603610.744    94110253.029    22603609.851  
                                
  20060222.414   107158106.817    20060221.234    83345189.412    20060220.484  
                                
  21788836.726   116351172.127    21788835.314    90495350.370    21788834.528  
                                
  22522327.954   120521525.926    22522325.327    93738954.167    22522324.505  
                                
  19818449.690   105792230.379    19818448.368    82282840.460    19818446.760  
                                
  25691594.950   135010242.771                                                  
  25691598.792   100819351.150  
  23757898.719   124848600.639                                                  
  23757903.401    93231115.890  
  24086135.195   126573494.889                                                  
  24086139.877    94519186.491  
  25056125.730   131670830.162                                                  
  25056129.429    98325633.806  
 21  8 31  8 19 38.0000000  0 20G 1G 7G 8G 9G13G14G17G19G21G30R 2R 3
                                R12R13R21R22E 1E 9E31E33
  22253780.180   116944403.625    22253779.554    91125505.902    22253779.250  
  22253780.966    87328616.086  
  20638166.460   108454296.440    20638162.654    84509823.220    20638162.064  
                                
  23986540.266   126050119.718    23986539.479    98220864.585    23986538.336  
  23986539.819    94128334.376  
  24683180.155   129710987.092    24683178.993   101073489.244    24683178.493  
  24683181.495    96862105.416  
  22898762.170   120333806.858                    93766582.775    22898757.382  
                                
  21225458.935   111540539.086    21225455.558    86914690.276    21225455.093  
  21225461.330    83293268.926  
  21351381.726   112202268.256    21351378.295    87430322.488    21351377.651  
                                
  23881135.920   125496216.007                    97789234.497    23881129.845  
                                
  22851926.335   120087682.949                    93574797.653    22851921.261  
                                
  20407872.296   107244092.324    20407870.724    83566815.200    20407869.848  
  20407872.600    80084875.214  
  22741870.844   121354980.009    22741870.505    94387204.824    22741869.719  
                                
  22603766.938   120999733.763    22603764.078    94110891.504    22603763.203  
                                
  20060169.628   107157824.929    20060168.449    83344970.166    20060167.716  
                                
  21788380.762   116348737.269    21788379.350    90493456.597    21788378.546  
                                
  22522961.000   120524913.614    22522958.391    93741589.038    22522957.569  
                                
  19818466.434   105792319.753    19818465.111    82282909.973    19818463.503  
                                
  25691833.108   135011494.207                                                  
  25691836.932   100820285.660  
  23758136.752   124849851.401                                                  
  23758141.434    93232049.907  
  24086060.735   126573103.656                                                  
  24086065.417    94518894.348  
  25055777.159   131668998.462                                                  
  25055780.858    98324265.978  
 21  8 31  8 19 39.0000000  0 20G 1G 7G 8G 9G13G14G17G19G21G30R 2R 3
                                R12R13R21R22E 1E 9E31E33
  22253411.935   116942468.515    22253411.309    91123998.024    22253410.988  
  22253412.721    87327171.027  
  20638390.376   108455473.043    20638386.552    84510740.055    20638385.963  
                                
  23987200.026   126053586.883    23987199.275    98223566.272    23987198.114  
  23987199.597    94130923.475  
  24683859.839   129714558.868    24683858.677   101076272.448    24683858.177  
  24683861.179    96864772.653  
  22898419.728   120332007.381                    93765180.585    22898414.975  
                                
  21225263.931   111539514.430    21225260.571    86913891.845    21225260.089  
  21225266.361    83292503.765  
  21350956.747   112200034.971    21350953.316    87428582.263    21350952.673  
                                
  23880452.448   125492624.418                    97786435.859    23880446.391  
                                
  22852003.887   120088090.429                    93575115.179    22851998.794  
                                
  20407714.888   107243265.118    20407713.316    83566170.624    20407712.440  
  20407715.174    80084257.491  
  22742490.095   121358284.388    22742489.756    94389774.890    22742488.970  
                                
  22603920.432   121000555.400    22603917.573    94111530.558    22603916.662  
                                
  20060116.915   107157543.354    20060115.771    83344751.158    20060115.003  
                                
  21787924.798   116346302.502    21787923.386    90491562.891    21787922.600  
                                
  22523594.189   120528301.876    22523591.562    93744224.355    22523590.740  
                                
  19818483.356   105792410.098    19818482.033    82282980.242    19818480.425  
                                
  25692071.267   135012745.726                                                  
  25692075.108   100821220.227  
  23758374.839   124851102.605                                                  
  23758379.521    93232984.246  
  24085986.293   126572712.536                                                  
  24085990.974    94518602.275  
  25055428.677   131667167.166                                                  
  25055432.376    98322898.459  
 21  8 31  8 19 40.0000000  0 20G 1G 7G 8G 9G13G14G17G19G21G30R 2R 3
                                R12R13R21R22E 1E 9E31E33
  22253043.797   116940533.977    22253043.190    91122490.594    22253042.868  
  22253044.583    87325726.405  
  20638614.382   108456650.220    20638610.576    84511657.336    20638609.969  
                                
  23987859.839   126057054.228    23987859.089    98226268.101    23987857.927  
  23987859.393    94133512.719  
  24684539.523   129718130.634    24684538.361   101079055.648    24684537.861  
  24684540.863    96867439.906  
  22898077.429   120330208.564                    93763778.914    22898072.658  
                                
  21225068.997   111538490.052    21225065.638    86913093.628    21225065.173  
  21225071.410    83291738.812  
  21350531.857   112197802.234    21350528.426    87426842.468    21350527.783  
                                
  23879769.047   125489033.094                    97783637.424    23879762.990  
                                
  22852081.546   120088498.570                    93575433.211    22852076.453  
                                
  20407557.569   107242438.452    20407556.015    83565526.470    20407555.121  
  20407557.873    80083640.173  
  22743109.382   121361589.107    22743109.043    94392345.229    22743108.274  
                                
  22604074.052   121001377.889    22604071.211    94112170.276    22604070.318  
                                
  20060064.273   107157262.150    20060063.111    83344532.446    20060062.361  
                                
  21787468.852   116343867.835    21787467.440    90489669.264    21787466.654  
                                
  22524227.485   120531690.708    22524224.840    93746860.113    22524224.018  
                                
  19818500.474   105792501.496    19818499.152    82283051.329    19818497.544  
                                
  25692309.443   135013997.365                                                  
  25692313.285   100822154.897  
  23758613.033   124852354.277                                                  
  23758617.697    93233918.925  
  24085911.904   126572321.561                                                  
  24085916.585    94518310.311  
  25055080.285   131665336.332                                                  
  25055083.984    98321531.272  
 21  8 31  8 19 41.0000000  0 20G 1G 7G 8G 9G13G14G17G19G21G30R 2R 3
                                R12R13R21R22E 1E 9E31E33
  22252675.749   116938599.917    22252675.159    91120983.537    22252674.820  
  22252676.553    87324282.137  
  20638838.496   108457827.911    20638834.654    84512575.015    20638834.082  
                                
  23988519.671   126060521.625    23988518.885    98228969.969    23988517.759  
  23988519.224    94136102.018  
  24685219.207   129721702.363    24685218.045   101081838.806    24685217.545  
  24685220.547    96870107.088  
  22897735.238   120328410.275                    93762377.651    22897730.449  
                                
  21224874.100   111537465.856    21224870.741    86912295.554    21224870.276  
  21224876.512    83290973.982  
  21350107.075   112195569.923    21350103.644    87425103.005    21350103.000  
                                
  23879085.682   125485441.907                    97780839.099    23879079.589  
                                
  22852159.312   120088907.250                    93575751.665    22852154.237  
                                
  20407400.340   107241612.211    20407398.785    83564882.642    20407397.892  
  20407400.626    80083023.181  
  22743728.722   121364894.008    22743728.365    94394915.708    22743727.597  
                                
  22604227.851   121002201.117    22604225.010    94112810.564    22604224.099  
                                
  20060011.666   107156981.165    20060010.523    83344313.905    20060009.772  
                                
  21787012.942   116341433.168    21787011.512    90487775.634    21787010.708  
                                
  22524860.870   120535080.051    22524858.226    93749496.271    22524857.404  
                                
  19818517.753   105792593.824    19818516.467    82283123.139    19818514.823  
                                
  25692547.637   135015249.016                                                  
  25692551.461   100823089.573  
  23758851.281   124853606.297                                                  
  23758855.963    93234853.882  
  24085837.497   126571930.614                                                  
  24085842.197    94518018.367  
  25054731.946   131663505.823                                                  
  25054735.645    98320164.334  
 21  8 31  8 19 42.0000000  0 20G 1G 7G 8G 9G13G14G17G19G21G30R 2R 3
                                R12R13R21R22E 1E 9E31E33
  22252308.112   116936667.812    22252307.486    91119477.993    22252307.165  
  22252308.898    87322839.329  
  20639062.966   108459007.521    20639059.142    84513494.185    20639058.553  
                                
  23989179.788   126063990.574    23989179.020    98231673.044    23989177.876  
  23989179.342    94138692.476  
  24685899.141   129725275.438    24685897.997   101084623.002    24685897.497  
  24685900.517    96872775.289  
  22897393.421   120326613.985                    93760977.941    22897388.632  
                                
  21224679.524   111536443.295    21224676.165    86911498.753    21224675.682  
  21224681.936    83290210.385  
  21349682.632   112193339.528    21349679.219    87423365.033    21349678.575  
                                
  23878402.603   125481852.352                    97778042.047    23878396.528  
                                
  22852237.471   120089317.973                    93576071.705    22852232.396  
                                
  20407243.485   107240787.906    20407241.913    83564240.327    20407241.037  
  20407243.789    80082407.621  
  22744348.384   121368200.634    22744348.045    94397487.531    22744347.259  
                                
  22604382.043   121003026.587    22604379.184    94113452.601    22604378.290  
                                
  20059959.399   107156701.885    20059958.238    83344096.682    20059957.487  
                                
  21786557.299   116339000.017    21786555.870    90485883.178    21786555.066  
                                
  22525494.613   120538471.408    22525491.986    93752133.994    22525491.164  
                                
  19818535.515   105792688.590    19818534.211    82283196.846    19818532.585  
                                
  25692786.099   135016502.178                                                  
  25692789.923   100824025.371  
  23759089.886   124854860.172                                                  
  23759094.568    93235790.213  
  24085763.412   126571541.177                                                  
  24085768.094    94517727.557  
  25054383.965   131661677.127                                                  
  25054387.628    98318798.750  
 21  8 31  8 19 43.0000000  0 20G 1G 7G 8G 9G13G14G17G19G21G30R 2R 3
                                R12R13R21R22E 1E 9E31E33
  22251940.456   116934735.821    22251939.849    91117972.544    22251939.527  
  22251941.243    87321396.610  
  20639287.455   108460187.237    20639283.649    84514413.446    20639283.041  
                                
  23989839.852   126067459.236    23989839.084    98234375.895    23989837.958  
  23989839.406    94141282.719  
  24686579.021   129728848.079    24686577.860   101087406.869    24686577.360  
  24686580.379    96875443.162  
  22897051.622   120324817.891                    93759578.386    22897046.851  
                                
  21224484.895   111535420.534    21224481.535    86910701.796    21224481.053  
  21224487.307    83289446.641  
  21349258.225   112191109.201    21349254.794    87421627.113    21349254.150  
                                
  23877719.470   125478262.567                    97775244.820    23877713.413  
                                
  22852315.666   120089728.849                    93576391.872    22852310.573  
                                
  20407086.631   107239963.646    20407085.059    83563598.046    20407084.183  
  20407086.935    80081792.111  
  22744967.993   121371507.085    22744967.653    94400059.216    22744966.885  
                                
  22604536.324   121003852.388    22604533.465    94114094.891    22604532.554  
                                
  20059907.079   107156422.428    20059905.935    83343879.324    20059905.167  
                                
  21786101.550   116336566.412    21786100.138    90483990.372    21786099.352  
                                
  22526128.391   120541862.900    22526125.765    93754771.825    22526124.943  
                                
  19818553.384   105792783.901    19818552.062    82283270.975    19818550.454  
                                
  25693024.490   135017754.976                                                  
  25693028.314   100824960.914  
  23759328.491   124856114.021                                                  
  23759333.173    93236726.537  
  24085689.220   126571151.400                                                  
  24085693.902    94517436.494  
  25054035.966   131659848.411                                                  
  25054039.665    98317433.152  
 21  8 31  8 19 44.0000000  0 20G 1G 7G 8G 9G13G14G17G19G21G30R 2R 3
                                R12R13R21R22E 1E 9E31E33
  22251572.962   116932804.613    22251572.355    91116467.707    22251572.015  
  22251573.748    87319954.479  
  20639512.104   108461367.754    20639508.298    84515333.327    20639507.691  
                                
  23990500.005   126070928.311    23990499.237    98237079.066    23990498.076  
  23990499.559    94143873.252  
  24687258.902   129732420.896    24687257.758   101090190.876    24687257.258  
  24687260.260    96878111.179  
  22896709.985   120323022.628                    93758179.481    22896705.231  
                                
  21224290.355   111534398.257    21224286.995    86909905.217    21224286.531  
  21224292.785    83288683.255  
  21348833.942   112188879.630    21348830.529    87419889.785    21348829.886  
                                
  23877036.445   125474673.259                    97772447.953    23877030.387  
                                
  22852394.004   120090140.590                    93576712.700    22852388.929  
                                
  20406929.920   107239140.146    20406928.383    83562956.358    20406927.472  
  20406930.206    80081177.155  
  22745587.726   121374814.074    22745587.387    94402631.324    22745586.600  
                                
  22604690.766   121004679.200    22604687.925    94114737.966    22604687.031  
                                
  20059854.866   107156143.555    20059853.704    83343662.421    20059852.972  
                                
  21785645.890   116334133.171    21785644.478    90482097.851    21785643.692  
                                
  22526762.331   120545255.229    22526759.704    93757410.300    22526758.882  
                                
  19818571.468   105792880.435    19818570.145    82283346.059    19818568.519  
                                
  25693262.952   135019008.109                                                  
  25693266.776   100825896.690  
  23759567.203   124857368.560                                                  
  23759571.885    93237663.361  
  24085615.135   126570761.970                                                  
  24085619.817    94517145.685  
  25053688.092   131658020.341                                                  
  25053691.790    98316068.033  
 21  8 31  8 19 45.0000000  0 20G 1G 7G 8G 9G13G14G17G19G21G30R 2R 3
                                R12R13R21R22E 1E 9E31E33
  22251205.521   116930873.749    22251204.932    91114963.137    22251204.592  
  22251206.326    87318512.585  
  20639736.807   108462548.591    20639732.983    84516253.462    20639732.394  
                                
  23991160.105   126074397.290    23991159.355    98239782.169    23991158.211  
  23991159.694    94146463.734  
  24687938.747   129735993.461    24687937.603   101092974.681    24687937.103  
  24687940.105    96880779.003  
  22896368.436   120321227.752                    93756780.877    22896363.683  
                                
  21224095.850   111533375.995    21224092.455    86909108.647    21224092.009  
  21224098.245    83287919.878  
  21348409.714   112186650.333    21348406.301    87418152.673    21348405.658  
                                
  23876353.437   125471083.953                    97769651.090    23876347.380  
                                
  22852472.449   120090552.719                    93577033.844    22852467.374  
                                
  20406773.262   107238316.922    20406771.708    83562314.886    20406770.814  
  20406773.566    80080562.412  
  22746207.460   121378121.132    22746207.120    94405203.480    22746206.352  
                                
  22604845.333   121005506.603    22604842.474    94115381.503    22604841.598  
                                
  20059802.670   107155864.755    20059801.527    83343445.574    20059800.776  
                                
  21785190.194   116331699.739    21785188.765    90480205.182    21785187.996  
                                
  22527396.342   120548647.904    22527393.697    93760049.048    22527392.893  
                                
  19818589.694   105792977.743    19818588.390    82283421.743    19818586.746  
                                
  25693501.378   135020261.098                                                  
  25693505.220   100826832.366  
  23759805.969   124858623.289                                                  
  23759810.651    93238600.343  
  24085540.996   126570372.419                                                  
  24085545.678    94516854.787  
  25053340.235   131656192.441                                                  
  25053343.934    98314703.055  
 21  8 31  8 19 46.0000000  0 20G 1G 7G 8G 9G13G14G17G19G21G30R 2R 3
                                R12R13R21R22E 1E 9E31E33
  22250838.134   116928943.099    22250837.545    91113458.735    22250837.205  
  22250838.938    87317070.883  
  20639961.546   108463729.656    20639957.740    84517173.771    20639957.150  
                                
  23991820.223   126077866.125    23991819.472    98242485.152    23991818.328  
  23991819.776    94149054.087  
  24688618.520   129739565.712    24688617.394   101095758.246    24688616.894  
  24688619.914    96883446.593  
  22896026.941   120319433.193                    93755382.515    22896022.188  
                                
  21223901.292   111532353.665    21223897.933    86908312.029    21223897.469  
  21223903.705    83287156.448  
  21347985.539   112184421.232    21347982.108    87416415.713    21347981.483  
                                
  23875670.394   125467494.550                    97766854.157    23875664.336  
                                
  22852550.929   120090965.170                    93577355.232    22852545.854  
                                
  20406616.640   107237493.891    20406615.086    83561673.566    20406614.210  
  20406616.944    80079947.813  
  22746827.193   121381428.173    22746826.854    94407775.625    22746826.067  
                                
  22604999.989   121006334.491    22604997.148    94116025.413    22604996.237  
                                
  20059750.493   107155585.924    20059749.331    83343228.706    20059748.581  
                                
  21784734.445   116329266.056    21784732.997    90478312.322    21784732.229  
                                
  22528030.388   120552040.836    22528027.761    93762687.995    22528026.939  
                                
  19818608.046   105793075.702    19818606.723    82283497.936    19818605.115  
                                
  25693739.805   135021513.885                                                  
  25693743.611   100827767.882  
  23760044.771   124859878.153                                                  
  23760049.435    93239537.408  
  24085466.822   126569982.662                                                  
  24085471.486    94516563.737  
  25052992.433   131654364.649                                                  
  25052996.132    98313338.144  
 21  8 31  8 19 47.0000000  0 20G 1G 7G 8G 9G13G14G17G19G21G30R 2R 3
                                R12R13R21R22E 1E 9E31E33
  22250470.640   116927011.868    22250470.032    91111953.879    22250469.693  
  22250471.426    87315628.715  
  20640186.177   108464910.097    20640182.371    84518093.592    20640181.782  
                                
  23992480.108   126081333.930    23992479.357    98245187.338    23992478.214  
  23992479.697    94151643.679  
  24689298.079   129743136.742    24689296.936   101098540.865    24689296.435  
  24689299.455    96886113.280  
  22895685.357   120317638.079                    93753983.723    22895680.568  
                                
  21223706.592   111531330.412    21223703.214    86907514.688    21223702.750  
  21223708.986    83286392.329  
  21347561.239   112182191.470    21347557.808    87414678.232    21347557.165  
                                
  23874987.172   125463904.215                    97764056.493    23874981.114  
                                
  22852629.303   120091377.055                    93577676.180    22852624.228  
                                
  20406459.893   107236670.209    20406458.356    83561031.734    20406457.463  
  20406460.197    80079332.726  
  22747446.766   121384734.358    22747446.426    94410347.103    22747445.658  
                                
  22605154.574   121007161.954    22605151.715    94116668.993    22605150.822  
                                
  20059698.136   107155306.217    20059696.975    83343011.153    20059696.207  
                                
  21784278.481   116326831.261    21784277.051    90476418.588    21784276.265  
                                
  22528664.310   120555433.137    22528661.683    93765326.447    22528660.879  
                                
  19818626.379   105793173.505    19818625.057    82283574.003    19818623.431  
                                
  25693977.981   135022765.576                                                  
  25693981.823   100828702.589  
  23760283.430   124861132.271                                                  
  23760288.093    93240473.927  
  24085392.451   126569591.844                                                  
  24085397.133    94516271.890  
  25052644.469   131652536.115                                                  
  25052648.168    98311972.671  
 21  8 31  8 19 48.0000000  0 20G 1G 7G 8G 9G13G14G17G19G21G30R 2R 3
                                R12R13R21R22E 1E 9E31E33
  22250103.306   116925081.450    22250102.681    91110449.655    22250102.359  
  22250104.075    87314187.178  
  20640410.988   108466091.397    20640407.181    84519014.088    20640406.574  
                                
  23993140.100   126084802.163    23993139.350    98247889.862    23993138.206  
  23993139.671    94154233.600  
  24689977.674   129746708.063    24689976.530   101101323.716    24689976.030  
  24689979.032    96888780.151  
  22895343.916   120315843.849                    93752585.623    22895339.145  
                                
  21223511.944   111530307.680    21223508.585    86906717.754    21223508.120  
  21223514.375    83285628.603  
  21347137.082   112179962.513    21347133.651    87412941.383    21347133.008  
                                
  23874304.057   125460314.378                    97761259.222    23874297.981  
                                
  22852707.855   120091789.856                    93577997.842    22852702.780  
                                
  20406303.307   107235847.314    20406301.770    83560390.519    20406300.859  
  20406303.611    80078718.230  
  22748066.463   121388041.091    22748066.106    94412919.011    22748065.338  
                                
  22605309.338   121007990.503    22605306.497    94117313.422    22605305.603  
                                
  20059645.870   107155027.094    20059644.726    83342794.055    20059643.958  
                                
  21783822.588   116324396.818    21783821.159    90474525.133    21783820.373  
                                
  22529298.410   120558826.296    22529295.783    93767965.571    22529294.961  
                                
  19818644.927   105793272.582    19818643.623    82283651.060    19818641.997  
                                
  25694216.246   135024017.653                                                  
  25694220.070   100829637.583  
  23760522.195   124862387.118                                                  
  23760526.877    93241410.988  
  24085318.152   126569201.412                                                  
  24085322.834    94515980.332  
  25052296.649   131650708.256                                                  
  25052300.348    98310607.720  
 21  8 31  8 19 49.0000000  0 20G 1G 7G 8G 9G13G14G17G19G21G30R 2R 3
                                R12R13R21R22E 1E 9E31E33
  22249736.170   116923152.194    22249735.544    91108946.337    22249735.240  
  22249736.974    87312746.504  
  20640636.012   108467273.824    20640632.170    84519935.458    20640631.581  
                                
  23993800.235   126088271.163    23993799.467    98250592.978    23993798.341  
  23993799.789    94156824.069  
  24690657.376   129750279.967    24690656.250   101104107.021    24690655.750  
  24690658.752    96891447.489  
  22895002.725   120314050.851                    93751188.477    22894997.971  
                                
  21223317.494   111529285.802    21223314.134    86905921.490    21223313.652  
  21223319.906    83284865.520  
  21346713.140   112177734.662    21346709.709    87411205.402    21346709.065  
                                
  23873621.085   125456725.377                    97758462.598    23873615.027  
                                
  22852786.640   120092203.874                    93578320.459    22852781.565  
                                
  20406146.935   107235025.542    20406145.363    83559750.177    20406144.487  
  20406147.239    80078104.572  
  22748686.304   121391348.716    22748685.965    94415491.603    22748685.178  
                                
  22605464.387   121008820.486    22605461.546    94117958.962    22605460.653  
                                
  20059593.781   107154748.857    20059592.620    83342577.647    20059591.887  
                                
  21783366.821   116321963.061    21783365.392    90472632.213    21783364.623  
                                
  22529932.724   120562220.666    22529930.115    93770605.633    22529929.293  
                                
  19818663.797   105793373.256    19818662.475    82283729.362    19818660.849  
                                
  25694454.655   135025270.430                                                  
  25694458.461   100830573.097  
  23760761.194   124863642.991                                                  
  23760765.875    93242348.816  
  24085243.995   126568811.703                                                  
  24085248.677    94515689.315  
  25051949.007   131648881.424                                                  
  25051952.688    98309243.525  
 21  8 31  8 19 50.0000000  0 20G 1G 7G 8G 9G13G14G17G19G21G30R 2R 3
                                R12R13R21R22E 1E 9E31E33
  22249369.104   116921223.270    22249368.497    91107443.278    22249368.157  
  22249369.908    87311306.074  
  20640861.055   108468456.580    20640857.231    84520857.088    20640856.659  
                                
  23994460.353   126091740.062    23994459.584    98253296.015    23994458.423  
  23994459.906    94159414.488  
  24691337.042   129753851.608    24691335.880   101106890.124    24691335.416  
  24691338.382    96894114.619  
  22894661.623   120312258.235                    93749791.631    22894656.834  
                                
  21223123.043   111528263.957    21223119.666    86905125.250    21223119.201  
  21223125.455    83284102.447  
  21346289.233   112175507.105    21346285.820    87409469.643    21346285.176  
                                
  23872938.113   125453136.359                    97755665.963    23872932.055  
                                
  22852865.513   120092618.292                    93578643.379    22852860.421  
                                
  20405990.617   107234204.055    20405989.062    83559110.057    20405988.151  
  20405990.921    80077491.119  
  22749306.163   121394656.382    22749305.823    94418064.230    22749305.037  
                                
  22605619.544   121009651.046    22605616.703    94118604.953    22605615.792  
                                
  20059541.711   107154470.692    20059540.550    83342361.298    20059539.817  
                                
  21782911.036   116319529.167    21782909.589    90470739.182    21782908.838  
                                
  22530567.128   120565615.385    22530564.484    93773245.970    22530563.662  
                                
  19818682.792   105793474.723    19818681.487    82283808.278    19818679.861  
                                
  25694693.028   135026523.082                                                  
  25694696.852   100831508.509  
  23761000.228   124864899.105                                                  
  23761004.927    93243286.810  
  24085169.821   126568421.876                                                  
  24085174.503    94515398.208  
  25051601.401   131647054.783                                                  
  25051605.100    98307879.473  
 21  8 31  8 19 51.0000000  0 20G 1G 7G 8G 9G13G14G17G19G21G30R 2R 3
                                R12R13R21R22E 1E 9E31E33
  22249002.021   116919294.228    22249001.413    91105940.134    22249001.074  
  22249002.825    87309865.549  
  20641086.115   108469639.216    20641082.291    84521778.625    20641081.701  
                                
  23995120.327   126095208.448    23995119.577    98255998.658    23995118.433  
  23995119.898    94162004.514  
  24692016.547   129757422.526    24692015.386   101109672.674    24692014.921  
  24692017.887    96896781.220  
  22894320.467   120310465.557                    93748394.742    22894315.714  
                                
  21222928.503   111527241.660    21222925.126    86904328.659    21222924.661  
  21222930.915    83283339.043  
  21345865.308   112173279.375    21345861.895    87407733.753    21345861.252  
                                
  23872255.052   125449546.889                    97752868.975    23872248.994  
                                
  22852944.352   120093032.665                    93578966.267    22852939.277  
                                
  20405834.245   107233382.400    20405832.708    83558469.809    20405831.797  
  20405834.549    80076877.544  
  22749925.950   121397963.631    22749925.610    94420636.532    22749924.824  
                                
  22605774.719   121010481.723    22605771.860    94119251.040    22605770.966  
                                
  20059489.587   107154192.160    20059488.426    83342144.662    20059487.675  
                                
  21782455.108   116317094.605    21782453.696    90468845.636    21782452.910  
                                
  22531201.479   120569010.008    22531198.870    93775886.231    22531198.048  
                                
  19818701.858   105793576.491    19818700.536    82283887.431    19818698.927  
                                
  25694931.275   135027775.132                                                  
  25694935.099   100832443.484  
  23761239.190   124866154.941                                                  
  23761243.890    93244224.613  
  24085095.522   126568031.465                                                  
  24085100.203    94515106.675  
  25051253.759   131645227.868                                                  
  25051257.440    98306515.212  
 21  8 31  8 19 52.0000000  0 20G 1G 7G 8G 9G13G14G17G19G21G30R 2R 3
                                R12R13R21R22E 1E 9E31E33
  22248634.920   116917365.154    22248634.312    91104436.957    22248633.990  
  22248635.724    87308425.009  
  20641311.157   108470821.816    20641307.316    84522700.131    20641306.744  
                                
  23995780.266   126098676.397    23995779.498    98258700.958    23995778.372  
  23995779.819    94164594.223  
  24692695.981   129760992.881    24692694.837   101112454.758    24692694.337  
  24692697.339    96899447.388  
  22893979.330   120308672.926                    93746997.893    22893974.577  
                                
  21222733.909   111526219.034    21222730.532    86903531.803    21222730.067  
  21222736.286    83282575.396  
  21345441.383   112171051.588    21345437.953    87405997.812    21345437.327  
                                
  23871571.937   125445957.075                    97750071.718    23871565.879  
                                
  22853023.208   120093447.056                    93579289.170    22853018.133  
                                
  20405677.873   107232560.667    20405676.336    83557829.500    20405675.425  
  20405678.177    80076263.916  
  22750545.665   121401270.584    22750545.326    94423208.607    22750544.540  
                                
  22605929.929   121011312.570    22605927.070    94119897.254    22605926.177  
                                
  20059437.392   107153913.368    20059436.230    83341927.826    20059435.480  
                                
  21781999.090   116314659.530    21781997.679    90466951.691    21781996.892  
                                
  22531835.847   120572404.584    22531833.220    93778526.454    22531832.398  
                                
  19818720.996   105793678.661    19818719.691    82283966.897    19818718.065  
                                
  25695169.434   135029026.695                                                  
  25695173.275   100833378.099  
  23761478.152   124867410.638                                                  
  23761482.834    93245162.309  
  24085021.151   126567640.585                                                  
  24085025.833    94514814.781  
  25050906.081   131643400.778                                                  
  25050909.744    98305150.838  
 21  8 31  8 19 53.0000000  0 20G 1G 7G 8G 9G13G14G17G19G21G30R 2R 3
                                R12R13R21R22E 1E 9E31E33
  22248267.997   116915436.881    22248267.372    91102934.409    22248267.032  
  22248268.783    87306985.075  
  20641536.343   108472005.218    20641532.537    84523622.267    20641531.929  
                                
  23996440.276   126102144.742    23996439.526    98261403.564    23996438.382  
  23996439.830    94167184.227  
  24693375.433   129764563.427    24693374.307   101115236.990    24693373.807  
  24693376.809    96902113.716  
  22893638.389   120306881.154                    93745601.703    22893633.600  
                                
  21222539.405   111525196.910    21222536.028    86902735.347    21222535.545  
  21222541.799    83281812.119  
  21345017.602   112168824.565    21345014.153    87404262.471    21345013.545  
                                
  23870888.893   125442367.722                    97747274.827    23870882.836  
                                
  22853102.260   120093862.331                    93579612.760    22853097.150  
                                
  20405521.662   107231739.705    20405520.108    83557189.789    20405519.214  
  20405521.966    80075650.856  
  22751165.488   121404578.107    22751165.149    94425781.125    22751164.362  
                                
  22606085.318   121012144.451    22606082.477    94120544.273    22606081.584  
                                
  20059385.286   107153635.119    20059384.124    83341711.413    20059383.391  
                                
  21781543.144   116312224.765    21781541.715    90465057.989    21781540.929  
                                
  22532470.358   120575800.008    22532467.731    93781167.337    22532466.927  
                                
  19818740.366   105793782.060    19818739.043    82284047.325    19818737.453  
                                
  25695407.681   135030278.612                                                  
  25695411.505   100834312.968  
  23761717.240   124868667.037                                                  
  23761721.940    93246100.520  
  24084946.834   126567250.075                                                  
  24084951.515    94514523.164  
  25050558.493   131641574.363                                                  
  25050562.192    98303786.958  
 21  8 31  8 19 54.0000000  0 20G 1G 7G 8G 9G13G14G17G19G21G30R 2R 3
                                R12R13R21R22E 1E 9E31E33
  22247901.235   116913509.573    22247900.610    91101432.613    22247900.288  
  22247902.039    87305545.843  
  20641761.725   108473189.593    20641757.901    84524545.150    20641757.329  
                                
  23997100.394   126105613.633    23997099.625    98264106.598    23997098.482  
  23997099.947    94169774.626  
  24694054.974   129768134.363    24694053.830   101118019.537    24694053.330  
  24694056.332    96904780.324  
  22893297.609   120305090.401                    93744206.313    22893292.856  
                                
  21222345.008   111524175.422    21222341.648    86901939.381    21222341.166  
  21222347.420    83281049.320  
  21344593.981   112166598.434    21344590.550    87402527.823    21344589.907  
                                
  23870205.993   125438779.018                    97744478.431    23870199.935  
                                
  22853181.456   120094278.591                    93579937.119    22853176.363  
                                
  20405365.612   107230919.650    20405364.040    83556550.785    20405363.164  
  20405365.916    80075038.479  
  22751785.454   121407886.289    22751785.114    94428354.153    22751784.328  
                                
  22606240.957   121012977.513    22606238.116    94121192.210    22606237.205  
                                
  20059333.340   107153357.556    20059332.161    83341495.531    20059331.410  
                                
  21781087.288   116309790.528    21781085.876    90463164.691    21781085.090  
                                
  22533105.048   120579196.409    22533102.439    93783808.982    22533101.617  
                                
  19818760.004   105793886.883    19818758.681    82284128.850    19818757.073  
                                
  25695646.000   135031531.012                                                  
  25695649.842   100835248.197  
  23761956.470   124869924.251                                                  
  23761961.152    93247039.358  
  24084872.606   126566860.051                                                  
  24084877.287    94514231.917  
  25050211.101   131639748.751                                                  
  25050214.782    98302423.677  
 21  8 31  8 19 55.0000000  0 20G 1G 7G 8G 9G13G14G17G19G21G30R 2R 3
                                R12R13R21R22E 1E 9E31E33
  22247534.545   116911582.612    22247533.920    91099931.082    22247533.598  
  22247535.349    87304106.879  
  20641987.178   108474374.280    20641983.354    84525468.283    20641982.747  
                                
  23997760.475   126109082.459    23997759.725    98266809.580    23997758.581  
  23997760.047    94172364.981  
  24694734.443   129771705.068    24694733.318   101120801.907    24694732.817  
  24694735.819    96907446.750  
  22892956.918   120303300.039                    93742811.226    22892952.129  
                                
  21222150.646   111523153.964    21222147.269    86901143.439    21222146.787  
  21222153.041    83280286.543  
  21344170.413   112164372.611    21344166.983    87400793.413    21344166.375  
                                
  23869523.075   125435190.296                    97741682.022    23869517.017  
                                
  22853260.740   120094695.300                    93580261.827    22853255.666  
                                
  20405209.615   107230099.888    20405208.061    83555912.008    20405207.167  
  20405209.919    80074426.319  
  22752405.420   121411194.521    22752405.062    94430927.223    22752404.294  
                                
  22606396.704   121013811.185    22606393.863    94121840.617    22606392.951  
                                
  20059281.395   107153080.071    20059280.234    83341279.711    20059279.465  
                                
  21780631.413   116307356.103    21780629.966    90461271.250    21780629.215  
                                
  22533739.827   120582593.196    22533737.218    93786450.923    22533736.396  
                                
  19818779.785   105793992.496    19818778.462    82284210.996    19818776.854  
                                
  25695884.284   135032783.296                                                  
  25695888.126   100836183.347  
  23762195.772   124871181.695                                                  
  23762200.454    93247978.341  
  24084798.378   126566469.937                                                  
  24084803.059    94513940.598  
  25049863.728   131637923.342                                                  
  25049867.444    98301060.545  
 21  8 31  8 19 56.0000000  0 20G 1G 7G 8G 9G13G14G17G19G21G30R 2R 3
                                R12R13R21R22E 1E 9E31E33
  22247167.980   116909656.285    22247167.355    91098430.050    22247167.033  
  22247168.784    87302668.392  
  20642212.721   108475559.606    20642208.897    84526391.911    20642208.325  
                                
  23998420.611   126112551.546    23998419.860    98269512.762    23998418.734  
  23998420.182    94174955.522  
  24695413.931   129775275.825    24695412.787   101123584.319    24695412.287  
  24695415.289    96910113.234  
  22892616.370   120301510.386                    93741416.693    22892611.581  
                                
  21221956.339   111522132.847    21221952.961    86900347.761    21221952.497  
  21221958.715    83279524.020  
  21343746.989   112162147.395    21343743.540    87399059.472    21343742.933  
                                
  23868840.228   125431601.909                    97738885.881    23868834.170  
                                
  22853340.186   120095112.687                    93580587.062    22853335.093  
                                
  20405053.726   107229280.743    20405052.189    83555273.710    20405051.278  
  20405054.030    80073814.607  
  22753025.439   121414503.138    22753025.099    94433500.591    22753024.313  
                                
  22606552.611   121014645.772    22606549.770    94122489.735    22606548.858  
                                
  20059229.521   107152803.004    20059228.360    83341064.214    20059227.591  
                                
  21780175.539   116304921.842    21780174.109    90459377.933    21780173.341  
                                
  22534374.731   120585990.646    22534372.104    93789093.382    22534371.300  
                                
  19818799.798   105794099.191    19818798.476    82284293.981    19818796.850  
                                
  25696122.621   135034035.760                                                  
  25696126.463   100837118.628  
  23762435.146   124872439.667                                                  
  23762439.828    93248917.739  
  24084724.168   126566080.022                                                  
  24084728.849    94513649.423  
  25049516.479   131636098.450                                                  
  25049520.160    98299697.800  
 21  8 31  8 19 57.0000000  0 20G 1G 7G 8G 9G13G14G17G19G21G30R 2R 3
                                R12R13R21R22E 1E 9E31E33
  22246801.522   116907730.579    22246800.914    91096929.503    22246800.593  
  22246802.326    87301230.365  
  20642438.425   108476745.546    20642434.583    84527316.020    20642433.993  
                                
  23999080.800   126116020.815    23999080.067    98272216.084    23999078.923  
  23999080.353    94177546.219  
  24696093.454   129778846.652    24696092.311   101126366.769    24696091.828  
  24696094.812    96912779.750  
  22892275.929   120299721.420                    93740022.692    22892271.158  
                                
  21221762.085   111521112.025    21221758.707    86899552.314    21221758.243  
  21221764.479    83278761.721  
  21343323.636   112159922.737    21343320.223    87397325.975    21343319.580  
                                
  23868157.435   125428013.803                    97736089.957    23868151.377  
                                
  22853419.739   120095530.779                    93580912.849    22853414.646  
                                
  20404897.944   107228462.143    20404896.407    83554635.840    20404895.514  
  20404898.248    80073203.326  
  22753645.530   121417812.100    22753645.190    94436074.226    22753644.422  
                                
  22606708.697   121015481.240    22606705.856    94123139.542    22606704.944  
                                
  20059177.719   107152526.315    20059176.558    83340849.014    20059175.807  
                                
  21779719.700   116302487.745    21779718.288    90457484.749    21779717.502  
                                
  22535009.743   120589388.709    22535007.134    93791736.315    22535006.294  
                                
  19818819.972   105794206.960    19818818.650    82284377.801    19818817.024  
                                
  25696361.012   135035288.385                                                  
  25696364.853   100838054.024  
  23762674.626   124873698.119                                                  
  23762679.308    93249857.491  
  24084649.993   126565690.260                                                  
  24084654.675    94513358.372  
  25049169.284   131634274.013                                                  
  25049172.983    98298335.398  
 21  8 31  8 19 58.0000000  0 20G 1G 7G 8G 9G13G14G17G19G21G30R 2R 3
                                R12R13R21R22E 1E 9E31E33
  22246435.153   116905805.343    22246434.564    91095429.317    22246434.224  
  22246435.958    87299792.689  
  20642664.164   108477931.961    20642660.340    84528240.497    20642659.768  
                                
  23999740.989   126119490.134    23999740.256    98274919.450    23999739.112  
  23999740.578    94180136.962  
  24696772.942   129782417.392    24696771.816   101129149.152    24696771.316  
  24696774.300    96915446.172  
  22891935.596   120297932.979                    93738629.106    22891930.825  
                                
  21221567.848   111520091.366    21221564.471    86898756.996    21221564.024  
  21221570.243    83277999.542  
  21342900.373   112157698.513    21342896.960    87395592.813    21342896.334  
                                
  23867474.677   125424425.821                    97733294.122    23867468.620  
                                
  22853499.399   120095949.398                    93581239.049    22853494.306  
                                
  20404742.251   107227643.984    20404740.714    83553998.316    20404739.821  
  20404742.555    80072592.363  
  22754265.674   121421121.283    22754265.335    94438648.037    22754264.548  
                                
  22606864.872   121016317.399    22606862.031    94123789.885    22606861.155  
                                
  20059125.952   107152249.832    20059124.791    83340633.970    20059124.040  
                                
  21779263.879   116300053.609    21779262.449    90455591.533    21779261.681  
                                
  22535644.843   120592787.267    22535642.235    93794379.634    22535641.413  
                                
  19818840.325   105794315.628    19818839.021    82284462.318    19818837.395  
                                
  25696599.366   135036541.001                                                  
  25696603.208   100838989.421  
  23762914.179   124874956.924                                                  
  23762918.842    93250797.512  
  24084575.837   126565300.527                                                  
  24084580.519    94513067.335  
  25048822.178   131632449.918                                                  
  25048825.877    98296973.245  
 21  8 31  8 19 59.0000000  0 20G 1G 7G 8G 9G13G14G17G19G21G30R 2R 3
                                R12R13R21R22E 1E 9E31E33
  22246068.910   116903880.668    22246068.285    91093929.570    22246067.981  
  22246069.714    87298355.425  
  20642890.046   108479118.910    20642886.223    84529165.395    20642885.633  
                                
  24000401.195   126122959.638    24000400.463    98277622.957    24000399.319  
  24000400.784    94182727.812  
  24697452.429   129785988.032    24697451.285   101131931.471    24697450.803  
  24697453.787    96918112.587  
  22891595.388   120296145.149                    93737235.987    22891590.617  
                                
  21221373.683   111519070.952    21221370.306    86897961.869    21221369.842  
  21221376.060    83277237.540  
  21342477.234   112155474.799    21342473.803    87393860.045    21342473.160  
                                
  23866791.938   125420838.082                    97730498.479    23866785.898  
                                
  22853579.184   120096368.643                    93581565.735    22853574.074  
                                
  20404586.666   107226826.338    20404585.129    83553361.187    20404584.217  
  20404586.969    80071981.774  
  22754885.872   121424430.781    22754885.533    94441222.085    22754884.764  
                                
  22607021.226   121017154.329    22607018.385    94124440.831    22607017.509  
                                
  20059074.257   107151973.633    20059073.096    83340419.146    20059072.327  
                                
  21778808.058   116297619.560    21778806.646    90453698.378    21778805.860  
                                
  22536280.069   120596186.427    22536277.443    93797023.417    22536276.621  
                                
  19818860.874   105794425.292    19818859.552    82284547.613    19818857.962  
                                
  25696837.757   135037793.720                                                  
  25696841.599   100839924.891  
  23763153.784   124876216.167                                                  
  23763158.484    93251737.849  
  24084501.698   126564910.902                                                  
  24084506.380    94512776.375  
  25048475.144   131630626.223                                                  
  25048478.825    98295611.391  
 21  8 31  8 20  0.0000000  0 20G 1G 7G 8G 9G13G14G17G19G21G30R 2R 3
                                R12R13R21R22E 1E 9E31E33
  22245702.756   116901956.483    22245702.148    91092430.204    22245701.809  
  22245703.560    87296918.546  
  20643116.018   108480306.382    20643112.194    84530090.693    20643111.605  
                                
  24001061.456   126126429.228    24001060.705    98280326.535    24001059.580  
  24001061.009    94185318.737  
  24698131.881   129789558.601    24698130.755   101134713.726    24698130.273  
  24698133.257    96920778.943  
  22891255.305   120294357.894                    93735843.314    22891250.516  
                                
  21221179.537   111518050.733    21221176.159    86897166.888    21221175.695  
  21221181.931    83276475.692  
  21342054.167   112153251.550    21342050.718    87392127.645    21342050.093  
                                
  23866109.251   125417250.520                    97727702.980    23866103.194  
                                
  22853659.059   120096788.445                    93581892.858    22853653.966  
                                
  20404431.169   107226009.162    20404429.615    83552724.424    20404428.739  
  20404431.473    80071371.545  
  22755506.124   121427740.527    22755505.784    94443796.334    22755504.998  
                                
  22607177.723   121017991.997    22607174.882    94125092.349    22607173.971  
                                
  20059022.580   107151697.669    20059021.419    83340204.509    20059020.686  
                                
  21778352.255   116295185.538    21778350.825    90451805.248    21778350.057  
                                
  22536915.385   120599586.097    22536912.758    93799667.603    22536911.936  
                                
  19818881.620   105794535.919    19818880.298    82284633.651    19818878.672  
                                
  25697076.166   135039046.486                                                  
  25697079.972   100840860.400  
  23763393.479   124877475.790                                                  
  23763398.197    93252678.483  
  24084427.560   126564521.334                                                  
  24084432.241    94512485.472  
  25048128.181   131628802.898                                                  
  25048131.862    98294249.816  
 21  8 31  8 20  1.0000000  0 20G 1G 7G 8G 9G13G14G17G19G21G30R 2R 3
                                R12R13R21R22E 1E 9E31E33
  22245336.745   116900033.060    22245336.119    91090931.431    22245335.798  
  22245337.531    87295482.224  
  20643342.115   108481494.593    20643338.309    84531016.572    20643337.719  
                                
  24001721.734   126129899.151    24001721.019    98283030.372    24001719.858  
  24001721.323    94187909.922  
  24698811.404   129793129.414    24698810.260   101137496.168    24698809.778  
  24698812.762    96923445.429  
  22890915.346   120292571.440                    93734451.274    22890910.557  
                                
  21220985.497   111517030.971    21220982.120    86896372.264    21220981.637  
  21220987.873    83275714.173  
  21341631.207   112151029.010    21341627.794    87390395.794    21341627.151  
                                
  23865426.637   125413663.376                    97724907.801    23865420.597  
                                
  22853739.094   120097209.087                    93582220.626    22853734.019  
                                
  20404275.798   107225192.675    20404274.244    83552088.200    20404273.368  
  20404276.102    80070761.844  
  22756126.465   121431050.762    22756126.125    94446370.954    22756125.339  
                                
  22607334.381   121018830.649    22607331.540    94125744.633    22607330.646  
                                
  20058971.028   107151422.218    20058969.867    83339990.267    20058969.116  
                                
  21777896.470   116292751.760    21777895.058    90449912.307    21777894.272  
                                
  22537550.843   120602986.541    22537548.216    93802312.388    22537547.394  
                                
  19818902.563   105794647.751    19818901.241    82284720.629    19818899.632  
                                
  25697314.592   135040299.545                                                  
  25697318.434   100841796.126  
  23763633.300   124878736.057                                                  
  23763637.999    93253619.587  
  24084353.493   126564132.079                                                  
  24084358.174    94512194.795  
  25047781.325   131626980.192                                                  
  25047785.024    98292888.707  
 21  8 31  8 20  2.0000000  0 20G 1G 7G 8G 9G13G14G17G19G21G30R 2R 3
                                R12R13R21R22E 1E 9E31E33
  22244970.966   116898110.914    22244970.340    91089433.660    22244970.001  
  22244971.770    87294046.849  
  20643568.480   108482684.051    20643564.656    84531943.420    20643564.048  
                                
  24002382.209   126133369.932    24002381.476    98285734.872    24002380.333  
  24002381.798    94190501.737  
  24699490.999   129796700.843    24699489.873   101140279.102    24699489.408  
  24699492.375    96926112.431  
  22890575.656   120290786.327                    93733060.277    22890570.867  
                                
  21220791.618   111516012.165    21220788.241    86895578.385    21220787.776  
  21220793.994    83274953.370  
  21341208.516   112148807.689    21341205.085    87388664.894    21341204.441  
                                
  23864744.219   125410077.196                    97722113.377    23864738.179  
                                
  22853819.398   120097631.043                    93582549.419    22853814.323  
                                
  20404120.641   107224377.444    20404119.105    83551452.958    20404118.229  
  20404120.963    80070153.054  
  22756746.985   121434361.998    22756746.663    94448946.357    22756745.877  
                                
  22607491.324   121019670.826    22607488.483    94126398.104    22607487.590  
                                
  20058919.655   107151147.808    20058918.493    83339776.835    20058917.743  
                                
  21777440.845   116290318.787    21777439.434    90448019.995    21777438.665  
                                
  22538186.533   120606388.285    22538183.924    93804958.187    22538183.102  
                                
  19818923.845   105794761.311    19818922.523    82284808.953    19818920.914  
                                
  25697553.215   135041553.415                                                  
  25697557.039   100842732.455  
  23763873.352   124879997.468                                                  
  23763878.052    93254561.556  
  24084279.569   126563743.640                                                  
  24084284.250    94511904.721  
  25047434.684   131625158.595                                                  
  25047438.365    98291528.428  
 21  8 31  8 20  3.0000000  0 20G 1G 7G 8G 9G13G14G17G19G21G30R 2R 3
                                R12R13R21R22E 1E 9E31E33
  22244605.365   116896189.640    22244604.740    91087936.570    22244604.401  
  22244606.134    87292612.142  
  20643794.987   108483874.416    20643791.163    84532870.979    20643790.592  
                                
  24003042.791   126136841.185    24003042.040    98288439.746    24003040.897  
  24003042.362    94193093.906  
  24700170.701   129800272.645    24700169.557   101143062.327    24700169.092  
  24700172.059    96928779.668  
  22890236.127   120289002.144                    93731670.011    22890231.338  
                                
  21220597.864   111514993.918    21220594.487    86894784.955    21220594.004  
  21220600.241    83274192.999  
  21340785.967   112146587.209    21340782.536    87386934.654    21340781.928  
                                
  23864061.908   125406491.540                    97719319.356    23864055.851  
                                
  22853899.898   120098053.967                    93582878.966    22853894.787  
                                
  20403965.681   107223563.026    20403964.145    83550818.349    20403963.233  
  20403966.003    80069544.898  
  22757367.629   121437673.830    22757367.290    94451522.226    22757366.504  
                                
  22607648.500   121020512.144    22607645.659    94127052.460    22607644.748  
                                
  20058868.406   107150874.060    20058867.245    83339563.923    20058866.512  
                                
  21776985.310   116287886.202    21776983.899    90446127.989    21776983.113  
                                
  22538822.420   120609790.956    22538819.794    93807604.706    22538818.954  
                                
  19818945.359   105794876.182    19818944.037    82284898.298    19818942.429  
                                
  25697791.891   135042807.698                                                  
  25697795.733   100843669.088  
  23764113.530   124881259.644                                                  
  23764118.229    93255504.086  
  24084205.734   126563355.645                                                  
  24084210.415    94511614.984  
  25047088.204   131623337.758                                                  
  25047091.885    98290168.714  
 21  8 31  8 20  4.0000000  0 20G 1G 7G 8G 9G13G14G17G19G21G30R 2R 3
                                R12R13R21R22E 1E 9E31E33
  22244239.604   116894267.670    22244238.997    91086438.931    22244238.657  
  22244240.409    87291176.896  
  20644021.370   108485064.047    20644017.564    84533797.962    20644016.956  
                                
  24003703.141   126140311.364    24003702.390    98291143.782    24003701.247  
  24003702.694    94195685.263  
  24700850.134   129803843.070    24700849.009   101145844.476    24700848.526  
  24700851.510    96931445.926  
  22889896.490   120287217.342                    93730279.259    22889891.702  
                                
  21220403.896   111513974.663    21220400.519    86893990.726    21220400.036  
  21220406.290    83273431.861  
  21340363.275   112144365.990    21340359.862    87385203.834    21340359.237  
                                
  23863379.365   125402904.864                    97716524.538    23863373.325  
                                
  22853980.255   120098476.246                    93583208.012    22853975.144  
                                
  20403810.560   107222747.883    20403809.024    83550183.170    20403808.130  
  20403810.864    80068936.179  
  22757988.060   121440984.660    22757987.738    94454097.314    22757986.970  
                                
  22607805.569   121021352.999    22607802.728    94127706.458    22607801.817  
                                
  20058816.979   107150599.322    20058815.818    83339350.238    20058815.067  
                                
  21776529.543   116285452.451    21776528.132    90444235.069    21776527.345  
                                
  22539458.164   120613192.927    22539455.538    93810250.677    22539454.716  
                                
  19818966.820   105794990.780    19818965.498    82284987.431    19818963.907  
                                
  25698030.354   135044060.810                                                  
  25698034.195   100844604.858  
  23764353.564   124882520.993                                                  
  23764358.264    93256445.994  
  24084131.684   126562966.496                                                  
  24084136.366    94511324.383  
  25046741.545   131621516.061                                                  
  25046745.208    98288808.356  
 21  8 31  8 20  5.0000000  0 20G 1G 7G 8G 9G13G14G17G19G21G30R 2R 3
                                R12R13R21R22E 1E 9E31E33
  22243873.951   116892346.070    22243873.325    91084941.585    22243872.986  
  22243874.737    87289741.937  
  20644247.824   108486254.042    20644243.982    84534725.231    20644243.411  
                                
  24004363.473   126143781.478    24004362.722    98293847.770    24004361.578  
  24004363.044    94198276.586  
  24701529.533   129807413.361    24701528.389   101148626.526    24701527.924  
  24701530.891    96934112.028  
  22889556.907   120285432.945                    93728888.822    22889552.154  
                                
  21220209.945   111512955.450    21220206.568    86893196.534    21220206.104  
  21220212.322    83272670.763  
  21339940.655   112142145.079    21339937.224    87383473.257    21339936.616  
                                
  23862696.858   125399318.214                    97713729.743    23862690.818  
                                
  22854060.665   120098898.942                    93583537.390    22854055.590  
                                
  20403655.493   107221933.040    20403653.956    83549548.229    20403653.081  
  20403655.815    80068327.688  
  22758608.526   121444295.556    22758608.204    94456672.458    22758607.418  
                                
  22607962.745   121022194.437    22607959.904    94128360.908    22607959.028  
                                
  20058765.570   107150324.680    20058764.408    83339136.627    20058763.658  
                                
  21776073.740   116283018.536    21776072.329    90442342.028    21776071.560  
                                
  22540093.980   120616595.254    22540091.353    93812896.931    22540090.513  
                                
  19818988.441   105795106.179    19818987.119    82285077.189    19818985.511  
                                
  25698268.780   135045313.825                                                  
  25698272.622   100845540.547  
  23764593.634   124883782.580                                                  
  23764598.334    93257388.082  
  24084057.617   126562577.256                                                  
  24084062.299    94511033.711  
  25046394.939   131619694.593                                                  
  25046398.620    98287448.165  
 21  8 31  8 20  6.0000000  0 20G 1G 7G 8G 9G13G14G17G19G21G30R 2R 3
                                R12R13R21R22E 1E 9E31E33
  22243508.440   116890425.271    22243507.796    91083444.856    22243507.475  
  22243509.208    87288307.586  
  20644474.421   108487444.838    20644470.597    84535653.124    20644470.008  
                                
  24005023.876   126147252.024    24005023.161    98296552.091    24005022.017  
  24005023.465    94200868.243  
  24702209.002   129810983.878    24702207.876   101151408.728    24702207.394  
  24702210.378    96936778.320  
  22889217.539   120283649.443                    93727499.078    22889212.768  
                                
  21220016.084   111511936.756    21220012.725    86892402.751    21220012.243  
  21220018.479    83271910.057  
  21339518.177   112139924.946    21339514.747    87381743.287    21339514.121  
                                
  23862014.458   125395732.065                    97710935.338    23862008.400  
                                
  22854141.290   120099322.523                    93583867.453    22854136.180  
                                
  20403500.604   107221118.991    20403499.032    83548913.908    20403498.156  
  20403500.908    80067719.801  
  22759229.081   121447607.010    22759228.760    94459248.038    22759227.991  
                                
  22608120.135   121023036.921    22608117.294    94129016.171    22608116.419  
                                
  20058714.250   107150050.589    20058713.089    83338923.445    20058712.320  
                                
  21775618.026   116280584.960    21775616.579    90440449.248    21775615.829  
                                
  22540729.938   120619998.447    22540727.330    93815543.852    22540726.490  
                                
  19819010.277   105795222.818    19819008.973    82285167.913    19819007.347  
                                
  25698507.296   135046567.207                                                  
  25698511.137   100846476.521  
  23764833.812   124885044.854                                                  
  23764838.512    93258330.708  
  24083983.604   126562188.386                                                  
  24083988.303    94510743.332  
  25046048.441   131617873.809                                                  
  25046052.122    98286088.493  
 21  8 31  8 20  7.0000000  0 20G 1G 7G 8G 9G13G14G17G19G21G30R 2R 3
                                R12R13R21R22E 1E 9E31E33
  22243143.054   116888505.165    22243142.429    91081948.667    22243142.089  
  22243143.840    87286873.733  
  20644701.143   108488636.327    20644697.337    84536581.559    20644696.730  
                                
  24005684.351   126150722.848    24005683.636    98299256.632    24005682.492  
  24005683.922    94203460.079  
  24702888.436   129814554.494    24702887.328   101154191.038    24702886.864  
  24702889.830    96939444.672  
  22888878.278   120281866.645                    93726109.887    22888873.489  
                                
  21219822.313   111510918.409    21219818.918    86891609.231    21219818.471  
  21219824.689    83271149.604  
  21339095.825   112137705.444    21339092.394    87380013.805    21339091.751  
                                
  23861332.075   125392146.243                    97708141.186    23861326.036  
                                
  22854222.022   120099746.821                    93584198.070    22854216.930  
                                
  20403345.787   107220305.547    20403344.250    83548280.054    20403343.375  
  20403346.109    80067112.359  
  22759849.726   121450918.853    22759849.404    94461823.918    22759848.636  
                                
  22608277.704   121023880.316    22608274.863    94129672.148    22608273.970  
                                
  20058663.020   107149776.916    20058661.858    83338710.591    20058661.090  
                                
  21775162.331   116278151.555    21775160.883    90438556.602    21775160.133  
                                
  22541366.022   120623402.322    22541363.431    93818191.308    22541362.591  
                                
  19819032.346   105795340.572    19819031.023    82285259.502    19819029.415  
                                
  25698745.847   135047820.777                                                  
  25698749.689   100847412.626  
  23765074.133   124886307.682                                                  
  23765078.832    93259273.727  
  24083909.662   126561799.730                                                  
  24083914.344    94510453.099  
  25045702.050   131616053.529                                                  
  25045705.731    98284729.197  
 21  8 31  8 20  8.0000000  0 20G 1G 7G 8G 9G13G14G17G19G21G30R 2R 3
                                R12R13R21R22E 1E 9E31E33
  22242777.918   116886586.423    22242777.293    91080453.548    22242776.953  
  22242778.722    87285440.913  
  20644928.134   108489829.175    20644924.328    84537511.051    20644923.720  
                                
  24006345.022   126154194.644    24006344.289    98301961.925    24006343.146  
  24006344.593    94206052.658  
  24703568.049   129818125.885    24703566.923   101156973.949    24703566.458  
  24703569.425    96942111.620  
  22888539.302   120280085.303                    93724721.828    22888534.513  
                                
  21219628.720   111509901.144    21219625.342    86890816.557    21219624.878  
  21219631.096    83270389.948  
  21338673.705   112135487.277    21338670.292    87378285.363    21338669.667  
                                
  23860649.925   125388561.456                    97705347.850    23860643.868  
                                
  22854303.041   120100172.598                    93584529.845    22854297.966  
                                
  20403191.256   107219493.445    20403189.719    83547647.244    20403188.825  
  20403191.577    80066505.917  
  22760470.585   121454231.820    22760470.246    94464400.670    22760469.477  
                                
  22608435.559   121024725.332    22608432.718    94130329.384    22608431.825  
                                
  20058612.004   107149504.401    20058610.842    83338498.634    20058610.092  
                                
  21774706.796   116275719.098    21774705.366    90436664.695    21774704.598  
                                
  22542002.392   120626807.598    22541999.783    93820839.856    22541998.943  
                                
  19819054.753   105795460.198    19819053.431    82285352.546    19819051.805  
                                
  25698984.577   135049075.278                                                  
  25698988.401   100848349.424  
  23765314.703   124887571.781                                                  
  23765319.403    93260217.686  
  24083835.863   126561412.019                                                  
  24083840.562    94510163.577  
  25045355.891   131614234.506                                                  
  25045359.572    98283370.829  
 21  8 31  8 20  9.0000000  0 20G 1G 7G 8G 9G13G14G17G19G21G30R 2R 3
                                R12R13R21R22E 1E 9E31E33
  22242412.854   116884668.024    22242412.229    91078958.697    22242411.889  
  22242413.658    87284008.338  
  20645155.195   108491022.327    20645151.371    84538440.780    20645150.782  
                                
  24007005.658   126157666.334    24007004.925    98304667.145    24007003.781  
  24007005.229    94208645.161  
  24704247.608   129821696.991    24704246.482   101159756.627    24704246.035  
  24704248.983    96944778.357  
  22888200.398   120278304.336                    93723334.057    22888195.627  
                                
  21219435.145   111508883.877    21219431.767    86890023.881    21219431.303  
  21219437.521    83269630.302  
  21338251.657   112133269.391    21338248.244    87376557.141    21338247.601  
                                
  23859967.758   125384976.684                    97702554.516    23859961.718  
                                
  22854384.148   120100598.744                    93584861.907    22854379.038  
                                
  20403036.778   107218681.621    20403035.223    83547014.654    20403034.348  
  20403037.082    80065899.676  
  22761091.444   121457544.856    22761091.105    94466977.474    22761090.337  
                                
  22608593.521   121025570.922    22608590.680    94130987.065    22608589.769  
                                
  20058560.988   107149231.939    20058559.826    83338286.719    20058559.076  
                                
  21774251.225   116273286.376    21774249.795    90434772.578    21774249.045  
                                
  22542638.797   120630213.226    22542636.206    93823488.673    22542635.366  
                                
  19819077.304   105795580.579    19819075.964    82285446.175    19819074.373  
                                
  25699223.254   135050329.628                                                  
  25699227.096   100849286.114  
  23765555.274   124888836.064                                                  
  23765559.973    93261161.794  
  24083762.064   126561024.176                                                  
  24083766.763    94509873.949  
  25045009.786   131612415.655                                                  
  25045013.467    98282012.599  
 21  8 31  8 20 10.0000000  0 20G 1G 7G 8G 9G13G14G17G19G21G30R 2R 3
                                R12R13R21R22E 1E 9E31E33
  22242047.808   116882749.585    22242047.165    91077463.802    22242046.843  
  22242048.576    87282575.748  
  20645382.239   108492215.468    20645378.433    84539370.498    20645377.825  
                                
  24007666.222   126161137.602    24007665.507    98307372.022    24007664.346  
  24007665.793    94211237.352  
  24704927.059   129825267.505    24704925.934   101162538.845    24704925.469  
  24704928.435    96947444.663  
  22887861.495   120276523.420                    93721946.330    22887856.724  
                                
  21219241.498   111507866.277    21219238.121    86889230.949    21219237.638  
  21219243.892    83268870.413  
  21337829.591   112131051.432    21337826.178    87374828.861    21337825.552  
                                
  23859285.536   125381391.536                    97699760.892    23859279.496  
                                
  22854465.220   120101024.929                    93585194.005    22854460.145  
                                
  20402882.265   107217869.721    20402880.728    83546382.007    20402879.834  
  20402882.586    80065293.400  
  22761712.250   121460857.602    22761711.928    94469554.057    22761711.160  
                                
  22608751.519   121026416.712    22608748.678    94131644.904    22608747.785  
                                
  20058509.936   107148959.208    20058508.774    83338074.596    20058508.024  
                                
  21773795.583   116270853.224    21773794.135    90432880.129    21773793.385  
                                
  22543275.238   120633618.858    22543272.647    93826137.498    22543271.807  
                                
  19819099.926   105795701.340    19819098.586    82285540.101    19819096.996  
                                
  25699461.877   135051583.503                                                  
  25699465.701   100850222.452  
  23765795.827   124890100.210                                                  
  23765800.526    93262105.805  
  24083688.175   126560635.860                                                  
  24083692.839    94509583.982  
  25044663.627   131610596.641                                                  
  25044667.308    98280654.248  
 21  8 31  8 20 11.0000000  0 20G 1G 7G 8G 9G13G14G17G19G21G30R 2R 3
                                R12R13R21R22E 1E 9E31E33
  22241682.583   116880830.394    22241681.958    91075968.333    22241681.618  
  22241683.369    87281142.580  
  20645609.140   108493407.802    20645605.316    84540299.592    20645604.726  
                                
  24008326.554   126164607.678    24008325.839    98310075.984    24008324.678  
  24008326.125    94213828.645  
  24705606.261   129828836.689    24705605.153   101165320.017    24705604.670  
  24705607.637    96950109.963  
  22887522.483   120274741.808                    93720558.054    22887517.695  
                                
  21219047.655   111506847.589    21219044.260    86888437.169    21219043.813  
  21219050.031    83268109.713  
  21337407.399   112128832.669    21337403.968    87373099.955    21337403.325  
                                
  23858603.100   125377805.282                    97696966.409    23858597.061  
                                
  22854546.202   120101450.400                    93585525.544    22854541.092  
                                
  20402727.626   107217057.013    20402726.089    83545748.731    20402725.178  
  20402727.930    80064686.508  
  22762332.859   121464169.321    22762332.537    94472129.842    22762331.751  
                                
  22608909.410   121027261.949    22608906.569    94132302.306    22608905.675  
                                
  20058458.687   107148685.422    20058457.508    83337861.653    20058456.775  
                                
  21773339.672   116268418.766    21773338.243    90430986.666    21773337.475  
                                
  22543911.500   120637023.686    22543908.909    93828785.695    22543908.087  
                                
  19819122.495   105795821.783    19819121.155    82285633.777    19819119.529  
                                
  25699700.232   135052836.134                                                  
  25699704.056   100851157.867  
  23766036.219   124891363.449                                                  
  23766040.918    93263049.133  
  24083614.037   126560246.321                                                  
  24083618.736    94509293.095  
  25044317.326   131608776.702                                                  
  25044320.971    98279295.209  
 21  8 31  8 20 12.0000000  0 20G 1G 7G 8G 9G13G14G17G19G21G30R 2R 3
                                R12R13R21R22E 1E 9E31E33
  22241317.501   116878911.863    22241316.876    91074473.376    22241316.536  
  22241318.287    87279709.915  
  20645836.166   108494600.852    20645832.324    84541229.239    20645831.752  
                                
  24008986.921   126168078.015    24008986.207    98312780.143    24008985.063  
  24008986.510    94216420.128  
  24706285.480   129832405.973    24706284.355   101168101.272    24706283.908  
  24706286.856    96952775.338  
  22887183.597   120272960.929                    93719170.356    22887178.809  
                                
  21218853.883   111505829.283    21218850.488    86887643.683    21218850.023  
  21218856.242    83267349.283  
  21336985.279   112126614.520    21336981.866    87371371.529    21336981.241  
                                
  23857920.736   125374219.395                    97694172.216    23857914.678  
                                
  22854627.292   120101876.644                    93585857.682    22854622.217  
                                
  20402573.095   107216244.943    20402571.558    83545115.946    20402570.647  
  20402573.381    80064080.092  
  22762953.557   121467481.486    22762953.236    94474705.976    22762952.450  
                                
  22609067.479   121028108.119    22609064.638    94132960.443    22609063.745  
                                
  20058407.510   107148412.068    20058406.331    83337649.047    20058405.599  
                                
  21772883.816   116265984.514    21772882.368    90429093.357    21772881.618  
                                
  22544547.923   120640429.234    22544545.314    93831434.457    22544544.475  
                                
  19819145.260   105795943.320    19819143.920    82285728.301    19819142.312  
                                
  25699938.658   135054088.988                                                  
  25699942.464   100852093.433  
  23766276.718   124892627.263                                                  
  23766281.417    93263992.886  
  24083539.952   126559857.011                                                  
  24083544.633    94509002.374  
  25043971.078   131606957.306                                                  
  25043974.759    98277936.576  
 21  8 31  8 20 13.0000000  0 20G 1G 7G 8G 9G13G14G17G19G21G30R 2R 3
                                R12R13R21R22E 1E 9E31E33
  22240952.526   116876993.925    22240951.901    91072978.877    22240951.561  
  22240953.312    87278277.682  
  20646063.299   108495794.456    20646059.475    84542159.318    20646058.885  
                                
  24009647.325   126171548.505    24009646.610    98315484.421    24009645.466  
  24009646.932    94219011.746  
  24706964.682   129835975.254    24706963.592   101170882.533    24706963.109  
  24706966.058    96955440.677  
  22886844.819   120271180.669                    93717783.139    22886840.048  
                                
  21218660.147   111504811.226    21218656.770    86886850.390    21218656.288  
  21218662.524    83266589.050  
  21336563.302   112124396.916    21336559.871    87369643.521    21336559.246  
                                
  23857238.407   125370633.749                    97691378.203    23857232.368  
                                
  22854708.542   120102303.503                    93586190.302    22854703.432  
                                
  20402418.653   107215433.380    20402417.116    83544483.562    20402416.223  
  20402418.957    80063474.061  
  22763574.309   121470793.938    22763573.988    94477282.329    22763573.219  
                                
  22609225.710   121028955.078    22609222.868    94133619.189    22609221.957  
                                
  20058356.387   107148139.024    20058355.226    83337436.677    20058354.493  
                                
  21772427.977   116263550.337    21772426.530    90427200.110    21772425.779  
                                
  22545184.436   120643835.394    22545181.845    93834083.691    22545181.005  
                                
  19819168.222   105796065.873    19819166.881    82285823.622    19819165.273  
                                
  25700177.084   135055341.945                                                  
  25700180.908   100853029.087  
  23766517.288   124893891.515                                                  
  23766522.006    93264936.963  
  24083465.903   126559467.835                                                  
  24083470.566    94508711.756  
  25043624.955   131605138.352                                                  
  25043628.636    98276578.258  
 21  8 31  8 20 14.0000000  0 20G 1G 7G 8G 9G13G14G17G19G21G30R 2R 3
                                R12R13R21R22E 1E 9E31E33
  22240587.676   116875076.624    22240587.051    91071484.871    22240586.712  
  22240588.481    87276845.947  
  20646290.557   108496988.698    20646286.733    84543089.895    20646286.162  
                                
  24010307.800   126175019.274    24010307.085    98318188.916    24010305.941  
  24010307.406    94221603.553  
  24707643.883   129839544.544    24707642.793   101173663.802    24707642.329  
  24707645.259    96958106.106  
  22886506.183   120269401.126                    93716396.489    22886501.412  
                                
  21218466.483   111503793.524    21218463.105    86886057.375    21218462.623  
  21218468.877    83265829.080  
  21336141.415   112122179.931    21336137.984    87367916.001    21336137.376  
                                
  23856556.150   125367048.440                    97688584.453    23856550.093  
                                
  22854789.900   120102731.091                    93586523.487    22854784.807  
                                
  20402264.354   107214622.472    20402262.799    83543851.683    20402261.906  
  20402264.640    80062868.513  
  22764195.133   121474106.768    22764194.811    94479858.977    22764194.025  
                                
  22609384.083   121029802.939    22609381.242    94134278.634    22609380.348  
                                
  20058305.353   107147866.386    20058304.192    83337224.625    20058303.459  
                                
  21771972.174   116261116.350    21771970.727    90425307.007    21771969.976  
                                
  22545821.091   120647242.221    22545818.500    93836733.440    22545817.660  
                                
  19819191.380   105796189.541    19819190.058    82285919.808    19819188.431  
                                
  25700415.546   135056595.110                                                  
  25700419.370   100853964.890  
  23766757.966   124895156.309                                                  
  23766762.666    93265881.461  
  24083391.871   126559078.868                                                  
  24083396.553    94508421.298  
  25043278.921   131603319.910                                                  
  25043282.584    98275220.337  
 21  8 31  8 20 15.0000000  0 20G 1G 7G 8G 9G13G14G17G19G21G30R 2R 3
                                R12R13R21R22E 1E 9E31E33
  22240223.131   116873160.846    22240222.487    91069992.060    22240222.148  
  22240223.899    87275415.324  
  20646518.101   108498184.447    20646514.277    84544021.646    20646513.688  
                                
  24010968.471   126178491.123    24010967.756    98320894.251    24010966.613  
  24010968.060    94224196.161  
  24708323.317   129843114.867    24708322.209   101176445.865    24708321.727  
  24708324.675    96960772.206  
  22886167.851   120267623.173                    93715011.068    22886163.080  
                                
  21218273.051   111502777.017    21218269.673    86885265.294    21218269.191  
  21218275.427    83265069.989  
  21335719.813   112119964.391    21335716.382    87366189.606    21335715.757  
                                
  23855874.090   125363464.290                    97685791.614    23855868.050  
                                
  22854871.579   120103160.248                    93586857.893    22854866.469  
                                
  20402110.287   107213813.001    20402108.750    83543220.929    20402107.875  
  20402110.609    80062264.034  
  22764816.171   121477420.823    22764815.849    94482436.580    22764815.081  
                                
  22609542.795   121030652.580    22609539.954    94134939.466    22609539.079  
                                
  20058254.570   107147595.028    20058253.408    83337013.569    20058252.640  
                                
  21771516.550   116258683.398    21771515.102    90423414.713    21771514.370  
                                
  22546458.015   120650650.560    22546455.424    93839384.368    22546454.584  
                                
  19819214.913   105796315.159    19819213.573    82286017.515    19819211.965  
                                
  25700654.205   135057849.302                                                  
  25700658.047   100854901.459  
  23766998.912   124896422.473                                                  
  23767003.630    93266826.974  
  24083318.054   126558690.955                                                  
  24083322.736    94508131.613  
  25042933.156   131601502.826                                                  
  25042936.801    98273863.415  
 21  8 31  8 20 16.0000000  0 20G 1G 7G 8G 9G13G14G17G19G21G30R 2R 3
                                R12R13R21R22E 1E 9E31E33
  22239858.549   116871245.062    22239857.923    91068499.243    22239857.602  
  22239859.353    87273984.711  
  20646745.663   108499380.191    20646741.822    84544953.397    20646741.232  
                                
  24011629.071   126181962.555    24011628.338    98323599.267    24011627.212  
  24011628.642    94226788.471  
  24709002.590   129846684.547    24709001.500   101179227.434    24709001.036  
  24709003.966    96963437.872  
  22885829.519   120265845.270                    93713625.692    22885824.748  
                                
  21218079.547   111501760.195    21218076.170    86884472.967    21218075.705  
  21218081.924    83264310.678  
  21335298.193   112117748.818    21335294.780    87364463.187    21335294.155  
                                
  23855191.993   125359879.823                    97682998.523    23855185.953  
                                
  22854953.259   120103589.472                    93587192.349    22854948.148  
                                
  20401956.256   107213003.504    20401954.719    83542590.152    20401953.826  
  20401956.560    80061659.530  
  22765437.173   121480734.570    22765436.851    94485013.944    22765436.065  
                                
  22609701.580   121031502.495    22609698.738    94135600.511    22609697.845  
                                
  20058203.714   107147323.446    20058202.553    83336802.339    20058201.820  
                                
  21771060.872   116256249.975    21771059.424    90421522.049    21771058.674  
                                
  22547094.956   120654058.878    22547092.347    93842035.282    22547091.507  
                                
  19819238.518   105796441.226    19819237.196    82286115.570    19819235.570  
                                
  25700892.774   135059103.048                                                  
  25700896.616   100855837.700  
  23767239.840   124897688.532                                                  
  23767244.540    93267772.408  
  24083244.166   126558302.601                                                  
  24083248.848    94507841.607  
  25042587.336   131599685.616                                                  
  25042590.999    98272506.405  
 21  8 31  8 20 17.0000000  0 20G 1G 7G 8G 9G13G14G17G19G21G30R 2R 3
                                R12R13R21R22E 1E 9E31E33
  22239494.003   116869329.298    22239493.378    91067006.436    22239493.038  
  22239494.807    87272554.115  
  20646973.190   108500575.938    20646969.366    84545885.145    20646968.794  
                                
  24012289.581   126185433.608    24012288.849    98326303.982    24012287.723  
  24012289.170    94229380.493  
  24709681.774   129850253.664    24709680.666   101182008.578    24709680.202  
  24709683.132    96966103.132  
  22885491.204   120264067.446                    93712240.372    22885486.433  
                                
  21217886.008   111500743.077    21217882.630    86883680.406    21217882.148  
  21217888.366    83263551.142  
  21334876.574   112115533.215    21334873.179    87362736.741    21334872.535  
                                
  23854509.843   125356295.027                    97680205.169    23854503.804  
                                
  22855034.956   120104018.773                    93587526.867    22855029.845  
                                
  20401802.207   107212193.963    20401800.670    83541959.339    20401799.777  
  20401802.529    80061055.012  
  22766058.086   121484048.014    22766057.782    94487591.069    22766056.996  
                                
  22609860.382   121032352.619    22609857.558    94136261.721    22609856.647  
                                
  20058152.823   107147051.599    20058151.662    83336590.902    20058150.929  
                                
  21770605.069   116253816.078    21770603.621    90419629.011    21770602.889  
                                
  22547731.879   120657467.256    22547729.288    93844686.236    22547728.449  
                                
  19819262.213   105796567.747    19819260.890    82286213.973    19819259.282  
                                
  25701131.272   135060356.339                                                  
  25701135.114   100856773.598  
  23767480.733   124898954.486                                                  
  23767485.468    93268717.754  
  24083170.170   126557913.798                                                  
  24083174.870    94507551.274  
  25042241.499   131597868.259                                                  
  25042245.162    98271149.297  
 21  8 31  8 20 18.0000000  0 20G 1G 7G 8G 9G13G14G17G19G21G30R 2R 3
                                R12R13R21R22E 1E 9E31E33
  22239129.743   116867415.076    22239129.100    91065514.834    22239128.760  
  22239130.547    87271124.649  
  20647201.020   108501773.228    20647197.196    84546818.098    20647196.624  
                                
  24012950.306   126188905.788    24012949.610    98329009.579    24012948.448  
  24012949.913    94231973.355  
  24710361.119   129853823.717    24710360.028   101184790.439    24710359.564  
  24710362.494    96968769.092  
  22885153.212   120262291.216                    93710856.292    22885148.441  
                                
  21217692.683   111499727.186    21217689.287    86882888.802    21217688.823  
  21217695.059    83262792.518  
  21334455.240   112113319.100    21334451.827    87361011.462    21334451.202  
                                
  23853827.908   125352711.476                    97677412.782    23853821.868  
                                
  22855116.921   120104449.665                    93587862.629    22855111.846  
                                
  20401648.444   107211385.925    20401646.907    83541329.698    20401646.014  
  20401648.766    80060451.602  
  22766679.267   121487362.730    22766678.963    94490169.186    22766678.177  
                                
  22610019.541   121033204.510    22610016.700    94136924.303    22610015.788  
                                
  20058102.183   107146781.028    20058101.003    83336380.458    20058100.271  
                                
  21770149.462   116251383.195    21770148.051    90417736.768    21770147.282  
                                
  22548369.124   120660877.230    22548366.533    93847338.435    22548365.712  
                                
  19819286.300   105796696.259    19819284.960    82286313.929    19819283.352  
                                
  25701369.985   135061610.704                                                  
  25701373.826   100857710.290  
  23767721.911   124900221.839                                                  
  23767726.610    93269664.158  
  24083096.389   126557526.090                                                  
  24083101.071    94507261.756  
  25041895.930   131596052.299                                                  
  25041899.593    98269793.227  
