     2.11           OBSERVATION DATA    M (MIXED)           RINEX VERSION / TYPE
CONVBIN 2.4.3                           20210901 005056 UTC PGM / RUN BY / DATE 
log: logs/21_08_31_21_19_43_mego_SNME.rtcm                  COMMENT             
format: RTCM 3, station ID: 3554                            COMMENT             
3554                                                        MARKER NAME         
                                                            MARKER NUMBER       
                                                            OBSERVER / AGENCY   
                    TRIMBLE NETR5                           REC # / TYPE / VERS 
                    GPPNULLANTENNA                          ANT # / TYPE        
  1545914.5119 -4353699.7972  4382537.4995                  APPROX POSITION XYZ 
        0.0000        0.0000        0.0000                  ANTENNA: DELTA H/E/N
     1     1                                                WAVELENGTH FACT L1/2
     6    C1    L1    P2    L2    P1    C2                  # / TYPES OF OBSERV 
  2021     8    31    21    19   49.0000000     GPS         TIME OF FIRST OBS   
  2021     8    31    21    53   57.0000000     GPS         TIME OF LAST OBS    
                                                            END OF HEADER       
 21  8 31 21 19 49.0000000  0 14G10G15G18G23G24G32R 4R 5R14R15R16R20
                                R21R22
  21136120.575   111071063.356    21136121.736    86548884.091                  
                
  23001698.893   120874741.671    23001698.679    94188110.206                  
                
  22371752.595   117564353.507    22371752.381    91608585.639                  
                
  20172828.440   106008929.486    20172827.260    82604355.400                  
                
  20417296.401   107293617.806    20417298.188    83605422.312                  
                
  22990769.573   120817308.482    22990771.682    94143365.141                  
                
  22978617.530   123049453.006    22978615.975    95705123.827                  
                
  19911528.752   106438529.607    19911526.250    82785514.463                  
                
  22034341.805   117455441.363    22034340.036    91354221.945                  
                
  20469729.743   109384025.647    20469727.706    85076457.903                  
                
  22777547.296   121673574.181    22777546.635    94634994.837                  
                
  22687622.188   121320912.167    22687623.457    94360713.532                  
                
  21376714.818   114391121.972    21376712.853    88970861.508                  
                
  23066559.390   123130862.359    23066556.602    95768435.139                  
                
 21  8 31 21 19 50.0000000  0 14G10G15G18G23G24G32R 4R 5R14R15R16R20
                                R21R22
  21135741.323   111069069.290    21135742.216    86547330.271                  
                
  23002280.994   120877800.652    23002280.762    94190493.829                  
                
  22372380.745   117567653.118    22372380.191    91611156.765                  
                
  20172878.938   106009196.142    20172878.044    82604563.189                  
                
  20417466.729   107294514.007    20417468.712    83606120.653                  
                
  22990283.482   120814753.851    22990285.501    94141374.524                  
                
  22979155.226   123052329.773    22979153.189    95707361.308                  
                
  19911691.825   106439399.894    19911689.037    82786191.348                  
                
  22034782.545   117457788.516    22034780.793    91356047.511                  
                
  20469444.983   109382504.840    20469443.053    85075275.051                  
                
  22776716.815   121669139.462    22776716.547    94631545.612                  
                
  22688396.203   121325046.895    22688396.882    94363929.439                  
                
  21376883.180   114392022.756    21376881.143    88971562.119                  
                
  23066103.891   123128434.188    23066101.872    95766546.558                  
                
 21  8 31 21 19 51.0000000  0 14G10G15G18G23G24G32R 4R 5R14R15R16R20
                                R21R22
  21135361.928   111067075.388    21135362.714    86545776.576                  
                
  23002863.256   120880859.591    23002862.917    94192877.421                  
                
  22373008.323   117570952.888    22373008.269    91613728.002                  
                
  20172929.971   106009463.136    20172928.881    82604771.229                  
                
  20417637.771   107295410.721    20417639.361    83606819.387                  
                
  22989796.944   120812199.247    22989799.285    94139383.921                  
                
  22979693.066   123055206.508    22979690.225    95709598.759                  
                
  19911854.611   106440270.348    19911852.003    82786868.366                  
                
  22035223.713   117460136.227    22035221.819    91357873.506                  
                
  20469160.418   109380984.675    20469158.381    85074092.698                  
                
  22775887.049   121664704.752    22775886.334    94628096.402                  
                
  22689169.181   121329181.683    22689170.378    94367145.378                  
                
  21377051.703   114392924.277    21377049.559    88972263.303                  
                
  23065649.750   123126006.610    23065647.123    95764658.437                  
                
 21  8 31 21 19 52.0000000  0 14G10G15G18G23G24G32R 4R 5R14R15R16R20
                                R21R22
  21134982.747   111065081.970    21134983.355    86544223.259                  
                
  23003445.268   120883918.795    23003444.911    94195261.213                  
                
  22373636.151   117574253.118    22373636.312    91616299.613                  
                
  20172980.952   106009730.790    20172979.701    82604979.790                  
                
  20417808.742   107296308.275    20417810.100    83607518.777                  
                
  22989310.978   120809645.000    22989313.158    94137393.603                  
                
  22980230.370   123058083.553    22980227.439    95711836.456                  
                
  19912017.613   106441141.307    19912014.968    82787545.783                  
                
  22035663.541   117462484.824    22035663.041    91359700.191                  
                
  20468875.765   109379465.491    20468874.121    85072911.113                  
                
  22775056.068   121660270.368    22775056.211    94624647.443                  
                
  22689941.838   121333316.864    22689943.749    94370361.619                  
                
  21377220.476   114393826.901    21377218.206    88972965.341                  
                
  23065194.697   123123579.947    23065192.553    95762771.031                  
                
 21  8 31 21 19 53.0000000  0 14G10G15G18G23G24G32R 4R 5R14R15R16R20
                                R21R22
  21134603.191   111063088.887    21134604.120    86542670.214                  
                
  23004027.513   120886978.107    23004027.137    94197645.095                  
                
  22374264.390   117577553.686    22374264.318    91618871.481                  
                
  20173031.861   106009998.937    20173030.699    82605188.734                  
                
  20417979.212   107297206.483    20417981.214    83608218.680                  
                
  22988825.048   120807090.938    22988827.282    94135403.421                  
                
  22980766.262   123060960.745    22980764.761    95714074.274                  
                
  19912180.149   106442012.598    19912177.862    82788223.451                  
                
  22036105.317   117464834.175    22036104.245    91361527.463                  
                
  20468591.898   109377947.131    20468590.003    85071730.169                  
                
  22774227.821   121655836.117    22774226.141    94621198.584                  
                
  22690716.209   121337452.327    22690717.031    94373578.078                  
                
  21377389.159   114394730.407    21377386.997    88973668.068                  
                
  23064739.913   123121153.934    23064738.036    95760884.134                  
                
 21  8 31 21 19 54.0000000  0 14G10G15G18G23G24G32R 4R 5R14R15R16R20
                                R21R22
  21134224.118   111061095.549    21134224.957    86541116.961                  
                
  23004609.274   120890036.955    23004609.256    94200028.611                  
                
  22374892.450   117580854.007    22374892.343    91621443.163                  
                
  20173083.270   106010267.022    20173081.930    82605397.634                  
                
  20418150.165   107298104.788    20418152.131    83608918.662                  
                
  22988339.833   120804536.492    22988341.244    94133412.950                  
                
  22981303.941   123063837.464    22981301.868    95716311.732                  
                
  19912343.293   106442883.631    19912340.774    82788900.919                  
                
  22036545.217   117467183.695    22036545.467    91363354.866                  
                
  20468308.173   109376429.076    20468306.047    85070549.459                  
                
  22773397.394   121651401.425    22773396.036    94617749.386                  
                
  22691489.241   121341587.455    22691490.099    94376794.279                  
                
  21377558.147   114395634.181    21377555.824    88974371.008                  
                
  23064286.468   123118728.090    23064283.681    95758997.357                  
                
 21  8 31 21 19 55.0000000  0 14G10G15G18G23G24G32R 4R 5R14R15R16R20
                                R21R22
  21133845.008   111059103.316    21133845.955    86539564.572                  
                
  23005191.251   120893096.702    23005191.447    94202412.834                  
                
  22375520.761   117584155.420    22375520.546    91624015.683                  
                
  20173134.125   106010536.366    20173133.017    82605607.517                  
                
  20418321.744   107299004.558    20418323.370    83609619.774                  
                
  22987853.081   120801983.000    22987855.332    94131423.220                  
                
  22981841.066   123066715.077    22981839.279    95718549.883                  
                
  19912506.992   106443755.760    19912504.025    82789579.235                  
                
  22036986.867   117469534.689    22036986.849    91365183.419                  
                
  20468024.056   109374912.703    20468022.340    85069370.067                  
                
  22772566.502   121646967.706    22772565.948    94614300.940                  
                
  22692261.969   121345723.574    22692263.524    94380011.273                  
                
  21377727.313   114396539.632    21377725.026    88975075.241                  
                
  23063832.881   123116303.773    23063829.468    95757111.791                  
                
 21  8 31 21 19 56.0000000  0 14G10G15G18G23G24G32R 4R 5R14R15R16R20
                                R21R22
  21133465.721   111057111.427    21133466.864    86538012.451                  
                
  23005773.620   120896156.574    23005773.745    94204797.141                  
                
  22376149.018   117587457.156    22376148.768    91626588.453                  
                
  20173185.105   106010806.236    20173184.408    82605817.800                  
                
  20418493.304   107299905.014    20418494.698    83610321.433                  
                
  22987367.222   120799429.727    22987369.491    94129433.653                  
                
  22982377.815   123069592.822    22982376.833    95720788.122                  
                
  19912669.939   106444628.259    19912667.187    82790257.855                  
                
  22037426.713   117471886.418    22037428.214    91367012.536                  
                
  20467740.028   109373397.235    20467738.705    85068191.365                  
                
  22771737.576   121642534.153    22771736.004    94610852.624                  
                
  22693035.734   121349859.953    22693037.056    94383228.463                  
                
  21377896.175   114397446.021    21377894.334    88975780.208                  
                
  23063377.900   123113880.192    23063375.380    95755226.784                  
                
 21  8 31 21 19 57.0000000  0 14G10G15G18G23G24G32R 4R 5R14R15R16R20
                                R21R22
  21133086.719   111055119.365    21133087.630    86536460.195                  
                
  23006355.757   120899216.060    23006355.882    94207181.155                  
                
  22376777.954   117590758.707    22376777.114    91629161.092                  
                
  20173236.675   106011076.102    20173235.693    82606028.083                  
                
  20418664.614   107300805.634    20418666.062    83611023.220                  
                
  22986881.524   120796876.156    22986883.579    94127443.854                  
                
  22982914.779   123072470.164    22982914.118    95723026.061                  
                
  19912833.119   106445500.567    19912830.421    82790936.319                  
                
  22037867.757   117474238.406    22037869.543    91368841.860                  
                
  20467456.250   109371882.073    20467454.999    85067012.911                  
                
  22770908.436   121638100.269    22770906.005    94607404.052                  
                
  22693809.516   121353996.073    22693810.963    94386445.438                  
                
  21378065.627   114398352.810    21378063.894    88976485.486                  
                
  23062922.812   123111456.868    23062921.471    95753341.969                  
                
 21  8 31 21 19 58.0000000  0 14G10G15G18G23G24G32R 4R 5R14R15R16R20
                                R21R22
  21132707.752   111053128.008    21132708.771    86534908.490                  
                
  23006938.591   120902276.014    23006938.055    94209565.527                  
                
  22377406.157   117594060.953    22377405.496    91631734.273                  
                
  20173288.442   106011346.844    20173287.370    82606239.057                  
                
  20418835.853   107301707.305    20418837.658    83611725.818                  
                
  22986395.433   120794323.121    22986397.666    94125454.472                  
                
  22983453.638   123075348.052    22983451.708    95725264.412                  
                
  19912996.478   106446373.601    19912993.637    82791615.345                  
                
  22038309.747   117476591.528    22038310.908    91370672.055                  
                
  20467172.990   109370368.124    20467171.793    85065835.387                  
                
  22770077.026   121633666.962    22770076.043    94603955.931                  
                
  22694583.942   121358132.834    22694584.406    94389662.910                  
                
  21378235.758   114399260.921    21378233.471    88977191.797                  
                
  23062469.385   123109034.601    23062467.723    95751457.979                  
                
 21  8 31 21 19 59.0000000  0 14G10G15G18G23G24G32R 4R 5R14R15R16R20
                                R21R22
  21132328.858   111051136.439    21132329.858    86533356.616                  
                
  23007521.103   120905335.526    23007520.370    94211949.557                  
                
  22378034.557   117597362.976    22378033.753    91634307.278                  
                
  20173339.744   106011617.546    20173338.761    82606449.990                  
                
  20419007.932   107302609.090    20419009.290    83612428.503                  
                
  22985909.324   120791769.749    22985911.754    94123464.836                  
                
  22983989.762   123078225.519    22983988.922    95727502.446                  
                
  19913159.622   106447246.407    19913156.995    82792294.187                  
                
  22038752.130   117478944.837    22038752.077    91372502.402                  
                
  20466890.088   109368854.449    20466888.569    85064658.089                  
                
  22769246.706   121629233.212    22769246.116    94600507.466                  
                
  22695357.599   121362269.291    22695357.938    94392880.142                  
                
  21378405.103   114400169.318    21378403.155    88977898.323                  
                
  23062015.959   123106612.490    23062014.100    95749574.113                  
                
 21  8 31 21 20  0.0000000  0 14G10G15G18G23G24G32R 4R 5R14R15R16R20
                                R21R22
  21131949.945   111049145.715    21131951.035    86531805.409                  
                
  23008102.865   120908395.716    23008102.650    94214334.127                  
                
  22378662.778   117600665.856    22378662.332    91636880.949                  
                
  20173391.868   106011889.270    20173390.563    82606661.725                  
                
  20419179.546   107303512.097    20419181.208    83613132.149                  
                
  22985423.108   120789217.072    22985426.003    94121475.746                  
                
  22984527.173   123081103.689    22984526.405    95729741.018                  
                
  19913322.712   106448120.115    19913320.497    82792973.738                  
                
  22039193.352   117481299.430    22039193.352    91374333.754                  
                
  20466607.078   109367342.173    20466605.595    85063481.879                  
                
  22768418.548   121624800.176    22768416.082    94597059.551                  
                
  22696130.988   121366406.518    22696131.542    94396097.979                  
                
  21378574.769   114401079.155    21378573.250    88978605.972                  
                
  23061561.764   123104191.717    23061560.692    95747691.301                  
                
 21  8 31 21 20  1.0000000  0 14G10G15G18G23G24G32R 4R 5R14R15R16R20
                                R21R22
  21131571.390   111047155.108    21131572.265    86530254.287                  
                
  23008685.341   120911455.791    23008685.073    94216718.606                  
                
  22379291.035   117603968.836    22379290.892    91639454.702                  
                
  20173443.420   106012161.282    20173442.276    82606873.680                  
                
  20419351.518   107304415.546    20419353.090    83613836.140                  
                
  22984937.749   120786664.398    22984940.323    94119486.650                  
                
  22985064.459   123083981.694    22985063.851    95731979.462                  
                
  19913486.178   106448993.931    19913483.945    82793653.372                  
                
  22039633.949   117483654.501    22039634.717    91376165.474                  
                
  20466324.747   109365830.554    20466322.675    85062306.178                  
                
  22767588.121   121620367.047    22767586.048    94593611.566                  
                
  22696904.556   121370543.730    22696905.056    94399315.808                  
                
  21378746.294   114401989.671    21378743.524    88979314.151                  
                
  23061108.838   123101771.400    23061107.265    95745808.839                  
                
 21  8 31 21 20  2.0000000  0 14G10G15G18G23G24G32R 4R 5R14R15R16R20
                                R21R22
  21131192.352   111045165.218    21131193.549    86528703.723                  
                
  23009267.657   120914516.338    23009267.425    94219103.441                  
                
  22379920.150   117607272.515    22379919.632    91642028.992                  
                
  20173495.097   106012434.168    20173494.168    82607086.312                  
                
  20419523.382   107305320.051    20419525.079    83614540.947                  
                
  22984452.391   120784112.279    22984454.678    94117497.986                  
                
  22985601.816   123086860.207    22985601.494    95734218.305                  
                
  19913649.948   106449868.466    19913647.571    82794333.568                  
                
  22040076.636   117486010.674    22040076.278    91377998.041                  
                
  20466042.274   109364320.170    20466040.148    85061131.433                  
                
  22766757.837   121615934.485    22766756.229    94590164.023                  
                
  22697678.481   121374681.618    22697678.642    94402534.174                  
                
  21378915.799   114402901.490    21378913.959    88980023.343                  
                
  23060656.966   123099352.264    23060654.035    95743927.279                  
                
 21  8 31 21 20  3.0000000  0 14G10G15G18G23G24G32R 4R 5R14R15R16R20
                                R21R22
  21130813.707   111043175.374    21130814.726    86527153.191                  
                
  23009849.866   120917576.727    23009849.973    94221488.162                  
                
  22380549.086   117610576.237    22380548.246    91644603.326                  
                
  20173547.060   106012707.280    20173546.060    82607299.140                  
                
  20419695.639   107306224.953    20419697.247    83615246.068                  
                
  22983966.300   120781560.078    22983969.070    94115509.260                  
                
  22986138.977   123089738.598    22986139.191    95736457.061                  
                
  19913813.396   106450743.069    19913811.019    82795013.813                  
                
  22040518.841   117488367.300    22040517.893    91379830.977                  
                
  20465759.532   109362810.356    20465757.477    85059957.135                  
                
  22765928.482   121611501.854    22765926.427    94586716.421                  
                
  22698452.478   121378819.412    22698452.424    94405752.447                  
                
  21379086.448   114403813.957    21379084.322    88980733.037                  
                
  23060202.878   123096933.559    23060201.091    95742046.065                  
                
 21  8 31 21 20  4.0000000  0 14G10G15G18G23G24G32R 4R 5R14R15R16R20
                                R21R22
  21130435.420   111041185.718    21130436.224    86525602.810                  
                
  23010431.681   120920637.072    23010432.289    94223872.845                  
                
  22381177.558   117613880.112    22381176.968    91647177.765                  
                
  20173599.077   106012980.733    20173598.255    82607512.211                  
                
  20419868.165   107307130.360    20419869.523    83615951.577                  
                
  22983481.120   120779007.912    22983483.372    94113520.552                  
                
  22986677.031   123092616.923    22986676.745    95738695.742                  
                
  19913976.915   106451617.855    19913974.771    82795694.204                  
                
  22040961.349   117490724.532    22040959.580    91381664.378                  
                
  20465477.166   109361301.241    20465475.218    85058783.383                  
                
  22765099.109   121607069.187    22765096.607    94583268.789                  
                
  22699225.742   121382957.380    22699226.153    94408970.864                  
                
  21379257.276   114404727.147    21379255.043    88981443.289                  
                
  23059749.648   123094515.422    23059748.147    95740165.303                  
                
 21  8 31 21 20  5.0000000  0 14G10G15G18G23G24G32R 4R 5R14R15R16R20
                                R21R22
  21130056.972   111039196.717    21130057.562    86524052.941                  
                
  23011014.283   120923697.887    23011014.712    94226257.890                  
                
  22381806.494   117617184.665    22381805.886    91649752.738                  
                
  20173651.433   106013255.036    20173650.325    82607725.954                  
                
  20420040.243   107308036.781    20420042.030    83616657.880                  
                
  22982995.136   120776456.268    22982997.692    94111532.263                  
                
  22987215.317   123095495.748    22987214.460    95740934.832                  
                
  19914140.846   106452493.333    19914138.558    82796375.137                  
                
  22041403.053   117493082.869    22041401.749    91383498.645                  
                
  20465194.907   109359793.357    20465192.959    85057610.581                  
                
  22764268.825   121602637.081    22764266.859    94579821.598                  
                
  22700000.936   121387095.885    22700000.043    94412189.702                  
                
  21379428.158   114405641.562    21379425.853    88982154.515                  
                
  23059296.222   123092098.395    23059295.346    95738285.412                  
                
 21  8 31 21 20  6.0000000  0 14G10G15G18G23G24G32R 4R 5R14R15R16R20
                                R21R22
  21129678.560   111037207.598    21129679.114    86522502.978                  
                
  23011596.563   120926758.361    23011597.170    94228642.668                  
                
  22382435.001   117620489.059    22382434.786    91652327.598                  
                
  20173703.557   106013529.384    20173702.539    82607939.733                  
                
  20420213.215   107308943.438    20420214.448    83617364.365                  
                
  22982509.635   120773904.372    22982512.030    94109543.774                  
                
  22987752.067   123098374.288    22987751.906    95743173.690                  
                
  19914304.776   106453368.707    19914302.292    82797055.973                  
                
  22041845.633   117495441.486    22041844.007    91385333.131                  
                
  20464912.398   109358285.850    20464910.825    85056438.077                  
                
  22763439.309   121598204.642    22763437.111    94576374.156                  
                
  22700774.414   121391234.217    22700773.896    94415408.404                  
                
  21379598.521   114406556.393    21379596.716    88982866.048                  
                
  23058843.206   123089681.575    23058842.563    95736405.651                  
                
 21  8 31 21 20  7.0000000  0 14G10G15G18G23G24G32R 4R 5R14R15R16R20
                                R21R22
  21129299.665   111035218.978    21129300.666    86520953.404                  
                
  23012179.700   120929819.097    23012179.557    94231027.657                  
                
  22383063.794   117623793.967    22383063.579    91654902.837                  
                
  20173755.610   106013804.394    20173754.734    82608154.025                  
                
  20420385.848   107309850.919    20420387.349    83618071.486                  
                
  22982024.688   120771352.834    22982026.528    94107555.570                  
                
  22988290.067   123101253.095    22988289.656    95745412.745                  
                
  19914468.313   106454244.546    19914466.133    82797737.180                  
                
  22042289.428   117497800.975    22042286.820    91387168.301                  
                
  20464630.371   109356779.351    20464628.852    85055266.356                  
                
  22762608.399   121593772.571    22762607.363    94572926.993                  
                
  22701548.661   121395372.928    22701547.982    94418627.390                  
                
  21379769.939   114407472.287    21379767.991    88983578.405                  
                
  23058392.550   123087265.628    23058390.012    95734526.579                  
                
 21  8 31 21 20  8.0000000  0 14G10G15G18G23G24G32R 4R 5R14R15R16R20
                                R21R22
  21128921.771   111033230.663    21128922.432    86519404.070                  
                
  23012762.248   120932879.917    23012762.105    94233412.714                  
                
  22383692.801   117627099.168    22383692.622    91657478.316                  
                
  20173808.002   106014079.880    20173807.180    82608368.692                  
                
  20420558.588   107310759.046    20420560.071    83618779.125                  
                
  22981539.204   120768801.454    22981541.152    94105567.484                  
                
  22988827.746   123104131.958    22988827.175    95747651.861                  
                
  19914632.548   106455120.678    19914629.885    82798418.618                  
                
  22042731.437   117500161.164    22042729.775    91389004.012                  
                
  20464348.934   109355273.682    20464347.075    85054095.287                  
                
  22761779.277   121589340.657    22761777.722    94569479.967                  
                
  22702323.355   121399511.837    22702321.908    94421846.539                  
                
  21379941.195   114408389.054    21379939.301    88984291.451                  
                
  23057940.446   123084850.414    23057937.497    95732648.082                  
                
 21  8 31 21 20  9.0000000  0 14G10G15G18G23G24G32R 4R 5R14R15R16R20
                                R21R22
  21128543.198   111031242.677    21128544.163    86517854.990                  
                
  23013344.546   120935940.872    23013344.528    94235797.870                  
                
  22384322.077   117630404.681    22384321.612    91660054.038                  
                
  20173860.840   106014355.880    20173859.804    82608583.747                  
                
  20420731.238   107311667.874    20420733.061    83619487.304                  
                
  22981053.131   120766250.274    22981055.704    94103579.561                  
                
  22989366.587   123107010.944    22989364.836    95749891.073                  
                
  19914796.335   106455997.177    19914794.084    82799100.342                  
                
  22043175.053   117502522.102    22043173.069    91390840.296                  
                
  20464067.479   109353768.905    20464065.460    85052924.898                  
                
  22760949.386   121584908.897    22760948.135    94566033.040                  
                
  22703097.191   121403651.029    22703096.083    94425065.908                  
                
  21380112.577   114409306.738    21380110.737    88985005.208                  
                
  23057488.609   123082435.946    23057485.089    95730770.183                  
                
 21  8 31 21 20 10.0000000  0 14G10G15G18G23G24G32R 4R 5R14R15R16R20
                                R21R22
  21128165.107   111029255.081    21128165.858    86516306.212                  
                
  23013926.951   120939001.966    23013927.130    94238183.137                  
                
  22384950.870   117633710.569    22384950.566    91662630.052                  
                
  20173913.643   106014632.440    20173912.410    82608799.251                  
                
  20420904.496   107312577.418    20420906.140    83620196.036                  
                
  22980568.327   120763699.341    22980570.328    94101591.816                  
                
  22989902.175   123109890.148    22989902.336    95752130.449                  
                
  19914960.373   106456874.070    19914958.032    82799782.367                  
                
  22043617.293   117504883.827    22043616.847    91392677.197                  
                
  20463786.292   109352265.032    20463784.058    85051755.212                  
                
  22760121.031   121580477.349    22760118.583    94562586.283                  
                
  22703871.759   121407790.555    22703870.205    94428285.535                  
                
  21380285.156   114410225.400    21380282.404    88985719.713                  
                
  23057036.059   123080022.267    23057032.878    95728892.870                  
                
 21  8 31 21 20 11.0000000  0 14G10G15G18G23G24G32R 4R 5R14R15R16R20
                                R21R22
  21127786.909   111027267.841    21127787.660    86514757.713                  
                
  23014509.338   120942063.218    23014509.624    94240568.531                  
                
  22385580.235   117637016.800    22385579.788    91665206.334                  
                
  20173966.089   106014909.513    20173965.213    82609015.155                  
                
  20421077.504   107313487.654    20421079.345    83620905.311                  
                
  22980083.040   120761148.615    22980084.862    94099604.237                  
                
  22990441.230   123112769.517    22990440.033    95754369.956                  
                
  19915124.768   106457751.333    19915122.177    82800464.681                  
                
  22044060.570   117507246.328    22044060.552    91394514.691                  
                
  20463504.480   109350762.007    20463502.728    85050586.195                  
                
  22759290.622   121576046.016    22759288.943    94559139.688                  
                
  22704644.202   121411930.309    22704644.398    94431505.339                  
                
  21380456.520   114411144.972    21380454.358    88986434.941                  
                
  23056584.097   123077609.375    23056580.899    95727016.181                  
                
 21  8 31 21 20 12.0000000  0 14G10G15G18G23G24G32R 4R 5R14R15R16R20
                                R21R22
  21127408.622   111025280.984    21127409.658    86513209.513                  
                
  23015091.869   120945124.631    23015092.119    94242954.052                  
                
  22386209.653   117640323.404    22386209.135    91667782.909                  
                
  20174019.106   106015187.130    20174017.945    82609231.477                  
                
  20421251.102   107314398.601    20421252.549    83621615.144                  
                
  22979597.306   120758598.125    22979599.665    94097616.849                  
                
  22990978.587   123115649.101    22990977.694    95756609.625                  
                
  19915288.662   106458628.961    19915286.357    82801147.282                  
                
  22044503.704   117509609.609    22044504.347    91396352.799                  
                
  20463224.043   109349259.925    20463221.667    85049417.911                  
                
  22758461.214   121571614.891    22758459.516    94555693.265                  
                
  22705419.556   121416070.340    22705418.591    94434725.365                  
                
  21380628.724   114412065.507    21380626.383    88987150.906                  
                
  23056131.993   123075197.298    23056128.955    95725140.118                  
                
 21  8 31 21 20 13.0000000  0 14G10G15G18G23G24G32R 4R 5R14R15R16R20
                                R21R22
  21127030.531   111023294.395    21127031.693    86511661.519                  
                
  23015674.756   120948186.097    23015674.506    94245339.603                  
                
  22386838.535   117643630.266    22386838.446    91670359.682                  
                
  20174071.891   106015465.201    20174071.016    82609448.158                  
                
  20421424.932   107315310.161    20421425.986    83622325.446                  
                
  22979111.269   120756047.790    22979114.181    94095629.575                  
                
  22991515.551   123118528.688    22991515.390    95758849.304                  
                
  19915453.236   106459506.857    19915450.591    82801830.092                  
                
  22044946.874   117511973.572    22044948.339    91398191.425                  
                
  20462942.338   109347758.645    20462940.801    85048250.249                  
                
  22757630.661   121567183.856    22757630.054    94552246.904                  
                
  22706193.678   121420210.556    22706192.785    94437945.536                  
                
  21380799.820   114412986.867    21380798.730    88987867.526                  
                
  23055680.014   123072785.866    23055677.101    95723264.544                  
                
 21  8 31 21 20 14.0000000  0 14G10G15G18G23G24G32R 4R 5R14R15R16R20
                                R21R22
  21126652.780   111021308.120    21126653.799    86510113.774                  
                
  23016256.536   120951247.654    23016257.251    94247725.232                  
                
  22387468.061   117646937.422    22387467.722    91672936.689                  
                
  20174125.195   106015743.756    20174123.926    82609665.216                  
                
  20421598.136   107316222.375    20421599.691    83623036.265                  
                
  22978626.589   120753497.622    22978628.787    94093642.429                  
                
  22992053.677   123121408.377    22992053.266    95761089.057                  
                
  19915617.077   106460385.057    19915614.808    82802513.140                  
                
  22045391.187   117514338.243    22045392.098    91400030.598                  
                
  20462661.937   109346258.189    20462660.007    85047083.234                  
                
  22756802.379   121562753.015    22756800.627    94548800.706                  
                
  22706968.336   121424350.984    22706967.049    94441165.876                  
                
  21380973.256   114413909.111    21380971.023    88988584.817                  
                
  23055228.178   123070375.163    23055225.533    95721389.569                  
                
 21  8 31 21 20 15.0000000  0 14G10G15G18G23G24G32R 4R 5R14R15R16R20
                                R21R22
  21126274.886   111019321.941    21126275.923    86508566.109                  
                
  23016839.888   120954309.096    23016839.816    94250110.769                  
                
  22388097.051   117650244.680    22388096.908    91675513.764                  
                
  20174178.087   106016022.573    20174177.033    82609882.472                  
                
  20421772.055   107317135.047    20421773.396    83623747.438                  
                
  22978141.481   120750947.404    22978143.518    94091655.251                  
                
  22992592.714   123124287.931    22992591.070    95763328.713                  
                
  19915781.847   106461263.371    19915779.185    82803196.268                  
                
  22045834.625   117516703.403    22045835.786    91401870.164                  
                
  20462381.519   109344758.356    20462379.428    85045916.698                  
                
  22755973.256   121558322.058    22755971.219    94545354.415                  
                
  22707742.529   121428491.454    22707741.368    94444386.249                  
                
  21381145.157   114414832.004    21381143.530    88989302.630                  
                
  23054776.574   123067964.948    23054774.144    95719514.950                  
                
 21  8 31 21 20 16.0000000  0 14G10G15G18G23G24G32R 4R 5R14R15R16R20
                                R21R22
  21125896.992   111017336.514    21125898.082    86507019.019                  
                
  23017422.150   120957371.064    23017422.400    94252496.714                  
                
  22388727.255   117653552.648    22388726.451    91678091.400                  
                
  20174231.426   106016302.314    20174230.229    82610100.452                  
                
  20421945.742   107318048.785    20421947.154    83624459.432                  
                
  22977656.194   120748397.797    22977658.356    94089668.542                  
                
  22993129.732   123127168.080    22993128.838    95765568.831                  
                
  19915946.242   106462142.446    19915943.634    82803879.991                  
                
  22046279.009   117519069.729    22046279.671    91403710.637                  
                
  20462100.796   109343259.777    20462098.992    85044751.131                  
                
  22755143.150   121553891.676    22755141.935    94541908.563                  
                
  22708516.169   121432632.557    22708515.954    94447607.113                  
                
  21381318.147   114415756.244    21381316.127    88990021.476                  
                
  23054324.291   123065555.880    23054322.880    95717641.234                  
                
 21  8 31 21 20 17.0000000  0 14G10G15G18G23G24G32R 4R 5R14R15R16R20
                                R21R22
  21125518.991   111015351.251    21125520.134    86505472.058                  
                
  23018005.020   120960432.970    23018005.181    94254882.615                  
                
  22389356.692   117656860.778    22389356.066    91680669.161                  
                
  20174284.640   106016582.381    20174283.532    82610318.685                  
                
  20422119.804   107318963.024    20422121.341    83625171.833                  
                
  22977170.764   120745848.213    22977173.373    94087681.851                  
                
  22993666.910   123130048.202    22993666.874    95767808.924                  
                
  19916111.048   106463021.718    19916108.100    82804563.869                  
                
  22046722.233   117521436.633    22046723.519    91405551.551                  
                
  20461820.271   109341761.893    20461818.644    85043586.120                  
                
  22754313.188   121549461.288    22754312.598    94538462.722                  
                
  22709289.022   121436773.756    22709290.380    94450828.043                  
                
  21381490.833   114416681.169    21381489.028    88990740.867                  
                
  23053874.224   123063147.424    23053871.633    95715767.992                  
                
 21  8 31 21 20 18.0000000  0 14G10G15G18G23G24G32R 4R 5R14R15R16R20
                                R21R22
  21125141.329   111013366.041    21125142.365    86503925.146                  
                
  23018587.997   120963494.730    23018587.764    94257268.399                  
                
  22389986.182   117660168.964    22389985.574    91683246.970                  
                
  20174337.943   106016862.697    20174336.782    82610537.107                  
                
  20422294.027   107319877.680    20422295.296    83625884.547                  
                
  22976685.710   120743298.539    22976688.193    94085695.094                  
                
  22994204.643   123132928.190    22994204.750    95770048.912                  
                
  19916274.818   106463901.041    19916272.531    82805247.787                  
                
  22047167.296   117523804.013    22047167.332    91407392.842                  
                
  20461540.317   109340264.603    20461538.476    85042421.554                  
                
  22753483.279   121545030.826    22753482.993    94535016.809                  
                
  22710063.465   121440914.952    22710064.966    94454048.964                  
                
  21381664.627   114417606.742    21381661.893    88991460.750                  
                
  23053422.763   123060739.311    23053420.369    95713895.029                  
                
 21  8 31 21 20 19.0000000  0 14G10G15G18G23G24G32R 4R 5R14R15R16R20
                                R21R22
  21124763.685   111011381.374    21124764.614    86502378.647                  
                
  23019170.402   120966556.800    23019170.420    94259654.428                  
                
  22390615.743   117663477.675    22390615.207    91685825.186                  
                
  20174391.443   106017143.697    20174390.317    82610756.072                  
                
  20422468.358   107320793.210    20422469.501    83626597.956                  
                
  22976200.369   120740749.281    22976203.121    94083708.661                  
                
  22994743.590   123135808.483    22994742.679    95772289.137                  
                
  19916439.713   106464780.910    19916437.087    82805932.134                  
                
  22047611.681   117526172.330    22047611.234    91409234.862                  
                
  20461260.452   109338768.375    20461258.361    85041257.823                  
                
  22752655.103   121540600.770    22752653.656    94531571.224                  
                
  22710839.267   121445056.574    22710839.535    94457270.215                  
                
  21381837.349   114418533.436    21381835.276    88992181.514                  
                
  23052971.017   123058332.211    23052969.462    95712022.840                  
                
 21  8 31 21 20 20.0000000  0 14G10G15G18G23G24G32R 4R 5R14R15R16R20
                                R21R22
  21124386.291   111009397.264    21124387.006    86500832.592                  
                
  23019752.896   120969619.220    23019753.236    94262040.722                  
                
  22391245.197   117666786.920    22391244.840    91688403.833                  
                
  20174445.193   106017425.439    20174443.889    82610975.609                  
                
  20422642.259   107321709.641    20422643.849    83627312.056                  
                
  22975715.386   120738200.439    22975718.066    94081722.542                  
                
  22995280.608   123138689.125    22995280.483    95774529.625                  
                
  19916604.644   106465661.332    19916601.911    82806616.906                  
                
  22048055.548   117528541.595    22048055.298    91411077.630                  
                
  20460980.105   109337273.221    20460978.693    85040094.921                  
                
  22751826.785   121536171.131    22751824.426    94528125.942                  
                
  22711614.389   121449198.669    22711613.996    94460491.837                  
                
  21382010.625   114419461.274    21382008.570    88992903.154                  
                
  23052521.039   123055926.095    23052518.698    95710151.416                  
                
 21  8 31 21 20 21.0000000  0 14G10G15G18G23G24G32R 4R 5R14R15R16R20
                                R21R22
  21124008.647   111007413.175    21124009.577    86499286.547                  
                
  23020335.676   120972681.431    23020335.998    94264426.861                  
                
  22391874.973   117670096.188    22391874.669    91690982.472                  
                
  20174498.729   106017707.369    20174497.442    82611195.297                  
                
  20422816.929   107322626.436    20422818.340    83628026.437                  
                
  22975230.581   120735651.469    22975232.976    94079736.336                  
                
  22995818.948   123141569.555    22995818.323    95776769.967                  
                
  19916769.236   106466541.774    19916766.627    82807301.692                  
                
  22048500.254   117530911.264    22048499.468    91412920.706                  
                
  20460700.383   109335778.598    20460698.900    85038932.442                  
                
  22750997.358   121531741.378    22750995.250    94524680.584                  
                
  22712388.082   121453340.689    22712388.636    94463713.384                  
                
  21382184.061   114420389.652    21382181.917    88993625.224                  
                
  23052069.721   123053520.348    23052068.006    95708280.285                  
                
 21  8 31 21 20 22.0000000  0 14G10G15G18G23G24G32R 4R 5R14R15R16R20
                                R21R22
  21123630.914   111005429.992    21123632.147    86497741.214                  
                
  23020918.510   120975744.332    23020918.796    94266813.525                  
                
  22392504.874   117673406.343    22392504.552    91693561.802                  
                
  20174552.229   106017990.379    20174551.317    82611415.825                  
                
  20422991.277   107323544.481    20422993.153    83628741.804                  
                
  22974744.973   120733103.267    22974747.957    94077750.731                  
                
  22996356.341   123144450.724    22996356.323    95779010.876                  
                
  19916933.828   106467423.132    19916931.433    82807987.193                  
                
  22048945.604   117533282.239    22048943.727    91414764.803                  
                
  20460420.912   109334285.417    20460419.536    85037771.085                  
                
  22750168.200   121527312.336    22750166.074    94521235.775                  
                
  22713162.686   121457483.536    22713163.223    94466935.601                  
                
  21382358.713   114421319.504    21382355.658    88994348.447                  
                
  23051620.297   123051115.946    23051617.456    95706410.199                  
                
 21  8 31 21 20 23.0000000  0 14G10G15G18G23G24G32R 4R 5R14R15R16R20
                                R21R22
  21123253.931   111003446.423    21123254.771    86496195.569                  
                
  23021501.559   120978806.635    23021501.577    94269199.742                  
                
  22393134.561   117676716.093    22393134.346    91696140.834                  
                
  20174606.157   106018273.166    20174605.139    82611636.183                  
                
  20423166.000   107324462.459    20423167.805    83629457.114                  
                
  22974260.508   120730554.543    22974262.992    94075764.712                  
                
  22996894.824   123147331.316    22996894.270    95781251.329                  
                
  19917098.383   106468304.127    19917096.186    82808672.409                  
                
  22049389.685   117535653.227    22049388.309    91416608.914                  
                
  20460141.994   109332792.382    20460140.028    85036609.831                  
                
  22749338.077   121522882.706    22749336.558    94517790.501                  
                
  22713938.166   121461625.890    22713937.934    94470157.434                  
                
  21382531.543   114422249.536    21382529.345    88995071.807                  
                
  23051168.443   123048711.540    23051166.942    95704540.096                  
                
 21  8 31 21 20 24.0000000  0 14G10G15G18G23G24G32R 4R 5R14R15R16R20
                                R21R22
  21122876.287   111001463.449    21122877.342    86494650.399                  
                
  23022084.839   120981869.295    23022084.339    94271586.221                  
                
  22393764.765   117680026.418    22393764.265    91698720.301                  
                
  20174660.193   106018556.719    20174659.228    82611857.131                  
                
  20423340.688   107325381.382    20423342.635    83630173.150                  
                
  22973775.578   120728006.265    22973778.062    94073779.046                  
                
  22997433.003   123150212.332    22997432.163    95783492.122                  
                
  19917263.851   106469185.721    19917261.224    82809358.094                  
                
  22049835.606   117538025.215    22049833.105    91418453.805                  
                
  20459862.451   109331300.472    20459860.879    85035449.454                  
                
  22748508.597   121518453.485    22748507.274    94514345.546                  
                
  22714713.682   121465768.725    22714712.735    94473379.637                  
                
  21382705.176   114423180.715    21382703.335    88995796.055                  
                
  23050718.465   123046308.181    23050716.696    95702670.824                  
                
 21  8 31 21 20 25.0000000  0 14G10G15G18G23G24G32R 4R 5R14R15R16R20
                                R21R22
  21122499.072   110999480.460    21122500.109    86493105.213                  
                
  23022667.691   120984931.718    23022667.209    94273972.527                  
                
  22394394.523   117683336.728    22394394.094    91701299.757                  
                
  20174714.587   106018840.427    20174713.175    82612078.197                  
                
  20423516.161   107326300.633    20423517.609    83630889.450                  
                
  22973290.685   120725457.835    22973293.079    94071793.249                  
                
  22997970.789   123153093.082    22997970.039    95785732.706                  
                
  19917429.639   106470067.295    19917426.173    82810043.760                  
                
  22050279.830   117540397.614    22050278.007    91420299.008                  
                
  20459583.569   109329809.057    20459581.782    85034289.467                  
                
  22747679.117   121514024.090    22747677.973    94510900.466                  
                
  22715487.786   121469911.476    22715487.411    94476601.775                  
                
  21382879.881   114424112.458    21382877.433    88996520.740                  
                
  23050269.578   123043905.147    23050266.594    95700801.795                  
                
 21  8 31 21 20 26.0000000  0 14G10G15G18G23G24G32R 4R 5R14R15R16R20
                                R21R22
  21122121.750   110997497.882    21122122.983    86491560.342                  
                
  23023250.471   120987994.352    23023250.025    94276358.995                  
                
  22395024.853   117686647.419    22395024.138    91703879.517                  
                
  20174768.426   106019124.728    20174767.300    82612299.733                  
                
  20423691.742   107327220.647    20423692.618    83631606.346                  
                
  22972805.952   120722909.680    22972808.114    94069807.680                  
                
  22998508.969   123155974.024    22998508.057    95787973.431                  
                
  19917594.302   106470949.310    19917591.086    82810729.769                  
                
  22050724.894   117542770.828    22050723.429    91422144.851                  
                
  20459304.652   109328318.609    20459302.883    85033130.230                  
                
  22746850.191   121509594.985    22746848.761    94507455.602                  
                
  22716261.050   121474054.562    22716262.104    94479824.179                  
                
  21383053.550   114425045.212    21383051.728    88997246.215                  
                
  23049819.421   123041502.995    23049816.687    95698933.450                  
                
 21  8 31 21 20 27.0000000  0 14G10G15G18G23G24G32R 4R 5R14R15R16R20
                                R21R22
  21121744.535   110995515.964    21121745.661    86490015.986                  
                
  23023833.395   120991057.420    23023833.037    94278745.804                  
                
  22395654.718   117689958.774    22395654.415    91706459.798                  
                
  20174823.016   106019409.827    20174821.443    82612521.888                  
                
  20423866.680   107328141.653    20423867.931    83632324.011                  
                
  22972320.700   120720362.033    22972323.345    94067822.503                  
                
  22999046.933   123158855.423    22999046.076    95790214.514                  
                
  19917759.108   106471831.946    19917756.214    82811416.264                  
                
  22051169.261   117545145.090    22051169.028    91423991.499                  
                
  20459026.181   109326829.316    20459024.215    85031971.900                  
                
  22746021.568   121505166.391    22746019.763    94504011.144                  
                
  22717034.779   121478198.171    22717037.155    94483046.979                  
                
  21383227.469   114425979.143    21383226.272    88997972.612                  
                
  23049369.265   123039101.866    23049366.835    95697065.903                  
                
 21  8 31 21 20 28.0000000  0 14G10G15G18G23G24G32R 4R 5R14R15R16R20
                                R21R22
  21121367.624   110993534.410    21121368.606    86488471.921                  
                
  23024416.014   120994120.623    23024415.782    94281132.715                  
                
  22396284.923   117693270.452    22396284.512    91709040.328                  
                
  20174876.873   106019695.470    20174875.729    82612744.469                  
                
  20424041.957   107329063.334    20424043.387    83633042.208                  
                
  22971836.289   120717814.612    22971838.523    94065837.502                  
                
  22999584.666   123161736.987    22999584.166    95792455.733                  
                
  19917924.468   106472714.944    19917921.306    82812103.044                  
                
  22051616.022   117547520.096    22051614.914    91425838.730                  
                
  20458747.478   109325340.903    20458745.655    85030814.248                  
                
  22745193.035   121500737.992    22745190.802    94500566.830                  
                
  22717810.241   121482342.078    22717811.992    94486270.011                  
                
  21383403.211   114426914.000    21383400.906    88998699.719                  
                
  23048918.179   123036701.523    23048917.393    95695198.984                  
                
 21  8 31 21 20 29.0000000  0 14G10G15G18G23G24G32R 4R 5R14R15R16R20
                                R21R22
  21120990.534   110991553.300    21120991.588    86486928.200                  
                
  23024998.830   120997184.105    23024998.616    94283519.842                  
                
  22396915.431   117696582.593    22396914.770    91711621.224                  
                
  20174931.534   106019981.751    20174930.230    82612967.541                  
                
  20424217.306   107329985.836    20424218.843    83633761.030                  
                
  22971350.859   120715267.508    22971353.700    94063852.750                  
                
  23000121.844   123164618.831    23000122.291    95794697.172                  
                
  19918088.595   106473598.437    19918086.773    82812790.201                  
                
  22052060.782   117549895.986    22052061.050    91427686.640                  
                
  20458468.739   109323853.484    20458467.291    85029657.355                  
                
  22744362.697   121496309.887    22744361.911    94497122.759                  
                
  22718587.239   121486486.340    22718586.971    94489493.333                  
                
  21383578.703   114427849.918    21383575.737    88999427.653                  
                
  23048468.541   123034302.025    23048468.041    95693332.718                  
                
 21  8 31 21 20 30.0000000  0 14G10G15G18G23G24G32R 4R 5R14R15R16R20
                                R21R22
  21120613.587   110989572.089    21120614.623    86485384.409                  
                
  23025581.485   121000247.250    23025581.503    94285906.705                  
                
  22397545.833   117699894.602    22397544.993    91714202.004                  
                
  20174985.695   106020268.089    20174984.802    82613190.664                  
                
  20424393.227   107330908.562    20424394.299    83634480.049                  
                
  22970866.930   120712720.154    22970868.985    94061867.806                  
                
  23000660.756   123167500.383    23000660.685    95796938.372                  
                
  19918253.973   106474481.813    19918252.025    82813477.272                  
                
  22052506.864   117552272.153    22052507.222    91429534.763                  
                
  20458190.357   109322366.476    20458188.928    85028500.798                  
                
  22743534.397   121491881.471    22743533.057    94493678.436                  
                
  22719363.398   121490630.441    22719362.076    94492716.518                  
                
  21383753.283   114428786.314    21383750.603    89000155.956                  
                
  23048018.688   123031902.797    23048018.563    95691466.648                  
                
 21  8 31 21 20 31.0000000  0 14G10G15G18G23G24G32R 4R 5R14R15R16R20
                                R21R22
  21120236.443   110987591.254    21120237.587    86483840.894                  
                
  23026164.570   121003310.532    23026164.516    94288293.681                  
                
  22398175.341   117703206.973    22398175.323    91716783.067                  
                
  20175040.535   106020554.967    20175039.499    82613414.204                  
                
  20424568.718   107331832.001    20424570.076    83635199.604                  
                
  22970382.555   120710173.032    22970384.163    94059883.027                  
                
  23001199.079   123170382.042    23001198.703    95799179.653                  
                
  19918419.887   106475365.578    19918417.242    82814164.646                  
                
  22052952.911   117554649.070    22052953.501    91431383.460                  
                
  20457912.208   109320880.373    20457910.796    85027344.938                  
                
  22742705.792   121487453.320    22742704.184    94490234.321                  
                
  22720136.698   121494774.811    22720137.109    94495939.915                  
                
  21383928.578   114429723.624    21383925.684    89000884.980                  
                
  23047570.962   123029504.401    23047569.300    95689601.222                  
                
 21  8 31 21 20 32.0000000  0 14G10G15G18G23G24G32R 4R 5R14R15R16R20
                                R21R22
  21119860.086   110985611.139    21119860.729    86482297.942                  
                
  23026746.992   121006374.322    23026747.582    94290681.043                  
                
  22398806.189   117706520.044    22398805.742    91719364.674                  
                
  20175095.143   106020842.733    20175094.107    82613638.436                  
                
  20424744.692   107332756.498    20424746.033    83635919.990                  
                
  22969897.321   120707626.474    22969899.609    94057898.700                  
                
  23001736.918   123173264.231    23001736.811    95801421.353                  
                
  19918585.211   106476250.062    19918582.799    82814852.574                  
                
  22053400.083   117557027.124    22053400.030    91433233.056                  
                
  20457634.595   109319395.538    20457632.987    85026190.075                  
                
  22741877.206   121483025.740    22741875.401    94486790.656                  
                
  22720910.105   121498919.808    22720912.178    94499163.792                  
                
  21384103.445   114430662.202    21384101.032    89001614.983                  
                
  23047122.200   123027107.021    23047120.127    95687736.595                  
                
 21  8 31 21 20 33.0000000  0 14G10G15G18G23G24G32R 4R 5R14R15R16R20
                                R21R22
  21119483.085   110983631.028    21119484.032    86480755.009                  
                
  23027330.202   121009437.898    23027330.505    94293068.238                  
                
  22399436.697   117709833.116    22399436.232    91721946.284                  
                
  20175150.251   106021130.679    20175148.804    82613862.812                  
                
  20424920.577   107333681.340    20424922.043    83636640.641                  
                
  22969412.731   120705079.825    22969415.054    94055914.289                  
                
  23002275.723   123176146.198    23002275.133    95803662.876                  
                
  19918750.893   106477134.543    19918748.248    82815540.501                  
                
  22053846.576   117559405.592    22053846.398    91435082.971                  
                
  20457356.624   109317911.243    20457355.231    85025035.614                  
                
  22741048.423   121478597.998    22741046.546    94483346.871                  
                
  22721685.603   121503064.787    22721687.122    94502387.669                  
                
  21384278.936   114431601.335    21384276.596    89002345.422                  
                
  23046673.490   123024710.152    23046671.060    95685872.359                  
                
 21  8 31 21 20 34.0000000  0 14G10G15G18G23G24G32R 4R 5R14R15R16R20
                                R21R22
  21119105.923   110981651.141    21119107.317    86479212.237                  
                
  23027913.411   121012501.459    23027913.679    94295455.426                  
                
  22400067.456   117713146.387    22400066.759    91724528.058                  
                
  20175205.145   106021419.021    20175203.751    82614087.491                  
                
  20425097.141   107334606.739    20425097.999    83637361.740                  
                
  22968928.356   120702533.216    22968930.375    94053929.924                  
                
  23002813.616   123179028.189    23002813.455    95805904.425                  
                
  19918916.449   106478019.230    19918913.662    82816228.595                  
                
  22054292.391   117561784.712    22054292.855    91436933.386                  
                
  20457079.243   109316427.664    20457077.546    85023881.733                  
                
  22740219.353   121474170.301    22740217.656    94479903.111                  
                
  22722460.993   121507209.828    22722462.191    94505611.590                  
                
  21384455.107   114432541.260    21384452.373    89003076.475                  
                
  23046224.335   123022313.869    23046222.173    95684008.581                  
                
 21  8 31 21 20 35.0000000  0 14G10G15G18G23G24G32R 4R 5R14R15R16R20
                                R21R22
  21118729.459   110979671.768    21118730.603    86477669.868                  
                
  23028496.370   121015565.346    23028496.423    94297842.871                  
                
  22400698.482   117716460.151    22400697.357    91727110.212                  
                
  20175259.896   106021708.032    20175258.645    82614312.697                  
                
  20425273.437   107335533.015    20425274.491    83638083.512                  
                
  22968443.319   120699986.998    22968445.964    94051945.858                  
                
  23003351.349   123181910.527    23003351.706    95808146.241                  
                
  19919082.363   106478904.445    19919079.290    82816917.091                  
                
  22054739.116   117564164.722    22054739.402    91438784.495                  
                
  20456801.648   109314945.123    20456800.201    85022728.646                  
                
  22739392.179   121469742.941    22739388.980    94476459.616                  
                
  22723236.295   121511355.276    22723237.402    94508835.830                  
                
  21384631.349   114433482.300    21384628.204    89003808.394                  
                
  23045775.822   123019918.478    23045773.481    95682145.501                  
                
 21  8 31 21 20 36.0000000  0 14G10G15G18G23G24G32R 4R 5R14R15R16R20
                                R21R22
  21118353.030   110977692.840    21118354.049    86476127.847                  
                
  23029079.436   121018629.427    23029079.650    94300230.471                  
                
  22401328.687   117719774.352    22401327.954    91729692.704                  
                
  20175314.664   106021997.662    20175313.914    82614538.380                  
                
  20425449.822   107336460.034    20425450.787    83638805.866                  
                
  22967959.033   120697441.077    22967961.570    94049962.025                  
                
  23003890.261   123184793.104    23003890.010    95810388.245                  
                
  19919247.562   106479790.111    19919244.864    82817605.943                  
                
  22055186.485   117566545.559    22055185.770    91440636.250                  
                
  20456524.821   109313463.561    20456522.874    85021576.316                  
                
  22738561.644   121465315.843    22738560.179    94473016.318                  
                
  22724011.560   121515501.142    22724012.614    94512060.397                  
                
  21384806.484   114434424.331    21384804.214    89004541.081                  
                
  23045327.846   123017523.998    23045324.951    95680283.140                  
                
 21  8 31 21 20 37.0000000  0 14G10G15G18G23G24G32R 4R 5R14R15R16R20
                                R21R22
  21117976.369   110975714.177    21117977.477    86474586.031                  
                
  23029662.502   121021693.560    23029662.681    94302618.105                  
                
  22401959.410   117723088.800    22401958.642    91732275.382                  
                
  20175370.165   106022287.741    20175369.093    82614764.411                  
                
  20425625.957   107337387.668    20425627.333    83639528.703                  
                
  22967474.729   120694895.284    22967477.123    94047978.300                  
                
  23004427.582   123187675.684    23004428.458    95812630.248                  
                
  19919413.887   106480676.048    19919410.671    82818295.005                  
                
  22055632.335   117568927.033    22055632.264    91442488.520                  
                
  20456247.548   109311982.778    20456245.743    85020424.600                  
                
  22737732.754   121460888.880    22737731.521    94469573.131                  
                
  22724786.432   121519647.130    22724787.987    94515285.045                  
                
  21384982.422   114435367.173    21384980.349    89005274.400                  
                
  23044878.315   123015130.130    23044876.474    95678421.252                  
                
 21  8 31 21 20 38.0000000  0 14G10G15G18G23G24G32R 4R 5R14R15R16R20
                                R21R22
  21117600.137   110973735.373    21117601.048    86473044.111                  
                
  23030245.729   121024757.318    23030245.658    94305005.439                  
                
  22402589.632   117726403.089    22402589.382    91734857.958                  
                
  20175425.398   106022577.840    20175424.273    82614990.461                  
                
  20425802.342   107338315.512    20425803.897    83640251.698                  
                
  22966990.549   120692349.216    22966992.658    94045994.346                  
                
  23004967.745   123190557.957    23004966.655    95814872.006                  
                
  19919579.140   106481561.861    19919576.299    82818983.970                  
                
  22056079.400   117571308.776    22056078.614    91444340.984                  
                
  20455970.203   109310502.380    20455968.809    85019273.182                  
                
  22736903.846   121456461.583    22736902.631    94466129.678                  
                
  22725562.323   121523792.868    22725563.431    94518509.489                  
                
  21385158.807   114436310.418    21385156.788    89006008.035                  
                
  23044430.428   123012736.536    23044428.194    95676559.570                  
                
 21  8 31 21 20 39.0000000  0 14G10G15G18G23G24G32R 4R 5R14R15R16R20
                                R21R22
  21117223.476   110971757.452    21117224.744    86471502.869                  
                
  23030828.527   121027821.765    23030828.903    94307393.323                  
                
  22403220.802   117729718.238    22403220.069    91737441.180                  
                
  20175480.774   106022868.988    20175479.702    82615217.333                  
                
  20425979.460   107339244.579    20425980.782    83640975.635                  
                
  22966506.067   120689803.890    22966508.265    94044010.973                  
                
  23005505.263   123193440.914    23005504.995    95817114.294                  
                
  19919744.821   106482448.562    19919742.320    82819673.627                  
                
  22056525.232   117573691.827    22056525.250    91446194.471                  
                
  20455694.073   109309023.397    20455692.035    85018122.850                  
                
  22736075.402   121452035.001    22736073.865    94462686.793                  
                
  22726337.142   121527939.417    22726338.875    94521734.583                  
                
  21385336.157   114437255.094    21385333.370    89006742.792                  
                
  23043981.772   123010344.272    23043980.093    95674698.911                  
                
 21  8 31 21 20 40.0000000  0 14G10G15G18G23G24G32R 4R 5R14R15R16R20
                                R21R22
  21116847.350   110969779.904    21116848.351    86469961.920                  
                
  23031412.040   121030886.339    23031412.023    94309781.307                  
                
  22403851.579   117733033.760    22403850.989    91740024.701                  
                
  20175536.240   106023160.675    20175535.150    82615444.619                  
                
  20426156.578   107340174.353    20426157.650    83641700.136                  
                
  22966021.030   120687258.779    22966023.996    94042027.778                  
                
  23006044.282   123196324.032    23006043.317    95819356.724                  
                
  19919911.200   106483335.634    19919908.287    82820363.572                  
                
  22056972.422   117576075.674    22056972.011    91448048.583                  
                
  20455417.371   109307545.341    20455415.459    85016973.256                  
                
  22735246.529   121447608.664    22735245.118    94459244.084                  
                
  22727113.301   121532086.239    22727114.337    94524959.889                  
                
  21385512.471   114438200.754    21385510.201    89007478.305                  
                
  23043533.313   123007952.762    23043532.098    95672838.859                  
                
 21  8 31 21 20 41.0000000  0 14G10G15G18G23G24G32R 4R 5R14R15R16R20
                                R21R22
  21116470.868   110967802.264    21116472.047    86468420.911                  
                
  23031995.285   121033950.619    23031995.035    94312169.055                  
                
  22404482.516   117736349.176    22404481.891    91742608.133                  
                
  20175592.063   106023452.456    20175590.669    82615671.988                  
                
  20426333.266   107341104.379    20426334.732    83642424.834                  
                
  22965537.101   120684713.450    22965539.495    94040044.405                  
                
  23006583.480   123199206.860    23006581.603    95821598.919                  
                
  19920077.185   106484222.611    19920074.130    82821053.443                  
                
  22057419.434   117578459.854    22057418.898    91449902.945                  
                
  20455141.044   109306067.727    20455138.936    85015824.000                  
                
  22734418.282   121443182.086    22734416.424    94455801.187                  
                
  22727888.352   121536232.881    22727889.835    94528185.057                  
                
  21385689.338   114439146.897    21385687.069    89008214.197                  
                
  23043084.765   123005561.561    23043084.176    95670979.039                  
                
 21  8 31 21 20 42.0000000  0 14G10G15G18G23G24G32R 4R 5R14R15R16R20
                                R21R22
  21116094.975   110965824.869    21116095.708    86466880.075                  
                
  23032578.244   121037014.891    23032578.048    94314556.797                  
                
  22405113.864   117739664.809    22405112.935    91745191.741                  
                
  20175647.903   106023744.627    20175646.206    82615899.654                  
                
  20426510.188   107342034.975    20426511.778    83643149.972                  
                
  22965052.708   120682168.206    22965055.120    94038061.105                  
                
  23007120.730   123202089.719    23007119.961    95823841.142                  
                
  19920242.831   106485109.820    19920240.115    82821743.490                  
                
  22057867.392   117580844.618    22057866.070    91451757.771                  
                
  20454864.735   109304590.832    20454862.466    85014675.309                  
                
  22733589.338   121438755.576    22733587.712    94452358.356                  
                
  22728665.887   121540379.613    22728665.315    94531410.281                  
                
  21385865.831   114440093.838    21385863.937    89008950.702                  
                
  23042637.361   123003170.999    23042636.360    95669119.708                  
                
 21  8 31 21 20 43.0000000  0 14G10G15G18G23G24G32R 4R 5R14R15R16R20
                                R21R22
  21115718.654   110963848.295    21115719.690    86465339.892                  
                
  23033161.043   121040079.790    23033161.293    94316945.028                  
                
  22405744.694   117742981.238    22405743.926    91747775.971                  
                
  20175703.494   106024037.808    20175702.064    82616128.104                  
                
  20426688.163   107342966.739    20426689.110    83643876.026                  
                
  22964568.671   120679623.652    22964570.905    94036078.333                  
                
  23007659.499   123204973.181    23007658.409    95826083.828                  
                
  19920408.852   106485997.859    19920406.351    82822434.187                  
                
  22058315.208   117583230.599    22058313.707    91453613.534                  
                
  20454588.409   109303115.286    20454586.300    85013527.660                  
                
  22732761.949   121434329.770    22732759.179    94448916.069                  
                
  22729441.670   121544527.094    22729440.812    94534636.102                  
                
  21386043.556   114441042.151    21386041.108    89009688.281                  
                
  23042189.742   123000781.703    23042188.723    95667261.376                  
                
 21  8 31 21 20 44.0000000  0 14G10G15G18G23G24G32R 4R 5R14R15R16R20
                                R21R22
  21115342.314   110961872.146    21115343.476    86463800.036                  
                
  23033744.430   121043144.889    23033744.466    94319333.412                  
                
  22406375.900   117746298.092    22406375.024    91750360.530                  
                
  20175759.513   106024331.572    20175757.977    82616357.014                  
                
  20426865.013   107343899.268    20426866.603    83644602.670                  
                
  22964084.421   120677079.397    22964086.887    94034095.801                  
                
  23008197.517   123207856.874    23008196.874    95828326.703                  
                
  19920575.981   106486886.370    19920572.497    82823125.258                  
                
  22058762.202   117585617.377    22058761.487    91455469.919                  
                
  20454311.939   109301640.692    20454310.295    85012380.753                  
                
  22731934.006   121429904.242    22731930.646    94445473.991                  
                
  22730217.114   121548674.925    22730216.435    94537862.188                  
                
  21386220.852   114441991.459    21386218.494    89010426.629                  
                
  23041742.301   122998393.254    23041741.372    95665403.682                  
                
 21  8 31 21 20 45.0000000  0 14G10G15G18G23G24G32R 4R 5R14R15R16R20
                                R21R22
  21114966.582   110959895.734    21114967.351    86462259.974                  
                
  23034327.818   121046209.489    23034327.818    94321721.405                  
                
  22407007.069   117749614.646    22407006.390    91752944.856                  
                
  20175815.211   106024625.240    20175813.942    82616585.839                  
                
  20427042.899   107344831.851    20427044.025    83645329.358                  
                
  22963600.456   120674534.702    22963602.654    94032112.922                  
                
  23008735.500   123210740.055    23008735.196    95830569.175                  
                
  19920740.948   106487774.594    19920738.643    82823816.101                  
                
  22059211.250   117588004.281    22059209.588    91457326.398                  
                
  20454035.488   109300166.363    20454034.326    85011234.060                  
                
  22731104.794   121425478.257    22731101.970    94442031.561                  
                
  22730991.486   121552822.397    22730992.130    94541088.002                  
                
  21386397.899   114442941.045    21386396.005    89011165.194                  
                
  23041295.540   122996004.913    23041293.914    95663546.092                  
                
 21  8 31 21 20 46.0000000  0 14G10G15G18G23G24G32R 4R 5R14R15R16R20
                                R21R22
  21114590.439   110957920.075    21114591.547    86460720.497                  
                
  23034911.492   121049274.614    23034911.081    94324109.814                  
                
  22407638.364   117752931.941    22407637.614    91755529.759                  
                
  20175871.052   106024919.827    20175869.908    82616815.392                  
                
  20427220.231   107345765.536    20427221.679    83646056.905                  
                
  22963116.081   120671990.656    22963118.475    94030130.546                  
                
  23009274.572   123213623.804    23009273.768    95832812.086                  
                
  19920907.380   106488663.582    19920904.950    82824507.536                  
                
  22059658.244   117590392.357    22059657.958    91459183.788                  
                
  20453759.840   109298693.342    20453758.661    85010088.383                  
                
  22730276.171   121421052.883    22730273.634    94438589.609                  
                
  22731767.734   121556970.544    22731768.020    94544314.332                  
                
  21386576.089   114443891.969    21386573.694    89011904.804                  
                
  23040847.939   122993617.778    23040846.795    95661689.425                  
                
 21  8 31 21 20 47.0000000  0 14G10G15G18G23G24G32R 4R 5R14R15R16R20
                                R21R22
  21114214.439   110955944.537    21114215.637    86459181.117                  
                
  23035494.147   121052339.651    23035494.469    94326498.162                  
                
  22408269.820   117756249.349    22408268.908    91758114.762                  
                
  20175927.053   106025214.715    20175926.160    82617045.171                  
                
  20427397.921   107346699.683    20427399.511    83646784.807                  
                
  22962632.366   120669446.565    22962634.242    94028148.138                  
                
  23009813.073   123216507.509    23009812.091    95835054.967                  
                
  19921074.116   106489552.669    19921071.275    82825199.055                  
                
  22060107.185   117592780.967    22060106.399    91461041.591                  
                
  20453484.389   109297220.970    20453483.210    85008943.203                  
                
  22729447.549   121416627.465    22729445.280    94435147.619                  
                
  22732542.893   121561118.724    22732543.911    94547540.694                  
                
  21386753.760   114444843.578    21386751.634    89012644.942                  
                
  23040401.642   122991231.085    23040399.802    95659833.110                  
                
 21  8 31 21 20 48.0000000  0 14G10G15G18G23G24G32R 4R 5R14R15R16R20
                                R21R22
  21113838.564   110953969.260    21113839.601    86457641.935                  
                
  23036077.839   121055404.730    23036077.607    94328886.528                  
                
  22408901.204   117759566.978    22408900.239    91760699.915                  
                
  20175983.430   106025510.032    20175982.447    82617275.290                  
                
  20427575.700   107347634.419    20427577.379    83647513.173                  
                
  22962148.026   120666902.595    22962150.260    94026165.819                  
                
  23010350.770   123219391.249    23010350.627    95837297.874                  
                
  19921240.030   106490442.019    19921237.689    82825890.767                  
                
  22060555.144   117595170.261    22060554.983    91462899.926                  
                
  20453209.439   109295749.369    20453207.866    85007798.625                  
                
  22728618.248   121412202.175    22728616.872    94431705.725                  
                
  22733318.301   121565267.027    22733319.695    94550767.143                  
                
  21386931.664   114445796.017    21386929.663    89013385.723                  
                
  23039954.380   122988845.062    23039952.737    95657977.329                  
                
 21  8 31 21 20 49.0000000  0 14G10G15G18G23G24G32R 4R 5R14R15R16R20
                                R21R22
  21113463.011   110951994.517    21113463.887    86456103.177                  
                
  23036661.012   121058470.110    23036660.959    94331275.136                  
                
  22409531.944   117762885.155    22409531.498    91763285.515                  
                
  20176039.628   106025806.045    20176038.645    82617505.949                  
                
  20427754.318   107348570.039    20427755.337    83648242.229                  
                
  22961663.687   120664359.024    22961666.367    94024183.818                  
                
  23010889.450   123222275.292    23010889.307    95839541.023                  
                
  19921406.801   106491331.923    19921404.103    82826582.915                  
                
  22061003.638   117597560.483    22061003.710    91464758.983                  
                
  20452933.702   109294278.815    20452932.701    85006654.863                  
                
  22727790.840   121407777.235    22727788.625    94428264.109                  
                
  22734093.942   121569415.816    22734095.443    94553993.972                  
                
  21387110.122   114446749.559    21387107.889    89014127.370                  
                
  23039506.815   122986460.014    23039505.939    95656122.294                  
                
 21  8 31 21 20 50.0000000  0 14G10G15G18G23G24G32R 4R 5R14R15R16R20
                                R21R22
  21113086.993   110950020.414    21113088.155    86454564.919                  
                
  23037244.400   121061535.896    23037244.400    94333664.062                  
                
  22410163.954   117766203.943    22410162.918    91765871.579                  
                
  20176095.683   106026102.867    20176095.165    82617737.244                  
                
  20427932.330   107349506.632    20427933.652    83648972.049                  
                
  22961179.936   120661815.966    22961182.474    94022202.217                  
                
  23011428.951   123225159.789    23011427.968    95841784.518                  
                
  19921572.394   106492222.494    19921570.821    82827275.578                  
                
  22061451.972   117599951.763    22061452.508    91466618.865                  
                
  20452659.251   109292809.446    20452657.768    85005512.011                  
                
  22726962.969   121403352.807    22726960.217    94424822.887                  
                
  22734869.850   121573565.149    22734871.244    94557221.233                  
                
  21387288.866   114447704.312    21387286.293    89014869.952                  
                
  23039059.964   122984075.968    23039059.321    95654268.024                  
                
 21  8 31 21 20 51.0000000  0 14G10G15G18G23G24G32R 4R 5R14R15R16R20
                                R21R22
  21112711.690   110948045.917    21112712.494    86453026.351                  
                
  23037827.752   121064601.077    23037827.520    94336052.515                  
                
  22410794.998   117769522.305    22410794.498    91768457.307                  
                
  20176152.882   106026399.469    20176151.542    82617968.356                  
                
  20428110.609   107350443.147    20428111.931    83649701.801                  
                
  22960696.097   120659272.339    22960698.402    94020220.184                  
                
  23011967.541   123228043.664    23011966.630    95844027.528                  
                
  19921739.916   106493112.667    19921737.289    82827967.935                  
                
  22061901.432   117602343.000    22061901.128    91468478.716                  
                
  20452384.426   109291340.166    20452382.764    85004369.247                  
                
  22726133.078   121398927.747    22726131.791    94421381.169                  
                
  22735645.759   121577713.950    22735647.135    94560448.073                  
                
  21387467.002   114448659.172    21387464.733    89015612.623                  
                
  23038612.756   122981691.951    23038612.649    95652413.794                  
                
 21  8 31 21 20 52.0000000  0 14G10G15G18G23G24G32R 4R 5R14R15R16R20
                                R21R22
  21112336.208   110946072.378    21112336.995    86451488.530                  
                
  23038411.283   121067666.994    23038411.015    94338441.537                  
                
  22411427.151   117772841.618    22411426.329    91771043.791                  
                
  20176209.062   106026697.184    20176208.044    82618200.343                  
                
  20428289.013   107351380.970    20428290.210    83650432.568                  
                
  22960211.900   120656729.543    22960214.419    94018238.781                  
                
  23012507.168   123230928.337    23012505.435    95846271.156                  
                
  19921906.205   106494003.792    19921903.918    82828661.040                  
                
  22062349.480   117604735.589    22062350.016    91470339.619                  
                
  20452109.815   109289872.405    20452108.046    85003227.662                  
                
  22725305.599   121394503.477    22725303.526    94417940.089                  
                
  22736422.204   121581863.587    22736423.205    94563675.569                  
                
  21387645.246   114449615.576    21387643.227    89016356.496                  
                
  23038166.299   122979309.318    23038166.424    95650560.641                  
                
 21  8 31 21 20 53.0000000  0 14G10G15G18G23G24G32R 4R 5R14R15R16R20
                                R21R22
  21111960.923   110944098.503    21111961.459    86449950.450                  
                
  23038994.885   121070732.346    23038994.349    94340830.120                  
                
  22412058.678   117776160.562    22412057.838    91773629.974                  
                
  20176265.939   106026994.749    20176264.831    82618432.212                  
                
  20428467.543   107352318.799    20428468.722    83651163.348                  
                
  22959728.185   120654186.286    22959730.455    94016257.018                  
                
  23013044.775   123233812.430    23013044.204    95848514.337                  
                
  19922073.102   106494894.575    19922070.582    82829353.868                  
                
  22062798.117   117607128.214    22062798.742    91472200.545                  
                
  20451835.686   109288404.826    20451833.559    85002086.207                  
                
  22724478.460   121390078.751    22724475.279    94414498.644                  
                
  22737197.952   121586012.872    22737199.113    94566902.788                  
                
  21387823.883   114450572.232    21387822.078    89017100.559                  
                
  23037720.913   122976926.771    23037720.074    95648707.551                  
                
 21  8 31 21 20 54.0000000  0 14G10G15G18G23G24G32R 4R 5R14R15R16R20
                                R21R22
  21111584.887   110942125.820    21111585.942    86448413.290                  
                
  23039577.862   121073798.674    23039577.880    94343219.467                  
                
  22412689.830   117779480.694    22412689.687    91776217.083                  
                
  20176322.834   106027293.663    20176321.673    82618665.132                  
                
  20428646.537   107353258.157    20428647.519    83651895.309                  
                
  22959244.346   120651644.041    22959246.722    94014276.057                  
                
  23013584.456   123236697.540    23013583.026    95850758.297                  
                
  19922239.998   106495786.545    19922237.479    82830047.609                  
                
  22063247.702   117609522.440    22063247.666    91474062.711                  
                
  20451561.039   109286938.975    20451559.288    85000946.098                  
                
  22723649.033   121385655.122    22723647.211    94411058.042                  
                
  22737973.736   121590163.253    22737975.272    94570130.855                  
                
  21388003.234   114451530.663    21388001.107    89017846.001                  
                
  23037275.028   122974545.807    23037274.009    95646855.683                  
                
 21  8 31 21 20 55.0000000  0 14G10G15G18G23G24G32R 4R 5R14R15R16R20
                                R21R22
  21111209.191   110940152.691    21111210.406    86446875.789                  
                
  23040161.625   121076864.319    23040161.357    94345608.279                  
                
  22413321.607   117782800.359    22413321.535    91778803.844                  
                
  20176379.944   106027592.299    20176378.514    82618897.838                  
                
  20428825.137   107354197.392    20428826.210    83652627.187                  
                
  22958760.864   120649101.242    22958762.972    94012294.655                  
                
  23014122.492   123239581.966    23014121.581    95853001.742                  
                
  19922406.788   106496678.044    19922404.215    82830741.009                  
                
  22063697.304   117611916.634    22063696.518    91475924.869                  
                
  20451286.767   109285473.195    20451284.873    84999806.047                  
                
  22722821.644   121381230.886    22722818.910    94407616.976                  
                
  22738750.824   121594313.013    22738751.288    94573358.444                  
                
  21388182.532   114452489.180    21388180.155    89018591.514                  
                
  23036829.767   122972164.723    23036827.802    95645003.732                  
                
 21  8 31 21 20 56.0000000  0 14G10G15G18G23G24G32R 4R 5R14R15R16R20
                                R21R22
  21110833.906   110938180.137    21110835.085    86445338.728                  
                
  23040745.281   121079930.330    23040744.852    94347997.376                  
                
  22413953.849   117786120.567    22413953.152    91781391.021                  
                
  20176436.553   106027891.698    20176435.588    82619131.131                  
                
  20429003.935   107355137.545    20429005.168    83653359.776                  
                
  22958277.078   120646558.853    22958279.097    94010313.573                  
                
  23014660.921   123242466.804    23014660.278    95855245.502                  
                
  19922573.631   106497570.154    19922571.111    82831434.866                  
                
  22064146.228   117614311.806    22064145.620    91477787.776                  
                
  20451011.995   109284008.544    20451010.691    84998666.876                  
                
  22721992.914   121376807.057    22721990.663    94404176.221                  
                
  22739526.196   121598463.298    22739527.447    94576586.443                  
                
  21388361.633   114453448.806    21388359.703    89019337.890                  
                
  23036382.631   122969784.668    23036381.898    95643152.569                  
                
 21  8 31 21 20 57.0000000  0 14G10G15G18G23G24G32R 4R 5R14R15R16R20
                                R21R22
  21110458.585   110936208.226    21110459.925    86443802.180                  
                
  23041327.794   121082996.767    23041328.330    94350386.805                  
                
  22414586.055   117789441.415    22414584.911    91783978.686                  
                
  20176494.055   106028191.886    20176492.644    82619365.044                  
                
  20429183.233   107356078.676    20429184.216    83654093.124                  
                
  22957793.167   120644016.987    22957795.293    94008332.896                  
                
  23015200.530   123245352.051    23015199.136    95857489.576                  
                
  19922740.653   106498462.925    19922738.133    82832129.247                  
                
  22064595.401   117616708.024    22064594.669    91479651.498                  
                
  20450738.867   109282545.062    20450736.866    84997528.610                  
                
  22721166.043   121372383.691    22721162.451    94400735.830                  
                
  22740302.623   121602614.114    22740303.802    94579814.856                  
                
  21388541.592   114454409.642    21388539.305    89020085.207                  
                
  23035937.710   122967405.675    23035936.155    95641302.252                  
                
 21  8 31 21 20 58.0000000  0 14G10G15G18G23G24G32R 4R 5R14R15R16R20
                                R21R22
  21110083.604   110934236.538    21110084.712    86442265.793                  
                
  23041911.557   121086063.172    23041911.753    94352776.205                  
                
  22415217.903   117792762.441    22415216.724    91786566.504                  
                
  20176551.040   106028492.462    20176549.860    82619599.263                  
                
  20429362.155   107357020.367    20429363.370    83654826.903                  
                
  22957309.256   120641475.197    22957311.668    94006352.276                  
                
  23015738.942   123248237.314    23015737.870    95859733.667                  
                
  19922907.889   106499355.916    19922905.155    82832823.791                  
                
  22065045.236   117619104.837    22065043.807    91481515.686                  
                
  20450465.185   109281082.287    20450463.148    84996390.899                  
                
  22720336.795   121367960.334    22720334.365    94397295.432                  
                
  22741078.764   121606765.030    22741079.944    94583043.337                  
                
  21388720.479   114455371.270    21388719.013    89020833.147                  
                
  23035490.716   122965027.241    23035490.699    95639452.354                  
                
 21  8 31 21 20 59.0000000  0 14G10G15G18G23G24G32R 4R 5R14R15R16R20
                                R21R22
  21109708.729   110932264.879    21109709.426    86440729.438                  
                
  23042495.284   121089129.421    23042495.087    94355165.494                  
                
  22415849.806   117796083.512    22415848.716    91789154.344                  
                
  20176608.399   106028793.254    20176607.023    82619833.647                  
                
  20429541.346   107357962.424    20429542.704    83655560.983                  
                
  22956825.291   120638933.278    22956827.918    94004371.574                  
                
  23016279.051   123251122.418    23016276.585    95861977.637                  
                
  19923074.821   106500248.955    19923072.194    82833518.379                  
                
  22065495.089   117621502.084    22065493.141    91483380.212                  
                
  20450191.414   109279620.040    20450189.449    84995253.596                  
                
  22719508.727   121363536.796    22719506.350    94393854.918                  
                
  22741854.977   121610915.876    22741856.085    94586271.778                  
                
  21388900.956   114456333.502    21388898.829    89021581.542                  
                
  23035046.367   122962649.293    23035045.152    95637602.851                  
                
 21  8 31 21 21  0.0000000  0 14G10G15G18G23G24G32R 4R 5R14R15R16R20
                                R21R22
  21109333.301   110930294.016    21109334.498    86439193.695                  
                
  23043079.190   121092196.216    23043078.690    94357555.200                  
                
  22416481.386   117799405.337    22416480.832    91791742.779                  
                
  20176665.634   106029095.001    20176664.508    82620068.768                  
                
  20429720.715   107358905.606    20429722.055    83656295.925                  
                
  22956341.630   120636392.023    22956344.311    94002391.370                  
                
  23016816.444   123254008.075    23016815.354    95864222.030                  
                
  19923242.111   106501142.770    19923239.466    82834213.564                  
                
  22065944.781   117623900.519    22065942.779    91485245.662                  
                
  20449918.018   109278159.136    20449916.088    84994117.339                  
                
  22718679.980   121359113.889    22718678.354    94390414.884                  
                
  22742631.940   121615067.460    22742632.440    94589500.785                  
                
  21389081.004   114457297.078    21389079.074    89022330.998                  
                
  23034602.733   122960272.571    23034599.963    95635754.292                  
                
 21  8 31 21 21  1.0000000  0 14G10G15G18G23G24G32R 4R 5R14R15R16R20
                                R21R22
  21108958.516   110928323.132    21108959.338    86437657.944                  
                
  23043662.506   121095262.782    23043662.167    94359944.730                  
                
  22417113.503   117802727.127    22417112.913    91794331.184                  
                
  20176722.940   106029396.903    20176721.975    82620304.016                  
                
  20429900.460   107359849.110    20429901.639    83657031.121                  
                
  22955858.077   120633850.614    22955860.739    94000411.049                  
                
  23017354.784   123256893.490    23017354.212    95866466.244                  
                
  19923409.186   106502036.561    19923406.631    82834908.733                  
                
  22066394.419   117626299.347    22066392.757    91487111.421                  
                
  20449645.105   109276698.755    20449642.782    84992981.482                  
                
  22717852.697   121354690.860    22717850.357    94386974.746                  
                
  22743408.438   121619218.904    22743408.920    94592729.672                  
                
  21389260.927   114458261.192    21389259.140    89023080.859                  
                
  23034156.973   122957896.173    23034154.757    95633905.978                  
                
 21  8 31 21 21  2.0000000  0 14G10G15G18G23G24G32R 4R 5R14R15R16R20
                                R21R22
  21108583.338   110926352.720    21108584.268    86436122.560                  
                
  23044246.019   121098329.574    23044245.894    94362334.440                  
                
  22417746.299   117806049.354    22417745.119    91796919.926                  
                
  20176780.639   106029699.424    20176779.584    82620539.749                  
                
  20430080.347   107360793.422    20430081.348    83657766.950                  
                
  22955374.577   120631309.517    22955377.168    93998430.969                  
                
  23017894.643   123259779.192    23017893.088    95868710.686                  
                
  19923576.172   106502930.818    19923573.974    82835604.270                  
                
  22066844.557   117628699.047    22066843.128    91488977.857                  
                
  20449371.137   109275239.385    20449369.546    84991846.424                  
                
  22717024.826   121350268.189    22717022.360    94383534.898                  
                
  22744184.132   121623370.724    22744185.294    94595958.863                  
                
  21389440.690   114459226.331    21389439.564    89023831.521                  
                
  23033712.284   122955520.697    23033709.747    95632058.401                  
                
 21  8 31 21 21  3.0000000  0 14G10G15G18G23G24G32R 4R 5R14R15R16R20
                                R21R22
  21108208.732   110924382.505    21108209.501    86434587.323                  
                
  23044829.372   121101396.349    23044829.246    94364724.126                  
                
  22418378.272   117809371.777    22418377.522    91799508.825                  
                
  20176838.213   106030002.326    20176837.212    82620775.784                  
                
  20430259.931   107361738.256    20430261.146    83658503.182                  
                
  22954890.898   120628768.469    22954893.632    93996450.936                  
                
  23018432.697   123262664.897    23018431.893    95870955.123                  
                
  19923743.569   106503825.302    19923741.282    82836299.980                  
                
  22067295.268   117631099.331    22067293.606    91490844.751                  
                
  20449098.634   109273780.725    20449096.651    84990711.910                  
                
  22716196.507   121345845.584    22716194.309    94380095.084                  
                
  22744961.649   121627522.634    22744961.721    94599188.124                  
                
  21389622.775   114460192.238    21389620.130    89024582.777                  
                
  23033268.543   122953145.828    23033265.076    95630211.281                  
                
 21  8 31 21 21  4.0000000  0 14G10G15G18G23G24G32R 4R 5R14R15R16R20
                                R21R22
  21107833.626   110922412.607    21107834.608    86433052.340                  
                
  23045412.956   121104463.229    23045412.831    94367113.898                  
                
  22419011.050   117812694.492    22419009.835    91802097.953                  
                
  20176895.930   106030305.722    20176895.000    82621012.189                  
                
  20430440.122   107362683.758    20430441.069    83659239.940                  
                
  22954407.541   120626227.627    22954410.060    93994471.066                  
                
  23018972.216   123265550.712    23018970.680    95873199.651                  
                
  19923911.163   106504720.099    19923908.608    82836995.938                  
                
  22067745.299   117633500.341    22067744.334    91492712.208                  
                
  20448825.167   109272322.915    20448823.773    84989578.056                  
                
  22715368.725   121341423.167    22715366.527    94376655.429                  
                
  22745737.433   121631674.803    22745738.291    94602417.589                  
                
  21389802.930   114461159.054    21389800.893    89025334.740                  
                
  23032822.800   122950771.678    23032820.387    95628364.725                  
                
 21  8 31 21 21  5.0000000  0 14G10G15G18G23G24G32R 4R 5R14R15R16R20
                                R21R22
  21107458.698   110920443.351    21107459.966    86431517.857                  
                
  23045996.826   121107530.514    23045996.683    94369503.999                  
                
  22419643.435   117816017.801    22419642.184    91804687.552                  
                
  20176953.700   106030609.901    20176952.789    82621249.209                  
                
  20430620.027   107363630.221    20430621.117    83659977.445                  
                
  22953924.220   120623687.243    22953926.650    93992491.542                  
                
  23019510.163   123268436.908    23019509.717    95875444.470                  
                
  19924079.203   106505615.526    19924076.237    82837692.381                  
                
  22068195.652   117635902.330    22068195.330    91494580.433                  
                
  20448552.896   109270866.258    20448551.252    84988445.100                  
                
  22714540.585   121337001.191    22714538.619    94373216.117                  
                
  22746513.091   121635827.474    22746515.003    94605647.428                  
                
  21389984.176   114462127.032    21389981.835    89026087.619                  
                
  23032377.539   122948398.548    23032375.913    95626518.970                  
                
 21  8 31 21 21  6.0000000  0 14G10G15G18G23G24G32R 4R 5R14R15R16R20
                                R21R22
  21107084.217   110918473.723    21107085.092    86429983.080                  
                
  23046580.536   121110597.191    23046580.339    94371893.616                  
                
  22420275.587   117819340.750    22420274.426    91807276.867                  
                
  20177011.846   106030913.895    20177010.667    82621486.088                  
                
  20430800.183   107364576.659    20430801.344    83660714.925                  
                
  22953441.041   120621146.369    22953443.114    93990511.644                  
                
  23020049.218   123271322.526    23020048.378    95877688.837                  
                
  19924245.993   106506510.588    19924243.634    82838388.534                  
                
  22068646.845   117638304.361    22068646.470    91496448.677                  
                
  20448280.179   109269409.770    20448278.696    84987312.281                  
                
  22713713.035   121332578.645    22713710.515    94369776.363                  
                
  22747290.841   121639979.665    22747291.520    94608876.919                  
                
  21390165.136   114463095.207    21390162.723    89026840.639                  
                
  23031932.887   122946025.486    23031931.386    95624673.239                  
                
 21  8 31 21 21  7.0000000  0 14G10G15G18G23G24G32R 4R 5R14R15R16R20
                                R21R22
  21106709.575   110916505.186    21106710.540    86428449.165                  
                
  23047164.531   121113664.752    23047164.067    94374283.923                  
                
  22420907.990   117822664.755    22420906.953    91809866.994                  
                
  20177069.867   106031219.134    20177068.830    82621723.934                  
                
  20430980.017   107365524.504    20430981.661    83661453.505                  
                
  22952957.255   120618606.436    22952959.757    93988532.476                  
                
  23020587.594   123274209.062    23020587.487    95879933.916                  
                
  19924414.158   106507406.759    19924411.299    82839085.555                  
                
  22069097.609   117640707.898    22069097.752    91498318.093                  
                
  20448008.356   109267954.873    20448006.372    84986180.697                  
                
  22712885.198   121328157.022    22712882.875    94366337.327                  
                
  22748068.483   121644132.873    22748068.054    94612107.176                  
                
  21390345.559   114464065.055    21390343.879    89027594.966                  
                
  23031488.859   122943653.866    23031486.983    95622828.665                  
                
 21  8 31 21 21  8.0000000  0 14G10G15G18G23G24G32R 4R 5R14R15R16R20
                                R21R22
  21106334.951   110914536.738    21106335.826    86426915.299                  
                
  23047748.026   121116732.169    23047747.562    94376674.116                  
                
  22421540.303   117825988.825    22421539.463    91812457.172                  
                
  20177127.959   106031524.642    20177126.905    82621961.990                  
                
  20431160.780   107366472.783    20431162.013    83662192.428                  
                
  22952474.113   120616066.451    22952476.507    93986553.269                  
                
  23021126.273   123277095.473    23021126.345    95882178.898                  
                
  19924582.163   106508303.006    19924578.964    82839782.644                  
                
  22069548.266   117643111.914    22069549.141    91500187.883                  
                
  20447736.032   109266500.579    20447734.138    84985049.582                  
                
  22712057.130   121323735.338    22712055.361    94362898.247                  
                
  22748844.677   121648286.067    22748844.677    94615337.442                  
                
  21390527.698   114465035.531    21390525.339    89028349.783                  
                
  23031045.136   122941282.763    23031042.670    95620984.459                  
                
 21  8 31 21 21  9.0000000  0 14G10G15G18G23G24G32R 4R 5R14R15R16R20
                                R21R22
  21105960.273   110912568.542    21105961.399    86425381.645                  
                
  23048331.432   121119799.607    23048331.289    94379064.327                  
                
  22422173.278   117829313.124    22422171.937    91815047.527                  
                
  20177186.230   106031830.573    20177185.104    82622200.382                  
                
  20431341.310   107367421.651    20431342.793    83662931.804                  
                
  22951990.452   120613526.566    22951993.096    93984574.135                  
                
  23021664.685   123279981.950    23021665.346    95884423.928                  
                
  19924748.970   106509199.520    19924746.683    82840479.928                  
                
  22069999.441   117645516.579    22070000.548    91502058.167                  
                
  20447464.065   109265047.081    20447462.171    84983919.083                  
                
  22711229.973   121319313.786    22711227.704    94359459.262                  
                
  22749620.175   121652439.431    22749621.122    94618567.822                  
                
  21390708.586   114466006.808    21390706.781    89029105.213                  
                
  23030600.483   122938912.345    23030598.607    95619140.794                  
                
 21  8 31 21 21 10.0000000  0 14G10G15G18G23G24G32R 4R 5R14R15R16R20
                                R21R22
  21105586.006   110910600.560    21105586.918    86423848.148                  
                
  23048915.070   121122867.050    23048915.124    94381454.540                  
                
  22422805.698   117832637.625    22422804.697    91817638.055                  
                
  20177244.733   106032136.871    20177243.411    82622439.053                  
                
  20431521.966   107368371.057    20431523.396    83663671.598                  
                
  22951507.863   120610986.762    22951509.632    93982595.084                  
                
  23022204.508   123282868.414    23022204.329    95886668.956                  
                
  19924916.742   106510096.216    19924914.437    82841177.362                  
                
  22070451.795   117647921.831    22070451.866    91503928.913                  
                
  20447192.188   109263594.338    20447190.330    84982789.172                  
                
  22710401.029   121314892.281    22710400.118    94356020.328                  
                
  22750396.137   121656592.872    22750397.781    94621798.279                  
                
  21390890.582   114466978.841    21390888.402    89029861.239                  
                
  23030156.759   122936542.553    23030154.562    95617297.632                  
                
 21  8 31 21 21 11.0000000  0 14G10G15G18G23G24G32R 4R 5R14R15R16R20
                                R21R22
  21105211.793   110908632.953    21105212.419    86422314.950                  
                
  23049498.386   121125934.649    23049498.833    94383844.877                  
                
  22423438.261   117835962.490    22423437.350    91820228.859                  
                
  20177303.183   106032443.735    20177301.807    82622678.168                  
                
  20431703.087   107369321.190    20431704.212    83664411.960                  
                
  22951024.399   120608447.206    22951026.418    93980616.208                  
                
  23022743.956   123285755.058    23022743.349    95888914.117                  
                
  19925084.228   106510993.317    19925082.209    82841875.112                  
                
  22070902.523   117650327.860    22070903.166    91505800.250                  
                
  20446919.489   109262142.533    20446918.703    84981659.988                  
                
  22709574.122   121310471.027    22709572.460    94352581.566                  
                
  22751172.528   121660746.556    22751174.494    94625028.922                  
                
  21391072.775   114467951.821    21391070.237    89030618.001                  
                
  23029712.732   122934173.533    23029710.766    95615455.065                  
                
 21  8 31 21 21 12.0000000  0 14G10G15G18G23G24G32R 4R 5R14R15R16R20
                                R21R22
  21104836.937   110906666.104    21104838.134    86420782.338                  
                
  23050082.650   121129002.759    23050082.668    94386235.605                  
                
  22424070.861   117839288.057    22424070.092    91822820.200                  
                
  20177361.400   106032751.488    20177360.417    82622917.978                  
                
  20431883.778   107370272.389    20431885.154    83665153.156                  
                
  22950541.614   120605908.245    22950543.240    93978637.795                  
                
  23023283.708   123288642.213    23023282.439    95891159.677                  
                
  19925252.358   106511891.150    19925250.250    82842573.418                  
                
  22071354.306   117652735.007    22071354.788    91507672.469                  
                
  20446648.916   109260691.953    20446647.326    84980531.759                  
                
  22708746.643   121306050.361    22708744.892    94349143.279                  
                
  22751948.455   121664900.926    22751951.475    94628260.094                  
                
  21391254.324   114468926.154    21391252.358    89031375.823                  
                
  23029268.776   122931805.657    23029267.132    95613613.386                  
                
 21  8 31 21 21 13.0000000  0 14G10G15G18G23G24G32R 4R 5R14R15R16R20
                                R21R22
  21104462.992   110904699.181    21104463.903    86419249.669                  
                
  23050667.021   121132070.590    23050666.538    94388626.118                  
                
  22424703.621   117842613.541    22424702.995    91825411.489                  
                
  20177419.796   106033059.370    20177418.902    82623157.887                  
                
  20432064.845   107371223.854    20432066.078    83665894.560                  
                
  22950058.328   120603369.060    22950060.151    93976659.214                  
                
  23023822.780   123291529.118    23023821.673    95893405.047                  
                
  19925420.488   106512788.905    19925418.129    82843271.665                  
                
  22071805.534   117655142.491    22071806.070    91509544.952                  
                
  20446376.824   109259241.821    20446376.038    84979403.884                  
                
  22707918.879   121301629.411    22707917.288    94345704.765                  
                
  22752725.740   121669055.143    22752728.366    94631491.145                  
                
  21391436.070   114469901.011    21391434.462    89032134.038                  
                
  23028826.661   122929438.098    23028823.498    95611771.942                  
                
 21  8 31 21 21 14.0000000  0 14G10G15G18G23G24G32R 4R 5R14R15R16R20
                                R21R22
  21104088.564   110902732.326    21104089.779    86417717.057                  
                
  23051250.605   121135138.268    23051250.355    94391016.519                  
                
  22425337.560   117845939.078    22425335.880    91828002.807                  
                
  20177478.871   106033367.467    20177477.602    82623397.964                  
                
  20432246.144   107372175.742    20432247.323    83666636.288                  
                
  22949574.739   120600829.827    22949577.026    93974680.584                  
                
  23024361.728   123294415.866    23024360.745    95895650.296                  
                
  19925588.063   106513686.747    19925586.134    82843969.993                  
                
  22072257.049   117657550.472    22072257.477    91511417.822                  
                
  20446106.145   109257792.295    20446104.715    84978276.479                  
                
  22707092.240   121297208.360    22707089.542    94342266.172                  
                
  22753503.525   121673209.278    22753505.365    94634722.138                  
                
  21391619.299   114470876.438    21391616.636    89032892.701                  
                
  23028383.706   122927071.066    23028380.060    95609930.906                  
                
 21  8 31 21 21 15.0000000  0 14G10G15G18G23G24G32R 4R 5R14R15R16R20
                                R21R22
  21103714.369   110900766.325    21103715.620    86416185.105                  
                
  23051834.600   121138206.565    23051834.172    94393407.393                  
                
  22425969.927   117849265.445    22425968.801    91830594.782                  
                
  20177537.410   106033676.599    20177536.355    82623638.846                  
                
  20432427.675   107373128.801    20432428.658    83667378.930                  
                
  22949091.810   120598291.282    22949093.865    93972702.495                  
                
  23024901.909   123297303.267    23024899.925    95897896.043                  
                
  19925756.032   106514585.463    19925754.245    82844668.993                  
                
  22072710.421   117659959.692    22072709.135    91513291.655                  
                
  20445835.393   109256344.157    20445833.803    84977150.142                  
                
  22706264.064   121292787.968    22706262.117    94338828.096                  
                
  22754281.649   121677364.215    22754282.400    94637953.752                  
                
  21391801.223   114471853.267    21391799.276    89033652.450                  
                
  23027939.196   122924705.316    23027936.855    95608090.885                  
                
 21  8 31 21 21 16.0000000  0 14G10G15G18G23G24G32R 4R 5R14R15R16R20
                                R21R22
  21103340.281   110898800.321    21103341.478    86414653.154                  
                
  23052418.596   121141274.622    23052417.917    94395798.094                  
                
  22426602.776   117852591.786    22426601.740    91833186.736                  
                
  20177596.324   106033985.890    20177595.234    82623879.850                  
                
  20432609.403   107374082.195    20432610.208    83668121.836                  
                
  22948608.185   120595752.609    22948610.758    93970724.303                  
                
  23025440.820   123300190.425    23025439.141    95900141.613                  
                
  19925924.644   106515484.186    19925922.411    82845368.003                  
                
  22073161.293   117662369.277    22073160.864    91515165.781                  
                
  20445564.570   109254896.550    20445562.873    84976024.230                  
                
  22705436.085   121288367.418    22705434.727    94335389.907                  
                
  22755058.630   121681519.006    22755059.470    94641185.249                  
                
  21391984.667   114472830.612    21391981.861    89034412.614                  
                
  23027495.955   122922339.861    23027493.703    95606251.098                  
                
 21  8 31 21 21 17.0000000  0 14G10G15G18G23G24G32R 4R 5R14R15R16R20
                                R21R22
  21102966.568   110896834.830    21102967.372    86413121.605                  
                
  23053002.555   121144342.987    23053001.769    94398189.021                  
                
  22427235.661   117855918.620    22427234.875    91835779.067                  
                
  20177655.238   106034295.868    20177654.327    82624121.393                  
                
  20432790.935   107375036.436    20432791.703    83668865.396                  
                
  22948125.364   120593214.299    22948127.723    93968746.402                  
                
  23025980.233   123303077.903    23025978.464    95902387.431                  
                
  19926092.828   106516383.431    19926090.630    82846067.414                  
                
  22073614.219   117664779.756    22073612.682    91517040.603                  
                
  20445293.515   109253449.966    20445292.121    84974899.110                  
                
  22704609.160   121283947.277    22704607.374    94331952.026                  
                
  22755835.253   121685674.219    22755836.504    94644417.078                  
                
  21392166.681   114473809.058    21392164.769    89035173.623                  
                
  23027052.821   122919975.354    23027050.748    95604412.044                  
                
 21  8 31 21 21 18.0000000  0 14G10G15G18G23G24G32R 4R 5R14R15R16R20
                                R21R22
  21102592.534   110894869.604    21102593.552    86411590.264                  
                
  23053585.836   121147411.390    23053585.711    94400579.989                  
                
  22427869.225   117859245.683    22427868.046    91838371.588                  
                
  20177714.063   106034606.265    20177713.402    82624363.254                  
                
  20432972.270   107375991.268    20432973.431    83669609.430                  
                
  22947642.150   120590676.098    22947644.973    93966768.587                  
                
  23026518.930   123305965.453    23026517.804    95904633.301                  
                
  19926261.082   106517282.932    19926258.956    82846767.021                  
                
  22074066.109   117667190.877    22074064.679    91518915.922                  
                
  20445023.478   109252004.170    20445021.459    84973774.604                  
                
  22703782.647   121279527.264    22703780.002    94328514.245                  
                
  22756611.805   121689829.577    22756613.414    94647649.031                  
                
  21392349.588   114474788.346    21392347.747    89035935.298                  
                
  23026610.348   122917611.511    23026607.971    95602573.500                  
                
 21  8 31 21 21 19.0000000  0 14G10G15G18G23G24G32R 4R 5R14R15R16R20
                                R21R22
  21102218.428   110892904.621    21102219.482    86410059.111                  
                
  23054169.474   121150479.808    23054169.706    94402970.966                  
                
  22428502.378   117862572.969    22428501.270    91840964.276                  
                
  20177773.602   106034917.076    20177772.530    82624605.454                  
                
  20433154.444   107376946.695    20433155.141    83670353.916                  
                
  22947159.275   120588138.003    22947162.081    93964790.853                  
                
  23027058.110   123308853.030    23027057.020    95906879.187                  
                
  19926429.516   106518182.672    19926427.211    82847466.824                  
                
  22074518.445   117669602.657    22074516.801    91520791.755                  
                
  20444753.120   109250559.159    20444751.101    84972650.702                  
                
  22702955.347   121275107.355    22702952.559    94325076.531                  
                
  22757390.823   121693985.085    22757390.395    94650881.097                  
                
  21392532.567   114475768.470    21392530.923    89036697.615                  
                
  23026167.786   122915248.339    23026165.141    95600735.463                  
                
 21  8 31 21 21 20.0000000  0 14G10G15G18G23G24G32R 4R 5R14R15R16R20
                                R21R22
  21101844.680   110890940.104    21101845.555    86408528.315                  
                
  23054753.505   121153548.443    23054753.470    94405362.103                  
                
  22429135.460   117865900.710    22429134.549    91843557.323                  
                
  20177833.017   106035228.526    20177831.748    82624848.133                  
                
  20433336.262   107377902.894    20433337.137    83671099.004                  
                
  22946676.633   120585600.224    22946679.028    93962813.368                  
                
  23027597.719   123311740.900    23027596.414    95909125.311                  
                
  19926598.432   106519082.846    19926595.662    82848166.956                  
                
  22074970.674   117672015.299    22074969.298    91522668.259                  
                
  20444482.136   109249115.156    20444480.939    84971527.593                  
                
  22702127.796   121270687.742    22702125.259    94321639.057                  
                
  22758168.769   121698140.966    22758167.518    94654113.444                  
                
  21392716.224   114476749.587    21392714.259    89037460.708                  
                
  23025724.581   122912886.002    23025722.579    95598898.099                  
                
 21  8 31 21 21 21.0000000  0 14G10G15G18G23G24G32R 4R 5R14R15R16R20
                                R21R22
  21101471.056   110888975.940    21101471.914    86406997.799                  
                
  23055337.679   121156617.227    23055337.393    94407753.359                  
                
  22429768.792   117869228.753    22429767.791    91846150.595                  
                
  20177892.539   106035540.476    20177891.109    82625091.213                  
                
  20433518.079   107378859.773    20433519.223    83671844.624                  
                
  22946193.794   120583062.663    22946195.939    93960836.038                  
                
  23028135.005   123314628.884    23028135.612    95911371.513                  
                
  19926766.686   106519983.383    19926764.095    82848867.370                  
                
  22075424.333   117674428.662    22075422.010    91524545.321                  
                
  20444212.171   109247672.010    20444210.795    84970405.146                  
                
  22701301.819   121266268.304    22701297.959    94318201.719                  
                
  22758945.339   121702297.119    22758944.749    94657346.008                  
                
  21392900.061   114477731.594    21392897.720    89038224.494                  
                
  23025281.375   122910524.425    23025280.160    95597061.313                  
                
 21  8 31 21 21 22.0000000  0 14G10G15G18G23G24G32R 4R 5R14R15R16R20
                                R21R22
  21101097.272   110887011.949    21101098.237    86405467.417                  
                
  23055921.621   121159685.959    23055921.550    94410144.581                  
                
  22430402.123   117872556.958    22430401.284    91848744.003                  
                
  20177951.882   106035852.798    20177950.488    82625334.577                  
                
  20433700.540   107379817.187    20433701.469    83672590.656                  
                
  22945710.902   120580525.116    22945713.064    93958858.743                  
                
  23028675.382   123317516.817    23028675.024    95913617.674                  
                
  19926934.887   106520884.117    19926932.600    82849567.936                  
                
  22075875.740   117676842.599    22075875.008    91526422.830                  
                
  20443942.420   109246229.544    20443940.884    84969283.226                  
                
  22700473.178   121261848.882    22700470.587    94314764.388                  
                
  22759723.213   121706453.287    22759722.159    94660578.576                  
                
  21393083.379   114478714.334    21393081.503    89038988.847                  
                
  23024839.903   122908163.489    23024837.920    95595225.020                  
                
 21  8 31 21 21 23.0000000  0 14G10G15G18G23G24G32R 4R 5R14R15R16R20
                                R21R22
  21100723.345   110885048.589    21100724.524    86403937.516                  
                
  23056506.099   121162755.087    23056505.349    94412536.111                  
                
  22431035.545   117875885.764    22431034.848    91851337.885                  
                
  20178011.028   106036165.886    20178010.296    82625578.548                  
                
  20433882.804   107380775.557    20433883.894    83673337.447                  
                
  22945227.920   120577988.059    22945230.297    93956881.813                  
                
  23029215.384   123320405.171    23029214.544    95915864.172                  
                
  19927103.249   106521785.487    19927101.320    82850269.004                  
                
  22076329.220   117679257.570    22076328.166    91528301.150                  
                
  20443672.795   109244788.223    20443671.115    84968162.194                  
                
  22699645.450   121257429.922    22699643.323    94311327.428                  
                
  22760499.265   121710610.037    22760499.640    94663811.596                  
                
  21393267.144   114479698.277    21393265.286    89039754.129                  
                
  23024398.681   122905803.531    23024395.840    95593389.506                  
                
 21  8 31 21 21 24.0000000  0 14G10G15G18G23G24G32R 4R 5R14R15R16R20
                                R21R22
  21100349.668   110883085.566    21100351.026    86402407.902                  
                
  23057089.844   121165824.356    23057089.415    94414927.752                  
                
  22431669.269   117879214.895    22431668.447    91853932.006                  
                
  20178070.550   106036479.511    20178069.799    82625822.927                  
                
  20434064.925   107381734.594    20434066.390    83674084.737                  
                
  22944745.599   120575451.220    22944747.565    93954905.058                  
                
  23029754.313   123323293.690    23029753.956    95918110.788                  
                
  19927271.987   106522687.207    19927269.914    82850970.344                  
                
  22076782.379   117681673.278    22076781.610    91530180.025                  
                
  20443402.508   109243347.802    20443401.543    84967041.866                  
                
  22698819.383   121253011.203    22698816.184    94307890.659                  
                
  22761276.103   121714767.008    22761277.264    94667044.785                  
                
  21393450.802   114480683.117    21393449.498    89040520.118                  
                
  23023954.815   122903444.395    23023953.868    95591554.599                  
                
 21  8 31 21 21 25.0000000  0 14G10G15G18G23G24G32R 4R 5R14R15R16R20
                                R21R22
  21099976.741   110881122.379    21099977.367    86400878.139                  
                
  23057673.768   121168893.208    23057673.232    94417319.058                  
                
  22432302.423   117882543.848    22432301.833    91856525.989                  
                
  20178130.643   106036793.124    20178129.553    82626067.305                  
                
  20434247.671   107382693.791    20434248.779    83674832.173                  
                
  22944263.636   120572914.067    22944264.690    93952928.059                  
                
  23030292.778   123326181.799    23030293.332    95920357.098                  
                
  19927441.635   106523588.753    19927438.633    82851671.542                  
                
  22077235.466   117684089.201    22077235.001    91532059.083                  
                
  20443133.597   109241907.750    20443132.078    84965921.833                  
                
  22697992.208   121248592.130    22697988.866    94304453.601                  
                
  22762053.531   121718923.722    22762054.621    94670277.789                  
                
  21393635.264   114481668.363    21393633.549    89041286.418                  
                
  23023513.307   122901085.450    23023511.985    95589719.885                  
                
 21  8 31 21 21 26.0000000  0 14G10G15G18G23G24G32R 4R 5R14R15R16R20
                                R21R22
  21099602.957   110879159.890    21099603.886    86399348.922                  
                
  23058257.907   121171962.520    23058257.299    94419710.726                  
                
  22432936.183   117885873.452    22432935.361    91859120.490                  
                
  20178190.397   106037107.583    20178189.415    82626312.342                  
                
  20434430.614   107383654.028    20434431.669    83675580.412                  
                
  22943779.689   120570377.447    22943781.994    93950951.471                  
                
  23030833.013   123329070.404    23030832.870    95922603.779                  
                
  19927609.300   106524490.989    19927607.424    82852373.285                  
                
  22077688.892   117686506.204    22077688.839    91533938.963                  
                
  20442864.614   109240468.897    20442862.810    84964802.723                  
                
  22697164.997   121244173.611    22697161.655    94301016.973                  
                
  22762832.191   121723080.997    22762832.012    94673511.221                  
                
  21393819.923   114482654.841    21393817.903    89042053.672                  
                
  23023070.834   122898727.605    23023070.370    95587885.999                  
                
 21  8 31 21 21 27.0000000  0 14G10G15G18G23G24G32R 4R 5R14R15R16R20
                                R21R22
  21099229.637   110877197.742    21099230.531    86397819.976                  
                
  23058842.170   121175031.971    23058841.402    94422102.505                  
                
  22433569.515   117889203.388    22433569.175    91861715.234                  
                
  20178250.312   106037422.563    20178249.347    82626557.775                  
                
  20434613.361   107384614.934    20434614.469    83676329.165                  
                
  22943297.172   120567841.042    22943299.388    93948975.056                  
                
  23031372.067   123331959.139    23031372.210    95924850.570                  
                
  19927778.770   106525393.550    19927776.340    82853075.277                  
                
  22078142.819   117688923.961    22078142.658    91535819.431                  
                
  20442595.525   109239030.916    20442593.720    84963684.293                  
                
  22696336.643   121239755.250    22696334.480    94297580.475                  
                
  22763608.261   121727238.539    22763609.386    94676744.850                  
                
  21394003.670   114483642.179    21394002.365    89042821.608                  
                
  23022629.594   122896370.506    23022628.987    95586052.711                  
                
 21  8 31 21 21 28.0000000  0 14G10G15G18G23G24G32R 4R 5R14R15R16R20
                                R21R22
  21098855.907   110875235.931    21098857.301    86396291.299                  
                
  23059426.398   121178101.521    23059425.611    94424494.358                  
                
  22434203.847   117892533.617    22434202.954    91864310.211                  
                
  20178310.191   106037738.052    20178309.334    82626803.610                  
                
  20434796.411   107385576.505    20434797.519    83677078.442                  
                
  22942814.869   120565304.810    22942816.460    93946998.776                  
                
  23031912.713   123334848.022    23031911.587    95927097.466                  
                
  19927947.150   106526296.454    19927945.023    82853777.536                  
                
  22078596.263   117691342.446    22078596.567    91537700.466                  
                
  20442326.417   109237593.794    20442324.773    84962566.529                  
                
  22695509.200   121235337.066    22695507.448    94294144.117                  
                
  22764386.314   121731396.292    22764386.796    94679978.663                  
                
  21394189.061   114484630.422    21394187.024    89043590.242                  
                
  23022189.284   122894014.169    23022187.461    95584220.014                  
                
 21  8 31 21 21 29.0000000  0 14G10G15G18G23G24G32R 4R 5R14R15R16R20
                                R21R22
  21098482.677   110873274.470    21098484.052    86394762.887                  
                
  23060010.375   121181171.195    23060009.750    94426886.312                  
                
  22434837.286   117895864.190    22434836.661    91866905.467                  
                
  20178370.714   106038054.071    20178369.463    82627049.861                  
                
  20434979.354   107386538.770    20434980.551    83677828.263                  
                
  22942332.513   120562768.807    22942333.764    93945022.671                  
                
  23032451.285   123337737.082    23032451.035    95929344.512                  
                
  19928116.173   106527199.732    19928114.171    82854480.083                  
                
  22079051.226   117693761.658    22079050.565    91539582.064                  
                
  20442057.649   109236157.568    20442055.898    84961449.467                  
                
  22694683.293   121230919.036    22694680.381    94290707.872                  
                
  22765163.562   121735554.320    22765164.259    94683212.678                  
                
  21394374.398   114485619.622    21394371.950    89044359.608                  
                
  23021748.955   122891658.595    23021746.078    95582387.908                  
                
 21  8 31 21 21 30.0000000  0 14G10G15G18G23G24G32R 4R 5R14R15R16R20
                                R21R22
  21098109.732   110871313.087    21098110.858    86393234.537                  
                
  23060594.960   121184240.751    23060593.799    94429278.169                  
                
  22435471.476   117899194.803    22435470.457    91869500.750                  
                
  20178430.450   106038370.326    20178429.699    82627296.293                  
                
  20435162.833   107387501.442    20435163.745    83678578.399                  
                
  22941849.460   120560232.751    22941851.211    93943046.517                  
                
  23032991.930   123340625.993    23032990.626    95931591.427                  
                
  19928285.232   106528103.072    19928283.248    82855182.683                  
                
  22079505.350   117696181.305    22079504.367    91541464.011                  
                
  20441789.435   109234721.941    20441787.291    84960332.866                  
                
  22693854.778   121226500.986    22693853.313    94287271.615                  
                
  22765941.473   121739712.258    22765941.830    94686446.628                  
                
  21394558.914   114486609.458    21394556.859    89045129.485                  
                
  23021305.768   122889303.466    23021304.874    95580556.131                  
                
 21  8 31 21 21 31.0000000  0 14G10G15G18G23G24G32R 4R 5R14R15R16R20
                                R21R22
  21097736.502   110869352.424    21097737.824    86391706.745                  
                
  23061178.598   121187310.754    23061178.134    94431670.386                  
                
  22436105.344   117902526.095    22436104.397    91872096.566                  
                
  20178490.829   106038687.452    20178490.204    82627543.402                  
                
  20435345.741   107388465.147    20435347.081    83679329.336                  
                
  22941367.389   120557697.232    22941368.676    93941070.786                  
                
  23033531.056   123343515.367    23033530.109    95933838.713                  
                
  19928453.647   106529007.116    19928452.218    82855885.829                  
                
  22079958.866   117698602.041    22079958.490    91543346.808                  
                
  20441520.917   109233287.556    20441518.898    84959217.233                  
                
  22693027.818   121222083.482    22693026.424    94283835.785                  
                
  22766720.151   121743870.812    22766719.561    94689681.056                  
                
  21394744.519   114487600.549    21394742.089    89045900.334                  
                
  23020864.760   122886949.454    23020863.920    95578725.238                  
                
 21  8 31 21 21 32.0000000  0 14G10G15G18G23G24G32R 4R 5R14R15R16R20
                                R21R22
  21097363.665   110867392.004    21097364.576    86390179.145                  
                
  23061762.665   121190380.791    23061762.326    94434062.623                  
                
  22436738.586   117905857.633    22436738.354    91874692.570                  
                
  20178551.137   106039004.991    20178550.387    82627790.845                  
                
  20435529.595   107389429.433    20435530.649    83680080.728                  
                
  22940884.461   120555161.830    22940886.248    93939095.148                  
                
  23034070.754   123346404.789    23034069.539    95936086.041                  
                
  19928623.921   106529911.418    19928621.312    82856589.182                  
                
  22080413.489   117701023.443    22080412.560    91545230.121                  
                
  20441252.650   109231853.949    20441250.649    84958102.210                  
                
  22692201.304   121217666.120    22692199.517    94280400.062                  
                
  22767497.096   121748029.518    22767497.436    94692915.605                  
                
  21394929.571   114488592.450    21394927.391    89046671.819                  
                
  23020425.969   122884596.104    23020423.092    95576894.848                  
                
 21  8 31 21 21 33.0000000  0 14G10G15G18G23G24G32R 4R 5R14R15R16R20
                                R21R22
  21096990.667   110865431.742    21096991.507    86388651.669                  
                
  23062346.786   121193450.764    23062346.339    94436454.805                  
                
  22437372.811   117909189.282    22437372.383    91877288.651                  
                
  20178612.142   106039322.868    20178610.963    82628038.539                  
                
  20435713.092   107390394.221    20435714.253    83680832.506                  
                
  22940401.515   120552626.440    22940403.820    93937119.520                  
                
  23034610.256   123349294.166    23034608.916    95938333.332                  
                
  19928793.248   106530815.868    19928790.693    82857292.632                  
                
  22080867.345   117703445.409    22080866.683    91547113.867                  
                
  20440984.579   109230421.014    20440982.452    84956987.705                  
                
  22691374.290   121213248.753    22691372.610    94276964.339                  
                
  22768274.345   121752188.263    22768275.167    94696150.182                  
                
  21395115.087   114489585.032    21395112.854    89047443.823                  
                
  23019984.764   122882243.324    23019982.281    95575064.900                  
                
 21  8 31 21 21 34.0000000  0 14G10G15G18G23G24G32R 4R 5R14R15R16R20
                                R21R22
  21096617.472   110863471.827    21096618.866    86387124.455                  
                
  23062930.996   121196520.852    23062930.585    94438847.076                  
                
  22438006.626   117912521.269    22438006.572    91879885.009                  
                
  20178672.468   106039641.253    20178671.521    82628286.629                  
                
  20435896.982   107391359.678    20435898.018    83681584.805                  
                
  22939919.194   120550091.262    22939921.481    93935144.051                  
                
  23035149.472   123352183.672    23035148.489    95940580.730                  
                
  19928961.717   106531720.650    19928959.930    82857996.353                  
                
  22081322.075   117705868.127    22081321.003    91548998.211                  
                
  20440715.686   109228988.935    20440714.631    84955873.873                  
                
  22690546.865   121208831.562    22690545.864    94273528.755                  
                
  22769051.773   121756347.246    22769052.952    94699384.942                  
                
  21395299.495   114490578.523    21395298.620    89048216.543                  
                
  23019544.132   122879891.318    23019541.720    95573235.556                  
                
 21  8 31 21 21 35.0000000  0 14G10G15G18G23G24G32R 4R 5R14R15R16R20
                                R21R22
  21096244.796   110861512.170    21096245.779    86385597.461                  
                
  23063515.491   121199590.966    23063514.830    94441239.377                  
                
  22438640.905   117915853.479    22438640.690    91882481.534                  
                
  20178733.044   106039960.066    20178732.276    82628535.050                  
                
  20436080.765   107392325.728    20436081.855    83682337.572                  
                
  22939437.052   120547556.189    22939439.000    93933168.677                  
                
  23035689.956   123355073.225    23035688.133    95942828.153                  
                
  19929131.455   106532625.710    19929129.168    82858700.288                  
                
  22081776.878   117708291.486    22081775.323    91550883.052                  
                
  20440448.490   109227557.665    20440446.864    84954760.660                  
                
  22689719.815   121204414.472    22689718.993    94270093.252                  
                
  22769830.987   121760506.394    22769830.862    94702619.835                  
                
  21395485.816   114491572.859    21395484.386    89048989.922                  
                
  23019101.767   122877539.983    23019101.231    95571406.746                  
                
 21  8 31 21 21 36.0000000  0 14G10G15G18G23G24G32R 4R 5R14R15R16R20
                                R21R22
  21095871.905   110859553.147    21095872.941    86384070.950                  
                
  23064099.254   121202661.473    23064099.147    94443631.976                  
                
  22439275.505   117919186.297    22439274.772    91885078.521                  
                
  20178794.013   106040279.663    20178793.102    82628784.086                  
                
  20436264.494   107393292.726    20436265.745    83683091.081                  
                
  22938954.928   120545021.591    22938956.572    93931193.670                  
                
  23036230.476   123357963.221    23036227.885    95945075.926                  
                
  19929300.746   106533531.384    19929298.691    82859404.700                  
                
  22082230.948   117710715.832    22082229.929    91552768.660                  
                
  20440180.383   109226127.541    20440179.204    84953648.337                  
                
  22688893.569   121199997.815    22688892.247    94266658.077                  
                
  22770607.968   121764666.064    22770608.718    94705855.132                  
                
  21395672.619   114492568.376    21395670.581    89049764.206                  
                
  23018661.581   122875189.665    23018660.974    95569578.730                  
                
 21  8 31 21 21 37.0000000  0 14G10G15G18G23G24G32R 4R 5R14R15R16R20
                                R21R22
  21095499.068   110857594.112    21095500.212    86382544.422                  
                
  23064683.661   121205731.768    23064683.357    94446024.405                  
                
  22439909.266   117922519.094    22439908.944    91887675.512                  
                
  20178855.232   106040599.435    20178853.928    82629033.257                  
                
  20436448.313   107394260.064    20436449.867    83683844.848                  
                
  22938472.715   120542486.859    22938474.359    93929218.552                  
                
  23036769.102   123360853.032    23036767.655    95947323.552                  
                
  19929470.216   106534437.062    19929468.179    82860109.120                  
                
  22082686.286   117713140.563    22082684.392    91554654.557                  
                
  20439913.313   109224697.927    20439911.598    84952536.417                  
                
  22688067.020   121195580.961    22688065.447    94263222.743                  
                
  22771385.503   121768825.639    22771386.485    94709090.354                  
                
  21395858.492   114493564.451    21395856.705    89050538.929                  
                
  23018220.735   122872839.755    23018220.717    95567751.029                  
                
 21  8 31 21 21 38.0000000  0 14G10G15G18G23G24G32R 4R 5R14R15R16R20
                                R21R22
  21095126.249   110855635.324    21095127.482    86381018.092                  
                
  23065268.514   121208802.064    23065267.674    94448416.843                  
                
  22440543.973   117925852.078    22440543.259    91890272.650                  
                
  20178915.933   106040919.628    20178914.843    82629282.756                  
                
  20436633.257   107395227.986    20436634.151    83684599.066                  
                
  22937990.090   120539952.226    22937992.056    93927243.509                  
                
  23037308.907   123363742.836    23037307.460    95949571.175                  
                
  19929639.739   106535342.996    19929637.541    82860813.731                  
                
  22083140.320   117715565.927    22083139.319    91556540.956                  
                
  20439646.082   109223269.112    20439644.170    84951425.110                  
                
  22687240.488   121191164.196    22687238.540    94259787.491                  
                
  22772163.788   121772985.339    22772164.467    94712325.672                  
                
  21396045.206   114494561.301    21396042.811    89051314.254                  
                
  23017781.871   122870490.471    23017780.549    95565923.804                  
                
 21  8 31 21 21 39.0000000  0 14G10G15G18G23G24G32R 4R 5R14R15R16R20
                                R21R22
  21094753.858   110853677.287    21094754.841    86379492.353                  
                
  23065852.402   121211872.894    23065851.973    94450809.693                  
                
  22441178.234   117929185.808    22441177.591    91892870.355                  
                
  20178976.992   106041240.709    20178976.009    82629532.956                  
                
  20436817.362   107396196.961    20436818.505    83685354.124                  
                
  22937507.895   120537418.192    22937509.789    93925268.943                  
                
  23037848.552   123366633.185    23037847.337    95951819.224                  
                
  19929808.852   106536249.694    19929807.190    82861518.936                  
                
  22083595.462   117717992.462    22083594.568    91558428.265                  
                
  20439378.708   109221841.575    20439377.117    84950314.808                  
                
  22686414.028   121186748.067    22686411.919    94256352.731                  
                
  22772941.662   121777145.703    22772942.520    94715561.510                  
                
  21396231.454   114495559.477    21396229.471    89052090.608                  
                
  23017342.436   122868142.352    23017340.542    95564097.485                  
                
 21  8 31 21 21 40.0000000  0 14G10G15G18G23G24G32R 4R 5R14R15R16R20
                                R21R22
  21094381.003   110851719.455    21094382.165    86377966.777                  
                
  23066436.916   121214943.695    23066436.380    94453202.529                  
                
  22441812.549   117932519.729    22441812.049    91895468.211                  
                
  20179037.800   106041562.184    20179037.157    82629783.456                  
                
  20437001.752   107397166.491    20437002.949    83686109.601                  
                
  22937025.770   120534884.237    22937027.557    93923294.428                  
                
  23038388.697   123369523.513    23038387.142    95954067.252                  
                
  19929978.893   106537156.587    19929976.821    82862224.304                  
                
  22084050.800   117720419.609    22084049.996    91560316.042                  
                
  20439111.601   109220414.772    20439110.172    84949205.079                  
                
  22685587.049   121182332.039    22685585.191    94252918.031                  
                
  22773718.893   121781306.134    22773720.662    94718797.399                  
                
  21396418.489   114496558.415    21396416.166    89052867.558                  
                
  23016901.965   122865794.856    23016900.750    95562271.653                  
                
 21  8 31 21 21 41.0000000  0 14G10G15G18G23G24G32R 4R 5R14R15R16R20
                                R21R22
  21094008.720   110849762.075    21094009.792    86376441.541                  
                
  23067021.429   121218014.712    23067020.607    94455595.528                  
                
  22442447.024   117935854.043    22442446.488    91898066.373                  
                
  20179099.377   106041884.272    20179098.376    82630034.426                  
                
  20437186.178   107398136.807    20437187.662    83686865.692                  
                
  22936543.271   120532350.573    22936545.308    93921320.140                  
                
  23038927.644   123372414.092    23038926.894    95956315.471                  
                
  19930147.970   106538063.930    19930146.576    82862930.013                  
                
  22084506.371   117722847.564    22084505.567    91562204.444                  
                
  20438845.424   109218988.948    20438843.387    84948096.105                  
                
  22684760.357   121177916.330    22684758.481    94249483.604                  
                
  22774497.447   121785466.957    22774498.894    94722033.595                  
                
  21396604.845   114497558.360    21396603.023    89053645.293                  
                
  23016461.011   122863448.222    23016461.315    95560446.497                  
                
 21  8 31 21 21 42.0000000  0 14G10G15G18G23G24G32R 4R 5R14R15R16R20
                                R21R22
  21093635.936   110847804.839    21093637.419    86374916.424                  
                
  23067605.532   121221085.648    23067604.942    94457988.460                  
                
  22443081.911   117939188.474    22443080.928    91900664.631                  
                
  20179160.864   106042206.659    20179159.685    82630285.640                  
                
  20437371.266   107399107.588    20437372.249    83687622.142                  
                
  22936061.451   120529816.891    22936063.220    93919345.849                  
                
  23039467.771   123375304.615    23039466.663    95958563.653                  
                
  19930317.958   106538971.395    19930316.386    82863635.824                  
                
  22084962.281   117725276.018    22084961.227    91564093.251                  
                
  20438578.336   109217563.765    20438576.692    84946987.629                  
                
  22683933.325   121173500.567    22683931.824    94246049.130                  
                
  22775275.553   121789627.765    22775277.054    94725269.786                  
                
  21396791.434   114498558.971    21396790.022    89054423.551                  
                
  23016022.076   122861102.128    23016021.862    95558621.762                  
                
 21  8 31 21 21 43.0000000  0 14G10G15G18G23G24G32R 4R 5R14R15R16R20
                                R21R22
  21093263.742   110845848.187    21093264.993    86373391.754                  
                
  23068190.135   121224156.935    23068189.313    94460381.671                  
                
  22443716.583   117942523.460    22443715.546    91903263.326                  
                
  20179221.994   106042529.801    20179221.261    82630537.447                  
                
  20437555.656   107400079.277    20437557.229    83688379.301                  
                
  22935579.470   120527283.672    22935581.239    93917371.920                  
                
  23040007.773   123378195.472    23040006.647    95960812.100                  
                
  19930488.196   106539879.455    19930486.159    82864342.092                  
                
  22085418.746   117727705.440    22085417.191    91565982.792                  
                
  20438311.534   109216139.722    20438310.086    84945880.038                  
                
  22683107.204   121169085.214    22683105.364    94242614.966                  
                
  22776053.571   121793789.027    22776055.322    94728506.304                  
                
  21396979.166   114499560.748    21396977.182    89055202.715                  
                
  23015584.267   122858757.041    23015582.534    95556797.824                  
                
 21  8 31 21 21 44.0000000  0 14G10G15G18G23G24G32R 4R 5R14R15R16R20
                                R21R22
  21092891.495   110843891.397    21092892.585    86371866.982                  
                
  23068774.541   121227227.850    23068773.702    94462774.594                  
                
  22444350.969   117945858.300    22444350.218    91905861.893                  
                
  20179283.660   106042852.974    20179282.695    82630789.262                  
                
  20437740.726   107401051.155    20437742.012    83689136.610                  
                
  22935097.703   120524750.155    22935099.168    93915397.743                  
                
  23040548.615   123381085.979    23040546.345    95963060.265                  
                
  19930657.791   106540787.374    19930655.986    82865048.247                  
                
  22085874.227   117730135.103    22085873.226    91567872.530                  
                
  20438045.750   109214716.070    20438043.641    84944772.753                  
                
  22682280.208   121164669.523    22682278.689    94239180.546                  
                
  22776832.553   121797950.068    22776833.393    94731742.660                  
                
  21397166.147   114500562.943    21397164.432    89055982.191                  
                
  23015143.725   122856412.275    23015143.278    95554974.103                  
                
 21  8 31 21 21 45.0000000  0 14G10G15G18G23G24G32R 4R 5R14R15R16R20
                                R21R22
  21092519.373   110841935.083    21092520.355    86370342.586                  
                
  23069359.055   121230299.000    23069358.144    94465167.700                  
                
  22444985.158   117949193.576    22444984.908    91908460.816                  
                
  20179345.469   106043176.794    20179344.415    82631041.586                  
                
  20437925.974   107402023.863    20437927.314    83689894.564                  
                
  22934615.668   120522216.975    22934617.080    93913423.846                  
                
  23041086.955   123383976.753    23041086.044    95965308.642                  
                
  19930827.833   106541695.792    19930826.010    82865754.787                  
                
  22086330.030   117732565.665    22086329.351    91569762.969                  
                
  20437778.930   109213293.384    20437777.464    84943666.222                  
                
  22681453.891   121160254.202    22681452.104    94235746.410                  
                
  22777610.427   121802111.459    22777611.428    94734979.293                  
                
  21397353.504   114501566.145    21397351.967    89056762.457                  
                
  23014705.254   122854068.336    23014704.272    95553151.046                  
                
 21  8 31 21 21 46.0000000  0 14G10G15G18G23G24G32R 4R 5R14R15R16R20
                                R21R22
  21092147.322   110839978.856    21092148.090    86368818.256                  
                
  23069943.461   121233370.050    23069942.514    94467560.719                  
                
  22445620.277   117952528.923    22445619.598    91911059.783                  
                
  20179407.260   106043500.865    20179406.081    82631294.112                  
                
  20438111.472   107402996.973    20438112.526    83690652.825                  
                
  22934134.009   120519683.741    22934135.045    93911449.893                  
                
  23041627.940   123386867.413    23041625.920    95967556.936                  
                
  19930998.393   106542604.299    19930995.998    82866461.411                  
                
  22086786.387   117734996.726    22086785.511    91571653.781                  
                
  20437512.717   109211871.305    20437511.252    84942560.158                  
                
  22680626.930   121155838.833    22680625.394    94232312.244                  
                
  22778388.855   121806272.858    22778389.391    94738215.941                  
                
  21397541.272   114502569.984    21397539.467    89057543.225                  
                
  23014265.355   122851724.900    23014265.248    95551328.383                  
                
 21  8 31 21 21 47.0000000  0 14G10G15G18G23G24G32R 4R 5R14R15R16R20
                                R21R22
  21091774.949   110838023.328    21091776.057    86367294.461                  
                
  23070528.189   121236441.549    23070527.189    94469954.097                  
                
  22446255.092   117955864.921    22446254.448    91913659.263                  
                
  20179469.015   106043825.794    20179467.872    82631547.308                  
                
  20438296.685   107403971.101    20438297.900    83691411.897                  
                
  22933651.438   120517151.066    22933653.064    93909476.389                  
                
  23042166.458   123389758.590    23042165.797    95969805.634                  
                
  19931167.952   106543513.514    19931166.093    82867168.564                  
                
  22087242.726   117737428.875    22087241.993    91573545.447                  
                
  20437246.879   109210450.455    20437245.361    84941455.057                  
                
  22679800.506   121151423.989    22679798.915    94228878.495                  
                
  22779167.015   121810434.828    22779167.641    94741453.024                  
                
  21397728.861   114503575.095    21397727.378    89058324.976                  
                
  23013825.598   122849382.561    23013826.420    95549506.557                  
                
 21  8 31 21 21 48.0000000  0 14G10G15G18G23G24G32R 4R 5R14R15R16R20
                                R21R22
  21091402.809   110836067.864    21091403.917    86365770.723                  
                
  23071112.292   121239512.866    23071111.524    94472347.335                  
                
  22446889.728   117959200.975    22446889.228    91916258.778                  
                
  20179530.771   106044150.954    20179529.806    82631800.682                  
                
  20438482.630   107404945.637    20438483.398    83692171.272                  
                
  22933169.707   120514618.297    22933171.226    93907502.805                  
                
  23042705.835   123392649.573    23042705.531    95972054.176                  
                
  19931338.047   106544422.767    19931336.099    82867875.766                  
                
  22087699.047   117739861.440    22087698.529    91575437.435                  
                
  20436981.667   109209030.207    20436979.523    84940350.420                  
                
  22678973.617   121147009.056    22678972.420    94225444.651                  
                
  22779944.854   121814596.755    22779946.105    94744690.077                  
                
  21397916.753   114504580.823    21397915.324    89059107.213                  
                
  23013388.272   122847040.667    23013387.682    95547685.077                  
                
 21  8 31 21 21 49.0000000  0 14G10G15G18G23G24G32R 4R 5R14R15R16R20
                                R21R22
  21091030.829   110834113.536    21091031.973    86364247.868                  
                
  23071696.591   121242585.107    23071696.073    94474741.283                  
                
  22447524.596   117962538.118    22447524.203    91918859.154                  
                
  20179592.937   106044477.418    20179591.847    82632055.064                  
                
  20438667.931   107405921.623    20438668.878    83692931.782                  
                
  22932688.047   120512086.531    22932689.387    93905529.987                  
                
  23043246.444   123395541.521    23043245.622    95974303.462                  
                
  19931508.232   106545333.158    19931506.516    82868583.852                  
                
  22088154.886   117742295.529    22088155.101    91577330.621                  
                
  20436715.866   109207611.637    20436713.989    84939247.080                  
                
  22678147.335   121142595.095    22678146.067    94222011.566                  
                
  22780722.836   121818759.713    22780724.712    94747927.924                  
                
  21398105.343   114505588.262    21398103.610    89059890.770                  
                
  23012949.712   122844700.328    23012949.283    95545864.825                  
                
 21  8 31 21 21 50.0000000  0 14G10G15G18G23G24G32R 4R 5R14R15R16R20
                                R21R22
  21090658.796   110832159.241    21090659.886    86362725.047                  
                
  23072280.873   121245657.137    23072280.533    94477135.073                  
                
  22448159.965   117965875.270    22448159.215    91921459.525                  
                
  20179654.996   106044804.077    20179653.853    82632309.604                  
                
  20438853.591   107406897.982    20438854.824    83693692.579                  
                
  22932205.977   120509554.633    22932207.746    93903557.079                  
                
  23043786.178   123398433.275    23043785.606    95976552.602                  
                
  19931678.845   106546243.552    19931676.719    82869291.936                  
                
  22088611.368   117744730.032    22088611.726    91579224.120                  
                
  20436450.529   109206193.606    20436448.563    84938144.175                  
                
  22677321.679   121138181.051    22677319.660    94218578.432                  
                
  22781502.282   121822922.591    22781503.283    94751165.710                  
                
  21398293.629   114506596.281    21398291.931    89060674.789                  
                
  23012509.670   122842360.425    23012510.921    95544044.907                  
                
 21  8 31 21 21 51.0000000  0 14G10G15G18G23G24G32R 4R 5R14R15R16R20
                                R21R22
  21090286.835   110830205.312    21090288.193    86361202.505                  
                
  23072865.922   121248729.308    23072865.315    94479528.976                  
                
  22448794.816   117969212.747    22448794.476    91924060.145                  
                
  20179717.020   106045131.271    20179716.323    82632564.558                  
                
  20439039.250   107407875.036    20439040.626    83694453.917                  
                
  22931723.835   120507022.958    22931725.854    93901584.352                  
                
  23044326.376   123401325.212    23044325.608    95978801.877                  
                
  19931849.190   106547154.337    19931847.010    82870000.320                  
                
  22089068.279   117747165.288    22089068.440    91581118.206                  
                
  20436185.084   109204776.465    20436183.333    84937041.952                  
                
  22676494.647   121133767.201    22676493.271    94215145.439                  
                
  22782280.639   121827085.758    22782281.729    94754403.713                  
                
  21398481.968   114507605.193    21398480.467    89061459.501                  
                
  23012071.325   122840021.341    23012072.683    95542225.610                  
                
 21  8 31 21 21 52.0000000  0 14G10G15G18G23G24G32R 4R 5R14R15R16R20
                                R21R22
  21089914.927   110828251.104    21089916.392    86359679.743                  
                
  23073450.329   121251800.986    23073449.846    94481922.485                  
                
  22449429.953   117972549.928    22449429.416    91926660.555                  
                
  20179779.704   106045458.351    20179778.525    82632819.423                  
                
  20439225.695   107408852.142    20439226.696    83695215.302                  
                
  22931242.372   120504490.878    22931243.909    93899611.310                  
                
  23044866.736   123404216.629    23044865.449    95981050.761                  
                
  19932019.429   106548064.820    19932017.338    82870708.478                  
                
  22089525.565   117749600.648    22089525.154    91583012.380                  
                
  20435920.426   109203359.569    20435918.121    84935939.926                  
                
  22675669.152   121129352.906    22675666.865    94211712.101                  
                
  22783058.478   121831248.486    22783060.068    94757641.390                  
                
  21398670.630   114508614.384    21398669.218    89062244.425                  
                
  23011633.552   122837682.338    23011634.356    95540406.379                  
                
 21  8 31 21 21 53.0000000  0 14G10G15G18G23G24G32R 4R 5R14R15R16R20
                                R21R22
  21089543.144   110826297.410    21089544.591    86358157.379                  
                
  23074035.343   121254872.922    23074034.324    94484316.194                  
                
  22450065.089   117975887.596    22450064.750    91929261.345                  
                
  20179842.192   106045786.114    20179840.959    82633074.830                  
                
  20439411.372   107409830.089    20439412.802    83695977.335                  
                
  22930760.409   120501959.151    22930762.070    93897638.533                  
                
  23045407.113   123407108.308    23045405.397    95983299.833                  
                
  19932190.221   106548975.846    19932187.755    82871417.057                  
                
  22089982.601   117752036.919    22089981.869    91584907.257                  
                
  20435654.928   109201943.723    20435653.177    84934838.708                  
                
  22674841.816   121124938.954    22674840.601    94208279.025                  
                
  22783838.568   121835411.623    22783838.496    94760879.390                  
                
  21398860.291   114509624.641    21398857.897    89063030.180                  
                
  23011195.689   122835344.261    23011196.422    95538587.880                  
                
 21  8 31 21 21 54.0000000  0 14G10G15G18G23G24G32R 4R 5R14R15R16R20
                                R21R22
  21089171.736   110824344.053    21089172.916    86356635.286                  
                
  23074619.695   121257944.978    23074619.195    94486710.014                  
                
  22450700.547   117979225.569    22450699.886    91931862.349                  
                
  20179904.412   106046114.379    20179903.411    82633330.621                  
                
  20439597.692   107410808.695    20439598.908    83696739.892                  
                
  22930279.160   120499427.623    22930280.304    93895665.909                  
                
  23045947.025   123410000.131    23045945.346    95985549.025                  
                
  19932360.334   106549887.192    19932358.315    82872125.872                  
                
  22090439.512   117754473.922    22090438.815    91586802.706                  
                
  20435390.717   109200528.709    20435388.430    84933738.146                  
                
  22674015.928   121120525.157    22674014.391    94204846.068                  
                
  22784617.193   121839574.993    22784616.871    94764117.560                  
                
  21399048.381   114510635.809    21399046.951    89063816.647                  
                
  23010759.149   122833006.886    23010758.470    95536769.921                  
                
 21  8 31 21 21 55.0000000  0 14G10G15G18G23G24G32R 4R 5R14R15R16R20
                                R21R22
  21088800.221   110822391.442    21088801.276    86355113.773                  
                
  23075204.173   121261017.557    23075203.852    94489104.231                  
                
  22451335.559   117982564.256    22451335.166    91934463.930                  
                
  20179967.007   106046443.548    20179965.846    82633587.118                  
                
  20439784.191   107411788.381    20439785.406    83697503.273                  
                
  22929797.232   120496896.690    22929798.876    93893693.756                  
                
  23046486.991   123412892.531    23046485.508    95987798.674                  
                
  19932531.126   106550799.288    19932528.946    82872835.284                  
                
  22090897.334   117756912.041    22090895.798    91588699.017                  
                
  20435126.237   109199114.982    20435123.897    84932638.580                  
                
  22673189.789   121116111.981    22673188.110    94201413.597                  
                
  22785395.460   121843738.973    22785395.549    94767356.215                  
                
  21399238.793   114511648.263    21399236.077    89064604.116                  
                
  23010321.787   122830670.705    23010320.947    95534952.896                  
                
 21  8 31 21 21 56.0000000  0 14G10G15G18G23G24G32R 4R 5R14R15R16R20
                                R21R22
  21088428.921   110820439.098    21088429.725    86353592.465                  
                
  23075788.812   121264090.168    23075788.472    94491498.464                  
                
  22451971.249   117985903.188    22451970.427    91937065.675                  
                
  20180029.638   106046773.157    20180028.584    82633843.954                  
                
  20439970.530   107412768.654    20439971.905    83698267.126                  
                
  22929315.251   120494365.881    22929317.253    93891721.702                  
                
  23047026.975   123415785.039    23047025.707    95990048.402                  
                
  19932701.579   106551711.661    19932699.577    82873544.907                  
                
  22091354.638   117759350.807    22091353.191    91590595.832                  
                
  20434861.419   109197702.075    20434859.435    84931539.655                  
                
  22672363.633   121111698.936    22672362.007    94197981.229                  
                
  22786173.138   121847903.116    22786174.317    94770594.996                  
                
  21399427.061   114512661.532    21399425.507    89065392.207                  
                
  23009883.048   122828335.183    23009883.513    95533136.388                  
                
 21  8 31 21 21 57.0000000  0 14G10G15G18G23G24G32R 4R 5R14R15R16R20
                                R21R22
  21088057.424   110818486.577    21088058.085    86352071.021                  
                
  23076373.826   121267162.380    23076373.290    94493892.396                  
                
  22452606.118   117989241.892    22452605.903    91939667.267                  
                
  20180092.323   106047102.748    20180091.376    82634100.776                  
                
  20440157.172   107413749.085    20440158.565    83699031.097                  
                
  22928833.878   120491834.740    22928835.575    93889749.387                  
                
  23047567.531   123418677.125    23047565.852    95992297.805                  
                
  19932872.960   106552623.836    19932870.298    82874254.370                  
                
  22091812.014   117761789.769    22091810.477    91592492.807                  
                
  20434597.261   109196289.502    20434595.081    84930440.983                  
                
  22671537.030   121107285.578    22671535.850    94194548.622                  
                
  22786952.209   121852066.958    22786953.156    94773833.537                  
                
  21399616.598   114513675.139    21399614.882    89066180.572                  
                
  23009447.098   122825999.903    23009446.151    95531320.048                  
                
 21  8 31 21 21 58.0000000  0 14G10G15G18G23G24G32R 4R 5R14R15R16R20
                                R21R22
  21087685.516   110816534.541    21087686.695    86350549.954                  
                
  23076958.447   121270234.830    23076957.803    94496286.515                  
                
  22453242.291   117992581.074    22453241.290    91942269.229                  
                
  20180155.204   106047432.988    20180154.310    82634358.106                  
                
  20440344.135   107414730.333    20440345.082    83699795.707                  
                
  22928352.576   120489303.943    22928353.969    93887777.343                  
                
  23048107.462   123421569.424    23048106.139    95994547.359                  
                
  19933042.948   106553536.502    19933041.036    82874964.221                  
                
  22092270.426   117764229.627    22092268.014    91594390.472                  
                
  20434332.746   109194877.926    20434330.959    84929343.083                  
                
  22670710.891   121102872.551    22670709.748    94191116.270                  
                
  22787731.477   121856231.173    22787732.031    94777072.369                  
                
  21399806.152   114514689.810    21399804.562    89066969.754                  
                
  23009009.736   122823665.446    23009008.735    95529504.373                  
                
 21  8 31 21 21 59.0000000  0 14G10G15G18G23G24G32R 4R 5R14R15R16R20
                                R21R22
  21087314.555   110814583.327    21087315.377    86349029.531                  
                
  23077543.121   121273307.899    23077542.692    94498681.107                  
                
  22453877.785   117995921.037    22453876.820    91944871.798                  
                
  20180218.013   106047764.246    20180217.316    82634616.232                  
                
  20440530.866   107415712.730    20440532.099    83700561.210                  
                
  22927870.845   120486773.841    22927872.471    93885805.835                  
                
  23048646.981   123424462.332    23048646.356    95996797.403                  
                
  19933213.508   106554449.973    19933211.829    82875674.701                  
                
  22092728.177   117766670.702    22092726.050    91596289.093                  
                
  20434068.999   109193467.723    20434067.069    84928246.263                  
                
  22669884.931   121098460.198    22669883.984    94187684.451                  
                
  22788509.995   121860396.123    22788511.067    94780311.763                  
                
  21399996.743   114515705.888    21399994.420    89067760.032                  
                
  23008572.659   122821332.333    23008571.659    95527689.722                  
                
 21  8 31 21 22  0.0000000  0 14G10G15G18G23G24G32R 4R 5R14R15R16R20
                                R21R22
  21086943.255   110812631.883    21086944.077    86347508.922                  
                
  23078127.992   121276380.489    23078127.420    94501075.333                  
                
  22454513.386   117999260.733    22454512.349    91947474.151                  
                
  20180281.234   106048095.416    20180280.305    82634874.279                  
                
  20440717.776   107416695.228    20440719.224    83701326.792                  
                
  22927389.757   120484243.334    22927390.972    93883834.021                  
                
  23049187.984   123427354.810    23049186.411    95999047.111                  
                
  19933385.015   106555363.229    19933382.746    82876385.014                  
                
  22093186.589   117769111.917    22093184.051    91598187.816                  
                
  20433805.073   109192057.797    20433803.286    84927149.656                  
                
  22669059.204   121094047.451    22669057.971    94184252.315                  
                
  22789289.156   121864560.687    22789289.799    94783550.864                  
                
  21400186.459   114516722.264    21400184.440    89068550.545                  
                
  23008135.601   122818999.315    23008134.511    95525875.139                  
                
 21  8 31 21 22  1.0000000  0 14G10G15G18G23G24G32R 4R 5R14R15R16R20
                                R21R22
  21086571.579   110810681.200    21086572.937    86345988.906                  
                
  23078712.184   121279453.608    23078712.130    94503469.967                  
                
  22455148.612   118002601.162    22455147.951    91950077.088                  
                
  20180344.472   106048427.502    20180343.543    82635133.047                  
                
  20440905.026   107417678.796    20440906.366    83702093.211                  
                
  22926907.990   120481713.455    22926909.580    93881862.680                  
                
  23049728.200   123430247.859    23049726.806    96001297.253                  
                
  19933555.843   106556277.247    19933553.752    82877095.914                  
                
  22093644.625   117771554.251    22093642.481    91600087.409                  
                
  20433541.773   109190649.175    20433539.558    84926054.064                  
                
  22668234.280   121089635.298    22668232.100    94180820.642                  
                
  22790068.067   121868725.933    22790068.746    94786790.487                  
                
  21400376.514   114517739.941    21400374.548    89069342.074                  
                
  23007699.543   122816667.519    23007697.703    95524061.508                  
                
 21  8 31 21 22  2.0000000  0 14G10G15G18G23G24G32R 4R 5R14R15R16R20
                                R21R22
  21086200.493   110808730.487    21086201.690    86344468.875                  
                
  23079297.788   121282526.451    23079296.930    94505864.392                  
                
  22455784.427   118005941.533    22455783.552    91952679.972                  
                
  20180407.979   106048759.729    20180406.746    82635391.925                  
                
  20441091.972   107418662.670    20441093.544    83702859.861                  
                
  22926426.795   120479183.415    22926428.278    93879891.206                  
                
  23050267.916   123433140.693    23050266.987    96003547.230                  
                
  19933726.296   106557191.253    19933724.723    82877806.803                  
                
  22094101.679   117773996.934    22094100.839    91601987.278                  
                
  20433278.044   109189241.075    20433276.043    84924958.880                  
                
  22667407.338   121085222.960    22667405.998    94177388.822                  
                
  22790848.389   121872891.023    22790847.621    94790029.997                  
                
  21400566.229   114518758.162    21400564.853    89070134.023                  
                
  23007262.485   122814336.123    23007260.877    95522248.209                  
                
 21  8 31 21 22  3.0000000  0 14G10G15G18G23G24G32R 4R 5R14R15R16R20
                                R21R22
  21085829.729   110806780.455    21085830.551    86342949.370                  
                
  23079882.140   121285599.790    23079881.747    94508259.199                  
                
  22456419.921   118009282.555    22456419.278    91955283.363                  
                
  20180471.342   106049092.818    20180470.163    82635651.471                  
                
  20441279.578   107419647.562    20441280.972    83703627.312                  
                
  22925945.636   120476653.905    22925946.762    93877920.167                  
                
  23050808.740   123436033.987    23050807.292    96005797.568                  
                
  19933897.463   106558105.945    19933895.765    82878518.233                  
                
  22094560.734   117776440.682    22094559.483    91603887.971                  
                
  20433014.387   109187834.196    20433012.743    84923864.645                  
                
  22666582.700   121080811.153    22666580.145    94173957.418                  
                
  22791625.334   121877056.752    22791626.638    94793270.013                  
                
  21400758.071   114519777.628    21400755.391    89070926.944                  
                
  23006825.551   122812005.824    23006824.390    95520435.761                  
                
 21  8 31 21 22  4.0000000  0 14G10G15G18G23G24G32R 4R 5R14R15R16R20
                                R21R22
  21085458.375   110804830.629    21085459.572    86341430.026                  
                
  23080466.976   121288673.067    23080466.618    94510653.954                  
                
  22457055.737   118012623.739    22457055.040    91957886.878                  
                
  20180534.742   106049426.250    20180533.527    82635911.295                  
                
  20441467.150   107420632.970    20441468.508    83704395.163                  
                
  22925463.994   120474124.426    22925465.352    93875949.141                  
                
  23051348.617   123438927.231    23051347.616    96008047.854                  
                
  19934068.916   106559020.798    19934067.022    82879229.792                  
                
  22095019.128   117778885.008    22095018.181    91605789.113                  
                
  20432751.176   109186428.027    20432749.586    84922770.949                  
                
  22665755.650   121076399.435    22665754.292    94170526.085                  
                
  22792404.674   121881222.472    22792405.621    94796510.013                  
                
  21400948.180   114520797.827    21400946.053    89071720.427                  
                
  23006390.155   122809676.055    23006387.975    95518623.728                  
                
 21  8 31 21 22  5.0000000  0 14G10G15G18G23G24G32R 4R 5R14R15R16R20
                                R21R22
  21085087.574   110802881.037    21085088.522    86339910.866                  
                
  23081051.579   121291746.370    23081051.471    94513048.738                  
                
  22457691.767   118015965.148    22457691.016    91960490.567                  
                
  20180598.373   106049760.106    20180596.980    82636171.440                  
                
  20441654.667   107421618.959    20441656.115    83705163.468                  
                
  22924982.567   120471595.066    22924984.140    93873978.212                  
                
  23051888.761   123441820.504    23051888.011    96010298.178                  
                
  19934240.101   106559935.917    19934238.297    82879941.542                  
                
  22095478.005   117781329.953    22095477.022    91607690.735                  
                
  20432488.752   109185022.601    20432486.572    84921677.842                  
                
  22664929.601   121071987.807    22664928.529    94167094.830                  
                
  22793183.227   121885388.416    22793184.603    94799750.197                  
                
  21401138.878   114521818.812    21401136.948    89072514.524                  
                
  23005953.740   122807347.008    23005951.613    95516812.242                  
                
 21  8 31 21 22  6.0000000  0 14G10G15G18G23G24G32R 4R 5R14R15R16R20
                                R21R22
  21084716.739   110800931.932    21084717.561    86338392.074                  
                
  23081637.129   121294819.935    23081636.253    94515443.721                  
                
  22458328.172   118019306.986    22458327.028    91963094.606                  
                
  20180661.737   106050094.597    20180660.808    82636432.080                  
                
  20441842.363   107422605.753    20441843.936    83705932.391                  
                
  22924500.890   120469066.032    22924502.784    93872007.538                  
                
  23052430.121   123444714.062    23052428.388    96012548.723                  
                
  19934411.483   106560851.490    19934409.607    82880653.657                  
                
  22095936.756   117783775.793    22095936.024    91609593.055                  
                
  20432225.702   109183618.133    20432223.736    84920585.475                  
                
  22664104.713   121067576.486    22664102.819    94163663.807                  
                
  22793961.941   121889554.653    22793963.728    94802990.596                  
                
  21401329.558   114522840.815    21401327.914    89073309.411                  
                
  23005516.699   122805018.831    23005515.466    95515001.433                  
                
 21  8 31 21 22  7.0000000  0 14G10G15G18G23G24G32R 4R 5R14R15R16R20
                                R21R22
  21084345.885   110798983.165    21084346.725    86336873.557                  
                
  23082221.946   121297893.582    23082221.267    94517838.778                  
                
  22458963.880   118022649.138    22458962.915    91965698.878                  
                
  20180725.494   106050429.579    20180724.564    82636693.110                  
                
  20442030.649   107423593.203    20442031.721    83706701.842                  
                
  22924019.927   120466537.177    22924021.500    93870037.004                  
                
  23052969.408   123447607.715    23052968.819    96014799.339                  
                
  19934582.490   106561767.400    19934580.864    82881366.029                  
                
  22096395.472   117786222.373    22096395.007    91611495.946                  
                
  20431962.974   109182214.548    20431961.062    84919493.800                  
                
  22663279.415   121063165.344    22663277.181    94160232.919                  
                
  22794740.834   121893721.069    22794742.817    94806231.142                  
                
  21401520.346   114523863.712    21401519.166    89074105.007                  
                
  23005081.195   122802691.381    23005079.426    95513191.193                  
                
 21  8 31 21 22  8.0000000  0 14G10G15G18G23G24G32R 4R 5R14R15R16R20
                                R21R22
  21083974.924   110797034.750    21083975.978    86335355.314                  
                
  23082806.710   121300967.352    23082806.245    94520233.921                  
                
  22459600.000   118025991.607    22459598.963    91968303.401                  
                
  20180789.072   106050765.104    20180788.250    82636954.558                  
                
  20442218.631   107424581.332    20442219.775    83707471.808                  
                
  22923538.500   120464008.534    22923540.269    93868066.642                  
                
  23053511.018   123450501.517    23053509.124    96017050.068                  
                
  19934754.032   106562683.629    19934752.317    82882078.649                  
                
  22096854.974   117788669.678    22096854.098    91613399.405                  
                
  20431700.853   109180811.876    20431698.530    84918402.833                  
                
  22662452.115   121058754.384    22662451.650    94156802.182                  
                
  22795521.049   121897887.768    22795522.050    94809471.908                  
                
  21401711.830   114524887.518    21401710.508    89074901.302                  
                
  23004645.816   122800364.659    23004643.636    95511381.534                  
                
 21  8 31 21 22  9.0000000  0 14G10G15G18G23G24G32R 4R 5R14R15R16R20
                                R21R22
  21083604.481   110795086.678    21083605.339    86333837.333                  
                
  23083391.545   121304041.252    23083391.009    94522629.165                  
                
  22460235.619   118029334.401    22460235.118    91970908.174                  
                
  20180853.025   106051101.134    20180852.185    82637216.404                  
                
  20442406.613   107425570.138    20442407.882    83708242.304                  
                
  22923057.555   120461480.110    22923059.217    93866096.442                  
                
  23054051.110   123453395.478    23054049.537    96019300.926                  
                
  19934925.682   106563600.256    19934923.681    82882791.583                  
                
  22097313.654   117791117.706    22097313.171    91615303.411                  
                
  20431438.697   109179410.099    20431436.231    84917312.565                  
                
  22661627.388   121054343.630    22661625.833    94153371.586                  
                
  22796300.067   121902054.707    22796301.211    94812712.858                  
                
  21401904.458   114525912.246    21401901.992    89075698.306                  
                
  23004209.580   122798038.717    23004207.829    95509572.461                  
                
 21  8 31 21 22 10.0000000  0 14G10G15G18G23G24G32R 4R 5R14R15R16R20
                                R21R22
  21083233.788   110793138.533    21083234.539    86332319.294                  
                
  23083976.416   121307114.860    23083976.023    94525024.182                  
                
  22460871.774   118032677.070    22460871.059    91973512.850                  
                
  20180917.228   106051437.248    20180916.317    82637478.302                  
                
  20442594.864   107426559.209    20442596.293    83709013.009                  
                
  22922576.575   120458951.443    22922578.058    93864126.047                  
                
  23054591.612   123456289.129    23054589.771    96021551.543                  
                
  19935097.261   106564516.796    19935095.277    82883504.448                  
                
  22097774.049   117793566.024    22097772.495    91617207.647                  
                
  20431176.129   109178008.716    20431173.967    84916222.601                  
                
  22660802.125   121049932.628    22660800.124    94149940.811                  
                
  22797079.567   121906221.424    22797080.264    94815953.638                  
                
  21402095.103   114526937.444    21402093.584    89076495.678                  
                
  23003774.308   122795713.077    23003772.254    95507763.630                  
                
 21  8 31 21 22 11.0000000  0 14G10G15G18G23G24G32R 4R 5R14R15R16R20
                                R21R22
  21082862.881   110791191.007    21082864.186    86330801.750                  
                
  23084561.144   121310188.862    23084561.037    94527419.511                  
                
  22461508.411   118036020.345    22461507.268    91976117.998                  
                
  20180980.967   106051774.155    20180980.288    82637740.829                  
                
  20442783.614   107427549.212    20442784.686    83709784.449                  
                
  22922095.290   120456423.260    22922096.881    93862156.035                  
                
  23055131.596   123459183.209    23055130.077    96023802.495                  
                
  19935268.714   106565433.972    19935266.855    82884217.804                  
                
  22098233.355   117796015.371    22098231.871    91619112.699                  
                
  20430914.205   109176608.494    20430912.079    84915133.544                  
                
  22659977.577   121045522.092    22659974.467    94146510.404                  
                
  22797859.783   121910388.706    22797859.604    94819194.850                  
                
  21402287.052   114527963.802    21402285.426    89077293.960                  
                
  23003338.501   122793388.474    23003336.732    95505955.594                  
                
 21  8 31 21 22 12.0000000  0 14G10G15G18G23G24G32R 4R 5R14R15R16R20
                                R21R22
  21082492.421   110789243.775    21082493.528    86329284.415                  
                
  23085146.783   121313262.902    23085146.069    94529814.862                  
                
  22462144.441   118039363.862    22462143.459    91978723.331                  
                
  20181045.671   106052111.491    20181044.473    82638003.692                  
                
  20442971.864   107428539.818    20442972.954    83710556.343                  
                
  22921614.632   120453895.221    22921615.972    93860186.143                  
                
  23055671.240   123462077.362    23055670.472    96026053.502                  
                
  19935440.507   106566351.404    19935438.452    82884931.358                  
                
  22098692.999   117798465.373    22098691.248    91621018.259                  
                
  20430651.780   109175209.119    20430650.279    84914045.136                  
                
  22659150.938   121041111.681    22659148.758    94143080.088                  
                
  22798638.121   121914556.122    22798638.836    94822436.167                  
                
  21402478.804   114528991.005    21402477.303    89078092.889                  
                
  23002903.122   122791064.596    23002901.228    95504148.146                  
                
 21  8 31 21 22 13.0000000  0 14G10G15G18G23G24G32R 4R 5R14R15R16R20
                                R21R22
  21082122.156   110787296.991    21082123.068    86327767.452                  
                
  23085731.190   121316337.207    23085730.975    94532210.419                  
                
  22462780.722   118042707.824    22462779.721    91981329.014                  
                
  20181109.963   106052449.492    20181108.873    82638267.068                  
                
  20443160.579   107429531.236    20443161.705    83711328.876                  
                
  22921133.580   120451367.502    22921135.027    93858216.490                  
                
  23056213.244   123464971.804    23056210.760    96028304.735                  
                
  19935612.335   106567269.299    19935610.102    82885645.279                  
                
  22099152.734   117800916.221    22099150.804    91622924.473                  
                
  20430390.124   109173810.730    20430388.588    84912957.507                  
                
  22658324.692   121036701.616    22658323.155    94139650.036                  
                
  22799416.871   121918723.965    22799418.194    94825677.818                  
                
  21402671.343   114530019.232    21402669.503    89078892.622                  
                
  23002467.350   122788741.596    23002465.939    95502341.374                  
                
 21  8 31 21 22 14.0000000  0 14G10G15G18G23G24G32R 4R 5R14R15R16R20
                                R21R22
  21081751.535   110785350.630    21081752.750    86326250.807                  
                
  23086315.918   121319411.655    23086316.186    94534606.102                  
                
  22463417.109   118046052.139    22463416.358    91983934.969                  
                
  20181174.310   106052788.037    20181173.416    82638530.876                  
                
  20443349.258   107430523.364    20443350.688    83712101.961                  
                
  22920652.563   120448840.027    22920653.921    93856247.026                  
                
  23056753.692   123467866.411    23056751.298    96030556.101                  
                
  19935784.021   106568187.594    19935781.948    82886359.511                  
                
  22099612.611   117803367.821    22099610.520    91624831.276                  
                
  20430129.326   109172413.259    20430127.092    84911870.580                  
                
  22657499.644   121032291.831    22657497.517    94136220.203                  
                
  22800196.926   121922892.071    22800197.480    94828919.669                  
                
  21402863.328   114531048.390    21402861.612    89079693.080                  
                
  23002033.830   122786419.402    23002030.864    95500535.209                  
                
 21  8 31 21 22 15.0000000  0 14G10G15G18G23G24G32R 4R 5R14R15R16R20
                                R21R22
  21081381.343   110783404.161    21081382.182    86324734.080                  
                
  23086901.396   121322485.786    23086901.325    94537001.525                  
                
  22464053.961   118049396.324    22464052.674    91986540.827                  
                
  20181238.710   106053126.666    20181237.745    82638794.740                  
                
  20443538.169   107431515.739    20443539.438    83712875.242                  
                
  22920171.690   120446312.313    22920172.744    93854277.384                  
                
  23057294.069   123470760.662    23057291.675    96032807.181                  
                
  19935955.260   106569105.782    19935953.741    82887073.654                  
                
  22100072.399   117805819.687    22100070.326    91626738.287                  
                
  20429867.384   109171016.226    20429865.758    84910783.993                  
                
  22656673.898   121027881.769    22656671.950    94132790.157                  
                
  22800975.354   121927059.870    22800977.016    94832161.281                  
                
  21403055.884   114532078.013    21403054.026    89080493.893                  
                
  23001598.523   122784097.520    23001595.771    95498729.306                  
                
 21  8 31 21 22 16.0000000  0 14G10G15G18G23G24G32R 4R 5R14R15R16R20
                                R21R22
  21081011.168   110781458.865    21081011.900    86323218.256                  
                
  23087486.464   121325560.850    23087486.482    94539397.676                  
                
  22464690.223   118052741.660    22464689.205    91989147.573                  
                
  20181303.003   106053466.607    20181302.359    82639059.623                  
                
  20443727.170   107432509.589    20443728.474    83713649.669                  
                
  22919690.424   120443785.630    22919691.978    93852308.542                  
                
  23057834.607   123473655.912    23057832.374    96035059.042                  
                
  19936127.714   106570025.154    19936125.766    82887788.720                  
                
  22100532.490   117808273.112    22100530.525    91628646.521                  
                
  20429606.854   109169620.901    20429604.620    84909698.742                  
                
  22655847.903   121023472.730    22655846.562    94129360.911                  
                
  22801754.050   121931228.833    22801756.570    94835403.812                  
                
  21403248.673   114533109.372    21403246.583    89081296.055                  
                
  23001164.037   122781777.183    23001160.910    95496924.617                  
                
 21  8 31 21 22 17.0000000  0 14G10G15G18G23G24G32R 4R 5R14R15R16R20
                                R21R22
  21080640.600   110779513.006    21080641.726    86321702.004                  
                
  23088071.657   121328635.122    23088071.567    94541793.208                  
                
  22465326.932   118056086.374    22465325.681    91991753.860                  
                
  20181367.706   106053806.161    20181367.027    82639324.217                  
                
  20443916.081   107433503.199    20443917.618    83714423.913                  
                
  22919209.836   120441258.228    22919211.069    93850339.135                  
                
  23058374.699   123476550.361    23058372.912    96037310.284                  
                
  19936299.882   106570943.921    19936297.576    82888503.316                  
                
  22100991.992   117810726.394    22100990.813    91630554.634                  
                
  20429345.233   109168225.513    20429343.554    84908613.443                  
                
  22655022.032   121019062.931    22655020.978    94125931.063                  
                
  22802533.354   121935397.043    22802536.213    94838645.761                  
                
  21403441.248   114534140.678    21403439.318    89082098.186                  
                
  23000727.765   122779456.682    23000726.103    95495119.804                  
                
 21  8 31 21 22 18.0000000  0 14G10G15G18G23G24G32R 4R 5R14R15R16R20
                                R21R22
  21080270.586   110777567.657    21080271.587    86320186.150                  
                
  23088657.171   121331709.676    23088656.617    94544188.962                  
                
  22465963.391   118059431.589    22465962.230    91994360.512                  
                
  20181433.178   106054146.381    20181431.642    82639589.319                  
                
  20444105.582   107434497.675    20444106.833    83715198.829                  
                
  22918728.463   120438731.198    22918730.267    93848370.017                  
                
  23058916.362   123479445.114    23058913.664    96039561.764                  
                
  19936471.621   106571863.210    19936469.476    82889218.321                  
                
  22101453.335   117813180.597    22101451.155    91632463.456                  
                
  20429084.167   109166831.169    20429082.612    84907528.953                  
                
  22654197.037   121014653.525    22654195.500    94122501.536                  
                
  22803312.640   121939565.663    22803315.839    94841888.025                  
                
  21403634.037   114535173.050    21403632.160    89082901.152                  
                
  23000294.263   122777137.122    23000291.529    95493315.697                  
                
 21  8 31 21 22 19.0000000  0 14G10G15G18G23G24G32R 4R 5R14R15R16R20
                                R21R22
  21079900.554   110775623.230    21079901.412    86318671.017                  
                
  23089242.078   121334784.910    23089241.649    94546585.246                  
                
  22466599.796   118062777.682    22466598.974    91996967.864                  
                
  20181497.560   106054487.734    20181496.792    82639855.308                  
                
  20444295.191   107435493.401    20444296.334    83715974.722                  
                
  22918247.768   120436204.946    22918249.555    93846401.515                  
                
  23059456.382   123482340.570    23059454.452    96041813.790                  
                
  19936643.556   106572783.469    19936641.716    82889934.069                  
                
  22101914.338   117815636.103    22101911.872    91634373.294                  
                
  20428823.869   109165438.300    20428821.885    84906445.608                  
                
  22653370.881   121010244.915    22653370.112    94119072.625                  
                
  22804092.587   121943735.068    22804095.750    94845130.891                  
                
  21403827.683   114536206.938    21403825.325    89083705.277                  
                
  22999860.188   122774818.889    22999857.311    95491512.618                  
                
 21  8 31 21 22 20.0000000  0 14G10G15G18G23G24G32R 4R 5R14R15R16R20
                                R21R22
  21079530.487   110773678.648    21079531.649    86317155.749                  
                
  23089827.038   121337859.754    23089826.859    94548981.222                  
                
  22467236.488   118066123.593    22467235.701    91999575.056                  
                
  20181562.943   106054829.037    20181561.657    82640121.261                  
                
  20444484.298   107436489.271    20444485.835    83716750.719                  
                
  22917766.877   120433678.374    22917768.718    93844432.754                  
                
  23059996.580   123485235.656    23059995.294    96044065.525                  
                
  19936815.760   106573703.544    19936813.848    82890649.684                  
                
  22102374.626   117818091.796    22102372.642    91636283.277                  
                
  20428563.660   109164045.776    20428561.319    84905362.538                  
                
  22652546.172   121005836.005    22652544.706    94115643.479                  
                
  22804873.874   121947904.174    22804875.447    94848373.515                  
                
  21404020.383   114537241.187    21404018.650    89084509.688                  
                
  22999426.060   122772500.960    22999423.058    95489709.770                  
                
 21  8 31 21 22 21.0000000  0 14G10G15G18G23G24G32R 4R 5R14R15R16R20
                                R21R22
  21079160.527   110771734.273    21079161.617    86315640.659                  
                
  23090411.623   121340934.575    23090412.052    94551377.184                  
                
  22467873.286   118069469.674    22467872.678    92002182.389                  
                
  20181627.915   106055170.741    20181626.807    82640387.517                  
                
  20444674.335   107437485.680    20444675.354    83717527.152                  
                
  22917286.558   120431151.885    22917287.791    93842464.065                  
                
  23060537.476   123488130.711    23060536.064    96046317.240                  
                
  19936988.125   106574623.809    19936986.052    82891365.448                  
                
  22102834.950   117820548.073    22102833.377    91638193.713                  
                
  20428302.594   109162653.990    20428300.771    84904280.043                  
                
  22651721.409   121001427.124    22651719.247    94112214.356                  
                
  22805653.446   121952073.388    22805655.197    94851616.228                  
                
  21404213.886   114538276.165    21404212.046    89085314.676                  
                
  22998991.718   122770183.601    22998988.984    95487907.373                  
                
 21  8 31 21 22 22.0000000  0 14G10G15G18G23G24G32R 4R 5R14R15R16R20
                                R21R22
  21078790.763   110769790.462    21078791.692    86314125.996                  
                
  23090997.459   121344009.713    23090997.191    94553773.400                  
                
  22468510.674   118072816.269    22468509.459    92004790.130                  
                
  20181692.780   106055513.165    20181691.868    82640654.345                  
                
  20444863.962   107438482.979    20444865.230    83718304.265                  
                
  22916805.452   120428625.788    22916807.257    93840495.676                  
                
  23061077.210   123491026.132    23061076.834    96048569.231                  
                
  19937159.775   106575544.653    19937158.309    82892081.663                  
                
  22103295.720   117823005.275    22103294.487    91640104.861                  
                
  20428042.867   109161263.301    20428040.491    84903198.398                  
                
  22650896.110   120997018.660    22650893.966    94108785.549                  
                
  22806433.233   121956243.055    22806434.876    94854859.317                  
                
  21404407.908   114539312.267    21404405.621    89086120.528                  
                
  22998557.894   122767867.234    22998555.035    95486105.768                  
                
 21  8 31 21 22 23.0000000  0 14G10G15G18G23G24G32R 4R 5R14R15R16R20
                                R21R22
  21078420.856   110767846.819    21078421.875    86312611.471                  
                
  23091582.437   121347084.780    23091582.348    94556169.554                  
                
  22469146.811   118076163.013    22469146.418    92007397.980                  
                
  20181758.555   106055855.917    20181757.162    82640921.425                  
                
  20445053.748   107439480.785    20445055.106    83719081.770                  
                
  22916324.954   120426099.727    22916326.634    93838527.316                  
                
  23061617.801   123493921.546    23061617.694    96050821.213                  
                
  19937332.818   106576465.629    19937330.531    82892797.975                  
                
  22103757.223   117825463.067    22103755.740    91642016.470                  
                
  20427782.301   109159873.302    20427780.282    84902117.276                  
                
  22650069.865   120992610.221    22650068.864    94105356.779                  
                
  22807212.054   121960412.777    22807214.645    94858102.424                  
                
  21404601.894   114540349.109    21404599.518    89086926.959                  
                
  22998123.444   122765551.457    22998121.157    95484304.604                  
                
 21  8 31 21 22 24.0000000  0 14G10G15G18G23G24G32R 4R 5R14R15R16R20
                                R21R22
  21078051.182   110765904.023    21078052.058    86311097.600                  
                
  23092168.041   121350160.478    23092167.576    94558566.199                  
                
  22469783.949   118079510.561    22469783.431    92010006.451                  
                
  20181823.616   106056199.685    20181822.544    82641189.296                  
                
  20445244.036   107440479.754    20445245.126    83719860.184                  
                
  22915844.385   120423574.355    22915846.100    93836559.492                  
                
  23062158.625   123496817.567    23062158.607    96053073.667                  
                
  19937505.290   106577387.479    19937503.003    82893514.970                  
                
  22104219.227   117827922.092    22104216.993    91643929.044                  
                
  20427522.807   109158484.640    20427520.467    84901037.217                  
                
  22649245.066   120988202.462    22649243.744    94101928.522                  
                
  22807991.661   121964583.254    22807994.252    94861346.126                  
                
  21404795.738   114541387.359    21404793.415    89087734.492                  
                
  22997688.959   122763236.941    22997687.637    95482504.420                  
                
 21  8 31 21 22 25.0000000  0 14G10G15G18G23G24G32R 4R 5R14R15R16R20
                                R21R22
  21077681.115   110763961.213    21077682.365    86309583.726                  
                
  23092752.948   121353235.921    23092752.858    94560962.650                  
                
  22470421.426   118082858.060    22470420.372    92012614.886                  
                
  20181888.749   106056543.608    20181887.891    82641457.281                  
                
  20445434.180   107441479.019    20445435.252    83720638.837                  
                
  22915363.994   120421048.837    22915365.477    93834591.558                  
                
  23062699.413   123499713.368    23062699.449    96055325.944                  
                
  19937677.226   106578309.311    19937675.457    82894231.955                  
                
  22104680.319   117830381.491    22104678.389    91645841.913                  
                
  20427262.491   109157096.503    20427260.776    84899957.551                  
                
  22648420.536   120983794.544    22648418.606    94098500.133                  
                
  22808772.395   121968753.626    22808774.146    94864589.746                  
                
  21404989.724   114542426.141    21404987.508    89088542.435                  
                
  22997255.814   122760922.783    22997254.063    95480704.528                  
                
 21  8 31 21 22 26.0000000  0 14G10G15G18G23G24G32R 4R 5R14R15R16R20
                                R21R22
  21077311.547   110762018.907    21077312.655    86308070.237                  
                
  23093338.426   121356311.622    23093338.015    94563359.298                  
                
  22471058.368   118086206.019    22471057.528    92015223.695                  
                
  20181954.561   106056888.183    20181953.489    82641725.788                  
                
  20445624.128   107442479.120    20445625.629    83721418.134                  
                
  22914883.817   120418523.653    22914884.800    93832623.885                  
                
  23063239.754   123502609.434    23063240.344    96057578.443                  
                
  19937849.894   106579231.651    19937847.911    82894949.333                  
                
  22105141.805   117832841.748    22105139.839    91647755.441                  
                
  20427002.622   109155709.417    20427001.103    84898878.703                  
                
  22647595.362   120979386.973    22647593.468    94095072.033                  
                
  22809552.378   121972924.324    22809554.022    94867833.606                  
                
  21405184.478   114543465.960    21405181.923    89089351.183                  
                
  22996821.561   122758609.588    22996820.721    95478905.388                  
                
 21  8 31 21 22 27.0000000  0 14G10G15G18G23G24G32R 4R 5R14R15R16R20
                                R21R22
  21076942.499   110760076.496    21076943.052    86306556.665                  
                
  23093923.780   121359387.003    23093923.243    94565755.701                  
                
  22471695.148   118089553.843    22471694.630    92017832.380                  
                
  20182020.354   106057232.831    20182019.032    82641994.343                  
                
  20445814.736   107443479.444    20445816.059    83722197.612                  
                
  22914402.390   120415998.229    22914404.427    93830656.021                  
                
  23063780.775   123505505.228    23063780.936    96059830.715                  
                
  19938022.545   106580153.889    19938020.508    82895666.624                  
                
  22105604.041   117835302.245    22105601.432    91649669.157                  
                
  20426743.611   109154322.742    20426741.663    84897800.181                  
                
  22646770.332   120974979.127    22646768.312    94091643.702                  
                
  22810331.753   121977094.768    22810333.772    94871077.297                  
                
  21405377.839   114544506.189    21405376.284    89090160.257                  
                
  22996387.969   122756296.622    22996387.505    95477106.422                  
                
 21  8 31 21 22 28.0000000  0 14G10G15G18G23G24G32R 4R 5R14R15R16R20
                                R21R22
  21076572.252   110758134.813    21076573.664    86305043.674                  
                
  23094509.133   121362462.874    23094508.525    94568152.489                  
                
  22472332.715   118092902.371    22472331.804    92020441.634                  
                
  20182086.077   106057578.371    20182084.879    82642263.597                  
                
  20446005.149   107444480.821    20446006.525    83722977.909                  
                
  22913922.410   120413473.382    22913923.911    93828688.618                  
                
  23064322.635   123508401.512    23064321.652    96062083.362                  
                
  19938194.838   106581076.850    19938193.176    82896384.487                  
                
  22106065.133   117837763.856    22106063.149    91651583.745                  
                
  20426484.742   109152937.359    20426482.366    84896722.658                  
                
  22645944.676   120970571.863    22645943.371    94088215.837                  
                
  22811111.825   121981265.902    22811113.719    94874321.500                  
                
  21405572.933   114545547.732    21405570.878    89090970.341                  
                
  22995956.200   122753984.804    22995954.413    95475308.334                  
                
                               3  6
station ID: 3555                                            COMMENT             
3555                                                        MARKER NAME         
                    TRIMBLE NETR5                           REC # / TYPE / VERS 
                    GPPNULLANTENNA                          ANT # / TYPE        
  1545914.5119 -4353699.7972  4382537.4995                  APPROX POSITION XYZ 
        0.0000        0.0000        0.0000                  ANTENNA: DELTA H/E/N
 21  8 31 21 26 58.0000000  0 14G10G15G18G23G24G32R 4R 5R14R15R16R20
                                R21R22
  20979194.279   110246409.7451   20979195.744    85906298.9061                 
                
  23253235.358   122196577.8691   23253235.250    95218110.9471                 
                
  22646396.351   119007620.0591   22646395.350    92733202.2061                 
                
  20203333.917   106169236.8221   20203332.720    82729270.1451                 
                
  20502013.350   107738806.5291   20502015.262    83952324.3581                 
                
  22785517.684   119738702.9101   22785519.078    93302890.7561                 
                
  23211181.541   124294822.5551   23211180.040    96673744.1341                 
                
  19987090.560   106842457.4271   19987088.612    83099678.2861                 
                
  22235577.345   118528138.0281   22235576.559    92188548.8361                 
                
  20362435.552   108810679.3131   20362433.908    84630523.6391                 
                
  22424548.517   119787910.3391   22424548.392    93168375.4211                 
                
  23023086.916   123114781.6791   23023087.291    95755949.6301                 
                
  21464120.947   114858848.6541   21464119.732    89334653.8481                 
                
  22884194.771   122157381.6591   22884192.609    95011290.9831                 
                
 21  8 31 21 26 59.0000000  0 14G10G15G18G23G24G32R 4R 5R14R15R16R20
                                R21R22
  20978842.635   110244561.888    20978844.189    85904859.024                  
                
  23253825.375   122199680.256    23253825.714    95220528.396                  
                
  22647048.481   119011045.980    22647047.301    92735871.758                  
                
  20203425.907   106169718.769    20203424.406    82729645.684                  
                
  20502237.338   107739984.754    20502239.411    83953242.456                  
                
  22785046.871   119736229.736    22785048.390    93300963.607                  
                
  23211727.565   124297751.663    23211726.993    96676022.322                  
                
  19987280.472   106843470.801    19987278.256    83100466.466                  
                
  22236075.534   118530788.880    22236073.818    92190610.613                  
                
  20362220.338   108809530.537    20362219.141    84629630.146                  
                
  22423734.047   119783559.223    22423733.636    93164991.221                  
                
  23023876.656   123119005.013    23023876.977    95759234.442                  
                
  21464359.606   114860127.056    21464358.623    89335648.158                  
                
  22883799.848   122155275.684    22883798.079    95009652.988                  
                
 21  8 31 21 27  0.0000000  0 14G10G15G18G23G24G32R 4R 5R14R15R16R20
                                R21R22
  20978490.883   110242714.163    20978492.330    85903419.228                  
                
  23254416.214   122202782.537    23254416.071    95222945.748                  
                
  22647700.664   119014471.958    22647699.146    92738541.346                  
                
  20203517.289   106170201.026    20203516.360    82730021.471                  
                
  20502461.827   107741163.393    20502463.649    83954160.866                  
                
  22784576.558   119733756.551    22784577.738    93299036.452                  
                
  23212275.233   124300680.679    23212273.928    96678300.445                  
                
  19987469.687   106844484.270    19987467.811    83101254.712                  
                
  22236571.346   118533440.233    22236571.292    92192672.774                  
                
  20362005.266   108808382.451    20362004.301    84628737.190                  
                
  22422919.291   119779208.136    22422918.934    93161607.045                  
                
  23024666.145   123123228.316    23024666.752    95762519.236                  
                
  21464599.498   114861406.034    21464597.657    89336642.919                  
                
  22883406.783   122153170.243    22883403.763    95008015.427                  
                
 21  8 31 21 27  1.0000000  0 14G10G15G18G23G24G32R 4R 5R14R15R16R20
                                R21R22
  20978139.632   110240866.816    20978140.972    85901979.737                  
                
  23255006.607   122205884.930    23255006.142    95225363.188                  
                
  22648353.080   119017898.225    22648351.061    92741211.176                  
                
  20203609.333   106170683.792    20203608.189    82730397.648                  
                
  20502686.387   107742342.695    20502688.156    83955079.805                  
                
  22784105.817   119731283.597    22784107.103    93297109.471                  
                
  23212822.186   124303609.865    23212820.899    96680578.692                  
                
  19987659.385   106845498.073    19987657.419    83102043.231                  
                
  22237069.051   118536092.274    22237068.891    92194735.474                  
                
  20361790.070   108807235.262    20361789.569    84627844.923                  
                
  22422105.840   119774857.353    22422104.267    93158223.102                  
                
  23025455.151   123127451.816    23025456.509    95765804.185                  
                
  21464837.942   114862685.891    21464836.780    89337638.360                  
                
  22883012.789   122151065.609    22883009.412    95006378.490                  
                
 21  8 31 21 27  2.0000000  0 14G10G15G18G23G24G32R 4R 5R14R15R16R20
                                R21R22
  20977788.416   110239020.103    20977789.559    85900540.745                  
                
  23255596.749   122208987.666    23255596.695    95227780.900                  
                
  22649005.371   119021325.033    22649003.227    92743881.414                  
                
  20203701.412   106171167.339    20203700.143    82730774.436                  
                
  20502910.696   107743522.921    20502912.733    83955999.462                  
                
  22783635.111   119728811.087    22783636.612    93295182.841                  
                
  23213370.246   124306539.398    23213367.923    96682857.222                  
                
  19987849.315   106846512.506    19987847.188    83102832.230                  
                
  22237566.739   118538745.252    22237566.614    92196798.908                  
                
  20361576.052   108806089.193    20361575.177    84626953.536                  
                
  22421291.459   119770507.059    22421289.940    93154839.539                  
                
  23026244.373   123131675.704    23026246.159    95769089.436                  
                
  21465078.030   114863966.910    21465076.136    89338634.711                  
                
  22882616.597   122148962.078    22882615.328    95004742.422                  
                
 21  8 31 21 27  3.0000000  0 14G10G15G18G23G24G32R 4R 5R14R15R16R20
                                R21R22
  20977436.682   110237173.481    20977438.147    85899101.819                  
                
  23256187.749   122212090.243    23256187.177    95230198.491                  
                
  22649656.733   119024751.867    22649655.303    92746551.654                  
                
  20203794.063   106171651.139    20203792.222    82731151.425                  
                
  20503135.542   107744703.535    20503137.419    83956919.421                  
                
  22783164.191   119726338.524    22783166.192    93293256.171                  
                
  23213916.770   124309468.806    23213914.876    96685135.646                  
                
  19988039.370   106847527.026    19988037.011    83103621.301                  
                
  22238063.516   118541398.644    22238064.392    92198862.653                  
                
  20361361.463   108804943.696    20361360.820    84626062.594                  
                
  22420475.881   119766156.745    22420475.542    93151455.970                  
                
  23027034.487   123135899.614    23027035.881    95772374.702                  
                
  21465316.707   114865248.587    21465315.652    89339631.575                  
                
  22882223.175   122146859.018    22882221.245    95003106.697                  
                
 21  8 31 21 27  4.0000000  0 14G10G15G18G23G24G32R 4R 5R14R15R16R20
                                R21R22
  20977085.145   110235327.728    20977086.932    85897663.569                  
                
  23256777.802   122215193.420    23256777.677    95232616.550                  
                
  22650308.738   119028179.473    22650307.630    92749222.518                  
                
  20203886.267   106172135.948    20203884.462    82731529.193                  
                
  20503360.317   107745885.305    20503362.229    83957840.276                  
                
  22782693.431   119723866.644    22782695.719    93291330.031                  
                
  23214463.098   124312398.868    23214462.115    96687414.578                  
                
  19988229.639   106848542.405    19988226.994    83104411.035                  
                
  22238561.294   118544053.232    22238562.187    92200927.333                  
                
  20361147.893   108803799.587    20361146.606    84625172.736                  
                
  22419662.054   119761807.140    22419661.215    93148072.949                  
                
  23027825.370   123140124.102    23027825.781    95775660.415                  
                
  21465556.134   114866531.623    21465555.437    89340629.492                  
                
  22881829.341   122144757.240    22881827.608    95001471.992                  
                
 21  8 31 21 27  5.0000000  0 14G10G15G18G23G24G32R 4R 5R14R15R16R20
                                R21R22
  20976734.537   110233481.816    20976735.680    85896225.196                  
                
  23257368.427   122218296.173    23257368.087    95235034.287                  
                
  22650961.100   119031606.827    22650959.688    92751893.178                  
                
  20203978.096   106172620.748    20203976.827    82731906.969                  
                
  20503585.163   107747067.177    20503587.235    83958761.218                  
                
  22782223.244   119721394.442    22782225.263    93289403.633                  
                
  23215011.373   124315328.544    23215009.354    96689693.209                  
                
  19988419.336   106849557.596    19988416.835    83105200.629                  
                
  22239059.911   118546707.996    22239060.215    92202992.147                  
                
  20360933.304   108802655.908    20360932.696    84624283.217                  
                
  22418848.460   119757457.256    22418846.780    93144689.714                  
                
  23028614.377   123144348.316    23028615.735    95778945.912                  
                
  21465796.454   114867815.009    21465795.257    89341627.681                  
                
  22881436.151   122142655.787    22881433.936    94999837.522                  
                
 21  8 31 21 27  6.0000000  0 14G10G15G18G23G24G32R 4R 5R14R15R16R20
                                R21R22
  20976383.107   110231636.585    20976384.500    85894787.363                  
                
  23257958.516   122221399.367    23257958.569    95237452.356                  
                
  22651613.712   119035034.800    22651612.033    92754564.333                  
                
  20204070.639   106173106.402    20204069.085    82732285.391                  
                
  20503810.545   107748250.045    20503812.278    83959682.940                  
                
  22781753.235   119718922.773    22781754.950    93287477.664                  
                
  23215558.701   124318258.643    23215556.343    96691972.174                  
                
  19988609.588   106850573.453    19988606.890    83105990.735                  
                
  22239558.993   118549363.796    22239558.331    92205057.764                  
                
  20360719.590   108801513.485    20360718.893    84623394.670                  
                
  22418034.687   119753107.923    22418032.400    93141306.895                  
                
  23029403.991   123148573.026    23029405.939    95782231.795                  
                
  21466036.810   114869099.549    21466035.363    89342626.765                  
                
  22881041.174   122140555.377    22881040.513    94998203.877                  
                
 21  8 31 21 27  7.0000000  0 14G10G15G18G23G24G32R 4R 5R14R15R16R20
                                R21R22
  20976032.177   110229791.483    20976033.428    85893349.617                  
                
  23258549.248   122224502.409    23258548.997    95239870.310                  
                
  22652265.807   119038462.799    22652264.341    92757235.501                  
                
  20204162.897   106173592.294    20204161.664    82732664.008                  
                
  20504035.641   107749433.326    20504037.445    83960604.972                  
                
  22781283.012   119716451.061    22781284.548    93285551.655                  
                
  23216104.296   124321188.615    23216103.492    96694251.042                  
                
  19988798.946   106851589.397    19988796.998    83106780.923                  
                
  22240056.752   118552020.033    22240056.484    92207123.725                  
                
  20360506.716   108800371.694    20360505.269    84622506.609                  
                
  22417219.645   119748758.590    22417218.108    93137924.081                  
                
  23030194.552   123152797.631    23030195.964    95785517.597                  
                
  21466276.559   114870384.691    21466275.558    89343626.318                  
                
  22880648.538   122138455.506    22880647.091    94996570.651                  
                
 21  8 31 21 27  8.0000000  0 14G10G15G18G23G24G32R 4R 5R14R15R16R20
                                R21R22
  20975680.979   110227947.150    20975682.462    85891912.470                  
                
  23259138.854   122227605.934    23259139.640    95242288.642                  
                
  22652918.473   119041891.464    22652916.829    92759907.188                  
                
  20204255.280   106174079.128    20204254.172    82733043.366                  
                
  20504260.540   107750617.655    20504262.863    83961527.826                  
                
  22780812.467   119713979.941    22780814.236    93283626.112                  
                
  23216651.892   124324119.114    23216650.713    96696530.323                  
                
  19988989.537   106852606.084    19988987.053    83107571.679                  
                
  22240555.512   118554677.360    22240554.851    92209190.530                  
                
  20360292.699   108799231.136    20360291.859    84621619.510                  
                
  22416406.175   119744409.913    22416403.995    93134541.781                  
                
  23030985.364   123157022.803    23030986.079    95788803.835                  
                
  21466517.291   114871671.140    21466515.950    89344626.883                  
                
  22880256.153   122136356.816    22880253.919    94994938.330                  
                
 21  8 31 21 27  9.0000000  0 14G10G15G18G23G24G32R 4R 5R14R15R16R20
                                R21R22
  20975330.139   110226102.523    20975331.515    85890475.103                  
                
  23259729.747   122230708.920    23259730.051    95244706.548                  
                
  22653570.728   119045319.757    22653569.298    92762578.580                  
                
  20204348.127   106174565.815    20204346.930    82733422.601                  
                
  20504486.297   107751801.978    20504488.156    83962450.675                  
                
  22780342.350   119711508.379    22780343.923    93281700.219                  
                
  23217199.417   124327049.078    23217198.005    96698809.174                  
                
  19989179.681   106853622.460    19989177.323    83108362.187                  
                
  22241053.450   118557334.690    22241053.182    92211257.337                  
                
  20360079.003   108798090.784    20360078.450    84620732.567                  
                
  22415591.723   119740060.860    22415589.901    93131159.178                  
                
  23031774.514   123161247.534    23031776.372    95792089.737                  
                
  21466758.540   114872957.840    21466756.378    89345627.649                  
                
  22879863.231   122134258.261    22879860.800    94993306.124                  
                
 21  8 31 21 27 10.0000000  0 14G10G15G18G23G24G32R 4R 5R14R15R16R20
                                R21R22
  20974979.048   110224258.574    20974980.638    85889038.257                  
                
  23260320.622   122233812.325    23260320.550    95247124.783                  
                
  22654223.322   119048748.648    22654221.732    92765250.437                  
                
  20204440.957   106175053.341    20204439.706    82733802.484                  
                
  20504711.679   107752987.275    20504713.717    83963374.285                  
                
  22779872.216   119709037.327    22779873.896    93279774.719                  
                
  23217746.567   124329979.520    23217745.226    96701088.412                  
                
  19989369.879   106854639.511    19989367.574    83109153.220                  
                
  22241552.532   118559993.059    22241551.764    92213324.951                  
                
  20359866.076   108796951.697    20359865.254    84619846.611                  
                
  22414777.664   119735712.338    22414775.913    93127776.996                  
                
  23032565.164   123165472.700    23032566.558    95795375.968                  
                
  21466999.022   114874245.714    21466997.002    89346629.334                  
                
  22879470.201   122132160.805    22879467.843    94991674.763                  
                
 21  8 31 21 27 11.0000000  0 14G10G15G18G23G24G32R 4R 5R14R15R16R20
                                R21R22
  20974628.279   110222415.274    20974629.816    85887601.922                  
                
  23260911.104   122236916.114    23260911.104    95249543.314                  
                
  22654875.971   119052178.106    22654874.166    92767922.753                  
                
  20204533.715   106175541.640    20204532.536    82734182.979                  
                
  20504937.312   107754173.493    20504939.331    83964298.614                  
                
  22779402.208   119706566.759    22779403.780    93277849.603                  
                
  23218293.073   124332910.366    23218292.537    96703367.947                  
                
  19989560.917   106855657.171    19989558.004    83109944.740                  
                
  22242051.686   118562652.348    22242050.685    92215393.298                  
                
  20359652.827   108795813.824    20359652.202    84618961.599                  
                
  22413962.086   119731364.363    22413962.140    93124395.237                  
                
  23033356.029   123169698.365    23033356.708    95798662.589                  
                
  21467239.699   114875534.721    21467237.877    89347631.897                  
                
  22879077.816   122130064.404    22879075.028    94990044.249                  
                
 21  8 31 21 27 12.0000000  0 14G10G15G18G23G24G32R 4R 5R14R15R16R20
                                R21R22
  20974277.260   110220571.810    20974279.065    85886165.456                  
                
  23261501.853   122240019.464    23261501.693    95251961.510                  
                
  22655528.726   119055607.299    22655526.886    92770594.849                  
                
  20204627.009   106176029.943    20204625.455    82734563.480                  
                
  20505163.623   107755359.832    20505165.213    83965223.027                  
                
  22778931.895   119704095.871    22778933.521    93275924.248                  
                
  23218839.722   124335840.796    23218839.829    96705647.175                  
                
  19989750.739   106856674.664    19989748.274    83110736.121                  
                
  22242550.767   118565311.830    22242549.534    92217461.781                  
                
  20359440.329   108794676.313    20359439.275    84618076.865                  
                
  22413147.956   119727016.050    22413148.170    93121013.216                  
                
  23034145.697   123173923.696    23034146.805    95801948.955                  
                
  21467480.252   114876824.074    21467478.769    89348634.727                  
                
  22878685.948   122127968.227    22878682.320    94988413.882                  
                
 21  8 31 21 27 13.0000000  0 14G10G15G18G23G24G32R 4R 5R14R15R16R20
                                R21R22
  20973926.956   110218728.894    20973928.260    85884729.418                  
                
  23262092.764   122243123.127    23262092.425    95254379.949                  
                
  22656181.178   119059036.971    22656179.498    92773267.314                  
                
  20204720.214   106176518.952    20204718.534    82734944.525                  
                
  20505388.790   107756547.036    20505391.167    83966148.123                  
                
  22778461.761   119701625.356    22778463.333    93273999.169                  
                
  23219387.908   124338771.549    23219387.122    96707926.647                  
                
  19989941.491   106857692.670    19989938.722    83111527.906                  
                
  22243048.652   118567972.199    22243048.706    92219530.964                  
                
  20359227.384   108793539.852    20359226.597    84617192.954                  
                
  22412334.236   119722668.148    22412334.254    93117631.522                  
                
  23034935.776   123178149.385    23034937.170    95805235.591                  
                
  21467721.984   114878114.482    21467719.983    89349638.375                  
                
  22878291.936   122125873.075    22878289.720    94986784.313                  
                
 21  8 31 21 27 14.0000000  0 14G10G15G18G23G24G32R 4R 5R14R15R16R20
                                R21R22
  20973576.169   110216886.318    20973577.670    85883293.642                  
                
  23262683.282   122246226.817    23262682.978    95256798.414                  
                
  22656833.790   119062466.869    22656832.146    92775939.964                  
                
  20204813.008   106177008.432    20204811.704    82735325.937                  
                
  20505614.941   107757734.842    20505617.156    83967073.680                  
                
  22777991.984   119699155.011    22777993.360    93272074.225                  
                
  23219935.343   124341702.406    23219934.432    96710206.201                  
                
  19990131.743   106858710.975    19990129.295    83112319.921                  
                
  22243547.680   118570633.187    22243547.823    92221600.626                  
                
  20359014.778   108792404.193    20359013.992    84616309.661                  
                
  22411520.874   119718320.444    22411520.356    93114249.991                  
                
  23035726.034   123182375.200    23035727.374    95808522.321                  
                
  21467963.145   114879405.726    21467961.394    89350642.681                  
                
  22877899.997   122123778.641    22877897.281    94985155.307                  
                
 21  8 31 21 27 15.0000000  0 14G10G15G18G23G24G32R 4R 5R14R15R16R20
                                R21R22
  20973225.614   110215044.166    20973227.098    85881858.201                  
                
  23263273.710   122249330.686    23263273.710    95259217.015                  
                
  22657486.456   119065897.116    22657484.830    92778612.879                  
                
  20204906.338   106177498.479    20204905.087    82735707.782                  
                
  20505841.663   107758923.347    20505843.253    83967999.787                  
                
  22777522.100   119696684.930    22777523.244    93270149.487                  
                
  23220482.296   124344633.441    23220481.885    96712485.885                  
                
  19990322.030   106859729.685    19990319.796    83113112.244                  
                
  22244047.923   118573294.934    22244047.227    92223670.874                  
                
  20358802.172   108791269.484    20358801.583    84615427.112                  
                
  22410706.940   119713973.023    22410706.600    93110868.665                  
                
  23036514.504   123186601.229    23036517.667    95811809.231                  
                
  21468204.234   114880697.915    21468202.697    89351647.708                  
                
  22877508.504   122121685.037    22877505.020    94983526.952                  
                
 21  8 31 21 27 16.0000000  0 14G10G15G18G23G24G32R 4R 5R14R15R16R20
                                R21R22
  20972874.881   110213202.412    20972876.579    85880423.068                  
                
  23263864.460   122252434.684    23263864.317    95261635.712                  
                
  22658139.462   119069327.691    22658137.782    92781286.048                  
                
  20204999.918   106177989.104    20204998.435    82736090.092                  
                
  20506067.849   107760112.556    20506069.529    83968926.443                  
                
  22777051.788   119694215.096    22777053.217    93268224.940                  
                
  23221029.696   124347564.693    23221029.392    96714765.743                  
                
  19990512.871   106860748.787    19990510.530    83113904.879                  
                
  22244548.524   118575957.440    22244546.827    92225741.712                  
                
  20358590.121   108790135.747    20358589.549    84614545.314                  
                
  22409893.202   119709625.912    22409892.970    93107487.577                  
                
  23037304.726   123190827.503    23037307.978    95815096.328                  
                
  21468446.091   114881991.007    21468444.375    89352653.450                  
                
  22877115.475   122119592.311    22877113.027    94981899.265                  
                
 21  8 31 21 27 17.0000000  0 14G10G15G18G23G24G32R 4R 5R14R15R16R20
                                R21R22
  20972524.666   110211361.204    20972526.167    85878988.361                  
                
  23264455.210   122255539.013    23264455.085    95264054.668                  
                
  22658792.003   119072758.704    22658790.627    92783959.569                  
                
  20205093.444   106178480.413    20205091.818    82736472.923                  
                
  20506293.946   107761302.601    20506296.054    83969853.751                  
                
  22776581.761   119691745.652    22776583.226    93266300.691                  
                
  23221577.882   124350496.185    23221576.881    96717045.783                  
                
  19990703.891   106861768.432    19990701.193    83114697.945                  
                
  22245047.481   118578620.828    22245046.427    92227813.227                  
                
  20358379.034   108789003.097    20358377.479    84613664.364                  
                
  22409078.929   119705279.258    22409079.322    93104106.855                  
                
  23038096.145   123195054.133    23038098.379    95818383.707                  
                
  21468688.234   114883285.141    21468686.179    89353659.992                  
                
  22876723.536   122117500.477    22876721.070    94980272.302                  
                
 21  8 31 21 27 18.0000000  0 14G10G15G18G23G24G32R 4R 5R14R15R16R20
                                R21R22
  20972174.541   110209519.764    20972175.881    85877553.477                  
                
  23265045.781   122258642.800    23265045.727    95266473.201                  
                
  22659445.598   119076189.397    22659443.525    92786632.852                  
                
  20205186.703   106178971.625    20205185.345    82736855.693                  
                
  20506520.686   107762492.684    20506522.526    83970781.093                  
                
  22776112.092   119689275.783    22776113.289    93264376.127                  
                
  23222125.174   124353427.219    23222124.066    96719325.474                  
                
  19990894.696   106862787.829    19990892.070    83115490.801                  
                
  22245547.849   118581284.277    22245546.205    92229884.799                  
                
  20358166.339   108787870.738    20358165.588    84612783.638                  
                
  22408266.603   119700932.222    22408265.585    93100725.829                  
                
  23038887.528   123199280.306    23038888.672    95821670.733                  
                
  21468929.662   114884579.511    21468928.072    89354666.732                  
                
  22876332.437   122115408.867    22876329.256    94978645.494                  
                
 21  8 31 21 27 19.0000000  0 14G10G15G18G23G24G32R 4R 5R14R15R16R20
                                R21R22
  20971824.058   110207679.366    20971825.594    85876119.399                  
                
  23265635.852   122261747.370    23265636.459    95268892.346                  
                
  22660097.925   119079621.041    22660096.388    92789306.854                  
                
  20205280.337   106179464.029    20205279.050    82737239.384                  
                
  20506747.140   107763684.102    20506749.248    83971709.469                  
                
  22775641.618   119686806.808    22775643.619    93262452.244                  
                
  23222673.592   124356359.066    23222671.573    96721605.800                  
                
  19991085.073   106863808.227    19991082.768    83116284.443                  
                
  22246047.360   118583949.085    22246046.234    92231957.415                  
                
  20357954.555   108786739.917    20357954.037    84611904.108                  
                
  22407452.169   119696586.089    22407451.954    93097345.511                  
                
  23039676.910   123203507.368    23039679.251    95824958.441                  
                
  21469172.574   114885875.444    21469170.358    89355674.677                  
                
  22875939.425   122113318.740    22875937.710    94977019.838                  
                
 21  8 31 21 27 20.0000000  0 14G10G15G18G23G24G32R 4R 5R14R15R16R20
                                R21R22
  20971473.968   110205838.813    20971475.397    85874685.199                  
                
  23266226.763   122264851.526    23266227.156    95271311.160                  
                
  22660751.019   119083052.473    22660749.233    92791980.681                  
                
  20205373.881   106179956.450    20205372.755    82737623.086                  
                
  20506974.362   107764875.670    20506976.114    83972637.965                  
                
  22775171.538   119684337.520    22775173.575    93260528.130                  
                
  23223221.850   124359290.579    23223219.062    96723885.858                  
                
  19991275.753   106864828.454    19991273.663    83117077.957                  
                
  22246547.603   118586614.058    22246546.245    92234030.170                  
                
  20357742.915   108785609.498    20357742.325    84611024.896                  
                
  22406638.396   119692239.662    22406638.306    93093964.961                  
                
  23040467.650   123207734.096    23040469.705    95828245.894                  
                
  21469414.092   114887171.763    21469412.573    89356682.927                  
                
  22875548.737   122111228.912    22875546.110    94975394.423                  
                
 21  8 31 21 27 21.0000000  0 14G10G15G18G23G24G32R 4R 5R14R15R16R20
                                R21R22
  20971123.806   110203998.902    20971125.307    85873251.511                  
                
  23266817.888   122267956.052    23266818.156    95273730.267                  
                
  22661404.168   119086484.416    22661402.488    92794654.934                  
                
  20205467.658   106180449.639    20205466.675    82738007.392                  
                
  20507200.709   107766068.139    20507202.979    83973567.166                  
                
  22774702.333   119681868.689    22774703.673    93258604.375                  
                
  23223768.409   124362222.420    23223766.498    96726166.172                  
                
  19991466.577   106865849.260    19991464.718    83117871.918                  
                
  22247048.097   118589279.979    22247046.399    92236103.659                  
                
  20357531.667   108784480.229    20357531.149    84610146.580                  
                
  22405824.033   119687893.747    22405824.623    93090584.824                  
                
  23041257.944   123211961.261    23041260.249    95831533.693                  
                
  21469656.235   114888469.211    21469655.020    89357692.051                  
                
  22875157.495   122109140.077    22875154.761    94973769.761                  
                
 21  8 31 21 27 22.0000000  0 14G10G15G18G23G24G32R 4R 5R14R15R16R20
                                R21R22
  20970773.931   110202159.105    20970775.164    85871817.897                  
                
  23267408.441   122271060.402    23267408.906    95276149.241                  
                
  22662056.977   119089916.403    22662055.583    92797329.191                  
                
  20205561.792   106180943.096    20205560.559    82738391.908                  
                
  20507427.860   107767261.001    20507429.915    83974496.669                  
                
  22774232.342   119679399.800    22774233.843    93256680.567                  
                
  23224316.149   124365154.133    23224313.879    96728446.389                  
                
  19991658.097   106866870.158    19991655.685    83118665.948                  
                
  22247546.839   118591946.352    22247546.589    92238177.498                  
                
  20357320.652   108783351.591    20357319.919    84609268.756                  
                
  22405012.064   119683547.806    22405011.028    93087204.640                  
                
  23042049.023   123216188.299    23042050.506    95834821.385                  
                
  21469899.075   114889767.254    21469897.609    89358701.635                  
                
  22874764.609   122107051.784    22874763.501    94972145.550                  
                
 21  8 31 21 27 23.0000000  0 14G10G15G18G23G24G32R 4R 5R14R15R16R20
                                R21R22
  20970423.841   110200319.362    20970425.110    85870384.332                  
                
  23267999.370   122274164.565    23267999.620    95278568.073                  
                
  22662710.233   119093348.355    22662708.714    92800003.442                  
                
  20205656.033   106181436.759    20205654.389    82738776.578                  
                
  20507655.244   107768454.224    20507656.905    83975426.451                  
                
  22773763.012   119676930.828    22773764.048    93254756.691                  
                
  23224862.744   124368085.661    23224861.225    96730726.470                  
                
  19991848.974   106867891.099    19991846.633    83119460.012                  
                
  22248047.458   118594613.103    22248046.886    92240251.630                  
                
  20357110.083   108782223.554    20357108.743    84608391.389                  
                
  22404199.078   119679201.798    22404197.451    93083824.412                  
                
  23042839.173   123220415.234    23042840.835    95838108.989                  
                
  21470141.950   114891065.846    21470140.360    89359711.652                  
                
  22874373.277   122104963.983    22874372.348    94970521.698                  
                
 21  8 31 21 27 24.0000000  0 14G10G15G18G23G24G32R 4R 5R14R15R16R20
                                R21R22
  20970073.751   110198480.539    20970075.216    85868951.482                  
                
  23268589.959   122277269.384    23268590.388    95280987.413                  
                
  22663363.614   119096781.138    22663361.952    92802678.323                  
                
  20205749.934   106181931.495    20205748.487    82739162.085                  
                
  20507882.949   107769648.641    20507884.324    83976357.162                  
                
  22773293.325   119674462.590    22773294.290    93252833.393                  
                
  23225411.770   124371017.924    23225408.750    96733007.124                  
                
  19992040.208   106868912.926    19992037.903    83120254.771                  
                
  22248547.218   118597281.104    22248547.504    92242326.749                  
                
  20356899.229   108781096.976    20356898.031    84607515.161                  
                
  22403384.125   119674856.591    22403383.911    93080444.806                  
                
  23043631.128   123224642.905    23043631.468    95841397.171                  
                
  21470385.201   114892365.888    21470383.289    89360722.805                  
                
  22873982.678   122102877.490    22873981.356    94968898.868                  
                
 21  8 31 21 27 25.0000000  0 14G10G15G18G23G24G32R 4R 5R14R15R16R20
                                R21R22
  20969723.983   110196641.603    20969725.252    85867518.546                  
                
  23269181.155   122280373.819    23269181.245    95283406.451                  
                
  22664017.370   119100213.694    22664015.225    92805353.047                  
                
  20205844.426   106182426.249    20205842.746    82739547.605                  
                
  20508109.939   107770843.217    20508111.761    83977287.998                  
                
  22772823.673   119671994.071    22772824.584    93250909.869                  
                
  23225958.473   124373949.834    23225956.185    96735287.494                  
                
  19992231.139   106869934.592    19992228.923    83121049.403                  
                
  22249048.659   118599949.289    22249048.016    92244402.009                  
                
  20356688.499   108779970.800    20356687.266    84606639.245                  
                
  22402571.638   119670511.133    22402570.459    93077064.998                  
                
  23044421.029   123228870.243    23044421.976    95844685.098                  
                
  21470627.809   114893666.292    21470626.272    89361734.227                  
                
  22873593.294   122100791.359    22873590.614    94967276.332                  
                
 21  8 31 21 27 26.0000000  0 14G10G15G18G23G24G32R 4R 5R14R15R16R20
                                R21R22
  20969374.036   110194803.758    20969375.501    85866086.452                  
                
  23269771.887   122283479.076    23269772.120    95285826.128                  
                
  22664670.750   119103647.272    22664668.320    92808028.562                  
                
  20205938.345   106182922.244    20205937.077    82739934.097                  
                
  20508337.876   107772039.175    20508339.466    83978219.913                  
                
  22772353.289   119669526.502    22772355.004    93248987.077                  
                
  23226507.498   124376882.576    23226503.800    96737568.511                  
                
  19992422.855   106870957.377    19992420.318    83121844.893                  
                
  22249549.009   118602618.892    22249548.706    92246478.367                  
                
  20356478.002   108778846.260    20356476.698    84605764.602                  
                
  22401758.937   119666166.623    22401757.007    93073685.935                  
                
  23045210.428   123233098.494    23045212.519    95847973.733                  
                
  21470871.346   114894968.317    21470869.488    89362746.914                  
                
  22873203.267   122098706.699    22873200.229    94965654.921                  
                
 21  8 31 21 27 27.0000000  0 14G10G15G18G23G24G32R 4R 5R14R15R16R20
                                R21R22
  20969024.125   110192966.012    20969025.661    85864654.450                  
                
  23270363.102   122286584.189    23270363.102    95288245.694                  
                
  22665323.417   119107080.861    22665321.737    92810704.093                  
                
  20206032.926   106183418.497    20206031.461    82740320.785                  
                
  20508565.331   107773235.520    20508566.921    83979152.134                  
                
  22771883.977   119667058.851    22771885.424    93247064.243                  
                
  23227054.809   124379815.165    23227051.378    96739849.404                  
                
  19992613.554   106871980.231    19992611.642    83122640.455                  
                
  22250049.413   118605288.902    22250049.556    92248555.042                  
                
  20356267.273   108777722.302    20356266.433    84604890.410                  
                
  22400944.163   119661822.131    22400943.610    93070306.888                  
                
  23046001.419   123237326.664    23046003.206    95851262.310                  
                
  21471113.722   114896270.953    21471112.935    89363760.073                  
                
  22872813.651   122096622.550    22872809.755    94964033.916                  
                
 21  8 31 21 27 28.0000000  0 14G10G15G18G23G24G32R 4R 5R14R15R16R20
                                R21R22
  20968674.285   110191128.590    20968676.090    85863222.692                  
                
  23270953.995   122289689.355    23270953.995    95290665.301                  
                
  22665977.048   119110514.679    22665975.046    92813379.798                  
                
  20206127.561   106183915.238    20206126.113    82740707.856                  
                
  20508792.803   107774432.497    20508794.698    83980084.841                  
                
  22771414.200   119664591.373    22771415.844    93245141.526                  
                
  23227602.190   124382747.838    23227598.938    96742130.386                  
                
  19992804.984   106873003.413    19992803.072    83123436.268                  
                
  22250551.086   118607959.573    22250550.515    92250632.230                  
                
  20356058.027   108776599.215    20356056.186    84604016.896                  
                
  22400131.194   119657477.851    22400130.212    93066928.009                  
                
  23046792.998   123241554.939    23046793.928    95854550.973                  
                
  21471357.348   114897574.407    21471356.490    89364773.873                  
                
  22872424.321   122094539.163    22872419.621    94962413.514                  
                
 21  8 31 21 27 29.0000000  0 14G10G15G18G23G24G32R 4R 5R14R15R16R20
                                R21R22
  20968324.749   110189291.631    20968326.590    85861791.296                  
                
  23271544.816   122292794.700    23271544.816    95293085.046                  
                
  22666630.357   119113948.867    22666628.677    92816055.784                  
                
  20206222.052   106184412.571    20206220.801    82741095.395                  
                
  20509020.723   107775630.189    20509022.563    83981018.105                  
                
  22770944.763   119662124.177    22770946.371    93243219.034                  
                
  23228148.643   124385680.782    23228146.535    96744411.565                  
                
  19992996.344   106874027.031    19992994.682    83124232.406                  
                
  22251052.241   118610631.018    22251051.580    92252710.030                  
                
  20355847.011   108775477.121    20355846.154    84603144.159                  
                
  22399317.314   119653133.911    22399316.903    93063549.389                  
                
  23047584.936   123245783.507    23047584.900    95857839.863                  
                
  21471601.099   114898878.797    21471600.188    89365788.398                  
                
  22872032.632   122092456.656    22872029.522    94960793.793                  
                
 21  8 31 21 27 30.0000000  0 14G10G15G18G23G24G32R 4R 5R14R15R16R20
                                R21R22
  20967975.285   110187454.731    20967977.000    85860359.952                  
                
  23272135.495   122295899.851    23272135.709    95295504.640                  
                
  22667283.916   119117383.040    22667282.112    92818731.763                  
                
  20206317.312   106184910.118    20206315.435    82741483.092                  
                
  20509248.589   107776828.242    20509250.590    83981951.662                  
                
  22770475.130   119659656.892    22770476.827    93241296.472                  
                
  23228695.596   124388613.530    23228694.149    96746692.595                  
                
  19993188.329   106875050.661    19993186.077    83125028.563                  
                
  22251553.288   118613302.839    22251552.770    92254788.115                  
                
  20355637.765   108774355.616    20355636.336    84602271.877                  
                
  22398504.720   119648789.947    22398503.577    93060170.752                  
                
  23048373.585   123250011.922    23048375.586    95861128.629                  
                
  21471846.280   114900183.754    21471843.993    89366803.358                  
                
  22871642.730   122090374.629    22871639.531    94959174.434                  
                
 21  8 31 21 27 31.0000000  0 14G10G15G18G23G24G32R 4R 5R14R15R16R20
                                R21R22
  20967625.981   110185618.218    20967627.375    85858928.898                  
                
  23272727.066   122299005.111    23272726.548    95297924.323                  
                
  22667937.744   119120817.489    22667935.618    92821407.950                  
                
  20206411.714   106185408.206    20206410.088    82741871.203                  
                
  20509476.311   107778026.958    20509478.724    83982885.720                  
                
  22770006.014   119657189.799    22770007.336    93239374.066                  
                
  23229244.014   124391546.379    23229241.941    96748973.700                  
                
  19993379.527   106876074.655    19993377.669    83125824.998                  
                
  22252054.371   118615975.361    22252054.032    92256866.739                  
                
  20355427.733   108773235.024    20355426.446    84601400.302                  
                
  22397690.750   119644446.195    22397690.447    93056792.279                  
                
  23049165.219   123254240.543    23049166.487    95864417.563                  
                
  21472089.728   114901489.623    21472088.066    89367819.041                  
                
  22871251.594   122088293.403    22871249.557    94957555.700                  
                
 21  8 31 21 27 32.0000000  0 14G10G15G18G23G24G32R 4R 5R14R15R16R20
                                R21R22
  20967276.677   110183782.107    20967277.910    85857498.158                  
                
  23273317.316   122302110.505    23273317.602    95300344.113                  
                
  22668591.089   119124252.249    22668589.213    92824084.389                  
                
  20206506.527   106185906.830    20206505.008    82742259.744                  
                
  20509705.035   107779226.367    20509706.911    83983820.322                  
                
  22769536.291   119654722.967    22769537.917    93237451.857                  
                
  23229791.986   124394479.357    23229789.627    96751254.908                  
                
  19993571.333   106877099.025    19993569.153    83126621.724                  
                
  22252556.670   118618648.595    22252555.544    92258945.909                  
                
  20355218.647   108772115.332    20355217.057    84600529.429                  
                
  22396877.907   119640102.721    22396877.513    93053414.032                  
                
  23049954.976   123258469.347    23049957.442    95867706.621                  
                
  21472334.891   114902796.394    21472332.246    89368835.406                  
                
  22870861.996   122086213.004    22870859.923    94955937.605                  
                
 21  8 31 21 27 33.0000000  0 14G10G15G18G23G24G32R 4R 5R14R15R16R20
                                R21R22
  20966927.248   110181946.228    20966928.714    85856067.603                  
                
  23273908.531   122305215.871    23273908.423    95302763.878                  
                
  22669244.845   119127687.162    22669242.951    92826760.942                  
                
  20206601.572   106186405.845    20206600.053    82742648.587                  
                
  20509933.669   107780426.298    20509935.134    83984755.333                  
                
  22769066.532   119652256.196    22769068.516    93235529.700                  
                
  23230338.921   124397412.335    23230337.455    96753536.110                  
                
  19993763.514   106878123.598    19993761.031    83127418.626                  
                
  22253057.860   118621322.392    22253056.949    92261025.538                  
                
  20355008.954   108770996.423    20355007.775    84599659.168                  
                
  22396064.848   119635759.368    22396064.491    93050035.872                  
                
  23050745.269   123262698.252    23050748.039    95870995.762                  
                
  21472578.302   114904103.906    21472576.551    89369852.363                  
                
  22870472.773   122084133.227    22870470.289    94954320.015                  
                
 21  8 31 21 27 34.0000000  0 14G10G15G18G23G24G32R 4R 5R14R15R16R20
                                R21R22
  20966577.802   110180111.168    20966579.410    85854637.690                  
                
  23274499.298   122308321.803    23274499.441    95305184.080                  
                
  22669898.565   119131122.791    22669896.743    92829438.065                  
                
  20206696.546   106186905.825    20206695.188    82743038.186                  
                
  20510162.142   107781627.321    20510163.751    83985691.195                  
                
  22768597.667   119649790.080    22768599.186    93233608.053                  
                
  23230886.571   124400345.982    23230885.427    96755817.829                  
                
  19993954.927   106879148.966    19993952.712    83128216.133                  
                
  22253559.962   118623997.340    22253558.782    92263106.056                  
                
  20354800.458   108769878.865    20354798.671    84598789.955                  
                
  22395252.129   119631416.684    22395251.522    93046658.242                  
                
  23051537.099   123266927.697    23051538.993    95874285.315                  
                
  21472823.448   114905412.724    21472821.107    89370870.328                  
                
  22870084.908   122082054.753    22870080.834    94952703.414                  
                
 21  8 31 21 27 35.0000000  0 14G10G15G18G23G24G32R 4R 5R14R15R16R20
                                R21R22
  20966229.106   110178275.832    20966230.106    85853207.561                  
                
  23275090.388   122311427.159    23275090.191    95307603.843                  
                
  22670551.696   119134558.059    22670550.445    92832114.894                  
                
  20206791.931   106187405.670    20206790.430    82743427.678                  
                
  20510390.580   107782828.353    20510392.456    83986627.062                  
                
  22768128.409   119647323.523    22768130.035    93231686.057                  
                
  23231434.024   124403279.116    23231433.184    96758099.150                  
                
  19994146.519   106880174.028    19994144.500    83129013.397                  
                
  22254061.259   118626672.328    22254060.527    92265186.597                  
                
  20354591.033   108768761.573    20354589.461    84597920.947                  
                
  22394439.017   119627073.612    22394438.624    93043280.302                  
                
  23052328.268   123271156.728    23052329.554    95877574.565                  
                
  21473067.270   114906721.748    21473065.662    89371888.462                  
                
  22869695.381   122079976.353    22869691.486    94951086.895                  
                
 21  8 31 21 27 36.0000000  0 14G10G15G18G23G24G32R 4R 5R14R15R16R20
                                R21R22
  20965879.909   110176441.153    20965880.999    85851777.932                  
                
  23275681.281   122314532.921    23275681.245    95310023.905                  
                
  22671206.185   119137993.902    22671204.183    92834792.170                  
                
  20206886.815   106187906.328    20206885.618    82743817.799                  
                
  20510619.375   107784030.326    20510621.144    83987563.669                  
                
  22767659.293   119644857.442    22767660.776    93229764.449                  
                
  23231981.781   124406212.674    23231980.941    96760380.804                  
                
  19994339.058   106881199.736    19994336.431    83129811.172                  
                
  22254563.021   118629348.303    22254562.450    92267267.907                  
                
  20354382.037   108767645.459    20354380.626    84597052.859                  
                
  22393626.155   119622731.062    22393625.726    93039902.766                  
                
  23053119.044   123275386.227    23053120.384    95880864.169                  
                
  21473312.916   114908031.926    21473310.361    89372907.478                  
                
  22869305.908   122077899.012    22869302.334    94949471.183                  
                
 21  8 31 21 27 37.0000000  0 14G10G15G18G23G24G32R 4R 5R14R15R16R20
                                R21R22
  20965530.820   110174607.191    20965532.017    85850348.872                  
                
  23276272.316   122317639.143    23276272.281    95312444.332                  
                
  22671859.941   119141430.364    22671858.297    92837469.924                  
                
  20206982.307   106188407.855    20206980.931    82744208.594                  
                
  20510848.009   107785233.303    20510849.975    83988501.052                  
                
  22767189.963   119642391.933    22767191.446    93227843.264                  
                
  23232530.413   124409146.650    23232528.805    96762662.779                  
                
  19994530.471   106882226.148    19994528.505    83130609.490                  
                
  22255065.391   118632025.305    22255064.676    92269350.013                  
                
  20354173.256   108766530.569    20354171.880    84596185.722                  
                
  22392813.651   119618389.103    22392812.918    93036525.686                  
                
  23053909.998   123279616.272    23053911.428    95884154.197                  
                
  21473556.864   114909343.326    21473555.434    89373927.462                  
                
  22868915.273   122075822.848    22868913.415    94947856.389                  
                
 21  8 31 21 27 38.0000000  0 14G10G15G18G23G24G32R 4R 5R14R15R16R20
                                R21R22
  20965181.802   110172772.703    20965183.071    85848919.405                  
                
  23276863.674   122320744.552    23276863.263    95314864.133                  
                
  22672514.233   119144866.216    22672512.321    92840147.211                  
                
  20207077.746   106188909.000    20207076.388    82744599.101                  
                
  20511077.304   107786436.022    20511078.788    83989438.235                  
                
  22766720.741   119639925.714    22766722.224    93225921.535                  
                
  23233078.135   124412079.879    23233076.544    96764944.175                  
                
  19994721.955   106883251.966    19994720.472    83131407.353                  
                
  22255567.421   118634702.076    22255566.814    92271431.950                  
                
  20353964.545   108765415.652    20353963.330    84595318.560                  
                
  22392000.932   119614046.535    22391999.896    93033148.141                  
                
  23054699.344   123283845.569    23054702.400    95887443.638                  
                
  21473802.724   114910654.699    21473800.687    89374947.417                  
                
  22868524.799   122073746.561    22868524.460    94946241.497                  
                
