     2.11           OBSERVATION DATA    M (MIXED)           RINEX VERSION / TYPE
CONVBIN 2.4.3                           20210901 190722 UTC PGM / RUN BY / DATE 
log: logs/21_09_01_08_12_02_ohlc_VZ.rtcm                    COMMENT             
format: RTCM 3, station ID: 4059                            COMMENT             
4059                                                        MARKER NAME         
                                                            MARKER NUMBER       
                                                            OBSERVER / AGENCY   
                    TRIMBLE ALLOY       4.40/7.701          REC # / TYPE / VERS 
                    GPPNULLANTENNA                          ANT # / TYPE        
   547417.4178 -4739168.6601  4219367.6868                  APPROX POSITION XYZ 
        0.0000        0.0000        0.0000                  ANTENNA: DELTA H/E/N
     1     1                                                WAVELENGTH FACT L1/2
     7    C1    L1    P2    L2    C2    C5    L5            # / TYPES OF OBSERV 
  2021     9     1     8    12   20.0000000     GPS         TIME OF FIRST OBS   
  2021     9     1     8    42    6.0000000     GPS         TIME OF LAST OBS    
                                                            END OF HEADER       
 21  9  1  8 12 20.0000000  0 20G 1G 7G 8G13G14G17G21G30R 4R12R13R14
                                R22R24E13E15E19E21E27E30
  21617957.260   113603140.835                    88521923.666    21617957.225  
  21617952.632    84833500.437  
  20488129.137   107665859.044                    83895443.468    20488126.099  
                                
  22277997.066   117071690.496                    91224674.288    22277996.923  
  22277992.545    87423655.004  
  23619513.089   124121374.272    23619509.194    96718049.624                  
                                
  21974139.995   115474903.750                    89980428.196    21974138.190  
  21974138.404    86231255.025  
  22811794.261   119876802.023                    93410476.152    22811792.724  
                                
  21552903.295   113261284.349    21552900.615    88255536.400                  
                                
  20671647.666   108630242.628                    84646932.361    20671647.380  
  20671643.895    81119978.194  
  23592434.086   126336418.643    23592429.672    98261642.760                  
                                
  20898697.583   111637114.603    20898695.099    86828853.457                  
                                
  19449871.179   103861222.355    19449866.640    80780938.551                  
                                
  22431255.173   119571214.465    22431251.938    92999816.167                  
                                
  21225841.850   113304987.137    21225838.366    88126085.179                  
                                
  22008958.554   117691798.082    22008954.409    91538057.513                  
                                
  25735294.003   135239893.749                                                  
                                
  23878228.934   125480955.895                                                  
                                
  26803643.914   140854096.258                                                  
                                
  25533055.957   134177125.527                                                  
                                
  23470222.549   123336877.446                                                  
                                
  25421082.512   133588727.718                                                  
                                
 21  9  1  8 12 21.0000000  0 20G 1G 7G 8G13G14G17G21G30R 4R12R13R14
                                R22R24E13E15E19E21E27E30
  21617443.651   113600442.865                    88519821.333    21617443.830  
  21617439.291    84831485.719  
  20488391.007   107667235.229                    83896515.807    20488388.577  
                                
  22278550.612   117074598.279                    91226940.079    22278551.327  
  22278545.913    87425826.389  
  23619318.406   124120353.416    23619314.975    96717254.195                  
                                
  21973720.823   115472698.785                    89978710.059    21973717.768  
  21973718.911    86229608.463  
  22811260.674   119873996.382                    93408289.918    22811257.386  
                                
  21552870.631   113261112.643    21552867.825    88255402.601                  
                                
  20671481.001   108629368.245                    84646251.039    20671480.322  
  20671477.571    81119325.247  
  23592804.207   126338398.636    23592799.811    98263182.764                  
                                
  20899136.410   111639460.575    20899134.337    86830678.104                  
                                
  19449704.640   103860331.243    19449699.726    80780245.465                  
                                
  22430607.992   119567764.931    22430604.901    92997133.189                  
                                
  21226453.668   113308253.946    21226450.398    88128626.035                  
                                
  22008182.967   117687651.004    22008178.857    91534832.012                  
                                
  25734724.410   135236900.917                                                  
                                
  23878083.588   125480190.896                                                  
                                
  26803880.392   140855338.487                                                  
                                
  25532695.718   134175232.464                                                  
                                
  23470231.340   123336923.963                                                  
                                
  25421456.136   133590690.902                                                  
                                
 21  9  1  8 12 22.0000000  0 20G 1G 7G 8G13G14G17G21G30R 4R12R13R14
                                R22R24E13E15E19E21E27E30
  21616930.578   113597745.361                    88517719.380    21616930.864  
  21616925.896    84829471.345  
  20488652.949   107668611.946                    83897588.580    20488650.072  
                                
  22279104.034   117077506.250                    91229206.033    22279104.213  
  22279099.227    87427997.919  
  23619124.116   124119333.149    23619120.954    96716459.179                  
                                
  21973301.008   115470493.955                    89976991.978    21973297.935  
  21973299.257    86227961.996  
  22810726.641   119871191.011                    93406103.929    22810724.425  
                                
  21552838.145   113260941.523    21552835.107    88255269.261                  
                                
  20671314.891   108628494.413                    84645570.127    20671314.694  
  20671311.210    81118672.702  
  23593174.185   126340379.224    23593169.450    98264723.200                  
                                
  20899576.256   111641806.920    20899573.647    86832503.042                  
                                
  19449538.136   103859440.567    19449532.918    80779552.719                  
                                
  22429960.544   119564315.417    22429957.757    92994450.232                  
                                
  21227065.789   113311521.279    21227062.501    88131167.278                  
                                
  22007408.059   117683504.206    22007403.556    91531606.718                  
                                
  25734154.817   135233908.231                                                  
                                
  23877937.991   125479426.358                                                  
                                
  26804116.782   140856581.035                                                  
                                
  25532335.460   134173339.419                                                  
                                
  23470240.114   123336970.635                                                  
                                
  25421829.634   133592654.174                                                  
                                
 21  9  1  8 12 23.0000000  0 20G 1G 7G 8G13G14G17G21G30R 4R12R13R14
                                R22R24E13E15E19E21E27E30
  21616416.897   113595048.325                    88515617.800    21616418.148  
  21616412.644    84827457.333  
  20488915.142   107669989.236                    83898661.820    20488912.265  
                                
  22279657.187   117080414.382                    91231472.117    22279657.884  
  22279652.684    87430169.585  
  23618930.202   124118313.463    23618926.771    96715664.562                  
                                
  21972881.408   115468289.271                    89975274.061    21972878.763  
  21972879.710    86226315.637  
  22810193.072   119868385.896                    93403918.136    22810191.713  
                                
  21552805.552   113260771.008    21552802.818    88255136.397                  
                                
  20671148.745   108627621.124                    84644889.647    20671148.638  
  20671145.028    81118020.579  
  23593543.967   126342360.413    23593539.714    98266264.130                  
                                
  20900015.352   111644153.670    20900013.011    86834328.280                  
                                
  19449371.043   103858550.377    19449366.182    80778860.344                  
                                
  22429314.007   119560865.928    22429310.612    92991767.286                  
                                
  21227678.018   113314789.098    21227674.748    88133708.927                  
                                
  22006632.258   117679357.680    22006628.201    91528381.652                  
                                
  25733585.421   135230915.698                                                  
                                
  23877792.501   125478662.257                                                  
                                
  26804353.046   140857823.947                                                  
                                
  25531975.167   134171446.410                                                  
                                
  23470249.138   123337017.463                                                  
                                
  25422203.257   133594617.555                                                  
                                
 21  9  1  8 12 24.0000000  0 20G 1G 7G 8G13G14G17G21G30R 4R12R13R14
                                R22R24E13E15E19E21E27E30
  21615903.573   113592351.819                    88513516.661    21615904.181  
  21615899.553    84825443.713  
  20489177.459   107671367.144                    83899735.508    20489174.510  
                                
  22280210.752   117083322.767                    91233738.356    22280210.770  
  22280206.159    87432341.431  
  23618736.251   124117294.476    23618732.856    96714870.564                  
                                
  21972461.897   115466084.776                    89973556.247    21972459.359  
  21972460.217    86224669.430  
  22809659.002   119865581.135                    93401732.608    22809658.055  
                                
  21552773.352   113260601.165    21552770.278    88255004.038                  
                                
  20670982.652   108626748.472                    84644209.644    20670983.099  
  20670978.918    81117368.921  
  23593914.963   126344342.263    23593909.889    98267805.575                  
                                
  20900454.948   111646500.910    20900452.589    86836153.911                  
                                
  19449204.861   103857660.723    19449199.572    80778168.396                  
                                
  22428666.684   119557416.518    22428663.593    92989084.414                  
                                
  21228290.711   113318057.564    21228287.137    88136251.069                  
                                
  22005856.456   117675211.534    22005853.061    91525156.869                  
                                
  25733016.310   135227923.377                                                  
                                
  23877647.315   125477898.693                                                  
                                
  26804589.828   140859067.284                                                  
                                
  25531615.035   134169553.497                                                  
                                
  23470257.947   123337064.535                                                  
                                
  25422576.934   133596581.077                                                  
                                
 21  9  1  8 12 25.0000000  0 20G 1G 7G 8G13G14G17G21G30R 4R12R13R14
                                R22R24E13E15E19E21E27E30
  21615390.804   113589655.827                    88511415.851    21615391.465  
  21615386.569    84823430.472  
  20489439.705   107672745.631                    83900809.638    20489436.863  
                                
  22280764.352   117086231.375                    91236004.817    22280763.584  
  22280759.635    87434513.439  
  23618541.997   124116276.085    23618539.031    96714077.008                  
                                
  21972042.332   115463880.465                    89971838.632    21972040.581  
  21972040.635    86223023.343  
  22809125.308   119862776.651                    93399547.277    22809124.504  
                                
  21552741.295   113260431.942    21552738.096    88254872.189                  
                                
  20670816.542   108625876.380                    84643530.106    20670816.542  
  20670812.986    81116717.695  
  23594284.566   126346324.708    23594280.099    98269347.484                  
                                
  20900894.633   111648848.588    20900892.203    86837979.883                  
                                
  19449038.107   103856771.550    19449033.122    80777476.814                  
                                
  22428019.879   119553967.147    22428016.537    92986401.566                  
                                
  21228903.029   113321326.525    21228899.562    88138793.580                  
                                
  22005081.173   117671065.743    22005077.688    91521932.369                  
                                
  25732446.628   135224931.240                                                  
                                
  23877502.022   125477135.607                                                  
                                
  26804826.789   140860311.024                                                  
                                
  25531254.920   134167660.634                                                  
                                
  23470266.989   123337111.794                                                  
                                
  25422950.433   133598544.739                                                  
                                
 21  9  1  8 12 26.0000000  0 20G 1G 7G 8G13G14G17G21G30R 4R12R13R14
                                R22R24E13E15E19E21E27E30
  21614877.695   113586960.333                    88509315.487    21614878.839  
  21614873.639    84821417.595  
  20489702.058   107674124.698                    83901884.226    20489699.627  
                                
  22281317.845   117089140.158                    91238271.391    22281317.863  
  22281313.110    87436685.585  
  23618348.190   124115258.309    23618345.456    96713283.886                  
                                
  21971623.143   115461676.304                    89970121.125    21971620.838  
  21971621.284    86221377.378  
  22808591.775   119859972.462                    93397362.195    22808590.846  
                                
  21552709.023   113260263.328    21552706.379    88254740.815                  
                                
  20670650.699   108625004.873                    84642850.995    20670650.163  
  20670647.179    81116066.892  
  23594654.920   126348307.763    23594650.399    98270889.860                  
                                
  20901333.389   111651196.643    20901331.655    86839806.150                  
                                
  19448871.068   103855882.898    19448866.761    80776785.643                  
                                
  22427372.645   119550517.795    22427369.411    92983718.743                  
                                
  21229515.239   113324596.034    21229512.023    88141336.548                  
                                
  22004306.211   117666920.328    22004302.673    91518708.160                  
                                
  25731877.285   135221939.279                                                  
                                
  23877356.711   125476373.012                                                  
                                
  26805063.197   140861555.113                                                  
                                
  25530894.770   134165767.823                                                  
                                
  23470276.049   123337159.235                                                  
                                
  25423324.145   133600508.493                                                  
                                
 21  9  1  8 12 27.0000000  0 20G 1G 7G 8G13G14G17G21G30R 4R12R13R14
                                R22R24E13E15E19E21E27E30
  21614364.836   113584265.351                    88507215.480    21614366.284  
  21614360.869    84819405.108  
  20489964.250   107675504.391                    83902959.318    20489962.034  
                                
  22281871.356   117092049.183                    91240538.193    22281872.410  
  22281866.692    87438857.913  
  23618155.169   124114241.218    23618151.809    96712491.409                  
                                
  21971203.757   115459472.343                    89968403.727    21971200.916  
  21971201.952    86219731.567  
  22808057.938   119857168.582                    93395177.406    22808057.151  
                                
  21552676.984   113260095.390    21552674.447    88254609.940                  
                                
  20670485.197   108624133.993                    84642172.404    20670485.304  
  20670481.408    81115416.553  
  23595024.862   126350291.452    23595020.538    98272432.727                  
                                
  20901773.592   111653545.153    20901771.341    86841632.767                  
                                
  19448704.975   103854994.769    19448700.472    80776094.876                  
                                
  22426725.268   119547068.531    22426722.481    92981035.982                  
                                
  21230128.093   113327866.077    21230124.537    88143879.908                  
                                
  22003530.714   117662775.289    22003527.479    91515484.246                  
                                
  25731308.228   135218947.533                                                  
                                
  23877211.794   125475610.927                                                  
                                
  26805300.336   140862799.633                                                  
                                
  25530534.620   134163875.107                                                  
                                
  23470285.144   123337206.902                                                  
                                
  25423697.805   133602472.416                                                  
                                
 21  9  1  8 12 28.0000000  0 20G 1G 7G 8G13G14G17G21G30R 4R12R13R14
                                R22R24E13E15E19E21E27E30
  21613852.245   113581570.814                    88505115.868    21613853.532  
  21613848.028    84817392.965  
  20490227.192   107676884.608                    83904034.822    20490224.691  
                                
  22282425.260   117094958.369                    91242805.109    22282425.224  
  22282420.185    87441030.354  
  23617961.772   124113224.687    23617958.341    96711699.336                  
                                
  21970784.317   115457268.504                    89966686.471    21970781.512  
  21970782.495    86218085.837  
  22807524.887   119854364.978                    93392992.725    22807523.922  
                                
  21552645.052   113259928.015    21552642.497    88254479.511                  
                                
  20670319.354   108623263.633                    84641494.203    20670319.408  
  20670315.852    81114766.604  
  23595395.448   126352275.691    23595391.141    98273976.034                  
                                
  20902213.134   111655894.045    20902210.954    86843459.690                  
                                
  19448538.900   103854107.101    19448534.308    80775404.475                  
                                
  22426078.535   119543619.288    22426075.390    92978353.245                  
                                
  21230740.643   113331136.668    21230737.248    88146423.705                  
                                
  22002755.805   117658630.543    22002752.428    91512260.554                  
                                
  25730738.957   135215955.915                                                  
                                
  23877067.037   125474849.270                                                  
                                
  26805537.030   140864044.479                                                  
                                
  25530174.363   134161982.400                                                  
                                
  23470294.329   123337254.687                                                  
                                
  25424071.410   133604436.404                                                  
                                
 21  9  1  8 12 29.0000000  0 20G 1G 7G 8G13G14G17G21G30R 4R12R13R14
                                R22R24E13E15E19E21E27E30
  21613339.458   113578876.794                    88503016.646    21613339.905  
  21613335.330    84815381.194  
  20490489.885   107678265.434                    83905110.781    20490487.294  
                                
  22282978.860   117097867.780                    91245072.142    22282978.806  
  22282973.964    87443202.969  
  23617767.732   124112208.784    23617765.052    96710907.721                  
                                
  21970364.735   115455064.833                    89964969.306    21970362.662  
  21970363.252    86216440.243  
  22806991.282   119851561.655                    93390808.354    22806989.370  
                                
  21552613.424   113259761.276    21552610.761    88254349.586                  
                                
  20670153.780   108622393.859                    84640816.449    20670153.172  
  20670150.260    81114117.104  
  23595765.873   126354260.541    23595761.906    98275519.807                  
                                
  20902653.016   111658243.430    20902650.783    86845286.985                  
                                
  19448373.308   103853219.935    19448368.180    80774714.461                  
                                
  22425431.783   119540170.120    22425428.299    92975670.556                  
                                
  21231353.962   113334407.796    21231350.030    88148967.909                  
                                
  22001980.915   117654486.107    22001977.306    91509037.100                  
                                
  25730169.596   135212964.495                                                  
                                
  23876922.190   125474088.103                                                  
                                
  26805774.169   140865289.741                                                  
                                
  25529814.248   134160089.745                                                  
                                
  23470303.335   123337302.680                                                  
                                
  25424445.516   133606400.516                                                  
                                
 21  9  1  8 12 30.0000000  0 20G 1G 7G 8G13G14G17G21G30R 4R12R13R14
                                R22R24E13E15E19E21E27E30
  21612826.796   113576183.266                    88500917.750    21612826.349  
  21612822.793    84813369.790  
  20490752.667   107679646.819                    83906187.196    20490749.504  
                                
  22283531.906   117100777.397                    91247339.399    22283532.871  
  22283527.564    87445375.733  
  23617574.979   124111193.511    23617571.959    96710116.607                  
                                
  21969945.385   115452861.336                    89963252.274    21969942.704  
  21969943.776    86214794.772  
  22806457.963   119848758.641                    93388624.159    22806456.534  
                                
  21552581.742   113259595.163    21552579.187    88254220.147                  
                                
  20669988.652   108621524.670                    84640139.160    20669988.295  
  20669984.864    81113468.030  
  23596136.619   126356246.057    23596132.795    98277064.088                  
                                
  20903092.362   111660593.250    20903090.503    86847114.618                  
                                
  19448207.251   103852333.296    19448202.176    80774024.846                  
                                
  22424784.263   119536720.979    22424781.387    92972987.879                  
                                
  21231966.297   113337679.451    21231962.795    88151512.534                  
                                
  22001206.365   117650342.000    22001202.255    91505813.917                  
                                
  25729600.360   135209973.250                                                  
                                
  23876777.469   125473327.421                                                  
                                
  26806011.434   140866535.353                                                  
                                
  25529453.884   134158197.158                                                  
                                
  23470312.555   123337350.861                                                  
                                
  25424819.139   133608364.750                                                  
                                
 21  9  1  8 12 31.0000000  0 20G 1G 7G 8G13G14G17G21G30R 4R12R13R14
                                R22R24E13E15E19E21E27E30
  21612314.741   113573490.247                    88498819.323    21612314.491  
  21612310.292    84811358.773  
  20491015.895   107681028.813                    83907264.088    20491012.482  
                                
  22284086.007   117103687.208                    91249606.784    22284086.722  
  22284081.379    87447548.652  
  23617381.887   124110178.861    23617378.813    96709325.941                  
                                
  21969526.660   115450657.993                    89961535.393    21969523.372  
  21969524.515    86213149.430  
  22805924.501   119845955.929                    93386440.237    22805923.376  
                                
  21552550.328   113259429.687    21552547.666    88254091.213                  
                                
  20669823.131   108620656.073                    84639462.332    20669823.221  
  20669819.593    81112819.402  
  23596507.973   126358232.237    23596503.577    98278608.895                  
                                
  20903532.833   111662943.496    20903530.439    86848942.585                  
                                
  19448040.158   103851447.143    19448036.370    80773335.616                  
                                
  22424137.405   119533271.903    22424134.224    92970305.278                  
                                
  21232579.223   113340951.667    21232575.881    88154057.582                  
                                
  22000431.206   117646198.234    22000427.490    91502590.987                  
                                
  25729030.964   135206982.181                                                  
                                
  23876632.873   125472567.232                                                  
                                
  26806248.503   140867781.399                                                  
                                
  25529093.608   134156304.615                                                  
                                
  23470321.775   123337399.229                                                  
                                
  25425192.727   133610329.129                                                  
                                
 21  9  1  8 12 32.0000000  0 20G 1G 7G 8G13G14G17G21G30R 4R12R13R14
                                R22R24E13E15E19E21E27E30
  21611802.257   113570797.770                    88496721.271    21611801.954  
  21611798.005    84809348.150  
  20491278.999   107682411.407                    83908341.416    20491276.193  
                                
  22284639.750   117106597.283                    91251874.354    22284640.322  
  22284635.122    87449721.745  
  23617189.312   124109164.863    23617185.935    96708535.839                  
                                
  21969107.417   115448454.862                    89959818.661    21969105.129  
  21969105.272    86211504.226  
  22805391.040   119843153.528                    93384256.534    22805389.128  
                                
  21552519.254   113259264.865    21552516.324    88253962.792                  
                                
  20669658.039   108619788.078                    84638785.956    20669657.486  
  20669654.394    81112171.229  
  23596879.256   126360219.017    23596874.574    98280154.164                  
                                
  20903972.608   111665294.202    20903970.463    86850770.916                  
                                
  19447874.369   103850561.536    19447870.510    80772646.810                  
                                
  22423490.439   119529822.874    22423487.276    92967622.703                  
                                
  21233192.005   113344224.437    21233189.021    88156603.067                  
                                
  21999656.691   117642054.831    21999652.635    91499368.339                  
                                
  25728462.157   135203991.333                                                  
                                
  23876488.223   125471807.556                                                  
                                
  26806485.714   140869027.815                                                  
                                
  25528733.583   134154412.180                                                  
                                
  23470330.889   123337447.809                                                  
                                
  25425566.636   133612293.610                                                  
                                
 21  9  1  8 12 33.0000000  0 20G 1G 7G 8G13G14G17G21G30R 4R12R13R14
                                R22R24E13E15E19E21E27E30
  21611290.238   113568105.824                    88494623.651    21611291.043  
  21611285.700    84807337.940  
  20491542.299   107683794.639                    83909419.231    20491539.493  
                                
  22285193.368   117109507.601                    91254142.146    22285193.868  
  22285188.865    87451895.039  
  23616996.595   124108151.559    23616993.003    96707746.211                  
                                
  21968688.209   115446251.951                    89958102.125    21968685.422  
  21968685.940    86209859.195  
  22804857.667   119840351.484                    93382073.126    22804856.613  
                                
  21552488.055   113259100.720    21552485.178    88253834.880                  
                                
  20669493.305   108618920.722                    84638110.110    20669492.733  
  20669489.409    81111523.528  
  23597250.663   126362206.456    23597245.606    98281699.945                  
                                
  20904412.454   111667645.386    20904410.685    86852599.614                  
                                
  19447709.134   103849676.481    19447704.613    80771958.432                  
                                
  22422843.634   119526373.935    22422840.328    92964940.188                  
                                
  21233804.966   113347497.767    21233802.304    88159148.998                  
                                
  21998881.176   117637911.829    21998877.959    91496146.001                  
                                
  25727892.993   135201000.702                                                  
                                
  23876343.806   125471048.414                                                  
                                
  26806722.961   140870274.682                                                  
                                
  25528373.540   134152519.845                                                  
                                
  23470340.306   123337496.638                                                  
                                
  25425940.313   133614258.291                                                  
                                
 21  9  1  8 12 34.0000000  0 20G 1G 7G 8G13G14G17G21G30R 4R12R13R14
                                R22R24E13E15E19E21E27E30
  21610777.612   113565414.334                    88492526.399    21610778.184  
  21610773.502    84805328.056  
  20491805.385   107685178.410                    83910497.532    20491802.490  
                                
  22285747.683   117112418.070                    91256410.034    22285747.415  
  22285742.733    87454068.445  
  23616803.359   124107138.828    23616800.411    96706957.111                  
                                
  21968268.770   115444049.155                    89956385.633    21968266.483  
  21968266.822    86208214.245  
  22804325.224   119837549.676                    93379889.924    22804323.097  
                                
  21552456.873   113258937.151    21552454.104    88253707.431                  
                                
  20669328.159   108618053.898                    84637434.661    20669328.070  
  20669324.425    81110876.224  
  23597621.624   126364194.439    23597616.889    98283246.152                  
                                
  20904852.979   111669996.992    20904850.852    86854428.644                  
                                
  19447543.417   103848791.881    19447538.914    80771270.405                  
                                
  22422196.632   119522925.005    22422193.327    92962257.696                  
                                
  21234419.196   113350771.643    21234415.551    88161695.348                  
                                
  21998106.482   117633769.116    21998103.159    91492923.899                  
                                
  25727323.775   135198010.211                                                  
                                
  23876199.478   125470289.706                                                  
                                
  26806960.315   140871521.870                                                  
                                
  25528013.247   134150627.516                                                  
                                
  23470349.562   123337545.605                                                  
                                
  25426314.330   133616223.027                                                  
                                
 21  9  1  8 12 35.0000000  0 20G 1G 7G 8G13G14G17G21G30R 4R12R13R14
                                R22R24E13E15E19E21E27E30
  21610265.754   113562723.353                    88490429.531    21610266.611  
  21610261.429    84803318.562  
  20492069.185   107686562.771                    83911576.239    20492066.111  
                                
  22286301.283   117115328.749                    91258678.117    22286301.641  
  22286296.655    87456242.000  
  23616610.838   124106126.722    23616607.640    96706168.375                  
                                
  21967849.688   115441846.528                    89954669.358    21967847.901  
  21967847.508    86206569.427  
  22803791.834   119834748.176                    93377706.927    22803790.243  
                                
  21552425.728   113258774.204    21552423.012    88253580.450                  
                                
  20669163.139   108617187.672                    84636759.673    20669162.478  
  20669159.565    81110229.359  
  23597992.835   126366183.059    23597988.082    98284792.859                  
                                
  20905293.254   111672349.032    20905291.181    86856258.004                  
                                
  19447377.610   103847907.780    19447373.322    80770582.776                  
                                
  22421549.506   119519476.134    22421546.075    92959575.236                  
                                
  21235033.122   113354046.044    21235028.941    88164242.100                  
                                
  21997332.182   117629626.768    21997328.394    91489702.072                  
                                
  25726754.879   135195019.926                                                  
                                
  23876055.042   125469531.495                                                  
                                
  26807197.902   140872769.454                                                  
                                
  25527653.204   134148735.246                                                  
                                
  23470359.032   123337594.772                                                  
                                
  25426688.454   133618187.928                                                  
                                
 21  9  1  8 12 36.0000000  0 20G 1G 7G 8G13G14G17G21G30R 4R12R13R14
                                R22R24E13E15E19E21E27E30
  21609753.717   113560032.954                    88488333.098    21609754.950  
  21609749.393    84801309.498  
  20492332.485   107687947.772                    83912655.469    20492329.090  
                                
  22286855.062   117118239.692                    91260946.364    22286855.134  
  22286850.595    87458415.761  
  23616418.264   124105115.321    23616415.244    96705380.366                  
                                
  21967430.498   115439644.140                    89952953.174    21967427.997  
  21967428.443    86204924.795  
  22803258.247   119831947.057                    93375524.219    22803258.139  
                                
  21552394.957   113258611.970    21552392.152    88253454.050                  
                                
  20668998.530   108616322.089                    84636085.190    20668999.012  
  20668994.902    81109582.988  
  23598364.439   126368172.399    23598359.454    98286340.131                  
                                
  20905734.386   111674701.524    20905731.742    86858087.720                  
                                
  19447212.536   103847024.251    19447207.801    80769895.591                  
                                
  22420902.450   119516027.398    22420898.966    92956892.893                  
                                
  21235647.048   113357321.086    21235642.384    88166789.354                  
                                
  21996557.649   117625484.826    21996553.843    91486480.562                  
                                
  25726185.644   135192029.879                                                  
                                
  23875910.661   125468773.832                                                  
                                
  26807435.363   140874017.507                                                  
                                
  25527292.929   134146843.111                                                  
                                
  23470368.342   123337644.200                                                  
                                
  25427062.327   133620152.979                                                  
                                
 21  9  1  8 12 37.0000000  0 20G 1G 7G 8G13G14G17G21G30R 4R12R13R14
                                R22R24E13E15E19E21E27E30
  21609241.787   113557342.922                    88486236.960    21609242.252  
  21609237.499    84799300.703  
  20492596.267   107689333.252                    83913735.054    20492591.496  
                                
  22287409.502   117121150.745                    91263214.721    22287410.217  
  22287404.552    87460589.590  
  23616225.529   124104104.406    23616222.723    96704592.633                  
                                
  21967011.630   115437441.807                    89951237.080    21967008.682  
  21967009.325    86203280.189  
  22802725.946   119829146.111                    93373341.648    22802725.714  
                                
  21552364.008   113258450.229    21552361.542    88253328.018                  
                                
  20668834.117   108615456.967                    84635411.083    20668833.884  
  20668830.221    81108936.960  
  23598735.758   126370162.254    23598731.005    98287887.812                  
                                
  20906174.625   111677054.294    20906172.338    86859917.652                  
                                
  19447047.284   103846141.122    19447042.316    80769208.704                  
                                
  22420255.503   119512578.596    22420252.054    92954210.486                  
                                
  21236259.652   113360596.577    21236255.863    88169336.950                  
                                
  21995783.134   117621343.099    21995779.203    91483259.218                  
                                
  25725616.605   135189039.872                                                  
                                
  23875766.708   125468016.539                                                  
                                
  26807672.950   140875265.806                                                  
                                
  25526932.940   134144950.917                                                  
                                
  23470377.741   123337693.689                                                  
                                
  25427436.326   133622118.058                                                  
                                
 21  9  1  8 12 38.0000000  0 20G 1G 7G 8G13G14G17G21G30R 4R12R13R14
                                R22R24E13E15E19E21E27E30
  21608729.733   113554653.515                    88484141.352    21608730.233  
  21608725.658    84797292.380  
  20492860.086   107690719.435                    83914815.207    20492857.084  
                                
  22287962.977   117124062.111                    91265483.324    22287963.585  
  22287958.510    87462763.662  
  23616033.848   124103094.258    23616030.399    96703805.507                  
                                
  21966592.244   115435239.750                    89949521.187    21966590.422  
  21966590.279    86201635.800  
  22802192.788   119826345.550                    93371159.434    22802191.805  
                                
  21552333.506   113258289.243    21552331.022    88253202.562                  
                                
  20668669.704   108614592.549                    84634737.494    20668669.757  
  20668665.773    81108291.450  
  23599107.844   126372152.833    23599102.859    98289436.023                  
                                
  20906614.436   111679407.643    20906612.863    86861748.042                  
                                
  19446881.942   103845258.569    19446876.974    80768522.276                  
                                
  22419608.519   119509129.966    22419604.963    92951528.214                  
                                
  21236872.720   113363872.668    21236869.539    88171885.041                  
                                
  21995008.405   117617201.843    21995004.759    91480038.242                  
                                
  25725047.744   135186050.189                                                  
                                
  23875622.809   125467259.836                                                  
                                
  26807910.572   140876514.637                                                  
                                
  25526572.825   134143058.890                                                  
                                
  23470387.105   123337743.502                                                  
                                
  25427810.271   133624083.370                                                  
                                
 21  9  1  8 12 39.0000000  0 20G 1G 7G 8G13G14G17G21G30R 4R12R13R14
                                R22R24E13E15E19E21E27E30
  21608217.874   113551964.533                    88482046.005    21608218.446  
  21608213.961    84795284.380  
  20493123.850   107692106.135                    83915895.741    20493120.187  
                                
  22288517.399   117126973.632                    91267752.045    22288517.399  
  22288512.664    87464937.850  
  23615842.292   124102084.675    23615838.307    96703018.778                  
                                
  21966172.966   115433037.813                    89947805.367    21966171.393  
  21966171.250    86199991.492  
  22801660.631   119823545.244                    93368977.375    22801658.272  
                                
  21552303.200   113258128.808    21552300.502    88253077.539                  
                                
  20668504.755   108613728.656                    84634064.340    20668505.059  
  20668501.235    81107646.334  
  23599479.395   126374143.929    23599474.588    98290984.651                  
                                
  20907055.300   111681761.404    20907053.477    86863578.730                  
                                
  19446716.188   103844376.432    19446711.811    80767836.177                  
                                
  22418961.517   119505681.283    22418957.836    92948845.905                  
                                
  21237486.503   113367149.218    21237483.394    88174433.455                  
                                
  21994234.104   117613060.872    21994230.370    91476817.481                  
                                
  25724478.741   135183060.634                                                  
                                
  23875478.909   125466503.567                                                  
                                
  26808148.033   140877763.744                                                  
                                
  25526212.854   134141166.863                                                  
                                
  23470396.593   123337793.419                                                  
                                
  25428184.198   133626048.731                                                  
                                
 21  9  1  8 12 40.0000000  0 20G 1G 7G 8G13G14G17G21G30R 4R12R13R14
                                R22R24E13E15E19E21E27E30
  21607706.445   113549276.070                    88479951.136    21607707.053  
  21607702.353    84793276.767  
  20493387.794   107693493.434                    83916976.741    20493385.435  
                                
  22289070.910   117129885.380                    91270020.950    22289071.607  
  22289066.711    87467112.220  
  23615650.557   124101075.742    23615646.411    96702232.626                  
                                
  21965754.402   115430836.029                    89946089.684    21965752.936  
  21965752.186    86198347.307  
  22801127.348   119820745.261                    93366795.558    22801125.489  
                                
  21552272.429   113257969.021    21552270.017    88252953.039                  
                                
  20668340.985   108612865.359                    84633391.636    20668340.646  
  20668337.090    81107001.666  
  23599851.303   126376135.685    23599846.729    98292533.797                  
                                
  20907496.183   111684115.588    20907494.002    86865409.765                  
                                
  19446551.150   103843494.836    19446546.772    80767150.491                  
                                
  22418314.659   119502232.674    22418310.924    92946163.647                  
                                
  21238100.233   113370426.331    21238097.284    88176982.323                  
                                
  21993459.947   117608920.193    21993456.194    91473596.960                  
                                
  25723910.042   135180071.256                                                  
                                
  23875335.153   125465747.791                                                  
                                
  26808385.870   140879013.288                                                  
                                
  25525852.918   134139274.901                                                  
                                
  23470406.349   123337843.543                                                  
                                
  25428558.215   133628014.210                                                  
                                
 21  9  1  8 12 41.0000000  0 20G 1G 7G 8G13G14G17G21G30R 4R12R13R14
                                R22R24E13E15E19E21E27E30
  21607195.052   113546588.157                    88477856.637    21607196.856  
  21607190.817    84791269.548  
  20493651.862   107694881.343                    83918058.279    20493649.378  
                                
  22289625.189   117132797.359                    91272289.998    22289625.279  
  22289620.812    87469286.748  
  23615458.483   124100067.444    23615454.855    96701446.949                  
                                
  21965335.337   115428634.453                    89944374.161    21965333.104  
  21965333.229    86196703.267  
  22800594.154   119817945.559                    93364613.952    22800592.617  
                                
  21552242.070   113257809.880    21552239.497    88252829.021                  
                                
  20668176.429   108612002.655                    84632719.420    20668176.090  
  20668172.856    81106357.439  
  23600223.533   126378128.109    23600218.779    98294083.451                  
                                
  20907936.868   111686470.225    20907934.867    86867241.149                  
                                
  19446386.308   103842613.764    19446381.913    80766465.208                  
                                
  22417667.085   119498784.131    22417663.887    92943481.454                  
                                
  21238715.463   113373704.014    21238711.300    88179531.643                  
                                
  21992685.307   117604779.905    21992681.804    91470376.732                  
                                
  25723341.396   135177082.074                                                  
                                
  23875191.522   125464992.519                                                  
                                
  26808623.582   140880263.213                                                  
                                
  25525492.839   134137383.021                                                  
                                
  23470415.892   123337893.877                                                  
                                
  25428932.356   133629979.854                                                  
                                
 21  9  1  8 12 42.0000000  0 20G 1G 7G 8G13G14G17G21G30R 4R12R13R14
                                R22R24E13E15E19E21E27E30
  21606683.837   113543900.683                    88475762.488    21606684.480  
  21606679.387    84789262.664  
  20493915.877   107696269.798                    83919140.132    20493913.518  
                                
  22290179.647   117135709.535                    91274559.244    22290179.344  
  22290174.930    87471461.411  
  23615266.123   124099059.720    23615263.264    96700661.675                  
                                
  21964916.434   115426433.006                    89942658.771    21964914.254  
  21964914.290    86195059.336  
  22800061.836   119815146.137                    93362432.611    22800061.210  
                                
  21552211.943   113257651.326    21552209.066    88252705.466                  
                                
  20668012.177   108611140.505                    84632047.603    20668012.302  
  20668008.818    81105713.619  
  23600595.995   126380121.097    23600591.116    98295633.562                  
                                
  20908377.858   111688825.226    20908375.696    86869072.817                  
                                
  19446220.895   103841733.131    19446217.089    80765780.276                  
                                
  22417020.423   119495335.597    22417016.992    92940799.260                  
                                
  21239329.603   113376982.173    21239325.404    88182081.314                  
                                
  21991911.417   117600639.936    21991907.647    91467156.759                  
                                
  25722772.607   135174093.051                                                  
                                
  23875047.819   125464237.691                                                  
                                
  26808861.597   140881513.511                                                  
                                
  25525132.850   134135491.156                                                  
                                
  23470425.469   123337944.379                                                  
                                
  25429306.426   133631945.579                                                  
                                
 21  9  1  8 12 43.0000000  0 20G 1G 7G 8G13G14G17G21G30R 4R12R13R14
                                R22R24E13E15E19E21E27E30
  21606172.121   113541213.738                    88473668.769    21606173.319  
  21606168.101    84787256.196  
  20494180.571   107697658.883                    83920222.562    20494178.784  
                                
  22290734.105   117138621.952                    91276828.637    22290733.802  
  22290729.227    87473636.270  
  23615074.728   124098052.717    23615071.636    96699876.983                  
                                
  21964497.781   115424231.756                    89940943.532    21964495.422  
  21964495.440    86193415.552  
  22799529.357   119812347.054                    93360251.533    22799528.177  
                                
  21552182.262   113257493.444    21552179.117    88252582.466                  
                                
  20667848.944   108610278.980                    84631376.276    20667848.354  
  20667844.923    81105070.279  
  23600968.224   126382114.723    23600963.918    98297184.158                  
                                
  20908818.544   111691180.723    20908816.668    86870904.870                  
                                
  19446056.464   103840853.097    19446052.247    80765095.800                  
                                
  22416373.922   119491887.155    22416370.080    92938117.143                  
                                
  21239943.851   113380260.941    21239939.670    88184631.464                  
                                
  21991137.402   117596500.365    21991133.453    91463937.101                  
                                
  25722203.764   135171104.239                                                  
                                
  23874904.224   125463483.400                                                  
                                
  26809099.416   140882764.214                                                  
                                
  25524772.825   134133599.393                                                  
                                
  23470434.886   123337995.092                                                  
                                
  25429680.407   133633911.457                                                  
                                
 21  9  1  8 12 44.0000000  0 20G 1G 7G 8G13G14G17G21G30R 4R12R13R14
                                R22R24E13E15E19E21E27E30
  21605661.121   113538527.356                    88471575.514    21605662.175  
  21605657.011    84785250.125  
  20494444.711   107699048.600                    83921305.472    20494442.459  
                                
  22291288.081   117141534.632                    91279098.265    22291288.242  
  22291283.578    87475811.328  
  23614882.922   124097046.348    23614880.170    96699092.802                  
                                
  21964078.645   115422030.718                    89939228.428    21964075.964  
  21964076.572    86191771.925  
  22798996.377   119809548.309                    93358070.641    22798995.234  
                                
  21552152.403   113257336.239    21552149.276    88252459.981                  
                                
  20667684.924   108609418.075                    84630705.452    20667684.692  
  20667680.993    81104427.393  
  23601340.079   126384108.976    23601336.362    98298735.246                  
                                
  20909259.730   111693536.714    20909257.729    86872737.301                  
                                
  19445891.730   103839973.573    19445887.477    80764411.730                  
                                
  22415727.206   119488438.781    22415723.114    92935435.066                  
                                
  21240557.813   113383540.287    21240554.007    88187182.059                  
                                
  21990362.995   117592361.173    21990359.492    91460717.727                  
                                
  25721635.244   135168115.676                                                  
                                
  23874760.843   125462729.634                                                  
                                
  26809337.699   140884015.351                                                  
                                
  25524412.979   134131707.739                                                  
                                
  23470444.732   123338046.043                                                  
                                
  25430054.424   133635877.508                                                  
                                
 21  9  1  8 12 45.0000000  0 20G 1G 7G 8G13G14G17G21G30R 4R12R13R14
                                R22R24E13E15E19E21E27E30
  21605149.995   113535841.379                    88469482.518    21605150.835  
  21605145.868    84783244.361  
  20494709.405   107700438.804                    83922388.736    20494706.510  
                                
  22291842.414   117144447.424                    91281368.012    22291843.611  
  22291837.911    87477986.463  
  23614691.348   124096040.519    23614689.043    96698309.107                  
                                
  21963659.795   115419829.790                    89937513.406    21963657.240  
  21963657.794    86190128.356  
  22798464.006   119806749.779                    93355889.979    22798463.398  
                                
  21552122.544   113257179.569    21552119.614    88252337.886                  
                                
  20667521.029   108608557.668                    84630034.985    20667520.654  
  20667517.313    81103784.886  
  23601713.452   126386103.795    23601708.931    98300286.767                  
                                
  20909700.737   111695893.049    20909698.736    86874570.006                  
                                
  19445727.763   103839094.493    19445722.832    80763727.997                  
                                
  22415080.312   119484990.363    22415076.273    92932752.968                  
                                
  21241172.007   113386820.050    21241168.433    88189732.986                  
                                
  21989589.766   117588222.211    21989585.514    91457498.537                  
                                
  25721066.615   135165127.172                                                  
                                
  23874617.390   125461976.258                                                  
                                
  26809575.643   140885266.765                                                  
                                
  25524052.775   134129816.047                                                  
                                
  23470454.328   123338097.094                                                  
                                
  25430428.708   133637843.580                                                  
                                
 21  9  1  8 12 46.0000000  0 20G 1G 7G 8G13G14G17G21G30R 4R12R13R14
                                R22R24E13E15E19E21E27E30
  21604639.138   113533156.018                    88467390.065    21604638.673  
  21604634.957    84781239.063  
  20494973.938   107701829.700                    83923472.563    20494971.204  
                                
  22292396.729   117147360.516                    91283637.933    22292396.818  
  22292392.208    87480161.817  
  23614500.310   124095035.432    23614497.987    96697525.944                  
                                
  21963241.231   115417629.101                    89935798.567    21963237.961  
  21963238.962    86188484.999  
  22797931.455   119803951.647                    93353709.626    22797930.937  
                                
  21552092.953   113257023.627    21552089.933    88252216.375                  
                                
  20667357.492   108607697.948                    84629365.085    20667357.510  
  20667353.757    81103142.878  
  23602085.378   126388099.364    23602081.589    98301838.879                  
                                
  20910142.120   111698249.942    20910139.904    86876403.142                  
                                
  19445563.762   103838215.983    19445558.365    80763044.707                  
                                
  22414433.382   119481542.127    22414429.468    92930071.008                  
                                
  21241785.987   113390100.454    21241782.949    88192284.425                  
                                
  21988815.627   117584083.685    21988811.588    91454279.679                  
                                
  25720497.970   135162138.974                                                  
                                
  23874473.920   125461223.479                                                  
                                
  26809813.605   140886518.680                                                  
                                
  25523692.732   134127924.516                                                  
                                
  23470464.209   123338148.441                                                  
                                
  25430802.528   133639809.892                                                  
                                
 21  9  1  8 12 47.0000000  0 20G 1G 7G 8G13G14G17G21G30R 4R12R13R14
                                R22R24E13E15E19E21E27E30
  21604128.316   113530471.121                    88465297.929    21604128.709  
  21604123.938    84779234.114  
  20495238.756   107703221.151                    83924556.803    20495236.130  
                                
  22292951.419   117150273.763                    91285908.000    22292951.401  
  22292946.487    87482337.305  
  23614309.826   124094030.953    23614306.789    96696743.168                  
                                
  21962822.363   115415428.567                    89934083.881    21962819.075  
  21962820.076    86186841.737  
  22797398.833   119801153.777                    93351529.506    22797398.458  
                                
  21552063.130   113256868.274    21552060.467    88252095.325                  
                                
  20667193.883   108606838.765                    84628695.607    20667194.026  
  20667190.167    81102501.287  
  23602458.036   126390095.484    23602454.498    98303391.411                  
                                
  20910582.878   111700607.201    20910581.305    86878236.561                  
                                
  19445397.723   103837337.977    19445393.881    80762361.824                  
                                
  22413786.505   119478093.917    22413782.592    92927389.065                  
                                
  21242401.289   113393381.344    21242397.590    88194836.224                  
                                
  21988041.219   117579945.445    21988037.538    91451061.055                  
                                
  25719929.324   135159150.928                                                  
                                
  23874330.771   125460471.148                                                  
                                
  26810052.228   140887770.958                                                  
                                
  25523332.832   134126033.012                                                  
                                
  23470474.055   123338199.943                                                  
                                
  25431176.830   133641776.275                                                  
                                
 21  9  1  8 12 48.0000000  0 20G 1G 7G 8G13G14G17G21G30R 4R12R13R14
                                R22R24E13E15E19E21E27E30
  21603617.655   113527786.664                    88463206.135    21603618.388  
  21603613.152    84777229.483  
  20495504.040   107704613.115                    83925641.451    20495500.502  
                                
  22293505.680   117153187.180                    91288178.177    22293505.787  
  22293500.873    87484512.895  
  23614117.949   124093027.034    23614115.751    96695960.892                  
                                
  21962403.835   115413228.126                    89932369.236    21962401.190  
  21962401.530    86185198.549  
  22796866.444   119798356.135                    93349349.493    22796865.639  
                                
  21552033.628   113256713.491    21552031.090    88251974.699                  
                                
  20667030.525   108605980.119                    84628026.532    20667029.774  
  20667026.862    81101860.082  
  23602830.998   126392092.141    23602827.174    98304944.367                  
                                
  20911024.886   111702964.800    20911022.706    86880070.257                  
                                
  19445233.774   103836460.394    19445229.522    80761679.246                  
                                
  22413139.396   119474645.698    22413135.572    92924707.119                  
                                
  21243016.608   113396662.720    21243012.248    88197388.398                  
                                
  21987267.633   117575807.478    21987263.863    91447842.629                  
                                
  25719360.678   135156162.990                                                  
                                
  23874187.551   125459719.227                                                  
                                
  26810290.690   140889023.542                                                  
                                
  25522972.932   134124141.490                                                  
                                
  23470483.883   123338251.566                                                  
                                
  25431551.133   133643742.722                                                  
                                
 21  9  1  8 12 49.0000000  0 20G 1G 7G 8G13G14G17G21G30R 4R12R13R14
                                R22R24E13E15E19E21E27E30
  21603106.976   113525102.780                    88461114.810    21603107.316  
  21603102.456    84775225.292  
  20495768.770   107706005.755                    83926726.627    20495765.678  
                                
  22294059.834   117156100.867                    91290448.580    22294060.102  
  22294055.403    87486688.710  
  23613927.304   124092023.781    23613924.731    96695179.102                  
                                
  21961985.128   115411027.930                    89930654.827    21961982.322  
  21961982.876    86183555.551  
  22796334.268   119795558.875                    93347169.822    22796332.982  
                                
  21552004.072   113256559.423    21552001.839    88251854.667                  
                                
  20666867.309   108605122.130                    84627357.970    20666866.719  
  20666863.539    81101219.385  
  23603204.550   126394089.466    23603200.226    98306497.842                  
                                
  20911466.215   111705322.925    20911464.142    86881904.353                  
                                
  19445069.772   103835583.419    19445065.430    80760997.162                  
                                
  22412492.413   119471197.578    22412488.678    92922025.243                  
                                
  21243630.695   113399944.703    21243626.996    88199941.066                  
                                
  21986493.958   117571669.985    21986490.134    91444624.579                  
                                
  25718792.407   135153175.322                                                  
                                
  23874044.688   125458967.882                                                  
                                
  26810528.795   140890276.599                                                  
                                
  25522613.014   134122250.129                                                  
                                
  23470493.658   123338303.468                                                  
                                
  25431925.435   133645709.369                                                  
                                
 21  9  1  8 12 50.0000000  0 20G 1G 7G 8G13G14G17G21G30R 4R12R13R14
                                R22R24E13E15E19E21E27E30
  21602596.030   113522419.400                    88459023.864    21602597.566  
  21602591.705    84773221.459  
  20496033.946   107707398.949                    83927812.225    20496031.516  
                                
  22294614.685   117159014.745                    91292719.153    22294614.310  
  22294609.879    87488864.653  
  23613736.767   124091021.180    23613733.979    96694397.893                  
                                
  21961566.296   115408827.903                    89928940.493    21961563.848  
  21961564.169    86181912.666  
  22795802.039   119792761.888                    93344990.342    22795800.574  
                                
  21551975.357   113256405.949    21551972.569    88251735.070                  
                                
  20666704.201   108604264.711                    84626689.855    20666702.717  
  20666700.269    81100579.097  
  23603577.423   126396087.433    23603573.456    98308051.812                  
                                
  20911907.562   111707681.491    20911905.775    86883738.791                  
                                
  19444905.556   103834706.895    19444901.214    80760315.428                  
                                
  22411845.751   119467749.469    22411841.891    92919343.378                  
                                
  21244246.122   113403227.260    21244242.012    88202494.156                  
                                
  21985720.140   117567532.811    21985716.405    91441406.772                  
                                
  25718223.850   135150187.807                                                  
                                
  23873901.736   125458216.995                                                  
                                
  26810767.811   140891530.034                                                  
                                
  25522253.043   134120358.801                                                  
                                
  23470503.789   123338355.534                                                  
                                
  25432299.684   133647676.103                                                  
                                
 21  9  1  8 12 51.0000000  0 20G 1G 7G 8G13G14G17G21G30R 4R12R13R14
                                R22R24E13E15E19E21E27E30
  21602085.440   113519736.495                    88456933.294    21602085.958  
  21602081.277    84771217.995  
  20496299.247   107708792.724                    83928898.281    20496296.084  
                                
  22295168.768   117161928.829                    91294989.853    22295167.946  
  22295164.319    87491040.754  
  23613545.497   124090019.189    23613543.084    96693617.091                  
                                
  21961147.982   115406628.024                    89927226.301    21961144.873  
  21961145.659    86180269.898  
  22795270.132   119789965.186                    93342811.109    22795268.810  
                                
  21551946.284   113256253.090    21551943.425    88251615.962                  
                                
  20666541.039   108603407.866                    84626022.164    20666540.199  
  20666537.268    81099939.253  
  23603950.385   126398086.017    23603946.383    98309606.263                  
                                
  20912349.570   111710040.468    20912347.354    86885573.549                  
                                
  19444741.197   103833830.878    19444737.158    80759634.067                  
                                
  22411198.821   119464301.384    22411195.140    92916661.544                  
                                
  21244860.852   113406510.311    21244856.939    88205047.640                  
                                
  21984946.519   117563395.966    21984942.838    91438189.226                  
                                
  25717655.562   135147200.483                                                  
                                
  23873759.123   125457466.586                                                  
                                
  26811006.434   140892783.815                                                  
                                
  25521893.357   134118467.505                                                  
                                
  23470513.724   123338407.781                                                  
                                
  25432674.094   133649642.973                                                  
                                
 21  9  1  8 12 52.0000000  0 20G 1G 7G 8G13G14G17G21G30R 4R12R13R14
                                R22R24E13E15E19E21E27E30
  21601575.297   113517054.101                    88454843.103    21601575.762  
  21601570.830    84769214.911  
  20496564.173   107710187.103                    83929984.816    20496561.332  
                                
  22295723.637   117164843.129                    91297260.753    22295723.887  
  22295718.955    87493217.015  
  23613355.210   124089017.832    23613352.529    96692836.886                  
                                
  21960728.685   115404428.323                    89925512.256    21960726.362  
  21960726.899    86178627.267  
  22794737.868   119787168.806                    93340632.096    22794737.189  
                                
  21551917.193   113256100.901    21551914.513    88251497.377                  
                                
  20666378.502   108602551.606                    84625354.957    20666377.662  
  20666374.338    81099299.842  
  23604323.616   126400085.198    23604319.827    98311161.184                  
                                
  20912791.417   111712399.890    20912788.987    86887408.650                  
                                
  19444577.392   103832955.370    19444573.174    80758953.114                  
                                
  22410552.176   119460853.401    22410548.299    92913979.774                  
                                
  21245476.244   113409793.997    21245472.134    88207601.625                  
                                
  21984172.844   117559259.480    21984169.305    91434971.961                  
                                
  25717086.916   135144213.344                                                  
                                
  23873616.403   125456716.685                                                  
                                
  26811244.896   140894038.013                                                  
                                
  25521533.368   134116576.315                                                  
                                
  23470523.552   123338460.232                                                  
                                
  25433048.325   133651609.963                                                  
                                
 21  9  1  8 12 53.0000000  0 20G 1G 7G 8G13G14G17G21G30R 4R12R13R14
                                R22R24E13E15E19E21E27E30
  21601064.922   113514372.259                    88452753.365    21601065.852  
  21601060.509    84767212.237  
  20496829.868   107711582.102                    83931071.814    20496826.634  
                                
  22296278.148   117167757.682                    91299531.822    22296278.970  
  22296273.592    87495393.471  
  23613165.119   124088017.141    23613162.153    96692057.049                  
                                
  21960310.354   115402228.834                    89923798.411    21960307.513  
  21960308.370    86176984.791  
  22794205.549   119784372.770                    93338453.364    22794204.620  
                                
  21551888.639   113255949.363    21551885.833    88251379.289                  
                                
  20666215.340   108601695.997                    84624688.249    20666214.947  
  20666211.534    81098660.915  
  23604697.239   126402085.040    23604693.165    98312716.615                  
                                
  20913232.818   111714759.801    20913230.709    86889244.139                  
                                
  19444412.782   103832080.399    19444409.530    80758272.593                  
                                
  22409905.621   119457405.509    22409901.387    92911298.081                  
                                
  21246091.474   113413078.219    21246087.489    88210156.021                  
                                
  21983399.847   117555123.363    21983395.827    91431754.977                  
                                
  25716518.342   135141226.427                                                  
                                
  23873473.862   125455967.309                                                  
                                
  26811483.965   140895292.654                                                  
                                
  25521173.503   134114685.189                                                  
                                
  23470533.738   123338512.911                                                  
                                
  25433422.681   133653577.115                                                  
                                
 21  9  1  8 12 54.0000000  0 20G 1G 7G 8G13G14G17G21G30R 4R12R13R14
                                R22R24E13E15E19E21E27E30
  21600554.458   113511690.880                    88450663.984    21600555.852  
  21600550.277    84765209.902  
  20497095.634   107712977.643                    83932159.251    20497092.757  
                                
  22296832.606   117170672.405                    91301803.028    22296832.821  
  22296828.175    87497570.048  
  23612974.421   124087017.046    23612971.955    96691277.846                  
                                
  21959891.790   115400029.476                    89922084.585    21959888.663  
  21959889.878    86175342.405  
  22793673.821   119781576.980                    93336274.818    22793672.391  
                                
  21551859.476   113255798.406    21551857.207    88251261.667                  
                                
  20666052.446   108600840.911                    84624021.952    20666052.017  
  20666048.872    81098022.372  
  23605071.131   126404085.466    23605067.092    98314272.490                  
                                
  20913674.451   111717120.103    20913672.646    86891079.927                  
                                
  19444250.102   103831205.891    19444245.689    80757592.415                  
                                
  22409257.977   119453957.645    22409254.546    92908616.406                  
                                
  21246705.990   113416362.954    21246702.827    88212710.824                  
                                
  21982626.566   117550987.516    21982622.170    91428538.209                  
                                
  25715950.232   135138239.643                                                  
                                
  23873331.303   125455218.362                                                  
                                
  26811722.517   140896547.594                                                  
                                
  25520813.532   134112794.089                                                  
                                
  23470543.673   123338565.749                                                  
                                
  25433797.180   133655544.343                                                  
                                
 21  9  1  8 12 55.0000000  0 20G 1G 7G 8G13G14G17G21G30R 4R12R13R14
                                R22R24E13E15E19E21E27E30
  21600044.297   113509009.998                    88448574.966    21600045.048  
  21600040.062    84763207.959  
  20497361.203   107714373.777                    83933247.157    20497356.879  
                                
  22297388.011   117173587.313                    91304074.389    22297388.458  
  22297382.776    87499746.759  
  23612784.223   124086017.575    23612781.900    96690498.953                  
                                
  21959473.369   115397830.274                    89920370.921    21959470.635  
  21959471.314    86173700.159  
  22793142.075   119778781.498                    93334096.534    22793140.252  
                                
  21551830.904   113255648.075    21551828.563    88251144.518                  
                                
  20665889.838   108599986.426                    84623356.097    20665889.659  
  20665886.264    81097384.276  
  23605444.754   126406086.528    23605440.483    98315828.876                  
                                
  20914116.548   111719480.832    20914114.726    86892916.052                  
                                
  19444086.244   103830331.907    19444082.080    80756912.652                  
                                
  22408611.708   119450509.822    22408607.776    92905934.766                  
                                
  21247321.935   113419648.211    21247318.254    88215266.012                  
                                
  21981852.980   117546852.020    21981848.870    91425321.713                  
                                
  25715381.997   135135253.070                                                  
                                
  23873188.869   125454469.910                                                  
                                
  26811961.015   140897802.951                                                  
                                
  25520453.739   134110903.052                                                  
                                
  23470553.769   123338618.754                                                  
                                
  25434171.697   133657511.705                                                  
                                
 21  9  1  8 12 56.0000000  0 20G 1G 7G 8G13G14G17G21G30R 4R12R13R14
                                R22R24E13E15E19E21E27E30
  21599534.262   113506329.608                    88446486.360    21599536.084  
  21599530.045    84761206.363  
  20497626.683   107715770.469                    83934335.465    20497623.771  
                                
  22297942.827   117176502.409                    91306345.894    22297942.701  
  22297937.537    87501923.614  
  23612594.472   124085018.713    23612591.702    96689720.667                  
                                
  21959055.073   115395631.228                    89918657.397    21959052.643  
  21959052.982    86172058.003  
  22792609.613   119775986.280                    93331918.454    22792608.005  
                                
  21551802.546   113255498.371    21551799.883    88251027.871                  
                                
  20665727.801   108599132.495                    84622690.695    20665727.373  
  20665723.674    81096746.599  
  23605818.377   126408088.224    23605814.285    98317385.756                  
                                
  20914558.556   111721841.942    20914556.770    86894752.471                  
                                
  19443922.385   103829458.356    19443918.543    80756233.223                  
                                
  22407964.420   119447061.996    22407960.918    92903253.129                  
                                
  21247937.755   113422933.969    21247933.824    88217821.613                  
                                
  21981079.251   117542716.853    21981075.499    91422105.481                  
                                
  25714813.422   135132266.658                                                  
                                
  23873046.489   125453721.907                                                  
                                
  26812199.781   140899058.658                                                  
                                
  25520093.857   134109012.055                                                  
                                
  23470563.901   123338671.949                                                  
                                
  25434546.231   133659479.153                                                  
                                
 21  9  1  8 12 57.0000000  0 20G 1G 7G 8G13G14G17G21G30R 4R12R13R14
                                R22R24E13E15E19E21E27E30
  21599024.405   113503649.805                    88444398.183    21599025.549  
  21599020.009    84759205.205  
  20497892.825   107717167.833                    83935424.341    20497889.251  
                                
  22298496.999   117179417.792                    91308617.617    22298496.945  
  22298492.317    87504100.694  
  23612404.363   124084020.563    23612401.718    96688942.860                  
                                
  21958636.384   115393432.437                    89916944.019    21958633.900  
  21958634.507    86170416.053  
  22792078.207   119773191.447                    93329740.693    22792077.009  
                                
  21551774.062   113255349.360    21551771.489    88250911.758                  
                                
  20665565.193   108598279.222                    84622025.829    20665565.050  
  20665561.316    81096109.423  
  23606192.251   126410090.590    23606188.266    98318943.147                  
                                
  20915000.618   111724203.560    20914998.796    86896589.291                  
                                
  19443759.205   103828585.457    19443754.898    80755554.307                  
                                
  22407317.794   119443614.310    22407314.220    92900571.591                  
                                
  21248553.057   113426220.340    21248549.519    88220377.689                  
                                
  21980306.219   117538582.152    21980302.377    91418889.605                  
                                
  25714245.134   135129280.496                                                  
                                
  23872904.394   125452974.495                                                  
                                
  26812438.725   140900314.836                                                  
                                
  25519734.315   134107121.202                                                  
                                
  23470574.050   123338725.418                                                  
                                
  25434920.462   133661446.813                                                  
                                
 21  9  1  8 12 58.0000000  0 20G 1G 7G 8G13G14G17G21G30R 4R12R13R14
                                R22R24E13E15E19E21E27E30
  21598514.512   113500970.425                    88442310.350    21598515.656  
  21598510.188    84757204.384  
  20498158.716   107718565.719                    83936513.587    20498155.535  
                                
  22299051.832   117182333.325                    91310889.466    22299052.314  
  22299047.096    87506277.880  
  23612213.736   124083022.994    23612211.932    96688165.516                  
                                
  21958217.945   115391233.740                    89915230.785    21958215.890  
  21958216.068    86168774.182  
  22791546.460   119770396.869                    93327563.011    22791545.066  
                                
  21551745.937   113255200.923    21551743.238    88250796.071                  
                                
  20665402.978   108597426.486                    84621361.371    20665402.818  
  20665399.047    81095472.640  
  23606566.750   126412093.471    23606562.300    98320500.940                  
                                
  20915442.483   111726565.571    20915440.839    86898426.411                  
                                
  19443596.061   103827712.967    19443591.575    80754875.692                  
                                
  22406671.310   119440166.609    22406667.397    92897890.048                  
                                
  21249168.949   113429507.171    21249165.071    88222934.106                  
                                
  21979532.616   117534447.765    21979529.131    91415673.966                  
                                
  25713677.006   135126294.460                                                  
                                
  23872762.139   125452227.507                                                  
                                
  26812678.242   140901571.341                                                  
                                
  25519374.236   134105230.329                                                  
                                
  23470584.289   123338779.004                                                  
                                
  25435294.747   133663414.522                                                  
                                
 21  9  1  8 12 59.0000000  0 20G 1G 7G 8G13G14G17G21G30R 4R12R13R14
                                R22R24E13E15E19E21E27E30
  21598004.513   113498291.605                    88440222.940    21598005.263  
  21598000.421    84755203.954  
  20498425.250   107719964.213                    83937603.352    20498421.319  
                                
  22299606.736   117185249.093                    91313161.479    22299606.379  
  22299601.894    87508455.233  
  23612024.557   124082026.059    23612022.163    96687388.649                  
                                
  21957799.774   115389035.257                    89913517.666    21957797.487  
  21957797.737    86167132.443  
  22791014.213   119767602.593                    93325385.699    22791013.445  
                                
  21551717.846   113255053.136    21551715.220    88250680.948                  
                                
  20665240.871   108596574.361                    84620697.352    20665240.352  
  20665236.886    81094836.303  
  23606940.338   126414096.964    23606936.531    98322059.206                  
                                
  20915885.099   111728928.062    20915883.098    86900263.895                  
                                
  19443433.095   103826841.011    19443428.074    80754197.499                  
                                
  22406025.184   119436719.019    22406020.699    92895208.598                  
                                
  21249784.358   113432794.553    21249780.963    88225490.954                  
                                
  21978759.977   117530313.718    21978755.885    91412458.607                  
                                
  25713108.735   135123308.641                                                  
                                
  23872620.027   125451481.025                                                  
                                
  26812917.008   140902828.232                                                  
                                
  25519014.479   134103339.549                                                  
                                
  23470594.332   123338832.816                                                  
                                
  25435669.228   133665382.389                                                  
                                
 21  9  1  8 13  0.0000000  0 20G 1G 7G 8G13G14G17G21G30R 4R12R13R14
                                R22R24E13E15E19E21E27E30
  21597494.817   113495613.263                    88438135.938    21597495.335  
  21597490.743    84753203.887  
  20498691.248   107721363.270                    83938693.508    20498688.121  
                                
  22300161.909   117188165.057                    91315433.659    22300161.087  
  22300156.906    87510632.736  
  23611835.002   124081029.729    23611832.465    96686612.297                  
                                
  21957381.424   115386836.906                    89911804.660    21957379.173  
  21957379.351    86165490.824  
  22790482.681   119764808.608                    93323208.570    22790481.788  
                                
  21551690.149   113254905.953    21551687.130    88250566.244                  
                                
  20665078.548   108595722.787                    84620033.781    20665077.994  
  20665074.796    81094200.394  
  23607314.283   126416101.109    23607310.995    98323617.990                  
                                
  20916327.733   111731290.956    20916325.445    86902101.699                  
                                
  19443269.308   103825969.526    19443264.948    80753519.680                  
                                
  22405377.593   119433271.434    22405373.859    92892527.141                  
                                
  21250399.964   113436082.472    21250396.908    88228048.215                  
                                
  21977986.892   117526179.960    21977982.943    91409243.470                  
                                
  25712540.626   135120322.969                                                  
                                
  23872478.182   125450735.000                                                  
                                
  26813156.667   140904085.511                                                  
                                
  25518654.757   134101448.813                                                  
                                
  23470604.767   123338886.789                                                  
                                
  25436043.888   133667350.356                                                  
                                
 21  9  1  8 13  1.0000000  0 20G 1G 7G 8G13G14G17G21G30R 4R12R13R14
                                R22R24E13E15E19E21E27E30
  21596985.389   113492935.479                    88436049.374    21596986.389  
  21596981.154    84751204.254  
  20498957.711   107722762.987                    83939784.164    20498955.209  
                                
  22300717.100   117191081.291                    91317706.070    22300716.045  
  22300711.667    87512810.446  
  23611645.448   124080034.112    23611642.982    96685836.482                  
                                
  21956963.110   115384638.802                    89910091.854    21956959.930  
  21956961.145    86163849.382  
  22789951.275   119762014.984                    93321031.711    22789950.470  
                                
  21551661.898   113254759.471    21551659.022    88250452.098                  
                                
  20664916.709   108594871.879                    84619370.756    20664915.422  
  20664912.885    81093564.967  
  23607688.996   126418105.954    23607685.333    98325177.312                  
                                
  20916769.777   111733654.343    20916767.650    86903939.889                  
                                
  19443105.949   103825098.635    19443101.785    80752842.325                  
                                
  22404731.181   119429823.971    22404727.036    92889845.774                  
                                
  21251016.409   113439370.983    21251013.103    88230605.946                  
                                
  21977213.913   117522046.597    21977210.072    91406028.641                  
                                
  25711972.444   135117337.555                                                  
                                
  23872336.106   125449989.538                                                  
                                
  26813395.629   140905343.225                                                  
                                
  25518294.804   134099558.198                                                  
                                
  23470614.935   123338941.021                                                  
                                
  25436418.083   133669318.520                                                  
                                
 21  9  1  8 13  2.0000000  0 19G 1G 7G 8G13G14G17G21G30R12R13R14R22
                                R24E13E15E19E21E27E30
  21596475.961   113490258.194                    88433963.164    21596476.300  
  21596471.726    84749204.981  
  20499224.103   107724163.253                    83940875.333    20499221.208  
                                
  22301271.826   117193997.716                    91319978.638    22301271.468  
  22301266.733    87514988.296  
  23611456.126   124079039.099    23611453.570    96685061.154                  
                                
  21956544.797   115382440.836                    89908379.174    21956542.509  
  21956542.777    86162208.050  
  22789420.064   119759221.636                    93318855.115    22789418.242  
                                
  21551634.219   113254613.602    21551630.985    88250338.432                  
                                
  20664755.083   108594021.517                    84618708.127    20664754.654  
  20664751.063    81092929.970  
  20917212.446   111736018.143    20917210.302    86905778.389                  
                                
  19442943.287   103824228.247    19442938.909    80752165.354                  
                                
  22404084.233   119426376.524    22404080.231    92887164.430                  
                                
  21251632.962   113442660.032    21251629.263    88233164.102                  
                                
  21976441.543   117517913.604    21976437.433    91402814.086                  
                                
  25711404.317   135114352.309                                                  
                                
  23872194.458   125449244.538                                                  
                                
  26813635.414   140906601.331                                                  
                                
  25517935.100   134097667.621                                                  
                                
  23470625.352   123338995.428                                                  
                                
  25436792.850   133671286.769                                                  
                                
 21  9  1  8 13  3.0000000  0 19G 1G 7G 8G13G14G17G21G30R12R13R14R22
                                R24E13E15E19E21E27E30
  21595966.497   113487581.376                    88431877.361    21595966.533  
  21595962.280    84747206.060  
  20499490.583   107725564.091                    83941966.864    20499487.474  
                                
  22301826.426   117196914.320                    91322251.289    22301826.301  
  22301821.816    87517166.282  
  23611266.946   124078044.679    23611264.409    96684286.339                  
                                
  21956126.840   115380243.019                    89906666.555    21956124.499  
  21956124.571    86160566.823  
  22788887.800   119756428.557                    93316678.710    22788887.085  
                                
  21551606.362   113254468.341    21551603.360    88250225.246                  
                                
  20664593.422   108593171.736                    84618045.967    20664592.779  
  20664589.348    81092295.384  
  20917654.972   111738382.332    20917652.989    86907617.209                  
                                
  19442780.250   103823358.325    19442776.015    80751488.752                  
                                
  22403437.875   119422929.156    22403433.390    92884483.144                  
                                
  21252249.264   113445949.593    21252245.530    88235722.647                  
                                
  21975668.779   117513780.913    21975664.651    91399599.773                  
                                
  25710836.314   135111367.217                                                  
                                
  23872052.882   125448499.998                                                  
                                
  26813874.787   140907859.770                                                  
                                
  25517575.308   134095777.094                                                  
                                
  23470635.859   123339050.000                                                  
                                
  25437167.367   133673255.124                                                  
                                
 21  9  1  8 13  4.0000000  0 19G 1G 7G 8G13G14G17G21G30R12R13R14R22
                                R24E13E15E19E21E27E30
  21595457.140   113484905.088                    88429791.924    21595458.230  
  21595452.941    84745207.531  
  20499756.993   107726965.525                    83943058.879    20499755.384  
                                
  22302381.867   117199831.139                    91324524.135    22302381.599  
  22302376.882    87519344.436  
  23611077.820   124077050.911    23611075.247    96683511.944                  
                                
  21955708.669   115378045.393                    89904954.144    21955706.561  
  21955706.364    86158925.743  
  22788356.661   119753635.805                    93314502.487    22788356.518  
                                
  21551578.665   113254323.699    21551575.877    88250112.540                  
                                
  20664431.475   108592322.530                    84617384.237    20664430.939  
  20664427.776    81091661.250  
  20918097.391   111740746.962    20918095.712    86909456.371                  
                                
  19442617.481   103822488.939    19442613.264    80750812.559                  
                                
  22402791.070   119419481.813    22402786.764    92881801.877                  
                                
  21252865.281   113449239.729    21252861.815    88238281.649                  
                                
  21974895.622   117509648.613    21974891.995    91396385.750                  
                                
  25710268.454   135108382.317                                                  
                                
  23871911.252   125447755.945                                                  
                                
  26814114.286   140909118.622                                                  
                                
  25517215.443   134093886.605                                                  
                                
  23470646.384   123339104.760                                                  
                                
  25437541.955   133675223.617                                                  
                                
 21  9  1  8 13  5.0000000  0 19G 1G 7G 8G13G14G17G21G30R12R13R14R22
                                R24E13E15E19E21E27E30
  21594948.266   113482229.276                    88427706.871    21594948.928  
  21594943.853    84743209.362  
  20500023.974   107728367.516                    83944151.362    20500020.686  
                                
  22302936.557   117202748.180                    91326797.126    22302936.397  
  22302931.929    87521522.739  
  23610888.891   124076057.749    23610886.390    96682738.096                  
                                
  21955290.355   115375847.911                    89903241.811    21955288.497  
  21955288.283    86157284.780  
  22787825.397   119750843.328                    93312326.556    22787824.128  
                                
  21551551.664   113254179.691    21551548.448    88250000.335                  
                                
  20664269.993   108591473.922                    84616722.994    20664269.653  
  20664266.330    81091027.541  
  20918540.025   111743112.043    20918538.417    86911295.885                  
                                
  19442454.820   103821620.042    19442450.424    80750136.753                  
                                
  22402144.533   119416034.502    22402140.066    92879120.633                  
                                
  21253482.334   113452530.375    21253478.224    88240841.034                  
                                
  21974122.805   117505516.641    21974119.338    91393172.001                  
                                
  25709700.058   135105397.607                                                  
                                
  23871769.854   125447012.385                                                  
                                
  26814353.552   140910377.835                                                  
                                
  25516855.740   134091996.195                                                  
                                
  23470656.784   123339159.725                                                  
                                
  25437916.883   133677192.218                                                  
                                
 21  9  1  8 13  6.0000000  0 19G 1G 7G 8G13G14G17G21G30R12R13R14R22
                                R24E13E15E19E21E27E30
  21594438.856   113479554.019                    88425622.271    21594440.179  
  21594434.746    84741211.601  
  20500290.865   107729770.124                    83945244.324    20500288.382  
                                
  22303492.105   117205665.477                    91329070.358    22303491.927  
  22303487.030    87523701.240  
  23610700.177   124075065.243    23610697.514    96681964.675                  
                                
  21954872.220   115373650.651                    89901529.654    21954869.862  
  21954870.148    86155643.960  
  22787294.044   119748051.185                    93310150.877    22787292.614  
                                
  21551524.289   113254036.358    21551521.180    88249888.640                  
                                
  20664108.922   108590625.928                    84616062.224    20664108.528  
  20664104.865    81090394.295  
  20918983.284   111745477.601    20918981.140    86913135.766                  
                                
  19442291.747   103820751.682    19442287.851    80749461.357                  
                                
  22401496.906   119412587.247    22401493.439    92876439.440                  
                                
  21254098.315   113455821.567    21254094.849    88243400.849                  
                                
  21973349.737   117501385.048    21973346.753    91389958.547                  
                                
  25709132.610   135102413.103                                                  
                                
  23871628.314   125446269.342                                                  
                                
  26814593.158   140911637.461                                                  
                                
  25516496.001   134090105.867                                                  
                                
  23470667.309   123339214.896                                                  
                                
  25438291.507   133679160.968                                                  
                                
 21  9  1  8 13  7.0000000  0 19G 1G 7G 8G13G14G17G21G30R12R13R14R22
                                R24E13E15E19E21E27E30
  21593929.786   113476879.211                    88423537.998    21593930.554  
  21593925.747    84739214.181  
  20500558.168   107731173.260                    83946337.667    20500555.220  
                                
  22304046.974   117208582.926                    91331343.698    22304046.581  
  22304042.185    87525879.850  
  23610511.176   124074073.326    23610508.567    96681191.746                  
                                
  21954454.335   115371453.501                    89899817.605    21954452.298  
  21954451.941    86154003.231  
  22786762.601   119745259.289                    93307975.399    22786760.457  
                                
  21551497.003   113253893.591    21551494.180    88249777.405                  
                                
  20663947.582   108589778.469                    84615401.842    20663947.672  
  20663943.651    81089761.458  
  20919425.989   111747843.519    20919424.059    86914975.911                  
                                
  19442129.157   103819883.778    19442125.297    80748786.318                  
                                
  22400850.512   119409139.996    22400846.831    92873758.242                  
                                
  21254714.868   113459113.265    21254711.437    88245961.059                  
                                
  21972577.492   117497253.728    21972574.079    91386745.293                  
                                
  25708564.768   135099428.737                                                  
                                
  23871487.023   125445526.735                                                  
                                
  26814833.121   140912897.458                                                  
                                
  25516136.154   134088215.557                                                  
                                
  23470677.583   123339270.225                                                  
                                
  25438666.346   133681129.796                                                  
                                
 21  9  1  8 13  8.0000000  0 19G 1G 7G 8G13G14G17G21G30R12R13R14R22
                                R24E13E15E19E21E27E30
  21593421.358   113474204.960                    88421454.157    21593422.788  
  21593416.909    84737217.184  
  20500825.256   107732577.044                    83947431.532    20500821.951  
                                
  22304602.808   117211500.624                    91333617.208    22304602.057  
  22304597.394    87528058.653  
  23610322.604   124073082.095    23610319.977    96680419.372                  
                                
  21954035.986   115369256.588                    89898105.722    21954033.913  
  21954033.949    86152362.664  
  22786232.088   119742467.755                    93305800.165    22786229.425  
                                
  21551470.039   113253751.520    21551467.251    88249666.697                  
                                
  20663786.314   108588931.643                    84614742.026    20663785.885  
  20663782.526    81089129.088  
  20919869.516   111750209.901    20919867.104    86916816.436                  
                                
  19441966.852   103819016.444    19441962.939    80748111.720                  
                                
  22400204.279   119405692.879    22400200.026    92871077.155                  
                                
  21255331.546   113462405.494    21255328.079    88248521.686                  
                                
  21971805.496   117493122.789    21971801.494    91383532.346                  
                                
  25707996.873   135096444.614                                                  
                                
  23871345.822   125444784.666                                                  
                                
  26815073.012   140914157.865                                                  
                                
  25515776.701   134086325.359                                                  
                                
  23470688.251   123339325.788                                                  
                                
  25439040.648   133683098.816                                                  
                                
 21  9  1  8 13  9.0000000  0 19G 1G 7G 8G13G14G17G21G30R12R13R14R22
                                R24E13E15E19E21E27E30
  21592912.056   113471531.222                    88419370.714    21592913.163  
  21592908.160    84735220.558  
  20501092.631   107733981.404                    83948525.831    20501088.860  
                                
  22305157.641   117214418.499                    91335890.936    22305157.713  
  22305152.656    87530237.590  
  23610134.282   124072091.476    23610131.602    96679647.506                  
                                
  21953617.958   115367059.824                    89896393.922    21953615.814  
  21953615.885    86150722.230  
  22785700.109   119739676.510                    93303625.126    22785699.073  
                                
  21551442.985   113253610.062    21551440.323    88249556.464                  
                                
  20663625.350   108588085.412                    84614082.578    20663624.475  
  20663621.455    81088497.154  
  20920312.382   111752576.720    20920310.059    86918657.287                  
                                
  19441804.852   103818149.581    19441800.492    80747437.496                  
                                
  22399557.259   119402245.842    22399553.489    92868396.124                  
                                
  21255948.384   113465698.293    21255944.954    88251082.752                  
                                
  21971033.000   117488992.164    21971028.980    91380319.628                  
                                
  25707429.192   135093460.676                                                  
                                
  23871204.514   125444043.084                                                  
                                
  26815313.029   140915418.665                                                  
                                
  25515416.730   134084435.207                                                  
                                
  23470698.740   123339381.552                                                  
                                
  25439415.469   133685067.940                                                  
                                
 21  9  1  8 13 10.0000000  0 19G 1G 7G 8G13G14G17G21G30R12R13R14R22
                                R24E13E15E19E21E27E30
  21592403.289   113468857.940                    88417287.671    21592404.093  
  21592399.500    84733224.275  
  20501359.915   107735386.327                    83949620.558    20501356.306  
                                
  22305712.778   117217336.541                    91338164.690    22305713.529  
  22305707.918    87532416.648  
  23609945.568   124071101.434    23609943.316    96678876.011                  
                                
  21953199.930   115364863.190                    89894682.305    21953197.553  
  21953197.839    86149081.893  
  22785169.256   119736885.518                    93301450.350    22785166.558  
                                
  21551416.289   113253469.197    21551413.412    88249446.694                  
                                
  20663464.207   108587239.704                    84613423.584    20663464.547  
  20663460.508    81087865.631  
  20920756.052   111754943.963    20920753.282    86920498.471                  
                                
  19441642.619   103817283.183    19441638.259    80746763.638                  
                                
  22398910.740   119398798.823    22398906.863    92865715.112                  
                                
  21256565.634   113468991.550    21256561.810    88253644.176                  
                                
  21970260.755   117484861.876    21970256.448    91377107.184                  
                                
  25706861.457   135090476.867                                                  
                                
  23871063.510   125443301.942                                                  
                                
  26815552.939   140916679.797                                                  
                                
  25515057.312   134082545.082                                                  
                                
  23470709.587   123339437.438                                                  
                                
  25439790.289   133687037.125                                                  
                                
 21  9  1  8 13 12.0000000  0 19G 1G 7G 8G13G14G17G21G30R12R13R14R22
                                R24E13E15E19E21E27E30
  21591386.827   113463512.942                    88413122.726    21591387.613  
  21591382.414    84729232.883  
  20501894.521   107738197.942                    83951811.436    20501891.644  
                                
  22306823.463   117223173.303                    91342712.852    22306823.517  
  22306818.638    87536775.275  
  23609569.300   124069123.322    23609566.941    96677334.605                  
                                
  21952364.106   115360470.485                    89891259.404    21952362.141  
  21952361.891    86145801.629  
  22784107.407   119731304.476                    93297101.481    22784105.870  
                                
  21551362.985   113253189.391    21551360.126    88249228.666                  
                                
  20663142.547   108585550.125                    84612107.036    20663143.172  
  20663139.009    81086603.922  
  20921641.855   111759679.798    20921639.836    86924181.903                  
                                
  19441318.636   103815551.947    19441314.240    80745417.121                  
                                
  22397617.684   119391904.891    22397613.235    92860353.170                  
                                
  21257800.276   113475579.799    21257795.881    88258768.370                  
                                
  21968715.603   117476602.433    21968712.011    91370683.159                  
                                
  25705725.827   135084509.869                                                  
                                
  23870781.626   125441821.158                                                  
                                
  26816032.972   140919203.244                                                  
                                
  25514337.834   134078765.046                                                  
                                
  23470731.065   123339549.866                                                  
                                
  25440539.805   133690975.941                                                  
                                
 21  9  1  8 13 13.0000000  0 19G 1G 7G 8G13G14G17G21G30R12R13R14R22
                                R24E13E15E19E21E27E30
  21590878.418   113460841.212                    88411040.852    21590879.579  
  21590874.022    84727237.769  
  20502162.234   107739604.643                    83952907.572    20502158.947  
                                
  22307378.689   117226091.990                    91344987.131    22307379.154  
  22307374.043    87538954.803  
  23609381.300   124068135.211    23609378.691    96676564.621                  
                                
  21951945.989   115358274.400                    89889548.157    21951944.309  
  21951944.024    86144161.692  
  22783576.483   119728514.399                    93294927.389    22783574.678  
                                
  21551336.629   113253050.436    21551333.645    88249120.385                  
                                
  20662982.190   108584706.222                    84611449.456    20662981.761  
  20662978.313    81085973.736  
  20922085.043   111762048.348    20922083.256    86926024.108                  
                                
  19441156.510   103814687.064    19441152.239    80744744.432                  
                                
  22396971.272   119388458.009    22396966.626    92857672.273                  
                                
  21258417.365   113478874.735    21258413.112    88261331.100                  
                                
  21967943.411   117472473.241    21967939.873    91367471.567                  
                                
  25705158.271   135081526.665                                                  
                                
  23870640.907   125441081.507                                                  
                                
  26816273.400   140920465.570                                                  
                                
  25513978.506   134076875.129                                                  
                                
  23470741.876   123339606.383                                                  
                                
  25440914.751   133692945.540                                                  
                                
 21  9  1  8 13 14.0000000  0 19G 1G 7G 8G13G14G17G21G30R12R13R14R22
                                R24E13E15E19E21E27E30
  21590369.758   113458170.013                    88408959.405    21590370.187  
  21590365.720    84725243.038  
  20502430.359   107741011.949                    83954004.155    20502426.750  
                                
  22307934.255   117229010.915                    91347261.584    22307934.970  
  22307929.448    87541134.520  
  23609193.586   124067147.743    23609190.673    96675795.174                  
                                
  21951528.408   115356078.502                    89887837.059    21951525.781  
  21951526.156    86142521.886  
  22783045.558   119725724.666                    93292753.553    22783043.789  
                                
  21551310.111   113252912.142    21551307.306    88249012.623                  
                                
  20662822.048   108583862.902                    84610792.315    20662821.566  
  20662817.885    81085343.994  
  20922528.534   111764417.354    20922526.908    86927866.666                  
                                
  19440995.028   103813822.732    19440990.328    80744072.171                  
                                
  22396324.682   119385011.198    22396320.071    92854991.413                  
                                
  21259034.347   113482170.219    21259030.523    88263894.238                  
                                
  21967171.880   117468344.363    21967167.663    91364260.213                  
                                
  25704590.429   135078543.651                                                  
                                
  23870500.171   125440342.369                                                  
                                
  26816513.756   140921728.275                                                  
                                
  25513618.463   134074985.280                                                  
                                
  23470752.455   123339663.092                                                  
                                
  25441289.268   133694915.271                                                  
                                
 21  9  1  8 13 15.0000000  0 19G 1G 7G 8G13G14G17G21G30R12R13R14R22
                                R24E13E15E19E21E27E30
  21589861.081   113455499.274                    88406878.278    21589863.136  
  21589857.418    84723248.657  
  20502698.234   107742419.815                    83955101.194    20502694.713  
                                
  22308490.017   117231929.996                    91349536.208    22308489.821  
  22308484.978    87543314.357  
  23609005.371   124066160.864    23609002.709    96675026.203                  
                                
  21951110.452   115353882.728                    89886126.059    21951108.021  
  21951108.325    86140882.190  
  22782514.652   119722935.183                    93290579.936    22782512.811  
                                
  21551283.790   113252774.431    21551281.110    88248905.322                  
                                
  20662661.334   108583020.149                    84610135.629    20662660.655  
  20662657.546    81084714.656  
  20922972.740   111766786.774    20922970.453    86929709.544                  
                                
  19440833.045   103812958.845    19440828.381    80743400.257                  
                                
  22395677.984   119381564.447    22395673.499    92852310.607                  
                                
  21259651.311   113485466.210    21259648.094    88266457.793                  
                                
  21966399.402   117464215.789    21966395.542    91361049.114                  
                                
  25704022.945   135075560.787                                                  
                                
  23870359.559   125439603.672                                                  
                                
  26816754.041   140922991.332                                                  
                                
  25513259.081   134073095.457                                                  
                                
  23470763.087   123339719.952                                                  
                                
  25441664.464   133696885.093                                                  
                                
 21  9  1  8 13 16.0000000  0 19G 1G 7G 8G13G14G17G21G30R12R13R14R22
                                R24E13E15E19E21E27E30
  21589353.386   113452829.082                    88404797.640    21589354.226  
  21589349.294    84721254.674  
  20502966.108   107743828.283                    83956198.715    20502963.785  
                                
  22309045.315   117234849.314                    91351810.995    22309045.708  
  22309040.437    87545494.368  
  23608817.621   124065174.667    23608815.173    96674257.813                  
                                
  21950692.459   115351687.162                    89884415.233    21950690.101  
  21950690.494    86139242.647  
  22781983.781   119720146.028                    93288406.580    22781981.941  
                                
  21551257.862   113252637.378    21551255.110    88248798.534                  
                                
  20662501.121   108582178.030                    84609479.443    20662500.013  
  20662497.243    81084085.797  
  20923415.892   111769156.634    20923414.069    86931552.770                  
                                
  19440671.169   103812095.521    19440666.702    80742728.778                  
                                
  22395031.411   119378117.767    22395027.015    92849629.851                  
                                
  21260269.204   113488762.755    21260265.719    88269021.771                  
                                
  21965627.657   117460087.598    21965623.440    91357838.292                  
                                
  25703455.460   135072578.149                                                  
                                
  23870219.234   125438865.488                                                  
                                
  26816994.075   140924254.803                                                  
                                
  25512899.628   134071205.722                                                  
                                
  23470774.219   123339777.042                                                  
                                
  25442039.320   133698855.064                                                  
                                
 21  9  1  8 13 17.0000000  0 19G 1G 7G 8G13G14G17G21G30R12R13R14R22
                                R24E13E15E19E21E27E30
  21588845.227   113450159.370                    88402717.314    21588846.781  
  21588841.188    84719261.058  
  20503234.376   107745237.314                    83957296.627    20503231.910  
                                
  22309600.881   117237768.826                    91354085.958    22309601.292  
  22309596.163    87547674.519  
  23608630.336   124064189.059    23608627.799    96673489.756                  
                                
  21950274.717   115349491.745                    89882704.512    21950272.216  
  21950272.770    86137603.221  
  22781453.017   119717357.148                    93286233.432    22781451.213  
                                
  21551232.059   113252500.949    21551229.039    88248692.222                  
                                
  20662340.657   108581336.468                    84608823.672    20662339.906  
  20662337.154    81083457.364  
  20923859.651   111771526.887    20923857.757    86933396.300                  
                                
  19440510.080   103811232.681    19440505.238    80742057.678                  
                                
  22394385.088   119374671.111    22394380.425    92846949.119                  
                                
  21260886.543   113492059.833    21260883.326    88271586.179                  
                                
  21964855.715   117455959.765    21964851.730    91354627.755                  
                                
  25702887.762   135069595.673                                                  
                                
  23870078.748   125438127.788                                                  
                                
  26817234.896   140925518.643                                                  
                                
  25512539.781   134069316.040                                                  
                                
  23470785.066   123339834.311                                                  
                                
  25442414.194   133700825.147                                                  
                                
 21  9  1  8 13 18.0000000  0 19G 1G 7G 8G13G14G17G21G30R12R13R14R22
                                R24E13E15E19E21E27E30
  21588337.461   113447490.181                    88400637.456    21588338.408  
  21588333.315    84717267.839  
  20503502.751   107746646.964                    83958395.058    20503499.499  
                                
  22310156.554   117240688.556                    91356361.088    22310156.733  
  22310151.694    87549854.836  
  23608443.480   124063204.129    23608440.245    96672722.219                  
                                
  21949857.047   115347296.511                    89880993.963    21949854.706  
  21949854.992    86135963.920  
  22780922.486   119714568.601                    93284060.519    22780920.288  
                                
  21551206.113   113252365.161    21551203.236    88248586.420                  
                                
  20662180.675   108580495.494                    84608168.358    20662179.907  
  20662177.155    81082829.357  
  20924303.375   111773897.596    20924301.409    86935240.185                  
                                
  19440348.562   103810370.380    19440343.738    80741387.009                  
                                
  22393737.390   119371224.503    22393733.852    92844268.416                  
                                
  21261504.507   113495357.476    21261501.094    88274151.005                  
                                
  21964083.755   117451832.332    21964079.753    91351417.534                  
                                
  25702320.045   135066613.390                                                  
                                
  23869938.530   125437390.575                                                  
                                
  26817475.395   140926782.889                                                  
                                
  25512180.435   134067426.431                                                  
                                
  23470796.055   123339891.779                                                  
                                
  25442788.854   133702795.356                                                  
                                
 21  9  1  8 13 19.0000000  0 19G 1G 7G 8G13G14G17G21G30R12R13R14R22
                                R24E13E15E19E21E27E30
  21587829.605   113444821.532                    88398557.980    21587831.481  
  21587825.424    84715275.021  
  20503770.947   107748057.231                    83959493.995    20503768.660  
                                
  22310712.013   117243608.537                    91358636.386    22310712.263  
  22310707.331    87552035.348  
  23608255.283   124062219.838    23608253.014    96671955.274                  
                                
  21949439.698   115345101.482                    89879283.553    21949437.214  
  21949437.250    86134324.773  
  22780392.098   119711780.379                    93281887.874    22780389.650  
                                
  21551180.561   113252230.020    21551177.594    88248481.109                  
                                
  20662020.748   108579655.156                    84607513.567    20662019.872  
  20662017.174    81082201.834  
  20924747.384   111776268.812    20924745.115    86937084.465                  
                                
  19440186.776   103809508.607    19440182.237    80740716.738                  
                                
  22393091.300   119367777.975    22393087.440    92841587.779                  
                                
  21262122.990   113498655.651    21262118.933    88276716.260                  
                                
  21963311.599   117447705.311    21963307.990    91348207.633                  
                                
  25701752.793   135063631.339                                                  
                                
  23869798.454   125436653.894                                                  
                                
  26817716.431   140928047.569                                                  
                                
  25511820.785   134065536.905                                                  
                                
  23470806.937   123339949.473                                                  
                                
  25443163.979   133704765.739                                                  
                                
 21  9  1  8 13 20.0000000  0 19G 1G 7G 8G13G14G17G21G30R12R13R14R22
                                R24E13E15E19E21E27E30
  21587322.071   113442153.388                    88396478.911    21587322.393  
  21587317.675    84713282.571  
  20504039.608   107749468.058                    83960593.334    20504036.802  
                                
  22311267.382   117246528.695                    91360911.834    22311267.864  
  22311263.075    87554215.986  
  23608068.570   124061236.161    23608065.568    96671188.697                  
                                
  21949021.706   115342906.614                    89877573.252    21949019.615  
  21949019.597    86132685.757  
  22779861.584   119708992.430                    93279715.476    22779859.261  
                                
  21551154.919   113252095.508    21551152.077    88248376.308                  
                                
  20661861.195   108578815.381                    84606859.195    20661860.462  
  20661857.425    81081574.739  
  20925191.644   111778640.443    20925189.196    86938929.067                  
                                
  19440025.544   103808647.320    19440021.023    80740046.853                  
                                
  22392444.673   119364331.524    22392441.028    92838907.206                  
                                
  21262741.222   113501954.369    21262736.844    88279281.927                  
                                
  21962540.104   117443578.592    21962536.244    91344997.958                  
                                
  25701185.290   135060649.452                                                  
                                
  23869658.200   125435917.690                                                  
                                
  26817957.019   140929312.586                                                  
                                
  25511461.243   134063647.431                                                  
                                
  23470817.855   123340007.361                                                  
                                
  25443539.085   133706736.224                                                  
                                
 21  9  1  8 13 21.0000000  0 19G 1G 7G 8G13G14G17G21G30R12R13R14R22
                                R24E13E15E19E21E27E30
  21586814.448   113439485.705                    88394400.194    21586814.502  
  21586810.106    84711290.474  
  20504308.036   107750879.451                    83961693.116    20504305.713  
                                
  22311823.752   117249449.046                    91363187.469    22311823.734  
  22311818.748    87556396.776  
  23607881.302   124060253.086    23607878.497    96670422.712                  
                                
  21948604.410   115340711.896                    89875863.099    21948602.445  
  21948601.819    86131046.840  
  22779330.964   119706204.789                    93277543.254    22779329.874  
                                
  21551129.419   113251961.601    21551126.507    88248271.941                  
                                
  20661701.607   108577976.176                    84606205.242    20661700.624  
  20661697.747    81080948.057  
  20925635.671   111781012.501    20925633.312    86940774.003                  
                                
  19439863.811   103807786.540    19439859.701    80739377.353                  
                                
  22391798.440   119360885.112    22391794.491    92836226.661                  
                                
  21263358.918   113505253.561    21263354.934    88281847.968                  
                                
  21961768.198   117439452.144    21961764.535    91341788.494                  
                                
  25700618.128   135057667.727                                                  
                                
  23869518.304   125435181.930                                                  
                                
  26818197.858   140930578.005                                                  
                                
  25511101.843   134061757.998                                                  
                                
  23470829.041   123340065.404                                                  
                                
  25443914.174   133708706.815                                                  
                                
 21  9  1  8 13 22.0000000  0 19G 1G 7G 8G13G14G17G21G30R12R13R14R22
                                R24E13E15E19E21E27E30
  21586306.485   113436818.570                    88392321.928    21586307.289  
  21586302.608    84709298.776  
  20504577.036   107752291.432                    83962793.386    20504573.981  
                                
  22312379.514   117252369.624                    91365463.202    22312379.335  
  22312374.529    87558577.718  
  23607694.071   124059270.683    23607691.605    96669657.203                  
                                
  21948186.758   115338517.357                    89874153.043    21948184.274  
  21948184.310    86129408.054  
  22778800.683   119703417.447                    93275371.315    22778798.574  
                                
  21551103.885   113251828.330    21551100.936    88248168.096                  
                                
  20661541.733   108577137.575                    84605551.800    20661541.893  
  20661538.123    81080321.821  
  20926079.234   111783384.979    20926077.536    86942619.263                  
                                
  19439703.044   103806926.240    19439698.559    80738708.231                  
                                
  22391151.796   119357438.742    22391147.811    92833546.146                  
                                
  21263976.579   113508553.353    21263973.130    88284414.465                  
                                
  21960996.703   117435326.019    21960993.218    91338579.305                  
                                
  25700050.786   135054686.201                                                  
                                
  23869378.282   125434446.689                                                  
                                
  26818438.464   140931843.783                                                  
                                
  25510741.979   134059868.627                                                  
                                
  23470840.102   123340123.647                                                  
                                
  25444289.209   133710677.537                                                  
                                
 21  9  1  8 13 23.0000000  0 19G 1G 7G 8G13G14G17G21G30R12R13R14R22
                                R24E13E15E19E21E27E30
  21585799.416   113434151.925                    88390243.996    21585799.970  
  21585795.217    84707307.459  
  20504845.804   107753704.028                    83963894.096    20504842.677  
                                
  22312935.044   117255290.406                    91367739.151    22312935.098  
  22312930.362    87560758.822  
  23607507.232   124058288.901    23607504.856    96668892.171                  
                                
  21947769.123   115336322.994                    89872443.145    21947766.407  
  21947766.675    86127769.411  
  22778269.991   119700630.399                    93273199.603    22778267.989  
                                
  21551078.814   113251695.704    21551075.598    88248064.745                  
                                
  20661382.359   108576299.558                    84604898.807    20661382.788  
  20661378.642    81079696.044  
  20926523.654   111785757.884    20926521.760    86944464.844                  
                                
  19439542.633   103806066.480    19439537.773    80738039.530                  
                                
  22390505.473   119353992.390    22390501.095    92830865.655                  
                                
  21264595.473   113511853.675    21264591.416    88286981.380                  
                                
  21960225.529   117431200.270    21960221.741    91335370.384                  
                                
  25699483.445   135051704.881                                                  
                                
  23869238.528   125433711.936                                                  
                                
  26818679.374   140933109.968                                                  
                                
  25510382.561   134057979.332                                                  
                                
  23470851.431   123340182.090                                                  
                                
  25444664.208   133712648.374                                                  
                                
 21  9  1  8 13 24.0000000  0 19G 1G 7G 8G13G14G17G21G30R12R13R14R22
                                R24E13E15E19E21E27E30
  21585292.079   113431485.738                    88388166.463    21585292.508  
  21585287.737    84705316.482  
  20505114.197   107755117.144                    83964995.226    20505111.338  
                                
  22313491.253   117258211.347                    91370015.225    22313490.485  
  22313486.250    87562940.044  
  23607320.876   124057307.698    23607317.981    96668127.616                  
                                
  21947351.524   115334128.749                    89870733.360    21947349.272  
  21947349.165    86126130.858  
  22777739.888   119697843.594                    93271028.083    22777736.672  
                                
  21551053.512   113251563.636    21551050.563    88247961.864                  
                                
  20661222.967   108575462.090                    84604246.223    20661222.556  
  20661219.304    81079070.642  
  20926968.664   111788131.197    20926966.091    86946310.764                  
                                
  19439381.491   103805207.170    19439376.898    80737371.171                  
                                
  22389858.525   119350546.052    22389854.684    92828185.163                  
                                
  21265214.402   113515154.485    21265209.703    88289548.679                  
                                
  21959453.945   117427074.826    21959450.282    91332161.698                  
                                
  25698916.264   135048723.669                                                  
                                
  23869098.650   125432977.611                                                  
                                
  26818920.481   140934376.479                                                  
                                
  25510022.876   134056090.055                                                  
                                
  23470862.403   123340240.679                                                  
                                
  25445039.065   133714619.300                                                  
                                
 21  9  1  8 13 25.0000000  0 19G 1G 7G 8G13G14G17G21G30R12R13R14R22
                                R24E13E15E19E21E27E30
  21584784.759   113428820.155                    88386089.388    21584785.045  
  21584780.506    84703325.937  
  20505383.322   107756530.923                    83966096.869    20505380.749  
                                
  22314047.141   117261132.547                    91372291.479    22314046.158  
  22314042.101    87565121.459  
  23607134.324   124056327.173    23607131.268    96667363.524                  
                                
  21946934.443   115331934.735                    89869023.732    21946932.102  
  21946931.655    86124492.475  
  22777209.661   119695057.168                    93268856.824    22777206.855  
                                
  21551028.513   113251432.258    21551025.690    88247859.483                  
                                
  20661063.772   108574625.256                    84603594.156    20661063.433  
  20661060.055    81078445.745  
  20927412.906   111790505.015    20927410.333    86948157.062                  
                                
  19439220.509   103804348.426    19439216.006    80736703.260                  
                                
  22389211.971   119347099.834    22389208.022    92825504.778                  
                                
  21265831.956   113518455.898    21265828.096    88292116.456                  
                                
  21958682.718   117422949.851    21958678.787    91328953.393                  
                                
  25698348.815   135045742.745                                                  
                                
  23868959.075   125432243.846                                                  
                                
  26819161.463   140935643.447                                                  
                                
  25509663.655   134054200.887                                                  
                                
  23470873.553   123340299.521                                                  
                                
  25445414.386   133716590.401                                                  
                                
 21  9  1  8 13 26.0000000  0 19G 1G 7G 8G13G14G17G21G30R12R13R14R22
                                R24E13E15E19E21E27E30
  21584277.547   113426155.022                    88384012.624    21584278.798  
  21584273.348    84701335.746  
  20505652.537   107757945.248                    83967198.927    20505649.964  
                                
  22314602.724   117264053.922                    91374567.842    22314602.295  
  22314597.953    87567303.008  
  23606947.825   124055347.266    23606944.698    96666600.080                  
                                
  21946516.647   115329740.862                    89867314.202    21946513.556  
  21946514.074    86122854.194  
  22776679.612   119692271.009                    93266685.768    22776676.699  
                                
  21551003.675   113251301.493    21551000.995    88247757.593                  
                                
  20660904.970   108573788.979                    84602942.505    20660904.094  
  20660901.003    81077821.254  
  20927856.665   111792879.208    20927854.896    86950003.650                  
                                
  19439059.098   103803490.142    19439055.309    80736035.703                  
                                
  22388565.845   119343653.675    22388561.735    92822824.432                  
                                
  21266450.277   113521757.770    21266446.543    88294684.572                  
                                
  21957911.455   117418825.183    21957907.578    91325745.316                  
                                
  25697781.742   135042761.950                                                  
                                
  23868819.393   125431510.524                                                  
                                
  26819402.623   140936910.742                                                  
                                
  25509304.184   134052311.753                                                  
                                
  23470884.864   123340358.521                                                  
                                
  25445789.474   133718561.596                                                  
                                
 21  9  1  8 13 27.0000000  0 19G 1G 7G 8G13G14G17G21G30R12R13R14R22
                                R24E13E15E19E21E27E30
  21583770.156   113423490.425                    88381936.366    21583771.872  
  21583766.314    84699345.945  
  20505921.877   107759360.183                    83968301.504    20505917.999  
                                
  22315158.969   117266975.521                    91376844.448    22315158.540  
  22315153.984    87569484.715  
  23606761.236   124054367.997    23606758.288    96665836.901                  
                                
  21946099.155   115327547.192                    89865604.899    21946096.547  
  21946096.636    86121216.054  
  22776149.366   119689485.156                    93264515.007    22776147.079  
                                
  21550978.927   113251171.380    21550976.246    88247656.196                  
                                
  20660745.971   108572953.324                    84602291.343    20660745.578  
  20660741.897    81077197.222  
  20928301.479   111795253.849    20928299.406    86951850.600                  
                                
  19438898.491   103802632.436    19438894.595    80735368.596                  
                                
  22387919.236   119340207.581    22387915.287    92820144.140                  
                                
  21267068.957   113525060.214    21267065.222    88297253.140                  
                                
  21957140.050   117414700.843    21957136.279    91322537.497                  
                                
  25697214.704   135039781.369                                                  
                                
  23868680.086   125430777.719                                                  
                                
  26819643.998   140938178.461                                                  
                                
  25508944.623   134050422.702                                                  
                                
  23470896.032   123340417.735                                                  
                                
  25446164.348   133720532.932                                                  
                                
 21  9  1  8 13 28.0000000  0 19G 1G 7G 8G13G14G17G21G30R12R13R14R22
                                R24E13E15E19E21E27E30
  21583263.498   113420826.313                    88379860.404    21583264.677  
  21583259.460    84697356.517  
  20506191.199   107760775.679                    83969404.476    20506187.893  
                                
  22315714.999   117269897.304                    91379121.124    22315714.070  
  22315709.978    87571666.564  
  23606575.524   124053389.350    23606571.932    96665074.346                  
                                
  21945681.717   115325353.653                    89863895.632    21945678.608  
  21945679.198    86119578.047  
  22775619.228   119686699.583                    93262344.397    22775617.441  
                                
  21550954.321   113251041.865    21550951.605    88247555.287                  
                                
  20660586.794   108572118.227                    84601640.620    20660586.312  
  20660582.988    81076573.622  
  20928746.990   111797628.916    20928744.005    86953697.877                  
                                
  19438738.688   103801775.181    19438734.060    80734701.849                  
                                
  22387272.771   119336761.515    22387268.875    92817463.872                  
                                
  21267688.082   113528363.144    21267683.812    88299822.094                  
                                
  21956368.394   117410576.818    21956364.999    91319329.916                  
                                
  25696647.452   135036800.952                                                  
                                
  23868540.475   125430045.390                                                  
                                
  26819885.605   140939446.560                                                  
                                
  25508585.116   134048533.692                                                  
                                
  23470907.504   123340477.119                                                  
                                
  25446539.491   133722504.383                                                  
                                
 21  9  1  8 13 29.0000000  0 19G 1G 7G 8G13G14G17G21G30R12R13R14R22
                                R24E13E15E19E21E27E30
  21582757.143   113418162.761                    88377784.918    21582758.198  
  21582752.605    84695367.501  
  20506460.485   107762191.800                    83970507.954    20506457.412  
                                
  22316270.780   117272819.331                    91381398.055    22316270.369  
  22316266.009    87573848.599  
  23606388.953   124052411.365    23606385.844    96664312.372                  
                                
  21945263.957   115323160.350                    89862186.542    21945262.278  
  21945261.813    86117940.177  
  22775088.983   119683914.372                    93260174.110    22775087.124  
                                
  21550929.965   113250913.031    21550926.999    88247454.886                  
                                
  20660428.242   108571283.758                    84600990.380    20660427.492  
  20660424.240    81075950.468  
  20929190.910   111800004.464    20929188.855    86955545.525                  
                                
  19438578.189   103800918.498    19438573.578    80734035.540                  
                                
  22386626.645   119333315.537    22386622.624    92814783.663                  
                                
  21268306.476   113531666.712    21268302.741    88302391.538                  
                                
  21955597.774   117406453.183    21955593.843    91316122.649                  
                                
  25696080.271   135033820.770                                                  
                                
  23868401.418   125429313.576                                                  
                                
  26820126.533   140940715.066                                                  
                                
  25508225.592   134046644.791                                                  
                                
  23470918.619   123340536.741                                                  
                                
  25446914.883   133724475.992                                                  
                                
 21  9  1  8 13 30.0000000  0 19G 1G 7G 8G13G14G17G21G30R12R13R14R22
                                R24E13E15E19E21E27E30
  21582250.289   113415499.661                    88375709.791    21582250.056  
  21582245.839    84693378.819  
  20506730.307   107763608.467                    83971611.834    20506726.966  
                                
  22316826.649   117275741.510                    91383675.065    22316825.791  
  22316822.057    87576030.746  
  23606203.097   124051433.962    23606199.863    96663550.734                  
                                
  21944846.859   115320967.161                    89860477.595    21944844.625  
  21944844.589    86116302.404  
  22774559.148   119681129.387                    93258003.998    22774557.522  
                                
  21550905.396   113250784.781    21550902.554    88247354.953                  
                                
  20660269.333   108570449.835                    84600340.583    20660269.029  
  20660265.491    81075327.740  
  20929635.437   111802380.426    20929633.561    86957393.495                  
                                
  19438418.350   103800062.259    19438413.222    80733369.567                  
                                
  22385979.983   119329869.539    22385976.033    92812103.447                  
                                
  21268925.494   113534970.763    21268921.635    88304961.351                  
                                
  21954826.440   117402329.889    21954822.955    91312915.643                  
                                
  25695513.216   135030840.715                                                  
                                
  23868262.219   125428582.197                                                  
                                
  26820367.979   140941983.916                                                  
                                
  25507866.263   134044755.892                                                  
                                
  23470930.037   123340596.513                                                  
                                
  25447290.383   133726447.680                                                  
                                
 21  9  1  8 13 31.0000000  0 19G 1G 7G 8G13G14G17G21G30R12R13R14R22
                                R24E13E15E19E21E27E30
  21581743.416   113412837.142                    88373635.074    21581744.309  
  21581739.199    84691390.580  
  20506999.969   107765025.805                    83972716.247    20506996.609  
                                
  22317383.305   117278663.989                    91385952.325    22317382.018  
  22317378.230    87578213.114  
  23606017.581   124050457.278    23606013.882    96662789.610                  
                                
  21944429.403   115318774.230                    89858768.804    21944426.722  
  21944427.169    86114664.823  
  22774029.278   119678344.798                    93255834.200    22774028.724  
                                
  21550880.736   113250657.238    21550878.199    88247255.564                  
                                
  20660110.728   108569616.581                    84599691.287    20660110.227  
  20660106.939    81074705.500  
  20930080.305   111804756.868    20930078.196    86959241.837                  
                                
  19438257.458   103799206.628    19438253.008    80732704.081                  
                                
  22385333.249   119326423.681    22385329.389    92809423.333                  
                                
  21269544.888   113538275.431    21269540.814    88307531.644                  
                                
  21954055.767   117398207.048    21954051.854    91309708.989                  
                                
  25694946.107   135027860.956                                                  
                                
  23868123.341   125427851.396                                                  
                                
  26820609.676   140943253.241                                                  
                                
  25507506.488   134042867.140                                                  
                                
  23470941.545   123340656.549                                                  
                                
  25447665.239   133728419.559                                                  
                                
 21  9  1  8 13 32.0000000  0 19G 1G 7G 8G13G14G17G21G30R12R13R14R22
                                R24E13E15E19E21E27E30
  21581236.632   113410175.093                    88371560.750    21581237.347  
  21581232.701    84689402.682  
  20507269.773   107766443.666                    83973821.076    20507267.236  
                                
  22317939.603   117281586.618                    91388229.671    22317938.978  
  22317934.350    87580395.599  
  23605831.583   124049481.163    23605828.241    96662029.026                  
                                
  21944012.608   115316581.405                    89857060.100    21944009.141  
  21944009.927    86113027.330  
  22773499.158   119675560.470                    93253664.582    22773499.480  
                                
  21550856.685   113250530.273    21550854.219    88247156.635                  
                                
  20659952.283   108568783.855                    84599042.401    20659951.676  
  20659948.513    81074083.662  
  20930525.261   111807133.672    20930523.010    86961090.455                  
                                
  19438097.315   103798351.457    19438092.634    80732038.944                  
                                
  22384687.230   119322977.861    22384682.906    92806743.251                  
                                
  21270163.836   113541580.579    21270159.958    88310102.317                  
                                
  21953284.290   117394084.488    21953280.734    91306502.565                  
                                
  25694379.319   135024881.317                                                  
                                
  23867984.320   125427121.039                                                  
                                
  26820851.533   140944522.868                                                  
                                
  25507147.428   134040978.388                                                  
                                
  23470952.891   123340716.723                                                  
                                
  25448040.417   133730391.517                                                  
                                
 21  9  1  8 13 33.0000000  0 19G 1G 7G 8G13G14G17G21G30R12R13R14R22
                                R24E13E15E19E21E27E30
  21580730.064   113407513.554                    88369486.810    21580730.850  
  21580726.240    84687415.178  
  20507539.595   107767862.123                    83974926.376    20507536.808  
                                
  22318495.455   117284509.443                    91390507.222    22318494.973  
  22318490.595    87582578.232  
  23605645.369   124048505.691    23605642.546    96661268.886                  
                                
  21943595.134   115314388.764                    89855351.553    21943592.328  
  21943592.721    86111389.971  
  22772969.717   119672776.436                    93251495.232    22772968.484  
                                
  21550832.829   113250403.940    21550830.221    88247058.205                  
                                
  20659793.678   108567951.739                    84598393.999    20659793.821  
  20659790.104    81073462.274  
  20930970.718   111809510.908    20930967.984    86962939.421                  
                                
  19437936.905   103797496.778    19437932.706    80731374.193                  
                                
  22384040.550   119319532.107    22384036.369    92804063.231                  
                                
  21270783.158   113544886.215    21270779.173    88312673.370                  
                                
  21952513.527   117389962.293    21952509.953    91303296.411                  
                                
  25693812.138   135021901.866                                                  
                                
  23867845.299   125426391.168                                                  
                                
  26821093.050   140945792.900                                                  
                                
  25506788.154   134039089.704                                                  
                                
  23470964.471   123340777.108                                                  
                                
  25448415.738   133732363.595                                                  
                                
 21  9  1  8 13 34.0000000  0 19G 1G 7G 8G13G14G17G21G30R12R13R14R22
                                R24E13E15E19E21E27E30
  21580223.870   113404852.555                    88367413.322    21580223.888  
  21580219.760    84685428.068  
  20507809.811   107769281.196                    83976032.163    20507806.809  
                                
  22319051.593   117287432.506                    91392784.913    22319051.932  
  22319046.804    87584761.037  
  23605460.068   124047530.888    23605457.137    96660509.365                  
                                
  21943177.856   115312196.323                    89853643.140    21943174.908  
  21943175.408    86109752.763  
  22772440.115   119669992.730                    93249326.127    22772439.060  
                                
  21550808.974   113250278.272    21550806.276    88246960.279                  
                                
  20659635.733   108567120.222                    84597746.089    20659635.358  
  20659631.909    81072841.334  
  20931415.532   111811888.642    20931413.173    86964788.772                  
                                
  19437777.531   103796642.648    19437772.993    80730709.876                  
                                
  22383394.299   119316086.452    22383390.118    92801383.277                  
                                
  21271402.891   113548192.484    21271398.674    88315244.907                  
                                
  21951742.515   117385840.444    21951739.316    91300090.531                  
                                
  25693245.369   135018922.637                                                  
                                
  23867706.438   125425661.814                                                  
                                
  26821335.015   140947063.349                                                  
                                
  25506428.361   134037201.128                                                  
                                
  23470976.103   123340837.710                                                  
                                
  25448790.916   133734335.838                                                  
                                
 21  9  1  8 13 35.0000000  0 19G 1G 7G 8G13G14G17G21G30R12R13R14R22
                                R24E13E15E19E21E27E30
  21579717.623   113402192.046                    88365340.203    21579717.891  
  21579713.566    84683441.325  
  20508079.937   107770700.844                    83977138.352    20508076.595  
                                
  22319608.195   117290355.736                    91395062.793    22319608.356  
  22319603.084    87586943.964  
  23605274.945   124046556.695    23605271.871    96659750.275                  
                                
  21942760.722   115310004.017                    89851934.904    21942757.487  
  21942758.256    86108115.658  
  22771910.477   119667209.317                    93247157.211    22771908.654  
                                
  21550785.351   113250153.197    21550782.546    88246862.811                  
                                
  20659477.521   108566289.268                    84597098.567    20659476.770  
  20659473.804    81072220.819  
  20931860.899   111814266.805    20931858.540    86966638.457                  
                                
  19437616.764   103795789.000    19437613.172    80730045.917                  
                                
  22382747.726   119312640.787    22382743.885    92798703.313                  
                                
  21272021.731   113551499.217    21272018.229    88317816.816                  
                                
  21950972.127   117381718.935    21950968.500    91296884.915                  
                                
  25692678.295   135015943.574                                                  
                                
  23867567.846   125424932.926                                                  
                                
  26821577.104   140948334.162                                                  
                                
  25506069.158   134035312.573                                                  
                                
  23470987.593   123340898.474                                                  
                                
  25449166.201   133736308.181                                                  
                                
 21  9  1  8 13 36.0000000  0 19G 1G 7G 8G13G14G17G21G30R12R13R14R22
                                R24E13E15E19E21E27E30
  21579211.286   113399532.018                    88363267.461    21579212.162  
  21579207.337    84681454.945  
  20508350.420   107772121.034                    83978245.013    20508346.525  
                                
  22320164.261   117293279.150                    91397340.776    22320164.475  
  22320159.490    87589127.033  
  23605089.679   124045583.106    23605086.534    96658991.589                  
                                
  21942343.516   115307811.882                    89850226.717    21942340.818  
  21942341.086    86106478.672  
  22771381.089   119664426.175                    93244988.545    22771379.266  
                                
  21550761.586   113250028.729    21550758.905    88246765.828                  
                                
  20659319.327   108565458.896                    84596451.540    20659319.702  
  20659315.753    81071600.731  
  20932305.927   111816645.342    20932303.926    86968488.437                  
                                
  19437457.283   103794935.833    19437453.334    80729382.349                  
                                
  22382102.422   119309195.128    22382097.491    92796023.349                  
                                
  21272641.572   113554806.461    21272637.730    88320389.114                  
                                
  21950200.918   117377597.725    21950197.773    91293679.532                  
                                
  25692111.579   135012964.671                                                  
                                
  23867429.058   125424204.484                                                  
                                
  26821818.837   140949605.309                                                  
                                
  25505709.740   134033424.053                                                  
                                
  23470999.244   123340959.411                                                  
                                
  25449541.504   133738280.623                                                  
                                
 21  9  1  8 13 37.0000000  0 19G 1G 7G 8G13G14G17G21G30R12R13R14R22
                                R24E13E15E19E21E27E30
  21578705.414   113396872.545                    88361195.165    21578705.414  
  21578701.340    84679468.979  
  20508620.475   107773541.853                    83979352.133    20508617.348  
                                
  22320720.667   117296202.812                    91399618.927    22320720.810  
  22320715.806    87591310.285  
  23604904.949   124044610.178    23604901.178    96658233.401                  
                                
  21941926.578   115305619.949                    89848518.710    21941924.291  
  21941924.112    86104841.841  
  22770851.362   119661643.376                    93242820.071    22770850.093  
                                
  21550738.267   113249904.934    21550735.300    88246669.378                  
                                
  20659161.722   108564629.139                    84595804.967    20659161.740  
  20659157.880    81070981.112  
  20932750.794   111819024.332    20932749.436    86970338.760                  
                                
  19437298.302   103794083.211    19437293.692    80728719.206                  
                                
  22381455.063   119305749.573    22381451.150    92793343.471                  
                                
  21273261.181   113558114.249    21273257.321    88322961.831                  
                                
  21949430.853   117373476.924    21949427.225    91290474.465                  
                                
  25691544.684   135009985.998                                                  
                                
  23867290.465   125423476.600                                                  
                                
  26822060.336   140950876.908                                                  
                                
  25505350.394   134031535.641                                                  
                                
  23471010.787   123341020.573                                                  
                                
  25449916.986   133740253.215                                                  
                                
 21  9  1  8 13 38.0000000  0 19G 1G 7G 8G13G14G17G21G30R12R13R14R22
                                R24E13E15E19E21E27E30
  21578199.310   113394213.592                    88359123.230    21578199.256  
  21578195.235    84677483.388  
  20508891.083   107774963.265                    83980459.722    20508887.348  
                                
  22321276.876   117299126.708                    91401897.290    22321276.804  
  22321272.266    87593493.720  
  23604719.540   124043637.893    23604716.144    96657475.801                  
                                
  21941509.622   115303428.191                    89846810.859    21941506.334  
  21941506.977    86103205.134  
  22770321.742   119658860.885                    93240651.937    22770319.365  
                                
  21550714.840   113249781.778    21550711.981    88246573.410                  
                                
  20659004.045   108563799.985                    84595158.875    20659003.349  
  20659000.096    81070361.932  
  20933196.305   111821403.760    20933194.911    86972189.424                  
                                
  19437138.893   103793231.099    19437134.014    80728056.457                  
                                
  22380808.669   119302304.099    22380804.560    92790663.667                  
                                
  21273881.057   113561422.581    21273877.108    88325534.996                  
                                
  21948660.358   117369356.473    21948656.677    91287269.667                  
                                
  25690977.915   135007007.524                                                  
                                
  23867152.123   125422749.200                                                  
                                
  26822302.497   140952148.889                                                  
                                
  25504991.102   134029647.292                                                  
                                
  23471022.491   123341081.944                                                  
                                
  25450292.539   133742225.948                                                  
                                
 21  9  1  8 13 39.0000000  0 19G 1G 7G 8G13G14G17G21G30R12R13R14R22
                                R24E13E15E19E21E27E30
  21577693.170   113391555.114                    88357051.691    21577694.081  
  21577689.363    84675498.174  
  20509161.567   107776385.240                    83981567.750    20509158.368  
                                
  22321833.639   117302050.786                    91404175.799    22321833.889  
  22321828.635    87595677.283  
  23604534.810   124042666.218    23604531.307    96656718.629                  
                                
  21941092.648   115301236.584                    89845103.129    21941090.165  
  21941089.932    86101568.553  
  22769792.354   119656078.664                    93238483.970    22769790.210  
                                
  21550691.021   113249659.232    21550688.448    88246477.913                  
                                
  20658846.369   108562971.384                    84594513.210    20658845.940  
  20658842.402    81069743.187  
  20933642.566   111823783.648    20933640.368    86974040.446                  
                                
  19436979.126   103792379.456    19436974.605    80727394.056                  
                                
  22380161.918   119298858.690    22380158.183    92787983.902                  
                                
  21274500.701   113564731.419    21274497.002    88328108.535                  
                                
  21947889.989   117365236.347    21947886.201    91284065.127                  
                                
  25690411.020   135004029.202                                                  
                                
  23867013.549   125422022.255                                                  
                                
  26822544.783   140953421.228                                                  
                                
  25504631.738   134027758.974                                                  
                                
  23471034.321   123341143.488                                                  
                                
  25450667.968   133744198.795                                                  
                                
 21  9  1  8 13 40.0000000  0 19G 1G 7G 8G13G14G17G21G30R12R13R14R22
                                R24E13E15E19E21E27E30
  21577187.798   113388897.202                    88354980.612    21577188.316  
  21577183.706    84673513.352  
  20509432.175   107777807.822                    83982676.281    20509428.905  
                                
  22322389.794   117304975.084                    91406454.464    22322389.526  
  22322385.184    87597861.010  
  23604350.258   124041695.218    23604346.452    96655961.994                  
                                
  21940675.407   115299045.182                    89843395.518    21940672.816  
  21940672.923    86099932.117  
  22769263.038   119653296.775                    93236316.267    22769261.483  
                                
  21550667.934   113249537.338    21550665.254    88246382.933                  
                                
  20658688.657   108562143.409                    84593868.039    20658688.425  
  20658684.905    81069124.892  
  20934088.058   111826163.995    20934085.986    86975891.829                  
                                
  19436819.984   103791528.355    19436815.088    80726732.086                  
                                
  22379515.506   119295413.341    22379511.843    92785304.189                  
                                
  21275121.578   113568040.880    21275116.950    88330682.551                  
                                
  21947119.727   117361116.603    21947115.885    91280860.884                  
                                
  25689844.411   135001051.125                                                  
                                
  23866875.565   125421295.839                                                  
                                
  26822786.819   140954693.968                                                  
                                
  25504272.445   134025870.756                                                  
                                
  23471045.989   123341205.241                                                  
                                
  25451043.539   133746171.763                                                  
                                
 21  9  1  8 13 41.0000000  0 19G 1G 7G 8G13G14G17G21G30R12R13R14R22
                                R24E13E15E19E21E27E30
  21576681.908   113386239.745                    88352909.827    21576683.194  
  21576677.977    84671528.894  
  20509702.712   107779230.971                    83983785.232    20509699.746  
                                
  22322946.664   117307899.556                    91408733.275    22322946.504  
  22322941.661    87600044.868  
  23604165.135   124040724.790    23604161.865    96655205.837                  
                                
  21940258.379   115296853.909                    89841688.028    21940255.699  
  21940255.949    86098295.779  
  22768733.722   119650515.164                    93234148.782    22768731.363  
                                
  21550644.883   113249416.043    21550642.274    88246288.413                  
                                
  20658530.892   108561315.989                    84593223.298    20658530.641  
  20658527.461    81068507.008  
  20934533.926   111828544.703    20934531.657    86977743.491                  
                                
  19436660.789   103790677.737    19436655.732    80726070.494                  
                                
  22378869.773   119291967.992    22378865.449    92782624.477                  
                                
  21275741.061   113571350.776    21275737.077    88333256.915                  
                                
  21946349.054   117356997.182    21946345.373    91277656.889                  
                                
  25689277.606   134998073.164                                                  
                                
  23866737.562   125420569.853                                                  
                                
  26823029.016   140955967.085                                                  
                                
  25503913.171   134023982.574                                                  
                                
  23471057.729   123341267.158                                                  
                                
  25451418.860   133748144.818                                                  
                                
 21  9  1  8 13 42.0000000  0 19G 1G 7G 8G13G14G17G21G30R12R13R14R22
                                R24E13E15E19E21E27E30
  21576176.161   113383582.807                    88350839.529    21576177.233  
  21576172.319    84669544.820  
  20509973.964   107780654.698                    83984894.637    20509971.283  
                                
  22323503.320   117310824.241                    91411012.253    22323502.659  
  22323498.156    87602228.882  
  23603980.781   124039754.990    23603977.117    96654450.123                  
                                
  21939841.245   115294662.827                    89839980.716    21939839.083  
  21939839.011    86096659.576  
  22768204.048   119647733.859                    93231981.502    22768201.725  
                                
  21550621.903   113249295.384    21550619.366    88246194.397                  
                                
  20658373.841   108560489.164                    84592579.040    20658373.430  
  20658370.070    81067889.568  
  20934979.151   111830925.835    20934977.328    86979595.482                  
                                
  19436501.504   103789827.629    19436496.465    80725409.301                  
                                
  22378223.469   119288522.702    22378219.001    92779944.803                  
                                
  21276361.492   113574661.245    21276357.257    88335831.733                  
                                
  21945578.488   117352878.128    21945575.200    91274453.181                  
                                
  25688710.997   134995095.418                                                  
                                
  23866599.435   125419844.381                                                  
                                
  26823271.249   140957240.580                                                  
                                
  25503554.075   134022094.456                                                  
                                
  23471069.487   123341329.265                                                  
                                
  25451793.966   133750118.021                                                  
                                
 21  9  1  8 13 43.0000000  0 19G 1G 7G 8G13G14G17G21G30R12R13R14R22
                                R24E13E15E19E21E27E30
  21575670.646   113380926.453                    88348769.646    21575670.896  
  21575666.912    84667561.179  
  20510245.090   107782079.085                    83986004.521    20510242.178  
                                
  22324059.851   117313749.199                    91413291.457    22324059.637  
  22324054.830    87604413.107  
  23603795.979   124038785.894    23603792.673    96653695.002                  
                                
  21939424.432   115292471.976                    89838273.560    21939421.859  
  21939422.109    86095023.545  
  22767675.268   119644952.908                    93229814.559    22767673.267  
                                
  21550599.156   113249175.427    21550596.529    88246100.913                  
                                
  20658216.790   108559663.002                    84591935.252    20658215.879  
  20658212.895    81067272.627  
  20935425.162   111833307.494    20935423.196    86981447.882                  
                                
  19436342.756   103788978.078    19436337.485    80724748.542                  
                                
  22377576.860   119285077.528    22377572.822    92777265.225                  
                                
  21276981.082   113577972.333    21276977.473    88338407.026                  
                                
  21944808.333   117348759.468    21944804.866    91271249.783                  
                                
  25688144.549   134992117.921                                                  
                                
  23866461.611   125419119.467                                                  
                                
  26823513.356   140958514.521                                                  
                                
  25503195.086   134020206.455                                                  
                                
  23471081.495   123341391.646                                                  
                                
  25452169.680   133752091.420                                                  
                                
 21  9  1  8 13 44.0000000  0 19G 1G 7G 8G13G14G17G21G30R12R13R14R22
                                R24E13E15E19E21E27E30
  21575165.382   113378270.537                    88346700.071    21575165.918  
  21575161.379    84665577.858  
  20510516.324   107783503.992                    83987114.831    20510512.357  
                                
  22324616.578   117316674.284                    91415570.721    22324616.328  
  22324611.521    87606597.419  
  23603612.196   124037817.370    23603608.372    96652940.306                  
                                
  21939007.137   115290281.220                    89836566.465    21939004.188  
  21939005.171    86093387.597  
  22767145.880   119642172.184                    93227647.773    22767144.647  
                                
  21550576.463   113249056.009    21550573.925    88246007.869                  
                                
  20658059.471   108558837.348                    84591291.869    20658058.846  
  20658055.808    81066656.062  
  20935870.654   111835689.559    20935869.260    86983300.599                  
                                
  19436183.543   103788128.990    19436178.468    80724088.138                  
                                
  22376930.663   119281632.352    22376926.499    92774585.646                  
                                
  21277601.781   113581283.803    21277597.760    88340982.609                  
                                
  21944038.482   117344641.088    21944034.783    91268046.599                  
                                
  25687577.779   134989140.542                                                  
                                
  23866323.769   125418394.951                                                  
                                
  26823756.125   140959788.773                                                  
                                
  25502835.401   134018318.440                                                  
                                
  23471093.288   123341454.138                                                  
                                
  25452545.001   133754064.854                                                  
                                
 21  9  1  8 13 45.0000000  0 19G 1G 7G 8G13G14G17G21G30R12R13R14R22
                                R24E13E15E19E21E27E30
  21574660.367   113375615.163                    88344630.962    21574660.439  
  21574656.168    84663594.967  
  20510787.773   107784929.532                    83988225.665    20510784.699  
                                
  22325173.252   117319599.653                    91417850.220    22325172.895  
  22325168.159    87608781.948  
  23603427.931   124036849.519    23603424.214    96652186.216                  
                                
  21938590.503   115288090.692                    89834859.579    21938587.983  
  21938588.394    86091751.818  
  22766616.993   119639391.826                    93225481.278    22766615.975  
                                
  21550554.001   113248937.296    21550551.231    88245915.373                  
                                
  20657902.456   108558012.340                    84590649.010    20657902.099  
  20657898.793    81066039.985  
  20936316.933   111838072.156    20936315.075    86985153.725                  
                                
  19436024.509   103787280.468    19436019.666    80723428.177                  
                                
  22376283.893   119278187.300    22376280.194    92771906.168                  
                                
  21278222.693   113584595.929    21278218.226    88343558.709                  
                                
  21943268.398   117340523.136    21943264.896    91264843.747                  
                                
  25687011.206   134986163.412                                                  
                                
  23866185.856   125417670.994                                                  
                                
  26823998.857   140961063.465                                                  
                                
  25502476.341   134016430.554                                                  
                                
  23471105.207   123341516.888                                                  
                                
  25452920.983   133756038.479                                                  
                                
 21  9  1  8 13 46.0000000  0 19G 1G 7G 8G13G14G17G21G30R12R13R14R22
                                R24E13E15E19E21E27E30
  21574154.835   113372960.286                    88342562.256    21574155.192  
  21574150.886    84661612.424  
  20511059.150   107786355.624                    83989336.892    20511056.219  
                                
  22325729.747   117322525.193                    91420129.884    22325729.550  
  22325724.940    87610966.606  
  23603243.737   124035882.301    23603239.806    96651432.453                  
                                
  21938174.065   115285900.300                    89833152.770    21938170.831  
  21938171.510    86090116.127  
  22766087.623   119636611.739                    93223314.942    22766086.462  
                                
  21550531.325   113248819.173    21550528.734    88245823.324                  
                                
  20657745.566   108557187.871                    84590006.583    20657744.958  
  20657741.885    81065424.321  
  20936763.605   111840455.113    20936761.282    86987007.134                  
                                
  19435865.260   103786432.439    19435860.846    80722768.598                  
                                
  22375638.303   119274742.263    22375633.943    92769226.691                  
                                
  21278842.891   113587908.520    21278838.764    88346135.155                  
                                
  21942498.172   117336405.503    21942494.938    91261641.133                  
                                
  25686444.972   134983186.432                                                  
                                
  23866048.122   125416947.479                                                  
                                
  26824241.465   140962338.482                                                  
                                
  25502117.012   134014542.694                                                  
                                
  23471117.251   123341579.785                                                  
                                
  25453296.447   133758012.180                                                  
                                
 21  9  1  8 13 47.0000000  0 19G 1G 7G 8G13G14G17G21G30R12R13R14R22
                                R24E13E15E19E21E27E30
  21573650.321   113370305.916                    88340493.897    21573649.338  
  21573645.818    84659630.260  
  20511330.562   107787782.294                    83990448.580    20511327.578  
                                
  22326286.528   117325450.914                    91422409.667    22326286.224  
  22326281.596    87613151.396  
  23603059.418   124034915.667    23603055.934    96650679.234                  
                                
  21937757.360   115283710.077                    89831446.067    21937753.857  
  21937754.751    86088480.573  
  22765558.879   119633831.936                    93221148.866    22765557.574  
                                
  21550508.864   113248701.672    21550506.273    88245731.751                  
                                
  20657588.855   108556363.998                    84589364.607    20657588.444  
  20657585.084    81064809.089  
  20937209.401   111842838.437    20937207.400    86988860.830                  
                                
  19435706.351   103785584.895    19435702.098    80722109.395                  
                                
  22374991.874   119271297.274    22374987.782    92766547.257                  
                                
  21279463.358   113591221.641    21279459.409    88348712.046                  
                                
  21941728.553   117332288.214    21941724.783    91258438.801                  
                                
  25685878.435   134980209.636                                                  
                                
  23865910.351   125416224.454                                                  
                                
  26824484.234   140963613.911                                                  
                                
  25501757.702   134012654.878                                                  
                                
  23471129.259   123341642.870                                                  
                                
  25453672.090   133759985.995                                                  
                                
 21  9  1  8 13 48.0000000  0 19G 1G 7G 8G13G14G17G21G30R12R13R14R22
                                R24E13E15E19E21E27E30
  21573144.699   113367652.051                    88338425.948    21573145.021  
  21573140.839    84657648.473  
  20511601.850   107789209.548                    83991560.713    20511598.383  
                                
  22326843.202   117328376.844                    91424689.610    22326843.344  
  22326838.430    87615336.350  
  23602875.975   124033949.688    23602872.204    96649926.576                  
                                
  21937340.582   115281520.022                    89829739.572    21937337.098  
  21937338.027    86086845.155  
  22765030.009   119631052.444                    93218983.035    22765029.009  
                                
  21550487.064   113248584.807    21550484.062    88245640.704                  
                                
  20657432.125   108555540.721                    84588723.076    20657432.197  
  20657428.480    81064194.304  
  20937655.698   111845222.190    20937653.572    86990714.861                  
                                
  19435547.978   103784737.873    19435543.528    80721450.598                  
                                
  22374345.587   119267852.371    22374341.477    92763867.891                  
                                
  21280085.092   113594535.261    21280080.107    88351289.298                  
                                
  21940958.255   117328171.250    21940954.860    91255236.725                  
                                
  25685312.041   134977233.026                                                  
                                
  23865772.939   125415501.920                                                  
                                
  26824726.859   140964889.727                                                  
                                
  25501398.588   134010767.121                                                  
                                
  23471141.070   123341706.154                                                  
                                
  25454047.536   133761959.943                                                  
                                
 21  9  1  8 13 49.0000000  0 19G 1G 7G 8G13G14G17G21G30R12R13R14R22
                                R24E13E15E19E21E27E30
  21572639.595   113364998.743                    88336358.443    21572640.614  
  21572635.896    84655667.111  
  20511873.584   107790637.436                    83992673.362    20511870.850  
                                
  22327399.732   117331303.044                    91426969.768    22327399.661  
  22327395.229    87617521.495  
  23602691.888   124032984.372    23602688.457    96649174.354                  
                                
  21936924.073   115279330.199                    89828033.177    21936919.946  
  21936921.322    86085209.882  
  22764500.872   119628273.286                    93216817.451    22764499.478  
                                
  21550464.567   113248468.606    21550461.958    88245550.157                  
                                
  20657275.432   108554718.063                    84588082.062    20657275.700  
  20657271.912    81063579.980  
  20938102.227   111847606.442    20938099.940    86992569.281                  
                                
  19435389.229   103783891.421    19435385.262    80720792.249                  
                                
  22373699.121   119264407.543    22373695.154    92761188.584                  
                                
  21280704.915   113597849.458    21280701.055    88353867.026                  
                                
  21940188.208   117324054.692    21940185.295    91252034.953                  
                                
  25684745.593   134974256.638                                                  
                                
  23865635.883   125414779.913                                                  
                                
  26824969.699   140966165.963                                                  
                                
  25501039.493   134008879.484                                                  
                                
  23471153.346   123341769.685                                                  
                                
  25454423.089   133763934.058                                                  
                                
 21  9  1  8 13 50.0000000  0 19G 1G 7G 8G13G14G17G21G30R12R13R14R22
                                R24E13E15E19E21E27E30
  21572134.885   113362345.949                    88334291.321    21572135.671  
  21572131.204    84653686.140  
  20512145.658   107792065.914                    83993786.461    20512142.781  
                                
  22327956.745   117334229.440                    91429250.081    22327956.174  
  22327952.064    87619706.791  
  23602508.981   124032019.690    23602504.907    96648422.640                  
                                
  21936507.010   115277140.528                    89826326.940    21936502.900  
  21936504.509    86083574.743  
  22763972.396   119625494.443                    93214652.116    22763971.502  
                                
  21550442.516   113248353.048    21550440.104    88245460.116                  
                                
  20657119.114   108553896.001                    84587441.506    20657118.721  
  20657115.504    81062966.104  
  20938547.863   111849991.129    20938546.237    86994424.040                  
                                
  19435231.071   103783045.470    19435226.693    80720134.294                  
                                
  22373052.602   119260962.762    22373048.903    92758509.303                  
                                
  21281326.221   113601164.255    21281322.004    88356445.201                  
                                
  21939418.267   117319938.481    21939415.283    91248833.463                  
                                
  25684179.252   134971280.456                                                  
                                
  23865498.381   125414058.385                                                  
                                
  26825212.861   140967442.568                                                  
                                
  25500680.129   134006991.912                                                  
                                
  23471165.336   123341833.407                                                  
                                
  25454798.839   133765908.302                                                  
                                
 21  9  1  8 13 51.0000000  0 19G 1G 7G 8G13G14G17G21G30R12R13R14R22
                                R24E13E15E19E21E27E30
  21571630.049   113359693.650                    88332224.572    21571631.497  
  21571626.368    84651705.521  
  20512417.302   107793494.949                    83994899.998    20512413.657  
                                
  22328513.991   117337156.009                    91431530.498    22328513.508  
  22328509.041    87621892.227  
  23602325.430   124031055.635    23602321.517    96647671.483                  
                                
  21936090.501   115274951.013                    89824620.808    21936086.785  
  21936087.910    86081939.715  
  22763443.437   119622715.861                    93212487.008    22763441.864  
                                
  21550420.573   113248238.085    21550418.518    88245370.551                  
                                
  20656962.796   108553074.514                    84586801.363    20656962.456  
  20656959.240    81062352.658  
  20938994.678   111852376.201    20938992.587    86996279.099                  
                                
  19435073.019   103782200.031    19435068.373    80719476.728                  
                                
  22372406.476   119257517.985    22372402.616    92755830.041                  
                                
  21281947.366   113604479.528    21281942.881    88359023.734                  
                                
  21938649.167   117315822.598    21938645.611    91245632.227                  
                                
  25683613.000   134968304.432                                                  
                                
  23865361.201   125413337.342                                                  
                                
  26825455.719   140968719.532                                                  
                                
  25500320.729   134005104.369                                                  
                                
  23471177.505   123341897.290                                                  
                                
  25455174.589   133767882.631                                                  
                                
 21  9  1  8 13 52.0000000  0 19G 1G 7G 8G13G14G17G21G30R12R13R14R22
                                R24E13E15E19E21E27E30
  21571125.803   113357041.877                    88330158.278    21571127.161  
  21571121.783    84649725.303  
  20512689.501   107794924.586                    83996014.023    20512686.285  
                                
  22329070.539   117340082.816                    91433811.147    22329071.308  
  22329065.965    87624077.825  
  23602142.237   124030092.206    23602138.288    96646920.734                  
                                
  21935674.207   115272761.679                    89822914.857    21935670.865  
  21935671.348    86080304.830  
  22762914.960   119619937.613                    93210322.137    22762913.763  
                                
  21550398.898   113248123.770    21550396.825    88245281.465                  
                                
  20656806.602   108552253.637                    84586161.719    20656806.924  
  20656802.939    81061739.650  
  20939441.367   111854761.754    20939439.277    86998134.526                  
                                
  19434914.932   103781355.100    19434910.125    80718819.557                  
                                
  22371760.261   119254073.278    22371756.383    92753150.823                  
                                
  21282568.297   113607795.330    21282564.008    88361602.704                  
                                
  21937879.405   117311707.104    21937875.778    91242431.289                  
                                
  25683046.749   134965328.614                                                  
                                
  23865223.966   125412616.785                                                  
                                
  26825698.666   140969996.912                                                  
                                
  25499961.740   134003216.897                                                  
                                
  23471189.799   123341961.375                                                  
                                
  25455550.267   133769857.096                                                  
                                
 21  9  1  8 13 53.0000000  0 19G 1G 7G 8G13G14G17G21G30R12R13R14R22
                                R24E13E15E19E21E27E30
  21570621.164   113354390.606                    88328092.355    21570622.683  
  21570617.304    84647745.457  
  20512961.664   107796354.795                    83997128.465    20512958.394  
                                
  22329627.731   117343009.826                    91436091.916    22329627.285  
  22329622.925    87626263.581  
  23601958.990   124029129.419    23601955.077    96646170.520                  
                                
  21935257.144   115270572.522                    89821209.030    21935253.999  
  21935254.767    86078670.072  
  22762386.145   119617159.656                    93208157.498    22762384.769  
                                
  21550377.312   113248010.084    21550375.043    88245192.863                  
                                
  20656650.391   108551433.318                    84585522.527    20656651.178  
  20656646.818    81061127.088  
  20939888.718   111857147.742    20939885.877    86999990.289                  
                                
  19434756.719   103780510.684    19434751.913    80718162.785                  
                                
  22371114.474   119250628.628    22371110.186    92750471.644                  
                                
  21283190.300   113611111.718    21283185.243    88364182.108                  
                                
  21937110.322   117307591.955    21937106.480    91239230.614                  
                                
  25682480.640   134962352.986                                                  
                                
  23865087.233   125411896.724                                                  
                                
  26825941.774   140971274.650                                                  
                                
  25499602.448   134001329.495                                                  
                                
  23471201.950   123342025.657                                                  
                                
  25455926.053   133771831.701                                                  
                                
 21  9  1  8 13 54.0000000  0 19G 1G 7G 8G13G14G17G21G30R12R13R14R22
                                R24E13E15E19E21E27E30
  21570116.740   113351739.813                    88326026.795    21570118.223  
  21570112.880    84645765.982  
  20513234.149   107797785.588                    83998243.327    20513230.557  
                                
  22330184.959   117345937.026                    91438372.855    22330184.477  
  22330179.938    87628449.471  
  23601775.779   124028167.243    23601772.134    96645420.724                  
                                
  21934840.778   115268383.509                    89819503.298    21934837.097  
  21934838.187    86077035.424  
  22761857.793   119614381.977                    93205993.103    22761856.936  
                                
  21550355.834   113247896.993    21550353.421    88245104.738                  
                                
  20656494.305   108550613.592                    84584883.734    20656494.431  
  20656490.892    81060514.941  
  20940334.318   111859534.141    20940332.621    87001846.378                  
                                
  19434598.328   103779666.761    19434593.951    80717506.402                  
                                
  22370468.170   119247184.038    22370464.131    92747792.523                  
                                
  21283810.694   113614428.571    21283806.567    88366761.883                  
                                
  21936340.989   117303477.147    21936336.933    91236030.212                  
                                
  25681914.389   134959377.520                                                  
                                
  23864950.052   125411177.115                                                  
                                
  26826185.186   140972552.760                                                  
                                
  25499243.155   133999442.131                                                  
                                
  23471214.297   123342090.112                                                  
                                
  25456301.749   133773806.391                                                  
                                
 21  9  1  8 13 55.0000000  0 19G 1G 7G 8G13G14G17G21G30R12R13R14R22
                                R24E13E15E19E21E27E30
  21569612.726   113349089.546                    88323961.633    21569612.386  
  21569608.580    84643786.878  
  20513506.437   107799216.939                    83999358.684    20513503.578  
                                
  22330741.758   117348864.400                    91440653.935    22330741.454  
  22330737.040    87630635.499  
  23601592.639   124027205.686    23601589.441    96644671.521                  
                                
  21934424.411   115266194.657                    89817797.715    21934420.498  
  21934421.624    86075400.894  
  22761329.120   119611604.595                    93203828.897    22761327.316  
                                
  21550334.373   113247784.531    21550332.014    88245017.109                  
                                
  20656338.845   108549794.429                    84584245.450    20656338.541  
  20656335.003    81059903.237  
  20940781.544   111861920.961    20940779.275    87003702.789                  
                                
  19434440.152   103778823.347    19434435.917    80716850.423                  
                                
  22369821.686   119243739.511    22369817.952    92745113.436                  
                                
  21284432.072   113617745.979    21284427.944    88369342.084                  
                                
  21935571.102   117299362.689    21935567.439    91232830.066                  
                                
  25681347.977   134956402.236                                                  
                                
  23864813.247   125410458.008                                                  
                                
  26826428.473   140973831.250                                                  
                                
  25498884.310   133997554.802                                                  
                                
  23471226.716   123342154.743                                                  
                                
  25456677.767   133775781.207                                                  
                                
 21  9  1  8 13 56.0000000  0 19G 1G 7G 8G13G14G17G21G30R12R13R14R22
                                R24E13E15E19E21E27E30
  21569108.516   113346439.809                    88321896.927    21569108.123  
  21569104.352    84641808.178  
  20513778.868   107800648.917                    84000474.523    20513775.652  
                                
  22331298.842   117351792.031                    91442935.204    22331298.539  
  22331294.179    87632821.715  
  23601409.750   124026244.804    23601406.533    96643922.701                  
                                
  21934007.902   115264006.028                    89816092.290    21934004.918  
  21934005.204    86073766.523  
  22760800.662   119608827.554                    93201664.962    22760798.160  
                                
  21550312.948   113247672.737    21550310.750    88244929.995                  
                                
  20656182.580   108548975.896                    84583607.649    20656183.599  
  20656179.221    81059291.998  
  20941228.824   111864308.231    20941226.268    87005559.555                  
                                
  19434283.083   103777980.473    19434278.026    80716194.849                  
                                
  22369175.632   119240295.078    22369171.754    92742434.442                  
                                
  21285054.646   113621063.912    21285049.607    88371922.705                  
                                
  21934801.644   117295248.615    21934798.178    91229630.243                  
                                
  25680782.083   134953427.192                                                  
                                
  23864676.656   125409739.414                                                  
                                
  26826671.652   140975110.150                                                  
                                
  25498525.107   133995667.591                                                  
                                
  23471238.867   123342219.618                                                  
                                
  25457053.588   133777756.185                                                  
                                
 21  9  1  8 13 57.0000000  0 19G 1G 7G 8G13G14G17G21G30R12R13R14R22
                                R24E13E15E19E21E27E30
  21568604.305   113343790.586                    88319832.592    21568604.949  
  21568600.213    84639829.862  
  20514051.443   107802081.474                    84001590.789    20514048.726  
                                
  22331856.124   117354719.839                    91445216.617    22331855.516  
  22331851.245    87635008.065  
  23601227.200   124025284.541    23601223.644    96643174.465                  
                                
  21933591.304   115261817.551                    89814386.988    21933589.303  
  21933588.874    86072132.267  
  22760272.257   119606050.788                    93199501.225    22760270.684  
                                
  21550291.934   113247561.554    21550289.861    88244843.363                  
                                
  20656026.905   108548157.939                    84582970.275    20656026.905  
  20656023.635    81058681.188  
  20941675.907   111866695.940    20941673.280    87007416.655                  
                                
  19434125.121   103777138.088    19434120.225    80715539.661                  
                                
  22368529.113   119236850.693    22368525.378    92739755.467                  
                                
  21285675.559   113624382.363    21285671.306    88374503.716                  
                                
  21934032.401   117291134.847    21934028.791    91226430.638                  
                                
  25680215.670   134950452.313                                                  
                                
  23864540.012   125409021.290                                                  
                                
  26826915.189   140976389.414                                                  
                                
  25498166.207   133993780.409                                                  
                                
  23471251.519   123342284.654                                                  
                                
  25457429.141   133779731.250                                                  
                                
 21  9  1  8 13 58.0000000  0 19G 1G 7G 8G13G14G17G21G30R12R13R14R22
                                R24E13E15E19E21E27E30
  21568099.952   113341141.874                    88317768.674    21568101.149  
  21568096.235    84637851.919  
  20514324.177   107803514.609                    84002707.531    20514320.568  
                                
  22332413.065   117357647.864                    91447498.204    22332412.476  
  22332408.455    87637194.581  
  23601044.507   124024324.885    23601041.094    96642426.764                  
                                
  21933174.938   115259629.236                    89812681.812    21933172.043  
  21933172.347    86070498.142  
  22759744.031   119603274.327                    93197337.747    22759742.137  
                                
  21550271.117   113247451.004    21550268.847    88244757.223                  
                                
  20655871.499   108547340.572                    84582333.357    20655871.391  
  20655867.978    81058070.816  
  20942122.739   111869084.088    20942120.202    87009274.103                  
                                
  19433967.248   103776296.210    19433962.781    80714884.865                  
                                
  22367883.362   119233406.332    22367879.216    92737076.522                  
                                
  21286297.348   113627701.315    21286293.095    88377085.125                  
                                
  21933263.086   117287021.418    21933259.619    91223231.303                  
                                
  25679649.740   134947477.613                                                  
                                
  23864403.296   125408303.668                                                  
                                
  26827158.762   140977669.086                                                  
                                
  25497806.629   133991893.292                                                  
                                
  23471263.759   123342349.893                                                  
                                
  25457805.266   133781706.454                                                  
                                
 21  9  1  8 13 59.0000000  0 19G 1G 7G 8G13G14G17G21G30R12R13R14R22
                                R24E13E15E19E21E27E30
  21567596.028   113338493.684                    88315705.138    21567596.993  
  21567592.240    84635874.377  
  20514597.002   107804948.366                    84003824.733    20514593.660  
                                
  22332970.275   117360576.121                    91449779.917    22332971.097  
  22332965.629    87639381.262  
  23600861.510   124023365.904    23600858.651    96641679.463                  
                                
  21932758.679   115257441.130                    89810976.760    21932755.516  
  21932756.142    86068864.162  
  22759215.608   119600498.201                    93195174.539    22759214.411  
                                
  21550250.121   113247341.103    21550247.976    88244671.592                  
                                
  20655715.913   108546523.839                    84581696.916    20655714.841  
  20655712.607    81057460.899  
  20942569.894   111871472.721    20942567.482    87011131.929                  
                                
  19433810.090   103775454.839    19433805.123    80714230.465                  
                                
  22367237.343   119229962.054    22367233.144    92734397.642                  
                                
  21286919.547   113631020.845    21286914.972    88379666.980                  
                                
  21932493.949   117282908.375    21932490.304    91220032.281                  
                                
  25679083.757   134944503.150                                                  
                                
  23864266.973   125407586.553                                                  
                                
  26827402.477   140978949.139                                                  
                                
  25497447.944   133990006.274                                                  
                                
  23471276.035   123342415.358                                                  
                                
  25458180.802   133783681.819                                                  
                                
 21  9  1  8 14  0.0000000  0 19G 1G 7G 8G13G14G17G21G30R12R13R14R22
                                R24E13E15E19E21E27E30
  21567092.336   113335846.022                    88313642.021    21567093.783  
  21567088.405    84633897.231  
  20514870.130   107806382.715                    84004942.410    20514867.342  
                                
  22333527.806   117363504.580                    91452061.879    22333528.164  
  22333522.892    87641568.099  
  23600679.300   124022407.552    23600676.298    96640932.667                  
                                
  21932342.170   115255253.208                    89809271.901    21932339.096  
  21932339.758    86067230.333  
  22758687.203   119597722.389                    93193011.571    22758686.024  
                                
  21550229.196   113247231.842    21550227.105    88244586.440                  
                                
  20655560.774   108545707.678                    84581060.978    20655560.149  
  20655557.379    81056851.447  
  20943017.048   111873861.746    20943014.725    87012990.056                  
                                
  19433652.253   103774614.007    19433647.714    80713576.480                  
                                
  22366591.467   119226517.821    22366587.089    92731718.789                  
                                
  21287540.692   113634340.903    21287536.761    88382249.252                  
                                
  21931725.367   117278795.720    21931721.114    91216833.540                  
                                
  25678517.863   134941528.873                                                  
                                
  23864130.650   125406869.938                                                  
                                
  26827645.979   140980229.615                                                  
                                
  25497088.830   133988119.330                                                  
                                
  23471288.793   123342481.013                                                  
                                
  25458557.034   133785657.299                                                  
                                
 21  9  1  8 14  1.0000000  0 19G 1G 7G 8G13G14G17G21G30R12R13R14R22
                                R24E13E15E19E21E27E30
  21566588.376   113333198.853                    88311579.285    21566589.877  
  21566584.731    84631920.449  
  20515142.722   107807817.614                    84006060.517    20515139.648  
                                
  22334085.177   117366433.224                    91454343.953    22334085.248  
  22334080.281    87643755.075  
  23600497.125   124021449.803    23600493.962    96640186.399                  
                                
  21931925.822   115253065.430                    89807567.130    21931923.213  
  21931923.392    86065596.594  
  22758158.977   119594946.855                    93190848.802    22758156.976  
                                
  21550208.486   113247123.188    21550206.520    88244501.782                  
                                
  20655405.868   108544892.098                    84580425.452    20655405.099  
  20655402.115    81056242.402  
  20943464.435   111876251.170    20943461.826    87014848.495                  
                                
  19433495.059   103773773.635    19433490.306    80712922.864                  
                                
  22365944.877   119223073.657    22365941.035    92729039.999                  
                                
  21288163.320   113637661.470    21288158.782    88384831.927                  
                                
  21930956.159   117274683.409    21930952.031    91213635.084                  
                                
  25677951.808   134938554.765                                                  
                                
  23863994.310   125406153.777                                                  
                                
  26827889.641   140981510.428                                                  
                                
  25496729.877   133986232.415                                                  
                                
  23471301.462   123342546.844                                                  
                                
  25458932.855   133787632.884                                                  
                                
 21  9  1  8 14  2.0000000  0 19G 1G 7G 8G13G14G17G21G30R12R13R14R22
                                R24E13E15E19E21E27E30
  21566084.880   113330552.212                    88309516.983    21566085.005  
  21566081.146    84629944.070  
  20515416.010   107809253.128                    84007179.093    20515413.080  
                                
  22334642.476   117369362.100                    91456626.176    22334642.387  
  22334637.526    87645942.216  
  23600314.879   124020492.730    23600312.038    96639440.623                  
                                
  21931509.545   115250877.854                    89805862.551    21931506.650  
  21931507.240    86063963.011  
  22757631.162   119592171.627                    93188686.309    22757628.714  
                                
  21550187.919   113247015.189    21550186.042    88244417.633                  
                                
  20655250.854   108544077.128                    84579790.411    20655250.014  
  20655247.083    81055633.818  
  20943911.447   111878641.083    20943909.409    87016707.317                  
                                
  19433337.562   103772933.782    19433333.059    80712269.638                  
                                
  22365299.340   119219629.599    22365295.034    92726361.288                  
                                
  21288785.877   113640982.598    21288780.945    88387414.999                  
                                
  21930186.951   117270571.437    21930183.288    91210436.885                  
                                
  25677385.825   134935580.866                                                  
                                
  23863858.023   125405438.117                                                  
                                
  26828133.588   140982791.644                                                  
                                
  25496370.692   133984345.588                                                  
                                
  23471313.631   123342612.896                                                  
                                
  25459308.909   133789608.618                                                  
                                
 21  9  1  8 14  3.0000000  0 19G 1G 7G 8G13G14G17G21G30R12R13R14R22
                                R24E13E15E19E21E27E30
  21565581.170   113327906.079                    88307455.068    21565581.850  
  21565577.418    84627968.053  
  20515688.996   107810689.209                    84008298.111    20515686.279  
                                
  22335199.900   117372291.129                    91458908.526    22335199.150  
  22335194.897    87648129.476  
  23600132.722   124019536.247    23600130.328    96638695.316                  
                                
  21931093.107   115248690.408                    89804158.056    21931089.945  
  21931090.999    86062329.539  
  22757103.186   119589396.690                    93186524.015    22757101.452  
                                
  21550167.762   113246907.800    21550165.475    88244333.935                  
                                
  20655095.983   108543262.707                    84579155.790    20655095.804  
  20655092.052    81055025.649  
  20944358.833   111881031.411    20944356.903    87018566.467                  
                                
  19433180.261   103772094.423    19433175.722    80711616.804                  
                                
  22364652.964   119216185.596    22364649.140    92723682.618                  
                                
  21289407.540   113644304.221    21289403.270    88389998.502                  
                                
  21929418.244   117266459.783    21929414.366    91207238.919                  
                                
  25676819.913   134932607.122                                                  
                                
  23863722.004   125404722.945                                                  
                                
  26828377.340   140984073.232                                                  
                                
  25496011.936   133982458.793                                                  
                                
  23471326.211   123342679.115                                                  
                                
  25459684.694   133791584.459                                                  
                                
 21  9  1  8 14  4.0000000  0 19G 1G 7G 8G13G14G17G21G30R12R13R14R22
                                R24E13E15E19E21E27E30
  21565077.997   113325260.469                    88305393.549    21565078.515  
  21565074.065    84625992.437  
  20515962.963   107812125.894                    84009417.594    20515959.890  
                                
  22335757.235   117375220.386                    91461191.030    22335756.735  
  22335752.303    87650316.915  
  23599951.012   124018580.415    23599948.278    96637950.510                  
                                
  21930676.991   115246503.161                    89802453.690    21930673.704  
  21930674.740    86060696.212  
  22756575.371   119586622.072                    93184361.991    22756573.905  
                                
  21550147.034   113246801.047    21550144.944    88244250.765                  
                                
  20654940.737   108542448.911                    84578521.675    20654940.380  
  20654937.217    81054417.944  
  20944806.970   111883422.222    20944804.433    87020425.987                  
                                
  19433023.228   103771255.581    19433018.564    80710964.375                  
                                
  22364006.945   119212741.625    22364003.086    92721003.965                  
                                
  21290029.972   113647626.401    21290025.558    88392582.408                  
                                
  21928649.268   117262348.489    21928645.516    91204041.256                  
                                
  25676254.179   134929633.602                                                  
                                
  23863585.824   125404008.266                                                  
                                
  26828621.431   140985355.210                                                  
                                
  25495652.840   133980572.075                                                  
                                
  23471338.880   123342745.533                                                  
                                
  25460060.659   133793560.417                                                  
                                
 21  9  1  8 14  5.0000000  0 19G 1G 7G 8G13G14G17G21G30R12R13R14R22
                                R24E13E15E19E21E27E30
  21564574.823   113322615.363                    88303332.409    21564574.966  
  21564570.659    84624017.198  
  20516236.270   107813563.155                    84010537.576    20516233.876  
                                
  22336314.534   117378149.855                    91463473.786    22336314.945  
  22336309.799    87652504.507  
  23599769.034   124017625.222    23599766.336    96637206.172                  
                                
  21930260.840   115244316.087                    89800749.477    21930257.159  
  21930258.517    86059063.005  
  22756047.591   119583847.756                    93182200.150    22756046.573  
                                
  21550126.878   113246694.932    21550124.716    88244168.066                  
                                
  20654786.116   108541635.685                    84577887.996    20654785.938  
  20654782.471    81053810.673  
  20945254.715   111885813.433    20945252.070    87022285.813                  
                                
  19432866.588   103770417.233    19432861.477    80710312.327                  
                                
  22363360.623   119209297.677    22363356.852    92718325.332                  
                                
  21290652.082   113650949.103    21290648.026    88395166.738                  
                                
  21927880.650   117258237.572    21927876.665    91200843.874                  
                                
  25675688.285   134926660.263                                                  
                                
  23863449.912   125403294.072                                                  
                                
  26828865.182   140986637.570                                                  
                                
  25495293.798   133978685.424                                                  
                                
  23471351.657   123342812.151                                                  
                                
  25460436.820   133795536.512                                                  
                                
 21  9  1  8 14  6.0000000  0 19G 1G 7G 8G13G14G17G21G30R12R13R14R22
                                R24E13E15E19E21E27E30
  21564071.774   113319970.776                    88301271.722    21564072.060  
  21564067.307    84622042.349  
  20516509.881   107815001.002                    84011657.947    20516507.808  
                                
  22336872.244   117381079.537                    91465756.624    22336872.101  
  22336867.169    87654692.255  
  23599588.128   124016670.658    23599584.697    96636462.374                  
                                
  21929844.903   115242129.192                    89799045.414    21929841.168  
  21929842.437    86057429.919  
  22755519.472   119581073.755                    93180038.584    22755517.953  
                                
  21550106.579   113246589.447    21550104.810    88244085.907                  
                                
  20654631.174   108540823.080                    84577254.796    20654630.852  
  20654627.761    81053203.849  
  20945702.173   111888205.053    20945699.707    87024145.957                  
                                
  19432708.947   103769579.411    19432704.552    80709660.685                  
                                
  22362714.783   119205853.781    22362710.834    92715646.748                  
                                
  21291274.996   113654272.350    21291270.815    88397751.486                  
                                
  21927111.389   117254127.061    21927108.172    91197646.812                  
                                
  25675122.445   134923687.118                                                  
                                
  23863314.125   125402580.376                                                  
                                
  26829109.076   140987920.311                                                  
                                
  25494934.809   133976798.844                                                  
                                
  23471364.415   123342878.965                                                  
                                
  25460812.677   133797512.723                                                  
                                
 21  9  1  8 14  7.0000000  0 19G 1G 7G 8G13G14G17G21G30R12R13R14R22
                                R24E13E15E19E21E27E30
  21563568.457   113317326.689                    88299211.364    21563568.439  
  21563564.258    84620067.863  
  20516783.616   107816439.413                    84012778.807    20516780.864  
                                
  22337429.311   117384009.373                    91468039.612    22337430.044  
  22337424.719    87656880.122  
  23599406.454   124015716.710    23599403.059    96635719.012                  
                                
  21929428.662   115239942.436                    89797341.432    21929423.980  
  21929426.213    86055796.964  
  22754991.657   119578300.029                    93177877.267    22754989.870  
                                
  21550086.959   113246484.576    21550084.904    88244004.173                  
                                
  20654476.589   108540011.027                    84576622.016    20654476.482  
  20654473.355    81052597.446  
  20946149.506   111890597.087    20946147.791    87026006.435                  
                                
  19432552.486   103768742.044    19432547.858    80709009.400                  
                                
  22362068.639   119202409.926    22362064.851    92712968.208                  
                                
  21291897.213   113657596.084    21291893.550    88400336.605                  
                                
  21926343.182   117250016.879    21926339.465    91194450.008                  
                                
  25674556.801   134920714.143                                                  
                                
  23863178.428   125401867.146                                                  
                                
  26829353.596   140989203.428                                                  
                                
  25494575.963   133974912.299                                                  
                                
  23471377.191   123342945.944                                                  
                                
  25461188.962   133799489.062                                                  
                                
 21  9  1  8 14  8.0000000  0 19G 1G 7G 8G13G14G17G21G30R12R13R14R22
                                R24E13E15E19E21E27E30
  21563065.069   113314683.158                    88297151.510    21563065.873  
  21563061.084    84618093.803  
  20517057.477   107817878.455                    84013900.155    20517053.814  
                                
  22337986.878   117386939.458                    91470322.814    22337986.467  
  22337982.357    87659068.172  
  23599225.101   124014763.454    23599221.688    96634976.241                  
                                
  21929012.420   115237755.908                    89795637.637    21929008.847  
  21929010.187    86054164.168  
  22754463.913   119575526.649                    93175716.187    22754463.306  
                                
  21550067.249   113246380.376    21550065.123    88243922.970                  
                                
  20654322.147   108539199.605                    84575989.757    20654321.968  
  20654318.931    81051991.516  
  20946597.750   111892989.622    20946595.552    87027867.291                  
                                
  19432396.418   103767905.268    19432391.200    80708358.581                  
                                
  22361422.602   119198966.210    22361418.725    92710289.761                  
                                
  21292520.771   113660920.419    21292516.304    88402922.215                  
                                
  21925574.260   117245907.070    21925570.936    91191253.497                  
                                
  25673990.978   134917741.406                                                  
                                
  23863042.981   125401154.454                                                  
                                
  26829597.669   140990486.953                                                  
                                
  25494216.635   133973025.865                                                  
                                
  23471389.860   123343013.175                                                  
                                
  25461564.873   133801465.551                                                  
                                
 21  9  1  8 14  9.0000000  0 19G 1G 7G 8G13G14G17G21G30R12R13R14R22
                                R24E13E15E19E21E27E30
  21562562.092   113312040.089                    88295091.959    21562562.824  
  21562558.161    84616120.084  
  20517331.641   107819318.054                    84015021.884    20517328.121  
                                
  22338544.856   117389869.704                    91472606.104    22338544.481  
  22338539.942    87661256.336  
  23599043.516   124013810.750    23599040.282    96634233.842                  
                                
  21928596.305   115235569.518                    89793933.918    21928592.820  
  21928594.089    86052531.469  
  22753935.973   119572753.525                    93173555.325    22753935.347  
                                
  21550047.682   113246276.767    21550045.377    88243842.233                  
                                
  20654168.027   108538388.729                    84575357.899    20654167.687  
  20654164.542    81051385.996  
  20947045.995   111895382.542    20947043.654    87029728.447                  
                                
  19432239.707   103767068.939    19432234.686    80707708.099                  
                                
  22360775.797   119195522.501    22360772.777    92707611.311                  
                                
  21293143.524   113664245.258    21293139.164    88405508.194                  
                                
  21924806.178   117241797.535    21924802.479    91188057.197                  
                                
  25673425.477   134914768.804                                                  
                                
  23862907.337   125400442.204                                                  
                                
  26829841.706   140991770.836                                                  
                                
  25493857.825   133971139.440                                                  
                                
  23471402.708   123343080.547                                                  
                                
  25461941.195   133803442.110                                                  
                                
 21  9  1  8 14 10.0000000  0 19G 1G 7G 8G13G14G17G21G30R12R13R14R22
                                R24E13E15E19E21E27E30
  21562059.383   113309397.589                    88293032.870    21562059.454  
  21562055.308    84614146.782  
  20517605.734   107820758.267                    84016144.137    20517602.303  
                                
  22339102.316   117392800.215                    91474889.637    22339101.405  
  22339097.581    87663444.705  
  23598862.002   124012858.763    23598859.018    96633492.072                  
                                
  21928180.492   115233383.330                    89792230.425    21928176.633  
  21928178.026    86050898.920  
  22753408.158   119569980.756                    93171394.703    22753407.479  
                                
  21550028.009   113246173.824    21550025.811    88243762.040                  
                                
  20654013.710   108537578.505                    84574726.557    20654012.977  
  20654010.404    81050780.956  
  20947493.971   111897775.915    20947491.541    87031589.964                  
                                
  19432082.602   103766233.180    19432078.278    80707058.061                  
                                
  22360129.903   119192078.884    22360126.812    92704932.954                  
                                
  21293766.331   113667570.586    21293762.257    88408094.577                  
                                
  21924037.953   117237688.398    21924033.932    91184861.199                  
                                
  25672859.833   134911796.451                                                  
                                
  23862771.908   125399730.486                                                  
                                
  26830086.119   140993055.124                                                  
                                
  25493498.693   133969253.115                                                  
                                
  23471415.467   123343148.145                                                  
                                
  25462317.159   133805418.840                                                  
                                
 21  9  1  8 14 11.0000000  0 19G 1G 7G 8G13G14G17G21G30R12R13R14R22
                                R24E13E15E19E21E27E30
  21561556.620   113306755.588                    88290974.141    21561557.156  
  21561552.510    84612173.866  
  20517879.738   107822199.066                    84017266.842    20517876.861  
                                
  22339660.116   117395730.927                    91477173.350    22339660.419  
  22339655.255    87665633.226  
  23598680.953   124011907.391    23598677.755    96632750.659                  
                                
  21927764.519   115231197.319                    89790527.050    21927760.427  
  21927761.982    86049266.518  
  22752880.646   119567208.283                    93169234.348    22752879.431  
                                
  21550008.353   113246071.514    21550006.459    88243682.307                  
                                
  20653859.822   108536768.870                    84574095.678    20653859.661  
  20653856.319    81050176.350  
  20947941.948   111900169.724    20947939.678    87033451.818                  
                                
  19431926.052   103765397.954    19431921.727    80706408.444                  
                                
  22359484.760   119188635.339    22359480.954    92702254.641                  
                                
  21294388.941   113670896.501    21294385.278    88410681.383                  
                                
  21923269.174   117233579.642    21923265.618    91181665.498                  
                                
  25672294.404   134908824.263                                                  
                                
  23862636.764   125399019.255                                                  
                                
  26830330.424   140994339.819                                                  
                                
  25493139.615   133967366.869                                                  
                                
  23471428.422   123343215.954                                                  
                                
  25462693.641   133807395.701                                                  
                                
 21  9  1  8 14 12.0000000  0 19G 1G 7G 8G13G14G17G21G30R12R13R14R22
                                R24E13E15E19E21E27E30
  21561053.643   113304114.111                    88288915.873    21561054.304  
  21561049.836    84610201.331  
  20518153.723   107823640.444                    84018389.980    20518151.186  
                                
  22340217.718   117398661.843                    91479457.123    22340217.290  
  22340213.019    87667821.897  
  23598499.905   124010956.636    23598496.813    96632009.866                  
                                
  21927348.493   115229011.463                    89788823.788    21927344.454  
  21927346.080    86047634.227  
  22752353.528   119564436.089                    93167074.172    22752352.063  
                                
  21549989.036   113245969.824    21549987.160    88243603.065                  
                                
  20653705.684   108535959.807                    84573465.228    20653705.898  
  20653702.378    81049572.178  
  20948390.317   111902563.957    20948387.941    87035313.996                  
                                
  19431769.894   103764563.209    19431765.534    80705759.197                  
                                
  22358839.045   119185191.817    22358835.007    92699576.346                  
                                
  21295012.231   113674222.881    21295008.532    88413268.570                  
                                
  21922500.680   117229471.243    21922497.160    91178470.073                  
                                
  25671728.778   134905852.280                                                  
                                
  23862501.478   125398308.494                                                  
                                
  26830575.033   140995624.870                                                  
                                
  25492780.734   133965480.659                                                  
                                
  23471441.305   123343283.934                                                  
                                
  25463069.534   133809372.671                                                  
                                
 21  9  1  8 14 13.0000000  0 19G 1G 7G 8G13G14G17G21G30R12R13R14R22
                                R24E13E15E19E21E27E30
  21560551.309   113301473.114                    88286857.959    21560552.202  
  21560547.324    84608229.164  
  20518428.102   107825082.382                    84019513.559    20518425.726  
                                
  22340775.393   117401592.922                    91481741.114    22340774.339  
  22340770.961    87670010.688  
  23598319.660   124010006.499    23598316.265    96631269.548                  
                                
  21926932.448   115226825.768                    89787120.654    21926929.196  
  21926930.054    86046002.048  
  22751826.034   119561664.192                    93164914.288    22751823.497  
                                
  21549969.952   113245868.738    21549967.844    88243524.297                  
                                
  20653552.082   108535151.311                    84572835.242    20653551.742  
  20653548.561    81048968.437  
  20948838.472   111904958.601    20948836.149    87037176.497                  
                                
  19431614.291   103763728.947    19431609.288    80705110.327                  
                                
  22358192.115   119181748.332    22358188.917    92696898.086                  
                                
  21295635.913   113677549.771    21295631.893    88415856.154                  
                                
  21921733.063   117225363.192    21921728.989    91175274.928                  
                                
  25671163.295   134902880.470                                                  
                                
  23862366.281   125397598.213                                                  
                                
  26830819.785   140996910.285                                                  
                                
  25492421.870   133963594.498                                                  
                                
  23471454.350   123343352.083                                                  
                                
  25463445.874   133811349.730                                                  
                                
 21  9  1  8 14 14.0000000  0 19G 1G 7G 8G13G14G17G21G30R12R13R14R22
                                R24E13E15E19E21E27E30
  21560048.814   113298832.665                    88284800.473    21560049.779  
  21560044.811    84606257.395  
  20518702.767   107826524.939                    84020637.620    20518699.283  
                                
  22341333.478   117404524.243                    91484025.248    22341332.495  
  22341328.671    87672199.663  
  23598139.022   124009057.009    23598135.591    96630529.580                  
                                
  21926517.011   115224640.273                    89785417.689    21926514.063  
  21926514.170    86044370.025  
  22751298.398   119558892.620                    93162754.622    22751296.343  
                                
  21549950.636   113245768.327    21549948.813    88243446.066                  
                                
  20653398.479   108534343.428                    84572205.709    20653398.247  
  20653394.798    81048365.150  
  20949286.913   111907353.708    20949284.483    87039039.358                  
                                
  19431457.991   103762895.227    19431453.130    80704461.878                  
                                
  22357546.525   119178304.926    22357543.005    92694219.875                  
                                
  21296258.399   113680877.227    21296255.218    88418444.184                  
                                
  21920964.570   117221255.524    21920960.835    91172080.075                  
                                
  25670597.633   134899908.860                                                  
                                
  23862231.352   125396888.435                                                  
                                
  26831064.412   140998196.107                                                  
                                
  25492062.882   133961708.425                                                  
                                
  23471467.358   123343420.465                                                  
                                
  25463822.106   133813326.967                                                  
                                
 21  9  1  8 14 15.0000000  0 19G 1G 7G 8G13G14G17G21G30R12R13R14R22
                                R24E13E15E19E21E27E30
  21559546.444   113296192.709                    88282743.363    21559547.623  
  21559542.584    84604286.000  
  20518977.396   107827968.048                    84021762.143    20518974.859  
                                
  22341891.474   117407455.724                    91486309.524    22341891.456  
  22341886.542    87674388.763  
  23597958.509   124008108.143    23597955.185    96629790.257                  
                                
  21926100.842   115222454.928                    89783714.816    21926097.786  
  21926098.251    86042738.111  
  22750770.904   119556121.344                    93160595.170    22750767.795  
                                
  21549931.945   113245668.509    21549929.675    88243368.284                  
                                
  20653244.877   108533536.132                    84571576.636    20653244.073  
  20653241.196    81047762.290  
  20949735.426   111909749.235    20949733.067    87040902.548                  
                                
  19431302.834   103762061.990    19431297.152    80703813.807                  
                                
  22356900.649   119174861.544    22356896.843    92691541.694                  
                                
  21296882.099   113684205.208    21296878.579    88421032.605                  
                                
  21920196.613   117217148.175    21920192.735    91168885.463                  
                                
  25670032.507   134896937.432                                                  
                                
  23862096.191   125396179.143                                                  
                                
  26831309.110   140999482.290                                                  
                                
  25491704.179   133959822.400                                                  
                                
  23471480.564   123343489.022                                                  
                                
  25464198.159   133815304.295                                                  
                                
 21  9  1  8 14 16.0000000  0 19G 1G 7G 8G13G14G17G21G30R12R13R14R22
                                R24E13E15E19E21E27E30
  21559044.271   113293553.281                    88280686.661    21559045.343  
  21559040.304    84602315.007  
  20519252.007   107829411.768                    84022887.124    20519249.434  
                                
  22342449.238   117410387.450                    91488594.001    22342448.666  
  22342444.360    87676578.032  
  23597778.157   124007159.923    23597774.815    96629051.420                  
                                
  21925684.923   115220269.773                    89782012.089    21925681.921  
  21925682.510    86041106.346  
  22750243.840   119553350.380                    93158435.991    22750240.856  
                                
  21549913.057   113245569.333    21549910.681    88243290.999                  
                                
  20653091.293   108532729.420                    84570948.059    20653090.757  
  20653087.630    81047159.884  
  20950183.456   111912145.260    20950181.722    87042766.119                  
                                
  19431145.944   103761229.296    19431141.137    80703166.156                  
                                
  22356254.773   119171418.252    22356250.896    92688863.575                  
                                
  21297506.014   113687533.713    21297502.261    88423621.449                  
                                
  21919428.817   117213041.206    21919424.635    91165691.153                  
                                
  25669466.899   134893966.200                                                  
                                
  23861961.279   125395470.351                                                  
                                
  26831554.184   141000768.873                                                  
                                
  25491345.101   133957936.447                                                  
                                
  23471493.590   123343557.788                                                  
                                
  25464574.660   133817281.767                                                  
                                
 21  9  1  8 14 17.0000000  0 19G 1G 7G 8G13G14G17G21G30R12R13R14R22
                                R24E13E15E19E21E27E30
  21558542.187   113290914.390                    88278630.378    21558543.331  
  21558538.256    84600344.398  
  20519527.172   107830856.083                    84024012.555    20519524.313  
                                
  22343007.127   117413319.380                    91490878.584    22343007.555  
  22343002.338    87678767.458  
  23597597.841   124006212.363    23597594.392    96628313.010                  
                                
  21925269.361   115218084.800                    89780309.515    21925266.019  
  21925266.519    86039474.711  
  22749716.561   119550579.724                    93156277.040    22749714.130  
                                
  21549894.045   113245470.832    21549891.918    88243214.239                  
                                
  20652937.637   108531923.324                    84570319.918    20652937.709  
  20652934.206    81046557.923  
  20950632.308   111914541.733    20950630.324    87044630.044                  
                                
  19430990.162   103760397.148    19430985.266    80702518.932                  
                                
  22355608.826   119167975.058    22355604.859    92686185.533                  
                                
  21298129.571   113690862.785    21298125.890    88426210.729                  
                                
  21918660.520   117208934.609    21918656.661    91162497.139                  
                                
  25668901.612   134890995.185                                                  
                                
  23861826.440   125394762.063                                                  
                                
  26831798.793   141002055.854                                                  
                                
  25490986.237   133956050.568                                                  
                                
  23471506.813   123343626.757                                                  
                                
  25464950.964   133819259.368                                                  
                                
 21  9  1  8 14 18.0000000  0 19G 1G 7G 8G13G14G17G21G30R12R13R14R22
                                R24E13E15E19E21E27E30
  21558039.835   113288275.940                    88276574.436    21558040.425  
  21558036.154    84598374.142  
  20519801.998   107832300.914                    84025138.414    20519800.372  
                                
  22343565.105   117416251.440                    91493163.312    22343565.855  
  22343560.280    87680956.986  
  23597417.453   124005265.346    23597414.040    96627575.081                  
                                
  21924853.477   115215899.933                    89778607.031    21924850.689  
  21924850.886    86037843.154  
  22749189.460   119547809.311                    93154118.268    22749187.316  
                                
  21549875.675   113245372.869    21549873.352    88243137.926                  
                                
  20652784.393   108531117.753                    84569692.192    20652784.053  
  20652780.962    81045956.365  
  20951081.338   111916938.528    20951078.890    87046494.209                  
                                
  19430834.022   103759565.423    19430829.555    80701872.024                  
                                
  22354962.236   119164531.857    22354958.930    92683507.495                  
                                
  21298753.272   113694192.301    21298749.555    88428800.341                  
                                
  21917893.135   117204828.279    21917888.614    91159303.324                  
                                
  25668336.147   134888024.297                                                  
                                
  23861691.636   125394054.192                                                  
                                
  26832044.028   141003343.150                                                  
                                
  25490627.570   133954164.683                                                  
                                
  23471519.947   123343695.851                                                  
                                
  25465327.285   133821237.025                                                  
                                
 21  9  1  8 14 19.0000000  0 19G 1G 7G 8G13G14G17G21G30R12R13R14R22
                                R24E13E15E19E21E27E30
  21557537.966   113285638.105                    88274518.998    21557538.520  
  21557534.178    84596404.320  
  20520076.591   107833746.414                    84026264.773    20520073.982  
                                
  22344123.047   117419183.776                    91495448.251    22344123.315  
  22344118.294    87683146.712  
  23597237.226   124004319.051    23597233.849    96626837.756                  
                                
  21924438.022   115213715.330                    89776904.772    21924434.698  
  21924435.163    86036211.804  
  22748662.145   119545039.280                    93151959.813    22748659.322  
                                
  21549857.342   113245275.615    21549854.751    88243062.117                  
                                
  20652631.362   108530312.863                    84569065.021    20652630.415  
  20652627.735    81045355.311  
  20951529.529   111919335.806    20951527.742    87048358.763                  
                                
  19430678.079   103758734.316    19430673.934    80701225.607                  
                                
  22354316.628   119161088.773    22354313.072    92680829.530                  
                                
  21299376.579   113697522.428    21299373.255    88431390.454                  
                                
  21917124.803   117200722.393    21917120.764    91156109.853                  
                                
  25667771.039   134885053.673                                                  
                                
  23861557.029   125393346.890                                                  
                                
  26832288.726   141004630.900                                                  
                                
  25490268.724   133952278.939                                                  
                                
  23471533.045   123343765.230                                                  
                                
  25465703.875   133823214.896                                                  
                                
 21  9  1  8 14 20.0000000  0 19G 1G 7G 8G13G14G17G21G30R12R13R14R22
                                R24E13E15E19E21E27E30
  21557035.632   113283000.773                    88272463.914    21557036.901  
  21557032.326    84594434.885  
  20520352.149   107835192.511                    84027391.604    20520349.380  
                                
  22344680.882   117422116.317                    91497733.374    22344681.257  
  22344676.415    87685336.595  
  23597057.195   124003373.378    23597053.782    96626100.887                  
                                
  21924022.085   115211530.906                    89775202.610    21924019.226  
  21924019.512    86034580.565  
  22748134.902   119542269.571                    93149801.601    22748131.989  
                                
  21549838.883   113245179.016    21549836.060    88242986.854                  
                                
  20652478.528   108529508.557                    84568438.259    20652478.064  
  20652474.776    81044754.690  
  20951978.667   111921733.537    20951976.576    87050223.668                  
                                
  19430522.744   103757903.706    19430518.437    80700579.577                  
                                
  22353670.198   119157645.740    22353667.142    92678151.629                  
                                
  21300000.976   113700853.086    21299997.224    88433980.970                  
                                
  21916357.096   117196616.839    21916353.022    91152916.646                  
                                
  25667205.556   134882083.254                                                  
                                
  23861422.814   125392640.087                                                  
                                
  26832534.175   141005919.065                                                  
                                
  25489909.772   133950393.277                                                  
                                
  23471546.107   123343834.812                                                  
                                
  25466080.322   133825192.911                                                  
                                
 21  9  1  8 14 21.0000000  0 19G 1G 7G 8G13G14G17G21G30R12R13R14R22
                                R24E13E15E19E21E27E30
  21556534.191   113280363.939                    88270409.233    21556534.299  
  21556530.510    84592465.819  
  20520627.582   107836639.176                    84028518.878    20520624.920  
                                
  22345238.807   117425049.025                    91500018.582    22345239.003  
  22345234.375    87687526.604  
  23596878.005   124002428.345    23596873.770    96625364.463                  
                                
  21923606.648   115209346.638                    89773500.567    21923603.396  
  21923603.825    86032949.455  
  22747608.016   119539500.133                    93147643.597    22747605.050  
                                
  21549820.335   113245083.019    21549817.762    88242912.058                  
                                
  20652325.570   108528704.838                    84567812.005    20652324.783  
  20652321.781    81044154.504  
  20952428.573   111924131.731    20952425.554    87052088.927                  
                                
  19430367.408   103757073.598    19430363.013    80699933.949                  
                                
  22353025.126   119154202.769    22353021.159    92675473.746                  
                                
  21300625.213   113704184.268    21300621.156    88436571.885                  
                                
  21915589.353   117192511.634    21915585.154    91149723.707                  
                                
  25666640.359   134879113.017                                                  
                                
  23861288.082   125391933.762                                                  
                                
  26832779.195   141007207.599                                                  
                                
  25489551.087   133948507.659                                                  
                                
  23471559.473   123343904.567                                                  
                                
  25466456.625   133827171.023                                                  
                                
 21  9  1  8 14 22.0000000  0 19G 1G 7G 8G13G14G17G21G30R12R13R14R22
                                R24E13E15E19E21E27E30
  21556032.590   113277727.613                    88268354.997    21556032.215  
  21556028.891    84590497.134  
  20520903.248   107838086.393                    84029646.573    20520899.889  
                                
  22345797.214   117427981.921                    91502303.942    22345796.838  
  22345792.586    87689716.760  
  23596697.903   124001483.907    23596694.061    96624628.544                  
                                
  21923190.818   115207162.516                    89771798.654    21923187.262  
  21923188.227    86031318.455  
  22747081.076   119536730.976                    93145485.820    22747078.235  
                                
  21549802.323   113244987.646    21549799.750    88242837.748                  
                                
  20652172.396   108527901.689                    84567186.172    20652173.504  
  20652168.966    81043554.752  
  20952876.782   111926530.322    20952874.495    87053954.502                  
                                
  19430212.448   103756243.999    19430207.659    80699288.700                  
                                
  22352378.893   119150759.840    22352375.266    92672795.912                  
                                
  21301248.716   113707515.969    21301245.250    88439163.201                  
                                
  21914821.915   117188406.809    21914817.626    91146531.069                  
                                
  25666074.876   134876142.950                                                  
                                
  23861153.993   125391227.895                                                  
                                
  26833024.447   141008496.467                                                  
                                
  25489192.116   133946622.074                                                  
                                
  23471572.839   123343974.492                                                  
                                
  25466833.001   133829149.228                                                  
                                
 21  9  1  8 14 23.0000000  0 19G 1G 7G 8G13G14G17G21G30R12R13R14R22
                                R24E13E15E19E21E27E30
  21555531.167   113275091.774                    88266301.089    21555531.364  
  21555527.343    84588528.823  
  20521178.467   107839534.194                    84030774.725    20521175.268  
                                
  22346355.585   117430915.029                    91504589.515    22346355.942  
  22346350.778    87691907.061  
  23596518.069   124000540.104    23596514.299    96623893.088                  
                                
  21922775.274   115204978.562                    89770096.857    21922771.968  
  21922772.683    86029687.585  
  22746554.458   119533962.115                    93143328.241    22746552.010  
                                
  21549784.007   113244892.890    21549781.720    88242763.896                  
                                
  20652019.634   108527099.117                    84566560.789    20652019.509  
  20652016.185    81042955.429  
  20953325.509   111928929.315    20953323.633    87055820.383                  
                                
  19430057.095   103755414.916    19430052.413    80698643.858                  
                                
  22351733.357   119147316.961    22351729.336    92670118.118                  
                                
  21301873.382   113710848.149    21301869.451    88441754.904                  
                                
  21914054.529   117184302.324    21914050.044    91143338.685                  
                                
  25665509.804   134873173.051                                                  
                                
  23861019.814   125390522.507                                                  
                                
  26833269.664   141009785.702                                                  
                                
  25488833.467   133944736.550                                                  
                                
  23471586.205   123344044.599                                                  
                                
  25467209.412   133831127.548                                                  
                                
 21  9  1  8 14 24.0000000  0 19G 1G 7G 8G13G14G17G21G30R12R13R14R22
                                R24E13E15E19E21E27E30
  21555029.512   113272456.537                    88264247.655    21555030.799  
  21555025.778    84586560.947  
  20521453.685   107840982.653                    84031903.398    20521451.166  
                                
  22346913.777   117433848.421                    91506875.254    22346913.456  
  22346908.899    87694097.588  
  23596338.932   123999597.010    23596334.983    96623158.239                  
                                
  21922359.944   115202794.857                    89768395.280    21922356.263  
  21922357.139    86028056.889  
  22746027.394   119531193.619                    93141170.998    22746025.553  
                                
  21549766.049   113244798.823    21549763.887    88242690.597                  
                                
  20651867.211   108526297.203                    84565935.928    20651867.015  
  20651863.655    81042356.599  
  20953774.915   111931328.821    20953772.771    87057686.664                  
                                
  19429901.885   103754586.394    19429897.167    80697999.457                  
                                
  22351087.231   119143874.181    22351083.496    92667440.402                  
                                
  21302496.921   113714180.989    21302493.669    88444347.110                  
                                
  21913286.572   117180198.263    21913282.659    91140146.644                  
                                
  25664944.785   134870203.421                                                  
                                
  23860885.850   125389817.688                                                  
                                
  26833515.059   141011075.395                                                  
                                
  25488474.800   133942851.164                                                  
                                
  23471599.607   123344114.981                                                  
                                
  25467585.840   133833106.074                                                  
                                
 21  9  1  8 14 25.0000000  0 19G 1G 7G 8G13G14G17G21G30R12R13R14R22
                                R24E13E15E19E21E27E30
  21554528.572   113269821.722                    88262194.580    21554528.644  
  21554524.319    84584593.384  
  20521729.243   107842431.610                    84033032.460    20521726.402  
                                
  22347471.970   117436781.924                    91509161.097    22347471.398  
  22347467.056    87696288.187  
  23596159.474   123998654.445    23596155.721    96622423.784                  
                                
  21921943.917   115200611.231                    89766693.742    21921940.719  
  21921941.630    86026426.253  
  22745500.883   119528425.354                    93139013.893    22745498.881  
                                
  21549748.644   113244705.302    21549746.286    88242617.738                  
                                
  20651714.610   108525495.787                    84565311.439    20651713.699  
  20651711.143    81041758.146  
  20954224.339   111933728.683    20954222.087    87059553.220                  
                                
  19429746.406   103753758.348    19429742.010    80697355.412                  
                                
  22350441.373   119140431.367    22350437.656    92664762.656                  
                                
  21303122.373   113717514.195    21303118.049    88446939.599                  
                                
  21912519.116   117176094.455    21912515.077    91136954.799                  
                                
  25664379.409   134867233.880                                                  
                                
  23860751.600   125389113.264                                                  
                                
  26833760.186   141012365.396                                                  
                                
  25488115.936   133940965.740                                                  
                                
  23471613.080   123344185.461                                                  
                                
  25467962.537   133835084.620                                                  
                                
 21  9  1  8 14 26.0000000  0 19G 1G 7G 8G13G14G17G21G30R12R13R14R22
                                R24E13E15E19E21E27E30
  21554027.007   113267187.464                    88260141.912    21554027.221  
  21554023.004    84582626.252  
  20522005.195   107843881.192                    84034162.000    20522002.211  
                                
  22348030.163   117439715.695                    91511447.154    22348029.734  
  22348025.463    87698478.987  
  23595980.515   123997712.584    23595976.566    96621689.839                  
                                
  21921528.641   115198427.820                    89764992.396    21921525.211  
  21921526.247    86024795.801  
  22744974.211   119525657.427                    93136857.032    22744972.925  
                                
  21549730.883   113244612.468    21549728.470    88242545.406                  
                                
  20651562.491   108524695.020                    84564687.460    20651562.259  
  20651558.792    81041160.177  
  20954674.013   111936129.018    20954671.404    87061420.141                  
                                
  19429592.340   103752930.804    19429586.997    80696711.764                  
                                
  22349796.140   119136988.667    22349791.834    92662085.005                  
                                
  21303746.395   113720848.012    21303742.607    88449532.571                  
                                
  21911751.999   117171991.036    21911747.764    91133763.244                  
                                
  25663814.373   134864264.593                                                  
                                
  23860617.618   125388409.384                                                  
                                
  26834005.743   141013655.814                                                  
                                
  25487756.965   133939080.421                                                  
                                
  23471626.518   123344256.181                                                  
                                
  25468339.091   133837063.345                                                  
                                
 21  9  1  8 14 27.0000000  0 19G 1G 7G 8G13G14G17G21G30R12R13R14R22
                                R24E13E15E19E21E27E30
  21553525.513   113264553.706                    88258089.562    21553525.923  
  21553521.796    84580659.483  
  20522281.432   107845331.350                    84035291.970    20522278.359  
                                
  22348588.480   117442649.624                    91513733.346    22348587.908  
  22348583.781    87700669.917  
  23595801.217   123996771.336    23595797.465    96620956.388                  
                                
  21921112.954   115196244.575                    89763291.137    21921109.291  
  21921110.792    86023165.445  
  22744447.504   119522889.781                    93134700.466    22744446.253  
                                
  21549713.299   113244520.247    21549710.976    88242473.555                  
                                
  20651410.050   108523894.817                    84564063.925    20651409.121  
  20651406.441    81040562.611  
  20955123.508   111938529.739    20955120.810    87063287.366                  
                                
  19429437.111   103752103.803    19429432.269    80696068.548                  
                                
  22349149.782   119133546.006    22349146.047    92659407.370                  
                                
  21304371.257   113724182.265    21304367.129    88452125.885                  
                                
  21910984.399   117167887.939    21910980.325    91130571.953                  
                                
  25663249.748   134861295.472                                                  
                                
  23860483.851   125387705.953                                                  
                                
  26834251.567   141014946.587                                                  
                                
  25487398.513   133937195.161                                                  
                                
  23471639.991   123344327.069                                                  
                                
  25468715.449   133839042.160                                                  
                                
 21  9  1  8 14 28.0000000  0 19G 1G 7G 8G13G14G17G21G30R12R13R14R22
                                R24E13E15E19E21E27E30
  21553025.073   113261920.502                    88256037.777    21553025.502  
  21553020.766    84578693.131  
  20522557.776   107846782.121                    84036422.448    20522555.400  
                                
  22349146.619   117445583.782                    91516019.685    22349146.530  
  22349142.080    87702860.998  
  23595622.313   123995830.734    23595618.435    96620223.451                  
                                
  21920698.125   115194061.522                    89761590.096    21920694.212  
  21920695.284    86021535.245  
  22743920.886   119520122.497                    93132544.166    22743919.117  
                                
  21549695.806   113244428.678    21549693.483    88242402.191                  
                                
  20651258.038   108523095.244                    84563440.911    20651257.342  
  20651254.268    81039965.526  
  20955572.878   111940930.921    20955570.287    87065154.957                  
                                
  19429281.669   103751277.344    19429277.309    80695425.744                  
                                
  22348504.335   119130103.467    22348500.171    92656729.854                  
                                
  21304996.744   113727517.170    21304991.776    88454719.698                  
                                
  21910217.639   117163785.264    21910213.208    91127380.986                  
                                
  25662684.801   134858326.561                                                  
                                
  23860350.048   125387003.056                                                  
                                
  26834497.498   141016237.806                                                  
                                
  25487039.613   133935309.986                                                  
                                
  23471653.589   123344398.182                                                  
                                
  25469091.985   133841021.135                                                  
                                
