     2.11           OBSERVATION DATA    M (MIXED)           RINEX VERSION / TYPE
CONVBIN 2.4.3                           20210902 202157 UTC PGM / RUN BY / DATE 
log: logs/21_09_02_07_47_03_gacc_SNGA.rtcm                  COMMENT             
format: RTCM 3, station ID: 3488                            COMMENT             
3488                                                        MARKER NAME         
                                                            MARKER NUMBER       
                                                            OBSERVER / AGENCY   
1830063             LEICA GR25          4.50                REC # / TYPE / VERS 
                    GPPNULLANTENNA                          ANT # / TYPE        
   728269.1534 -5271196.0165  3504564.7181                  APPROX POSITION XYZ 
        0.0000        0.0000        0.0000                  ANTENNA: DELTA H/E/N
     1     1                                                WAVELENGTH FACT L1/2
     7    C1    L1    C2    L2    P2    C5    L5            # / TYPES OF OBSERV 
  2021     9     2     7    47   10.0000000     GPS         TIME OF FIRST OBS   
  2021     9     2     8    17    7.0000000     GPS         TIME OF LAST OBS    
                                                            END OF HEADER       
 21  9  2  7 47 10.0000000  0 19G 1G 7G 8G 9G14G17G21G27G30R13R14R17
                                R24E 2E11E25E36C11C12
  21693171.730   113998386.197    21693169.014    88829900.576    21693169.032  
  21693168.889    85128653.436  
  20097192.225   105611457.456    20097185.721    82294613.897    20097185.310  
                                
  22022780.708   115730494.005    22022777.545    90179589.550    22022776.884  
  22022776.866    86422105.889  
  24052535.857   126396928.916    24052532.372    98491098.107    24052532.158  
  24052533.534    94387307.419  
  22883234.383   120252208.011    22883228.700    93702995.664    22883228.522  
  22883233.132    89798721.680  
  23029438.353   121020514.622    23029432.689    94301675.056    23029432.331  
                                
  21427025.213   112599777.616                    87740057.014    21427018.083  
                                
  24677273.781   129679948.542    24677269.886   101049292.319    24677269.386  
  24677270.208    96838908.124  
  21299102.129   111927536.864    21299098.322    87216244.245    21299097.715  
  21299098.769    83582238.071  
  20471999.753   109319336.224    20471999.038    85026147.198    20471997.876  
                                
  20292985.826   108173033.210    20292985.593    84134580.795    20292984.753  
                                
  22071700.446   118110126.857    22071698.945    91863426.315    22071698.070  
                                
  19356650.148   103508707.221    19356648.718    80506766.426    19356647.503  
                                
  24168613.084   127006919.649                                                  
  24168611.761    94842823.229  
  23336532.291   122634305.525                                                  
  23336528.717    91577551.065  
  24491158.437   128701907.090                                                  
  24491158.812    96108567.633  
  24397926.970   128211972.086                                                  
  24397927.971    95742709.932  
                 122208561.914    23468869.578   122208561.914                  
                                
                 111508912.108    21414114.183   111508912.108                  
                                
 21  9  2  7 47 11.0000000  0 19G 1G 7G 8G 9G14G17G21G27G30R13R14R17
                                R24E 2E11E25E36C11C12
  21692646.703   113995627.123    21692643.987    88827750.641    21692644.005  
  21692643.862    85126593.078  
  20097178.573   105611385.685    20097172.069    82294557.974    20097171.658  
                                
  22023311.901   115733285.440    22023308.738    90181764.692    22023308.095  
  22023308.059    86424190.405  
  24053140.562   126400106.771    24053137.114    98493574.351    24053136.881  
  24053138.239    94389680.484  
  22882830.829   120250087.323    22882825.146    93701343.177    22882824.968  
  22882829.596    89797138.062  
  23028914.523   121017761.904    23028908.876    94299530.083    23028908.501  
                                
  21426968.282   112599478.452                    87739823.897    21426961.171  
                                
  24677948.105   129683491.939    24677944.173   101052053.405    24677943.709  
  24677944.513    96841554.143  
  21298705.240   111925451.261    21298701.451    87214619.095    21298700.826  
  21298701.880    83580680.640  
  20472218.809   109320505.907    20472218.076    85027056.950    20472216.897  
                                
  20292615.043   108171056.697    20292614.811    84133043.507    20292613.953  
                                
  22070918.444   118105942.158    22070916.926    91860171.549    22070916.068  
                                
  19356430.037   103507530.092    19356428.572    80505850.878    19356427.375  
                                
  24168416.524   127005886.700                                                  
  24168415.202    94842051.869  
  23336683.891   122635102.087                                                  
  23336680.318    91578145.893  
  24491288.827   128702592.324                                                  
  24491289.202    96109079.337  
  24397567.356   128210082.328                                                  
  24397568.357    95741298.755  
                 122205790.194    23468337.295   122205790.194                  
                                
                 111508773.567    21414087.594   111508773.567                  
                                
 21  9  2  7 47 12.0000000  0 19G 1G 7G 8G 9G14G17G21G27G30R13R14R17
                                R24E 2E11E25E36C11C12
  21692121.747   113992868.469    21692119.031    88825601.045    21692119.048  
  21692118.905    85124533.061  
  20097165.028   105611314.536    20097158.542    82294502.531    20097158.113  
                                
  22023843.165   115736077.128    22023839.984    90183940.033    22023839.341  
  22023839.305    86426275.093  
  24053745.322   126403284.656    24053741.837    98496050.618    24053741.623  
  24053742.999    94392053.577  
  22882427.292   120247966.756    22882421.628    93699690.785    22882421.431  
  22882426.059    89795554.515  
  23028390.782   121015009.570    23028385.135    94297385.403    23028384.742  
                                
  21426911.495   112599179.948                    87739591.294    21426904.365  
                                
  24678622.374   129687035.320    24678618.461   101054814.477    24678617.979  
  24678618.801    96844200.179  
  21298308.476   111923366.106    21298304.670    87212994.297    21298304.044  
  21298305.117    83579123.540  
  20472437.901   109321676.032    20472437.186    85027967.051    20472436.025  
                                
  20292244.315   108169080.454    20292244.065    84131506.432    20292243.207  
                                
  22070136.514   118101757.833    22070134.977    91856917.074    22070134.119  
                                
  19356210.087   103506353.862    19356208.622    80504936.035    19356207.425  
                                
  24168219.983   127004853.821                                                  
  24168218.661    94841280.568  
  23336835.564   122635899.119                                                  
  23336831.972    91578741.079  
  24491419.253   128703277.706                                                  
  24491419.628    96109591.148  
  24397207.831   128208192.998                                                  
  24397208.832    95739887.892  
                 122203018.858    23467805.102   122203018.858                  
                                
                 111508635.590    21414061.076   111508635.590                  
                                
 21  9  2  7 47 13.0000000  0 19G 1G 7G 8G 9G14G17G21G27G30R13R14R17
                                R24E 2E11E25E36C11C12
  21691596.880   113990110.281    21691594.146    88823451.807    21691594.182  
  21691594.021    85122473.371  
  20097151.609   105611243.977    20097145.104    82294447.551    20097144.693  
                                
  22024374.428   115738868.991    22024371.248    90186115.513    22024370.604  
  22024370.587    86428359.937  
  24054350.045   126406462.558    24054346.578    98498526.914    24054346.346  
  24054347.740    94394426.690  
  22882023.774   120245846.259    22882018.092    93698038.452    22882017.913  
  22882022.559    89793971.034  
  23027867.076   121012257.513    23027861.430    94295240.943    23027861.055  
                                
  21426854.796   112598882.049                    87739359.158    21426847.684  
                                
  24679296.662   129690578.676    24679292.749   101057575.524    24679292.248  
  24679293.070    96846846.189  
  21297911.748   111921281.374    21297907.942    87211369.832    21297907.334  
  21297908.388    83577566.762  
  20472657.136   109322846.636    20472656.421    85028877.521    20472655.242  
                                
  20291873.604   108167104.464    20291873.372    84129969.555    20291872.532  
                                
  22069354.619   118097573.812    22069353.100    91853662.836    22069352.225  
                                
  19355990.263   103505178.500    19355988.833    80504021.870    19355987.618  
                                
  24168023.442   127003821.007                                                  
  24168022.119    94840509.312  
  23336987.289   122636696.623                                                  
  23336983.734    91579336.640  
  24491549.715   128703963.214                                                  
  24491550.072    96110103.055  
  24396848.378   128206304.046                                                  
  24396849.379    95738477.316  
                 122200247.819    23467272.927   122200247.819                  
                                
                 111508498.143    21414034.684   111508498.143                  
                                
 21  9  2  7 47 14.0000000  0 19G 1G 7G 8G 9G14G17G21G27G30R13R14R17
                                R24E 2E11E25E36C11C12
  21691072.138   113987352.692    21691069.386    88821303.036    21691069.422  
  21691069.297    85120414.126  
  20097138.332   105611174.184    20097131.828    82294393.164    20097131.417  
                                
  22024905.782   115741661.257    22024902.601    90188291.300    22024901.940  
  22024901.922    86430445.060  
  24054954.822   126409640.636    24054951.338    98501003.343    24054951.123  
  24054952.481    94396799.924  
  22881620.309   120243725.985    22881614.609    93696386.295    22881614.431  
  22881619.076    89792387.723  
  23027343.478   121009505.939    23027337.814    94293096.862    23027337.456  
                                
  21426798.277   112598584.968                    87739127.674    21426791.147  
                                
  24679970.967   129694122.184    24679967.072   101060336.701    24679966.572  
  24679967.394    96849492.310  
  21297515.145   111919197.218    21297511.339    87209745.817    21297510.731  
  21297511.786    83576010.413  
  20472876.443   109324017.789    20472875.728    85029788.423    20472874.566  
                                
  20291503.000   108165128.903    20291502.750    84128433.008    20291501.910  
                                
  22068572.813   118093390.228    22068571.312    91850408.953    22068570.419  
                                
  19355770.670   103504004.202    19355769.205    80503108.534    19355768.008  
                                
  24167826.936   127002788.415                                                  
  24167825.614    94839738.217  
  23337139.194   122637494.778                                                  
  23337135.620    91579932.654  
  24491680.194   128704649.012                                                  
  24491680.587    96110615.166  
  24396489.014   128204415.658                                                  
  24396490.015    95737067.145  
                 122197477.253    23466740.877   122197477.253                  
                                
                 111508361.390    21414008.416   111508361.390                  
                                
 21  9  2  7 47 15.0000000  0 19G 1G 7G 8G 9G14G17G21G27G30R13R14R17
                                R24E 2E11E25E36C11C12
  21690547.450   113984595.504    21690544.716    88819154.577    21690544.752  
  21690544.609    85118355.185  
  20097125.162   105611104.949    20097118.640    82294339.212    20097118.247  
                                
  22025437.153   115744453.699    22025434.008    90190467.228    22025433.347  
  22025433.311    86432530.318  
  24055559.581   126412818.684    24055556.115    98503479.736    24055555.900  
  24055557.276    94399173.153  
  22881216.863   120241605.775    22881211.162    93694734.186    22881210.966  
  22881215.612    89790804.446  
  23026819.934   121006754.647    23026814.269    94290952.991    23026813.912  
                                
  21426741.846   112598288.454                    87738896.617    21426734.734  
                                
  24680645.291   129697665.653    24680641.360   101063097.840    24680640.895  
  24680641.699    96852138.401  
  21297118.631   111917113.463    21297114.825    87208122.112    21297114.200  
  21297115.272    83574454.365  
  20473095.856   109325189.408    20473095.142    85030699.679    20473093.962  
                                
  20291132.433   108163153.562    20291132.182    84126896.629    20291131.343  
                                
  22067791.062   118089206.972    22067789.543    91847155.315    22067788.685  
                                
  19355551.239   103502830.776    19355549.773    80502195.871    19355548.576  
                                
  24167630.448   127001755.845                                                  
  24167629.144    94838967.137  
  23337291.152   122638293.388                                                  
  23337287.596    91580529.007  
  24491810.727   128705334.892                                                  
  24491811.085    96111127.352  
  24396129.722   128202527.617                                                  
  24396130.722    95735657.246  
                 122194706.961    23466208.862   122194706.961                  
                                
                 111508225.167    21413982.274   111508225.167                  
                                
 21  9  2  7 47 16.0000000  0 19G 1G 7G 8G 9G14G17G21G27G30R13R14R17
                                R24E 2E11E25E36C11C12
  21690022.869   113981838.816    21690020.135    88817006.506    21690020.171  
  21690020.010    85116296.615  
  20097112.100   105611036.353    20097105.614    82294285.761    20097105.185  
                                
  22025968.595   115747246.398    22025965.433    90192643.358    22025964.772  
  22025964.754    86434615.776  
  24056164.358   126415996.833    24056160.910    98505956.215    24056160.677  
  24056162.053    94401546.433  
  22880813.416   120239485.692    22880807.716    93693082.175    22880807.537  
  22880812.165    89789221.260  
  23026296.443   121004003.746    23026290.814    94288809.431    23026290.457  
                                
  21426685.541   112597992.632                    87738666.106    21426678.447  
                                
  24681319.578   129701209.132    24681315.665   101065858.989    24681315.182  
  24681316.004    96854784.514  
  21296722.189   111915030.178    21296718.383    87206498.770    21296717.775  
  21296718.830    83572898.663  
  20473315.342   109326361.503    20473314.627    85031611.309    20473313.447  
                                
  20290761.901   108161178.510    20290761.668    84125360.480    20290760.828  
                                
  22067009.381   118085024.070    22067007.862    91843901.953    22067007.005  
                                
  19355331.968   103501658.287    19355330.521    80501283.936    19355329.323  
                                
  24167433.978   127000723.383                                                  
  24167432.656    94838196.145  
  23337443.235   122639092.506                                                  
  23337439.644    91581125.758  
  24491941.278   128706020.943                                                  
  24491941.654    96111639.656  
  24395770.536   128200640.012                                                  
  24395771.537    95734247.671  
                 122191937.038    23465676.937   122191937.038                  
                                
                 111508089.511    21413956.203   111508089.511                  
                                
 21  9  2  7 47 17.0000000  0 19G 1G 7G 8G 9G14G17G21G27G30R13R14R17
                                R24E 2E11E25E36C11C12
  21689498.360   113979082.468    21689495.626    88814858.706    21689495.661  
  21689495.501    85114238.310  
  20097099.145   105610968.274    20097092.659    82294232.715    20097092.230  
                                
  22026500.056   115750039.219    22026496.893    90194819.579    22026496.232  
  22026496.214    86436701.323  
  24056769.136   126419174.870    24056765.651    98508432.608    24056765.437  
  24056766.813    94403919.642  
  22880409.951   120237365.577    22880404.269    93691430.147    22880404.072  
  22880408.718    89787638.072  
  23025773.023   121001253.096    23025767.395    94286666.066    23025767.020  
                                
  21426629.343   112597697.341                    87738436.014    21426622.249  
                                
  24681993.884   129704752.525    24681989.953   101068620.078    24681989.488  
  24681990.292    96857430.546  
  21296325.801   111912947.227    21296322.012    87204875.692    21296321.405  
  21296322.477    83571343.217  
  20473534.898   109327533.924    20473534.183    85032523.196    20473533.004  
                                
  20290391.422   108159203.583    20290391.172    84123824.428    20290390.332  
                                
  22066227.754   118080841.415    22066226.218    91840648.784    22066225.360  
                                
  19355112.858   103500486.575    19355111.393    80500372.604    19355110.196  
                                
  24167237.490   126999690.882                                                  
  24167236.168    94837425.133  
  23337595.372   122639892.020                                                  
  23337591.799    91581722.797  
  24492071.847   128706707.020                                                  
  24492072.205    96112151.990  
  24395411.387   128198752.704                                                  
  24395412.405    95732838.311  
                 122189167.313    23465145.030   122189167.313                  
                                
                 111507954.314    21413930.257   111507954.314                  
                                
 21  9  2  7 47 18.0000000  0 19G 1G 7G 8G 9G14G17G21G27G30R13R14R17
                                R24E 2E11E25E36C11C12
  21688973.904   113976326.425    21688971.170    88812711.141    21688971.206  
  21688971.045    85112180.237  
  20097086.279   105610900.673    20097079.775    82294180.041    20097079.382  
                                
  22027031.516   115752832.142    22027028.354    90196995.878    22027027.728  
  22027027.710    86438786.950  
  24057373.859   126422352.828    24057370.410    98510908.941    24057370.178  
  24057371.554    94406292.794  
  22880006.504   120235245.414    22880000.804    93689778.072    22880000.625  
  22880005.271    89786054.854  
  23025249.622   120998502.597    23025243.975    94284522.819    23025243.618  
                                
  21426573.270   112597402.564                    87738206.318    21426566.158  
                                
  24682668.118   129708295.769    24682664.204   101071381.051    24682663.722  
  24682664.544    96860076.494  
  21295929.484   111910864.578    21295925.713    87203252.851    21295925.088  
  21295926.142    83569787.992  
  20473754.508   109328706.687    20473753.794    85033435.348    20473752.632  
                                
  20290020.944   108157228.760    20290020.711    84122288.457    20290019.854  
                                
  22065446.163   118076658.996    22065444.644    91837395.796    22065443.769  
                                
  19354893.873   103499315.588    19354892.426    80499461.834    19354891.229  
                                
  24167041.003   126998658.335                                                  
  24167039.698    94836654.081  
  23337747.581   122640691.909                                                  
  23337744.007    91582320.113  
  24492202.398   128707393.103                                                  
  24492202.756    96112664.331  
  24395052.291   128196865.666                                                  
  24395053.292    95731429.170  
                 122186397.803    23464613.176   122186397.803                  
                                
                 111507819.530    21413904.365   111507819.530                  
                                
 21  9  2  7 47 19.0000000  0 19G 1G 7G 8G 9G14G17G21G27G30R13R14R17
                                R24E 2E11E25E36C11C12
  21688449.537   113973570.793    21688446.785    88810563.893    21688446.803  
  21688446.678    85110122.457  
  20097073.521   105610833.609    20097067.017    82294127.786    20097066.606  
                                
  22027563.031   115755625.226    22027559.868    90199172.306    22027559.224  
  22027559.189    86440872.695  
  24057978.618   126425530.712    24057975.134    98513385.205    24057974.919  
  24057976.295    94408665.896  
  22879603.058   120233125.316    22879597.357    93688126.048    22879597.161  
  22879601.807    89784471.655  
  23024726.274   120995752.402    23024720.627    94282379.825    23024720.270  
                                
  21426517.268   112597108.368                    87737977.083    21426510.174  
                                
  24683342.370   129711838.963    24683338.456   101074141.988    24683337.956  
  24683338.778    96862722.388  
  21295533.256   111908782.300    21295529.450    87201630.298    21295528.824  
  21295529.896    83568233.046  
  20473974.208   109329879.841    20473973.493    85034347.817    20473972.314  
                                
  20289650.519   108155254.140    20289650.269    84120752.639    20289649.411  
                                
  22064664.626   118072476.837    22064663.107    91834143.008    22064662.214  
                                
  19354675.049   103498145.411    19354673.584    80498551.708    19354672.387  
                                
  24166844.515   126997625.788                                                  
  24166843.193    94835883.021  
  23337899.860   122641492.177                                                  
  23337896.287    91582917.725  
  24492332.967   128708079.259                                                  
  24492333.325    96113176.716  
  24394693.267   128194978.959                                                  
  24394694.267    95730020.270  
                 122183628.552    23464081.376   122183628.552                  
                                
                 111507685.229    21413878.580   111507685.229                  
                                
 21  9  2  7 47 20.0000000  0 19G 1G 7G 8G 9G14G17G21G27G30R13R14R17
                                R24E 2E11E25E36C11C12
  21687925.207   113970815.572    21687922.473    88808416.972    21687922.508  
  21687922.348    85108064.983  
  20097060.870   105610767.129    20097054.365    82294075.983    20097053.954  
                                
  22028094.598   115758418.501    22028091.418    90201348.883    22028090.774  
  22028090.756    86442958.573  
  24058583.342   126428708.626    24058579.893    98515861.497    24058579.661  
  24058581.019    94411038.994  
  22879199.629   120231005.262    22879193.928    93686474.057    22879193.732  
  22879198.378    89782888.489  
  23024202.962   120993002.475    23024197.333    94280237.019    23024196.976  
                                
  21426461.410   112596814.780                    87737748.313    21426454.298  
                                
  24684016.621   129715382.119    24684012.690   101076902.889    24684012.208  
  24684013.030    96865368.240  
  21295137.082   111906700.417    21295133.293    87200008.054    21295132.668  
  21295133.740    83566678.391  
  20474193.979   109331053.421    20474193.264    85035260.604    20474192.103  
                                
  20289280.112   108153279.727    20289279.880    84119216.985    20289279.040  
                                
  22063883.142   118068294.935    22063881.605    91830890.427    22063880.712  
                                
  19354456.386   103496976.097    19354454.921    80497642.243    19354453.723  
                                
  24166648.027   126996593.278                                                  
  24166646.741    94835111.985  
  23338052.230   122642292.897                                                  
  23338048.674    91583515.669  
  24492463.536   128708765.506                                                  
  24492463.929    96113689.171  
  24394334.314   128193092.628                                                  
  24394335.314    95728611.644  
                 122180859.580    23463549.612   122180859.580                  
                                
                 111507551.463    21413852.884   111507551.463                  
                                
 21  9  2  7 47 21.0000000  0 19G 1G 7G 8G 9G14G17G21G27G30R13R14R17
                                R24E 2E11E25E36C11C12
  21687401.001   113968060.824    21687398.285    88806270.412    21687398.303  
  21687398.160    85106007.865  
  20097048.326   105610701.280    20097041.839    82294024.670    20097041.428  
                                
  22028626.166   115761211.999    22028623.003    90203525.633    22028622.342  
  22028622.324    86445044.627  
  24059188.101   126431886.560    24059184.616    98518337.805    24059184.402  
  24059185.778    94413412.131  
  22878796.218   120228885.299    22878790.517    93684822.141    22878790.321  
  22878794.949    89781305.409  
  23023679.757   120990252.932    23023674.128    94278094.512    23023673.753  
                                
  21426405.658   112596521.843                    87737520.053    21426398.547  
                                
  24684690.873   129718925.292    24684686.942   101079663.796    24684686.477  
  24684687.264    96868014.110  
  21294740.997   111904619.001    21294737.191    87198386.172    21294736.583  
  21294737.655    83565124.091  
  20474413.858   109332227.461    20474413.125    85036173.746    20474411.963  
                                
  20288909.776   108151305.607    20288909.544    84117681.553    20288908.704  
                                
  22063101.694   118064113.359    22063100.157    91827638.090    22063099.299  
                                
  19354237.866   103495807.660    19354236.400    80496733.455    19354235.203  
                                
  24166451.575   126995560.869                                                  
  24166450.271    94834341.030  
  23338204.706   122643094.154                                                  
  23338201.150    91584114.002  
  24492594.159   128709451.920                                                  
  24492594.534    96114201.751  
  24393975.432   128191206.711                                                  
  24393976.451    95727203.332  
                 122178090.956    23463017.955   122178090.956                  
                                
                 111507418.237    21413827.296   111507418.237                  
                                
 21  9  2  7 47 22.0000000  0 19G 1G 7G 8G 9G14G17G21G27G30R13R14R17
                                R24E 2E11E25E36C11C12
  21686876.920   113965306.782    21686874.186    88804124.408    21686874.222  
  21686874.061    85103951.271  
  20097035.960   105610636.282    20097029.456    82293974.024    20097029.063  
                                
  22029157.841   115764005.987    22029154.678    90205702.767    22029154.035  
  22029154.017    86447131.042  
  24059792.878   126435064.782    24059789.429    98520814.343    24059789.197  
  24059790.573    94415785.479  
  22878392.860   120226765.692    22878387.160    93683170.498    22878386.963  
  22878391.609    89779722.580  
  23023156.641   120987503.944    23023150.995    94275952.445    23023150.637  
                                
  21426350.104   112596229.815                    87737292.499    21426342.974  
                                
  24685365.143   129722468.703    24685361.230   101082424.887    24685360.747  
  24685361.569    96870660.166  
  21294345.055   111902538.269    21294341.267    87196764.824    21294340.641  
  21294341.696    83563570.298  
  20474633.861   109333402.237    20474633.128    85037087.459    20474631.949  
                                
  20288539.548   108149332.001    20288539.298    84116146.527    20288538.440  
                                
  22062320.389   118059932.416    22062318.852    91824386.250    22062317.976  
                                
  19354019.595   103494640.391    19354018.130    80495825.583    19354016.933  
                                
  24166255.177   126994528.771                                                  
  24166253.854    94833570.307  
  23338357.325   122643896.145                                                  
  23338353.769    91584712.889  
  24492724.853   128710138.716                                                  
  24492725.228    96114714.616  
  24393616.676   128189321.454                                                  
  24393617.694    95725795.506  
                 122175322.895    23462486.352   122175322.895                  
                                
                 111507285.814    21413801.868   111507285.814                  
                                
 21  9  2  7 47 23.0000000  0 19G 1G 7G 8G 9G14G17G21G27G30R13R14R17
                                R24E 2E11E25E36C11C12
  21686353.001   113962553.501    21686350.267    88801978.992    21686350.285  
  21686350.142    85101895.252  
  20097023.756   105610572.215    20097017.269    82293924.101    20097016.858  
                                
  22029689.641   115766800.527    22029686.478    90207880.330    22029685.817  
  22029685.799    86449217.872  
  24060397.744   126438243.341    24060394.296    98523291.141    24060394.063  
  24060395.421    94418159.078  
  22877989.592   120224646.492    22877983.892    93681519.178    22877983.695  
  22877988.323    89778140.052  
  23022633.651   120984755.633    23022628.004    94273810.909    23022627.647  
                                
  21426294.692   112595938.721                    87737065.672    21426287.580  
                                
  24686039.502   129726012.434    24686035.589   101085186.233    24686035.106  
  24686035.928    96873306.449  
  21293949.238   111900458.294    21293945.450    87195144.060    21293944.825  
  21293945.897    83562017.065  
  20474854.007   109334577.792    20474853.275    85038001.774    20474852.113  
                                
  20288169.409   108147358.985    20288169.177    84114611.956    20288168.337  
                                
  22061539.209   118055752.143    22061537.672    91821134.927    22061536.796  
                                
  19353801.522   103493474.352    19353800.075    80494918.667    19353798.877  
                                
  24166058.850   126993497.060                                                  
  24166057.545    94832799.871  
  23338510.088   122644698.931                                                  
  23338506.532    91585312.372  
  24492855.636   128710825.952                                                  
  24492856.012    96115227.814  
  24393258.062   128187436.907                                                  
  24393259.081    95724388.214  
                 122172555.464    23461954.891   122172555.464                  
                                
                 111507154.255    21413776.601   111507154.255                  
                                
 21  9  2  7 47 24.0000000  0 18G 1G 7G 8G 9G14G17G21G30R13R14R17R24
                                E 2E11E25E36C11C12
  21685829.170   113959800.792    21685826.436    88799834.021    21685826.472  
  21685826.311    85099839.651  
  20097011.712   105610508.854    20097005.208    82293874.727    20097004.815  
                                
  22030221.494   115769595.401    22030218.332    90210058.152    22030217.670  
  22030217.653    86451304.957  
  24061002.629   126441422.050    24060999.180    98525768.064    24060998.966  
  24061000.341    94420532.781  
  22877586.360   120222527.450    22877580.659    93679867.977    22877580.463  
  22877585.109    89776557.662  
  23022110.731   120982007.731    23022105.103    94271669.679    23022104.745  
                                
  21426239.459   112595648.383                    87736839.428    21426232.347  
                                
  21293553.547   111898378.864    21293549.741    87193523.728    21293549.133  
  21293550.187    83560464.238  
  20475074.243   109335753.915    20475073.528    85038916.544    20475072.367  
                                
  20287799.360   108145386.356    20287799.109    84113077.687    20287798.252  
                                
  22060758.118   118051572.315    22060756.563    91817883.938    22060755.688  
                                
  19353583.663   103492309.332    19353582.215    80494012.540    19353581.018  
                                
  24165862.558   126992465.528                                                  
  24165861.254    94832029.565  
  23338662.975   122645502.339                                                  
  23338659.419    91585912.304  
  24492986.473   128711513.432                                                  
  24492986.831    96115741.194  
  24392899.556   128185552.874                                                  
  24392900.557    95722981.297  
                 122169788.504    23461423.538   122169788.504                  
                                
                 111507023.347    21413751.460   111507023.347                  
                                
 21  9  2  7 47 25.0000000  0 18G 1G 7G 8G 9G14G17G21G30R13R14R17R24
                                E 2E11E25E36C11C12
  21685305.393   113957048.294    21685302.659    88797689.211    21685302.695  
  21685302.534    85097784.209  
  20096999.740   105610445.869    20096993.235    82293825.648    20096992.824  
                                
  22030753.330   115772390.267    22030750.167    90212235.969    22030749.524  
  22030749.506    86453392.032  
  24061607.477   126444600.533    24061604.029    98528244.799    24061603.796  
  24061605.190    94422906.328  
  22877183.092   120220408.285    22877177.391    93678216.675    22877177.195  
  22877181.841    89774975.167  
  23021587.830   120979259.919    23021582.202    94269528.530    23021581.844  
                                
  21426184.279   112595358.445                    87736613.502    21426177.167  
                                
  21293157.873   111896299.617    21293154.067    87191903.532    21293153.441  
  21293154.531    83558911.558  
  20475294.550   109336930.251    20475293.835    85039831.472    20475292.674  
                                
  20287429.292   108143413.724    20287429.060    84111543.417    20287428.202  
                                
  22059977.027   118047392.571    22059975.490    91814633.025    22059974.615  
                                
  19353365.911   103491144.920    19353364.446    80493106.889    19353363.248  
                                
  24165666.232   126991433.817                                                  
  24165664.909    94831259.138  
  23338815.898   122646305.979                                                  
  23338812.342    91586512.427  
  24493117.275   128712200.815                                                  
  24493117.650    96116254.493  
  24392541.068   128183668.991                                                  
  24392542.068    95721574.508  
                 122167021.605    23460892.185   122167021.605                  
                                
                 111506892.753    21413726.389   111506892.753                  
                                
 21  9  2  7 47 26.0000000  0 18G 1G 7G 8G 9G14G17G21G30R13R14R17R24
                                E 2E11E25E36C11C12
  21684781.634   113954295.913    21684778.900    88795544.496    21684778.918  
  21684778.775    85095728.860  
  20096987.803   105610383.157    20096981.299    82293776.777    20096980.888  
                                
  22031285.166   115775185.035    22031282.003    90214413.709    22031281.342  
  22031281.324    86455479.031  
  24062212.290   126447778.714    24062208.806    98530721.299    24062208.609  
  24062209.967    94425279.636  
  22876779.770   120218288.854    22876774.070    93676565.172    22876773.891  
  22876778.537    89773392.494  
  23021064.947   120976512.119    23021059.318    94267387.391    23021058.961  
                                
  21426129.171   112595068.801                    87736387.803    21426122.041  
                                
  21292762.235   111894220.475    21292758.429    87190283.420    21292757.821  
  21292758.876    83557358.950  
  20475514.840   109338106.700    20475514.125    85040746.488    20475512.963  
                                
  20287059.225   108141440.982    20287058.957    84110009.062    20287058.117  
                                
  22059195.936   118043212.784    22059194.382    91811382.078    22059193.524  
                                
  19353148.266   103489981.049    19353146.819    80492201.656    19353145.604  
                                
  24165469.851   126990401.848                                                  
  24165468.547    94830488.509  
  23338968.857   122647109.748                                                  
  23338965.283    91587112.659  
  24493248.022   128712887.986                                                  
  24493248.415    96116767.643  
  24392182.562   128181785.180                                                  
  24392183.598    95720167.764  
                 122164254.668    23460360.814   122164254.668                  
                                
                 111506762.392    21413701.355   111506762.392                  
                                
 21  9  2  7 47 27.0000000  0 18G 1G 7G 8G 9G14G17G21G30R13R14R17R24
                                E 2E11E25E36C11C12
  21684257.947   113951543.829    21684255.213    88793400.013    21684255.231  
  21684255.088    85093673.739  
  20096975.956   105610320.917    20096969.452    82293728.276    20096969.059  
                                
  22031817.002   115777979.892    22031813.839    90216591.517    22031813.196  
  22031813.178    86457566.103  
  24062817.049   126450956.783    24062813.601    98533197.707    24062813.368  
  24062814.762    94427652.871  
  22876376.466   120216169.419    22876370.766    93674913.669    22876370.569  
  22876375.197    89771809.784  
  23020542.081   120973764.527    23020536.471    94265246.413    23020536.113  
                                
  21426074.152   112594779.669                    87736162.506    21426067.023  
                                
  21292366.633   111892141.636    21292362.844    87188663.545    21292362.219  
  21292363.291    83555806.572  
  20475735.236   109339283.465    20475734.503    85041661.749    20475733.324  
                                
  20286689.157   108139468.338    20286688.907    84108474.784    20286688.067  
                                
  22058414.881   118039033.216    22058413.345    91808131.298    22058412.487  
                                
  19352930.747   103488817.928    19352929.281    80491297.006    19352928.084  
                                
  24165273.453   126989369.820                                                  
  24165272.166    94829717.841  
  23339121.869   122647913.886                                                  
  23339118.296    91587713.146  
  24493378.806   128713575.161                                                  
  24493379.163    96117280.790  
  24391824.163   128179901.634                                                  
  24391825.163    95718761.222  
                 122161487.959    23459829.496   122161487.959                  
                                
                 111506632.438    21413676.410   111506632.438                  
                                
 21  9  2  7 47 28.0000000  0 18G 1G 7G 8G 9G14G17G21G30R13R14R17R24
                                E 2E11E25E36C11C12
  21683734.295   113948792.012    21683731.526    88791255.740    21683731.579  
  21683731.436    85091618.815  
  20096964.198   105610259.094    20096957.712    82293680.102    20096957.283  
                                
  22032348.855   115780774.781    22032345.692    90218769.355    22032345.049  
  22032345.031    86459653.187  
  24063421.773   126454134.673    24063418.324    98535673.983    24063418.110  
  24063419.486    94430025.969  
  22875973.126   120214049.837    22875967.426    93673262.047    22875967.212  
  22875971.858    89770226.984  
  23020019.252   120971017.059    23020013.641    94263105.531    23020013.283  
                                
  21426019.205   112594490.990                    87735937.563    21426012.093  
                                
  21291971.084   111890063.028    21291967.296    87187043.850    21291966.688  
  21291967.742    83554254.362  
  20475955.650   109340460.495    20475954.918    85042577.220    20475953.756  
                                
  20286319.090   108137495.747    20286318.857    84106940.551    20286318.018  
                                
  22057633.862   118034853.822    22057632.325    91804880.656    22057631.468  
                                
  19352713.370   103487655.487    19352711.905    80490392.883    19352710.707  
                                
  24165077.054   126988337.668                                                  
  24165075.768    94828947.073  
  23339274.953   122648718.295                                                  
  23339271.379    91588313.843  
  24493509.535   128714262.268                                                  
  24493509.928    96117793.892  
  24391465.764   128178018.288                                                  
  24391466.764    95717354.820  
                 122158721.353    23459298.196   122158721.353                  
                                
                 111506502.833    21413651.500   111506502.833                  
                                
 21  9  2  7 47 29.0000000  0 18G 1G 7G 8G 9G14G17G21G30R13R14R17R24
                                E 2E11E25E36C11C12
  21683210.661   113946040.306    21683207.892    88789111.560    21683207.945  
  21683207.785    85089563.961  
  20096952.476   105610197.515    20096945.972    82293632.116    20096945.579  
                                
  22032880.673   115783569.523    22032877.528    90220947.071    22032876.867  
  22032876.849    86461740.176  
  24064026.461   126457312.217    24064022.994    98538149.996    24064022.779  
  24064024.173    94432398.826  
  22875569.733   120211930.012    22875564.015    93671610.238    22875563.836  
  22875568.465    89768643.993  
  23019496.422   120968269.529    23019490.811    94260964.590    23019490.454  
                                
  21425964.329   112594202.578                    87735712.824    21425957.217  
                                
  21291575.571   111887984.505    21291571.765    87185424.220    21291571.139  
  21291572.212    83552702.219  
  20476176.065   109341637.615    20476175.350    85043492.748    20476174.189  
                                
  20285949.022   108135523.059    20285948.790    84105406.240    20285947.950  
                                
  22056852.843   118030674.409    22056851.324    91801630.008    22056850.449  
                                
  19352496.083   103486493.599    19352494.635    80489489.192    19352493.438  
                                
  24164880.584   126987305.206                                                  
  24164879.262    94828176.089  
  23339428.055   122649522.841                                                  
  23339424.481    91588914.636  
  24493640.265   128714949.146                                                  
  24493640.623    96118306.820  
  24391107.383   128176134.985                                                  
  24391108.401    95715948.462  
                 122155954.722    23458766.897   122155954.722                  
                                
                 111506373.414    21413626.644   111506373.414                  
                                
 21  9  2  7 47 30.0000000  0 18G 1G 7G 8G 9G14G17G21G30R13R14R17R24
                                E 2E11E25E36C11C12
  21682687.099   113943289.076    21682684.365    88786967.745    21682684.383  
  21682684.240    85087509.493  
  20096940.879   105610136.605    20096934.375    82293584.654    20096933.982  
                                
  22033412.545   115786364.565    22033409.400    90223125.026    22033408.738  
  22033408.738    86463827.389  
  24064631.148   126460489.855    24064627.700    98540626.073    24064627.467  
  24064628.843    94434771.737  
  22875166.358   120209810.311    22875160.640    93669958.522    22875160.461  
  22875165.107    89767061.110  
  23018973.682   120965522.442    23018968.053    94258823.998    23018967.695  
                                
  21425909.579   112593914.870                    87735488.638    21425902.485  
                                
  21291180.112   111885906.467    21291176.341    87183804.972    21291175.716  
  21291176.770    83551150.446  
  20476396.604   109342815.248    20476395.872    85044408.689    20476394.710  
                                
  20285579.026   108133550.715    20285578.776    84103872.193    20285577.936  
                                
  22056071.895   118026495.346    22056070.358    91798379.626    22056069.501  
                                
  19352278.992   103485332.655    19352277.527    80488586.233    19352276.329  
                                
  24164684.114   126986272.885                                                  
  24164682.828    94827405.202  
  23339581.246   122650327.931                                                  
  23339577.672    91589515.846  
  24493770.995   128715636.215                                                  
  24493771.370    96118819.896  
  24390749.091   128174252.128                                                  
  24390750.091    95714542.435  
                 122153188.480    23458235.686   122153188.480                  
                                
                 111506244.617    21413601.896   111506244.617                  
                                
 21  9  2  7 47 31.0000000  0 18G 1G 7G 8G 9G14G17G21G30R13R14R17R24
                                E 2E11E25E36C11C12
  21682163.644   113940538.256    21682160.892    88784824.251    21682160.928  
  21682160.767    85085455.296  
  20096929.389   105610076.228    20096922.885    82293537.609    20096922.492  
                                
  22033944.452   115789159.753    22033941.325    90225303.095    22033940.664  
  22033940.646    86465914.707  
  24065235.836   126463667.452    24065232.369    98543102.122    24065232.155  
  24065233.531    94437144.620  
  22874763.000   120207690.635    22874757.300    93668306.825    22874757.104  
  22874761.732    89765478.233  
  23018450.959   120962775.570    23018445.348    94256683.575    23018444.991  
                                
  21425854.935   112593627.716                    87735264.878    21425847.823  
                                
  21290784.760   111883828.807    21290780.953    87182186.016    21290780.346  
  21290781.418    83549598.946  
  20476617.215   109343993.280    20476616.483    85045324.937    20476615.321  
                                
  20285209.030   108131578.539    20285208.798    84102338.285    20285207.958  
                                
  22055290.983   118022316.549    22055289.446    91795129.450    22055288.571  
                                
  19352062.044   103484172.525    19352060.579    80487683.912    19352059.381  
                                
  24164487.680   126985240.561                                                  
  24164486.376    94826634.308  
  23339734.527   122651133.454                                                  
  23339730.971    91590117.373  
  24493901.760   128716323.357                                                  
  24493902.118    96119333.021  
  24390390.853   128172369.621                                                  
  24390391.853    95713136.665  
                 122150422.495    23457704.494   122150422.495                  
                                
                 111506116.280    21413577.272   111506116.280                  
                                
 21  9  2  7 47 32.0000000  0 18G 1G 7G 8G 9G14G17G21G30R13R14R17R24
                                E 2E11E25E36C11C12
  21681640.242   113937787.789    21681637.491    88782681.034    21681637.508  
  21681637.365    85083401.385  
  20096918.007   105610016.395    20096911.502    82293490.986    20096911.092  
                                
  22034476.395   115791955.091    22034473.232    90227481.280    22034472.589  
  22034472.571    86468002.120  
  24065840.506   126466845.020    24065837.039    98545578.140    24065836.825  
  24065838.201    94439517.455  
  22874359.643   120205570.986    22874353.943    93666655.153    22874353.746  
  22874358.392    89763895.361  
  23017928.308   120960028.988    23017922.697    94254543.384    23017922.340  
                                
  21425800.399   112593341.147                    87735041.579    21425793.305  
                                
  21290389.461   111881751.508    21290385.673    87180567.341    21290385.047  
  21290386.102    83548047.706  
  20476837.880   109345171.691    20476837.165    85046241.476    20476836.004  
                                
  20284839.106   108129606.558    20284838.838    84100804.525    20284837.998  
                                
  22054510.125   118018138.008    22054508.588    91791879.475    22054507.712  
                                
  19351845.239   103483013.223    19351843.792    80486782.235    19351842.595  
                                
  24164291.246   126984208.245                                                  
  24164289.941    94825863.417  
  23339887.914   122651939.412                                                  
  23339884.358    91590719.199  
  24494032.526   128717010.552                                                  
  24494032.901    96119846.175  
  24390032.686   128170487.425                                                  
  24390033.704    95711731.126  
                 122147656.750    23457173.355   122147656.750                  
                                
                 111505988.419    21413552.720   111505988.419                  
                                
 21  9  2  7 47 33.0000000  0 18G 1G 7G 8G 9G14G17G21G30R13R14R17R24
                                E 2E11E25E36C11C12
  21681116.984   113935037.988    21681114.214    88780538.332    21681114.268  
  21681114.107    85081347.951  
  20096906.767   105609957.360    20096900.263    82293444.982    20096899.870  
                                
  22035008.409   115794750.837    22035005.264    90229659.783    22035004.603  
  22035004.585    86470089.861  
  24066445.229   126470022.760    24066441.763    98548054.295    24066441.548  
  24066442.924    94441890.447  
  22873956.339   120203451.613    22873950.639    93665003.691    22873950.442  
  22873955.088    89762312.701  
  23017405.746   120957282.896    23017400.118    94252403.565    23017399.778  
                                
  21425746.041   112593055.411                    87734818.921    21425738.929  
                                
  21289994.288   111879674.834    21289990.499    87178949.154    21289989.874  
  21289990.928    83546496.945  
  20477058.687   109346350.758    20477057.973    85047158.528    20477056.793  
                                
  20284469.253   108127635.049    20284469.002    84099271.123    20284468.181  
                                
  22053729.373   118013960.009    22053727.837    91788629.917    22053726.961  
                                
  19351628.649   103481854.996    19351627.201    80485881.387    19351626.004  
                                
  24164094.848   126983176.182                                                  
  24164093.543    94825092.718  
  23340041.409   122652746.022                                                  
  23340037.853    91591321.541  
  24494163.363   128717698.079                                                  
  24494163.720    96120359.588  
  24389674.626   128168605.842                                                  
  24389675.645    95710326.035  
                 122144891.512    23456642.324   122144891.512                  
                                
                 111505861.306    21413528.311   111505861.306                  
                                
 21  9  2  7 47 34.0000000  0 18G 1G 7G 8G 9G14G17G21G30R13R14R17R24
                                E 2E11E25E36C11C12
  21680593.850   113932288.900    21680591.081    88778396.188    21680591.098  
  21680590.973    85079295.067  
  20096895.724   105609899.214    20096889.220    82293399.669    20096888.827  
                                
  22035540.531   115797547.079    22035537.368    90231838.671    22035536.725  
  22035536.707    86472177.970  
  24067049.989   126473200.797    24067046.522    98550530.687    24067046.308  
  24067047.701    94444263.674  
  22873553.107   120201332.551    22873547.389    93663352.483    22873547.210  
  22873551.856    89760730.322  
  23016883.310   120954537.420    23016877.681    94250264.236    23016877.324  
                                
  21425691.827   112592770.576                    87734596.971    21425684.733  
                                
  21289599.239   111877598.870    21289595.451    87177331.511    21289594.843  
  21289595.898    83544946.708  
  20477279.620   109347530.529    20477278.905    85048076.112    20477277.744  
                                
  20284099.507   108125664.054    20284099.257    84097738.127    20284098.417  
                                
  22052948.729   118009782.613    22052947.193    91785380.829    22052946.299  
                                
  19351412.291   103480697.933    19351410.825    80484981.443    19351409.628  
                                
  24163898.503   126982144.465                                                  
  24163897.216    94824322.287  
  23340195.029   122653553.362                                                  
  23340191.473    91591924.438  
  24494294.271   128718386.001                                                  
  24494294.629    96120873.303  
  24389316.710   128166724.899                                                  
  24389317.711    95708921.456  
                 122142126.872    23456111.399   122142126.872                  
                                
                 111505734.998    21413504.027   111505734.998                  
                                
 21  9  2  7 47 35.0000000  0 18G 1G 7G 8G 9G14G17G21G30R13R14R17R24
                                E 2E11E25E36C11C12
  21680070.770   113929540.217    21680068.018    88776254.361    21680068.054  
  21680067.893    85077242.492  
  20096884.753   105609841.628    20096878.248    82293354.802    20096877.855  
                                
  22036072.670   115800343.520    22036069.525    90234017.718    22036068.864  
  22036068.846    86474266.220  
  24067654.748   126476378.866    24067651.281    98553007.109    24067651.085  
  24067652.461    94446636.897  
  22873149.892   120199213.592    22873144.174    93661701.350    22873143.978  
  22873148.624    89759147.974  
  23016360.909   120951792.270    23016355.298    94248125.158    23016354.941  
                                
  21425637.755   112592486.342                    87734375.491    21425630.643  
                                
  21289204.280   111875523.311    21289200.492    87175714.192    21289199.867  
  21289200.921    83543396.777  
  20477500.642   109348710.747    20477499.927    85048994.059    20477498.748  
                                
  20283729.797   108123693.267    20283729.529    84096205.293    20283728.689  
                                
  22052168.121   118005605.510    22052166.584    91782131.976    22052165.727  
                                
  19351196.058   103479541.718    19351194.592    80484082.162    19351193.395  
                                
  24163702.194   126981112.787                                                  
  24163700.907    94823551.871  
  23340348.739   122654361.172                                                  
  23340345.183    91592527.675  
  24494425.216   128719074.033                                                  
  24494425.573    96121387.088  
  24388958.847   128164844.351                                                  
  24388959.848    95707517.145  
                 122139362.524    23455580.528   122139362.524                  
                                
                 111505609.214    21413479.904   111505609.214                  
                                
 21  9  2  7 47 36.0000000  0 18G 1G 7G 8G 9G14G17G21G30R13R14R17R24
                                E 2E11E25E36C11C12
  21679547.851   113926792.282    21679545.099    88774113.113    21679545.135  
  21679544.974    85075190.458  
  20096873.960   105609784.917    20096867.455    82293310.611    20096867.062  
                                
  22036604.899   115803140.431    22036601.736    90236197.131    22036601.093  
  22036601.075    86476354.822  
  24068259.578   126479557.203    24068256.112    98555483.739    24068255.915  
  24068257.291    94449010.321  
  22872746.713   120197094.976    22872741.013    93660050.483    22872740.817  
  22872745.463    89757565.888  
  23015838.651   120949047.668    23015833.022    94245986.507    23015832.665  
                                
  21425583.844   112592203.030                    87734154.733    21425576.714  
                                
  21288809.428   111873448.433    21288805.658    87174097.406    21288805.033  
  21288806.087    83541847.358  
  20477721.789   109349891.693    20477721.074    85049912.570    20477719.913  
                                
  20283360.158   108121723.016    20283359.926    84094672.876    20283359.086  
                                
  22051387.638   118001428.984    22051386.083    91778883.572    22051385.226  
                                
  19350980.057   103478386.645    19350978.592    80483183.771    19350977.394  
                                
  24163505.938   126980081.428                                                  
  24163504.634    94822781.705  
  23340502.627   122655169.721                                                  
  23340499.053    91593131.457  
  24494556.196   128719762.448                                                  
  24494556.571    96121901.169  
  24388601.109   128162964.435                                                  
  24388602.128    95706113.320  
                 122136598.768    23455049.800   122136598.768                  
                                
                 111505484.217    21413455.888   111505484.217                  
                                
 21  9  2  7 47 37.0000000  0 18G 1G 7G 8G 9G14G17G21G30R13R14R17R24
                                E 2E11E25E36C11C12
  21679025.039   113924044.834    21679022.288    88771972.252    21679022.305  
  21679022.145    85073138.788  
  20096863.292   105609728.854    20096856.788    82293266.924    20096856.394  
                                
  22037137.182   115805937.600    22037134.037    90238376.744    22037133.375  
  22037133.358    86478443.617  
  24068864.391   126482735.604    24068860.925    98557960.415    24068860.728  
  24068862.122    94451383.807  
  22872343.588   120194976.486    22872337.870    93658399.707    22872337.692  
  22872342.320    89755983.903  
  23015316.429   120946303.460    23015310.800    94243848.170    23015310.443  
                                
  21425530.041   112591920.381                    87733934.489    21425522.947  
                                
  21288414.702   111871374.054    21288410.896    87172481.007    21288410.288  
  21288411.360    83540298.306  
  20477943.043   109351073.133    20477942.328    85050831.473    20477941.167  
                                
  20282990.609   108119753.075    20282990.359    84093140.704    20282989.537  
                                
  22050607.244   117997252.897    22050605.672    91775635.506    22050604.814  
                                
  19350764.235   103477232.511    19350762.769    80482286.114    19350761.572  
                                
  24163309.701   126979050.195                                                  
  24163308.396    94822011.630  
  23340656.586   122655978.819                                                  
  23340653.012    91593735.662  
  24494687.229   128720451.052                                                  
  24494687.604    96122415.389  
  24388243.461   128161084.991                                                  
  24388244.461    95704709.835  
                 122133835.350    23454519.108   122133835.350                  
                                
                 111505359.861    21413432.015   111505359.861                  
                                
 21  9  2  7 47 38.0000000  0 18G 1G 7G 8G 9G14G17G21G30R13R14R17R24
                                E 2E11E25E36C11C12
  21678502.263   113921297.685    21678499.511    88769831.617    21678499.529  
  21678499.386    85071087.366  
  20096852.713   105609673.264    20096846.209    82293223.611    20096845.816  
                                
  22037669.482   115808734.860    22037666.337    90240556.427    22037665.676  
  22037665.676    86480532.482  
  24069469.222   126485913.878    24069465.755    98560436.993    24069465.541  
  24069466.917    94453757.200  
  22871940.445   120192857.952    22871934.745    93656748.899    22871934.531  
  22871939.177    89754401.875  
  23014794.260   120943559.443    23014788.649    94241709.975    23014788.292  
                                
  21425476.362   112591638.237                    87733714.638    21425469.250  
                                
  21288020.011   111869299.948    21288016.205    87170864.818    21288015.597  
  21288016.669    83538749.465  
  20478164.351   109352254.881    20478163.636    85051750.605    20478162.457  
                                
  20282621.077   108117783.244    20282620.827    84091608.615    20282619.987  
                                
  22049826.868   117993077.011    22049825.314    91772387.595    22049824.456  
                                
  19350548.538   103476079.127    19350547.090    80481389.038    19350545.875  
                                
  24163113.445   126978018.880                                                  
  24163112.158    94821241.493  
  23340810.599   122656788.257                                                  
  23340807.043    91594340.115  
  24494818.263   128721139.635                                                  
  24494818.620    96122929.597  
  24387885.866   128159205.785                                                  
  24387886.866    95703306.541  
                 122131072.150    23453988.452   122131072.150                  
                                
                 111505235.859    21413408.178   111505235.859                  
                                
 21  9  2  7 47 39.0000000  0 18G 1G 7G 8G 9G14G17G21G30R13R14R17R24
                                E 2E11E25E36C11C12
  21677979.576   113918550.918    21677976.825    88767691.279    21677976.842  
  21677976.700    85069036.194  
  20096842.224   105609618.181    20096835.738    82293180.687    20096835.345  
                                
  22038201.818   115811532.270    22038198.655    90242736.224    22038198.012  
  22038197.994    86482621.452  
  24070073.999   126489092.077    24070070.532    98562913.516    24070070.318  
  24070071.712    94456130.526  
  22871537.284   120190739.395    22871531.584    93655098.073    22871531.405  
  22871536.034    89752819.831  
  23014272.145   120940815.634    23014266.516    94239571.944    23014266.159  
                                
  21425422.773   112591356.635                    87733495.216    21425415.661  
                                
  21287625.373   111867226.182    21287621.603    87169248.901    21287620.978  
  21287622.032    83537200.880  
  20478385.713   109353436.990    20478384.980    85052670.037    20478383.836  
                                
  20282251.564   108115813.541    20282251.314    84090076.622    20282250.474  
                                
  22049046.528   117988901.315    22049044.991    91769139.836    22049044.134  
                                
  19350332.984   103474926.508    19350331.536    80480492.575    19350330.321  
                                
  24162917.190   126976987.530                                                  
  24162915.885    94820471.329  
  23340964.720   122657598.094                                                  
  23340961.146    91594944.859  
  24494949.296   128721828.247                                                  
  24494949.671    96123443.816  
  24387528.307   128157326.890                                                  
  24387529.325    95701903.463  
                 122128309.118    23453457.849   122128309.118                  
                                
                 111505112.331    21413384.466   111505112.331                  
                                
 21  9  2  7 47 40.0000000  0 18G 1G 7G 8G 9G14G17G21G30R13R14R17R24
                                E 2E11E25E36C11C12
  21677456.961   113915804.559    21677454.209    88765551.259    21677454.227  
  21677454.066    85066985.341  
  20096831.860   105609563.665    20096825.356    82293138.207    20096824.945  
                                
  22038734.172   115814329.867    22038731.027    90244916.170    22038730.366  
  22038730.348    86484710.565  
  24070678.776   126492270.255    24070675.310    98565390.023    24070675.095  
  24070676.489    94458503.849  
  22871134.159   120188620.896    22871128.459    93653447.295    22871128.262  
  22871132.891    89751237.835  
  23013750.066   120938072.133    23013744.437    94237434.151    23013744.080  
                                
  21425369.291   112591075.612                    87733276.236    21425362.179  
                                
  21287230.843   111865152.830    21287227.055    87167633.302    21287226.430  
  21287227.502    83535652.598  
  20478607.163   109354619.516    20478606.449    85053589.777    20478605.287  
                                
  20281882.086   108113844.055    20281881.836    84088544.799    20281881.014  
                                
  22048266.259   117984725.895    22048264.722    91765892.284    22048263.847  
                                
  19350117.608   103473774.787    19350116.161    80479596.792    19350114.946  
                                
  24162720.916   126975956.221                                                  
  24162719.647    94819701.198  
  23341118.894   122658408.375                                                  
  23341115.338    91595549.935  
  24495080.365   128722516.968                                                  
  24495080.723    96123958.123  
  24387170.837   128155448.356                                                  
  24387171.837    95700500.666  
                 122125546.433    23452927.300   122125546.433                  
                                
                 111504989.300    21413360.825   111504989.300                  
                                
 21  9  2  7 47 41.0000000  0 18G 1G 7G 8G 9G14G17G21G30R13R14R17R24
                                E 2E11E25E36C11C12
  21676934.471   113913058.861    21676931.719    88763411.753    21676931.737  
  21676931.594    85064934.984  
  20096821.639   105609509.982    20096815.153    82293096.381    20096814.742  
                                
  22039266.597   115817127.896    22039263.470    90247096.453    22039262.827  
  22039262.809    86486800.000  
  24071283.625   126495448.705    24071280.158    98567866.738    24071279.944  
  24071281.320    94460877.361  
  22870731.088   120186502.694    22870725.370    93651796.750    22870725.191  
  22870729.801    89749656.061  
  23013228.094   120935329.178    23013222.483    94235296.788    23013222.126  
                                
  21425315.987   112590795.454                    87733057.934    21425308.858  
                                
  21286836.420   111863080.144    21286832.614    87166018.226    21286832.007  
  21286833.079    83534104.804  
  20478828.739   109355802.709    20478828.007    85054510.037    20478826.845  
                                
  20281512.716   108111875.072    20281512.465    84087013.366    20281511.626  
                                
  22047486.080   117980551.024    22047484.543    91762645.158    22047483.685  
                                
  19349902.447   103472624.177    19349900.982    80478701.873    19349899.785  
                                
  24162524.750   126974925.212                                                  
  24162523.446    94818931.283  
  23341273.246   122659219.350                                                  
  23341269.672    91596155.534  
  24495211.488   128723206.041                                                  
  24495211.846    96124472.688  
  24386813.492   128153570.444                                                  
  24386814.493    95699098.329  
                 122122784.262    23452396.858   122122784.262                  
                                
                 111504867.075    21413337.363   111504867.075                  
                                
 21  9  2  7 47 42.0000000  0 18G 1G 7G 8G 9G14G17G21G30R13R14R17R24
                                E 2E11E25E36C11C12
  21676412.106   113910313.696    21676409.318    88761272.662    21676409.354  
  21676409.193    85062885.028  
  20096811.561   105609456.980    20096805.057    82293055.081    20096804.664  
                                
  22039799.112   115819926.204    22039795.967    90249276.954    22039795.324  
  22039795.306    86488889.654  
  24071888.455   126498627.224    24071884.989    98570343.503    24071884.774  
  24071886.168    94463250.949  
  22870328.034   120184384.668    22870322.316    93650146.340    22870322.137  
  22870326.783    89748074.415  
  23012706.211   120932586.639    23012700.582    94233159.747    23012700.243  
                                
  21425262.809   112590515.998                    87732840.174    21425255.697  
                                
  21286442.087   111861007.945    21286438.316    87164403.524    21286437.691  
  21286438.745    83532557.398  
  20479050.422   109356986.458    20479049.690    85055430.730    20479048.528  
                                
  20281143.417   108109906.449    20281143.148    84085482.213    20281142.309  
                                
  22046705.990   117976376.607    22046704.453    91759398.387    22046703.595  
                                
  19349687.465   103471474.535    19349686.000    80477807.705    19349684.803  
                                
  24162328.566   126973894.328                                                  
  24162327.262    94818161.479  
  23341427.652   122660030.875                                                  
  23341424.096    91596761.551  
  24495342.665   128723895.311                                                  
  24495343.022    96124987.413  
  24386456.219   128151693.002                                                  
  24386457.219    95697696.352  
                 122120022.504    23451866.488   122120022.504                  
                                
                 111504745.416    21413313.990   111504745.416                  
                                
 21  9  2  7 47 43.0000000  0 18G 1G 7G 8G 9G14G17G21G30R13R14R17R24
                                E 2E11E25E36C11C12
  21675889.776   113907568.921    21675887.007    88759133.879    21675887.042  
  21675886.882    85060835.363  
  20096801.572   105609404.533    20096795.068    82293014.215    20096794.675  
                                
  22040331.645   115822724.696    22040328.500    90251457.598    22040327.856  
  22040327.839    86490979.433  
  24072493.286   126501805.715    24072489.837    98572820.259    24072489.623  
  24072491.017    94465624.509  
  22869924.980   120182266.665    22869919.280    93648495.948    22869919.084  
  22869923.729    89746492.797  
  23012184.364   120929844.386    23012178.771    94231022.924    23012178.414  
                                
  21425209.738   112590237.137                    87732622.882    21425202.609  
                                
  21286047.842   111858936.154    21286044.036    87162789.143    21286043.411  
  21286044.501    83531010.272  
  20479272.177   109358170.615    20479271.444    85056351.741    20479270.283  
                                
  20280774.135   108107938.011    20280773.867    84083951.212    20280773.027  
                                
  22045925.971   117972202.490    22045924.417    91756151.851    22045923.559  
                                
  19349472.608   103470325.717    19349471.179    80476914.184    19349469.981  
                                
  24162132.400   126972863.477                                                  
  24162131.113    94817391.685  
  23341582.184   122660842.849                                                  
  23341578.610    91597367.886  
  24495473.841   128724584.674                                                  
  24495474.199    96125502.189  
  24386099.017   128149815.914                                                  
  24386100.018    95696294.624  
                 122117261.011    23451336.171   122117261.011                  
                                
                 111504624.296    21413290.743   111504624.296                  
                                
 21  9  2  7 47 44.0000000  0 18G 1G 7G 8G 9G14G17G21G30R13R14R17R24
                                E 2E11E25E36C11C12
  21675367.554   113904824.581    21675364.767    88756995.438    21675364.802  
  21675364.659    85058786.026  
  20096791.691   105609352.675    20096785.204    82292973.809    20096784.811  
                                
  22040864.213   115825523.394    22040861.086    90253638.401    22040860.425  
  22040860.407    86493069.377  
  24073098.152   126504984.242    24073094.668    98575297.024    24073094.454  
  24073095.847    94467998.059  
  22869521.945   120180148.745    22869516.262    93646845.623    22869516.048  
  22869520.694    89744911.230  
  23011662.589   120927102.425    23011656.996    94228886.331    23011656.638  
                                
  21425156.774   112589958.899                    87732406.075    21425149.680  
                                
  21285653.670   111856864.762    21285649.863    87161175.072    21285649.256  
  21285650.328    83529463.456  
  20479494.021   109359355.210    20479493.306    85057273.107    20479492.127  
                                
  20280404.908   108105969.800    20280404.640    84082420.379    20280403.800  
                                
  22045145.988   117968028.674    22045144.452    91752905.573    22045143.594  
                                
  19349257.948   103469177.768    19349256.482    80476021.339    19349255.285  
                                
  24161936.234   126971832.670                                                  
  24161934.965    94816621.924  
  23341736.751   122661655.265                                                  
  23341733.195    91597974.578  
  24495605.054   128725274.149                                                  
  24495605.393    96126017.055  
  24385741.887   128147939.211                                                  
  24385742.887    95694893.188  
                 122114499.826    23450805.908   122114499.826                  
                                
                 111504503.682    21413267.584   111504503.682                  
                                
 21  9  2  7 47 45.0000000  0 18G 1G 7G 8G 9G14G17G21G30R13R14R17R24
                                E 2E11E25E36C11C12
  21674845.386   113902080.567    21674842.598    88754857.245    21674842.634  
  21674842.473    85056736.925  
  20096781.916   105609301.290    20096775.430    82292933.769    20096775.019  
                                
  22041396.799   115828322.165    22041393.654    90255819.264    22041393.011  
  22041392.993    86495159.370  
  24073702.965   126508162.640    24073699.499    98577773.705    24073699.284  
  24073700.678    94470371.542  
  22869118.944   120178030.783    22869113.226    93645195.258    22869113.048  
  22869117.658    89743329.625  
  23011140.849   120924360.656    23011135.238    94226749.888    23011134.899  
                                
  21425103.954   112589681.171                    87732189.666    21425096.824  
                                
  21285259.550   111854793.684    21285255.762    87159561.245    21285255.137  
  21285256.227    83527916.867  
  20479715.918   109360540.128    20479715.204    85058194.707    20479714.006  
                                
  20280035.698   108104001.692    20280035.430    84080889.628    20280034.590  
                                
  22044366.041   117963855.034    22044364.504    91749659.409    22044363.647  
                                
  19349043.430   103468030.568    19349041.965    80475129.073    19349040.767  
                                
  24161740.086   126970801.801                                                  
  24161738.781    94815852.118  
  23341891.425   122662468.078                                                  
  23341887.869    91598581.540  
  24495736.248   128725963.624                                                  
  24495736.605    96126531.927  
  24385384.828   128146062.769                                                  
  24385385.829    95693491.947  
                 122111738.827    23450275.698   122111738.827                  
                                
                 111504383.486    21413244.480   111504383.486                  
                                
 21  9  2  7 47 46.0000000  0 18G 1G 7G 8G 9G14G17G21G30R13R14R17R24
                                E 2E11E25E36C11C12
  21674323.271   113899336.825    21674320.483    88752719.267    21674320.519  
  21674320.358    85054688.025  
  20096772.213   105609250.337    20096765.745    82292894.062    20096765.334  
                                
  22041929.403   115831120.983    22041926.258    90258000.159    22041925.615  
  22041925.597    86497249.392  
  24074307.778   126511340.877    24074304.294    98580250.243    24074304.097  
  24074305.473    94472744.898  
  22868715.873   120175912.707    22868710.173    93643544.805    22868709.994  
  22868714.604    89741747.949  
  23010619.145   120921619.059    23010613.534    94224613.581    23010613.177  
                                
  21425051.169   112589403.892                    87731973.602    21425044.057  
                                
  21284865.485   111852722.858    21284861.697    87157947.610    21284861.071  
  21284862.143    83526370.469  
  20479937.852   109361725.326    20479937.137    85059116.525    20479935.975  
                                
  20279666.488   108102033.662    20279666.238    84079358.936    20279665.398  
                                
  22043586.148   117959681.547    22043584.575    91746413.364    22043583.717  
                                
  19348829.020   103466884.064    19348827.554    80474237.350    19348826.357  
                                
  24161543.884   126969770.815                                                  
  24161542.597    94815082.225  
  23342046.171   122663281.191                                                  
  23342042.633    91599188.719  
  24495867.442   128726653.053                                                  
  24495867.800    96127046.753  
  24385027.787   128144186.545                                                  
  24385028.788    95692090.867  
                 122108977.982    23449745.488   122108977.982                  
                                
                 111504263.645    21413221.464   111504263.645                  
                                
 21  9  2  7 47 47.0000000  0 18G 1G 7G 8G 9G14G17G21G30R13R14R17R24
                                E 2E11E25E36C11C12
  21673801.191   113896593.336    21673798.422    88750581.481    21673798.457  
  21673798.297    85052639.309  
  20096762.600   105609199.782    20096756.113    82292854.666    20096755.720  
                                
  22042461.990   115833919.796    22042458.845    90260181.052    22042458.219  
  22042458.201    86499339.419  
  24074912.519   126514518.923    24074909.053    98582726.654    24074908.838  
  24074910.232    94475118.119  
  22868312.801   120173794.490    22868307.083    93641894.244    22868306.905  
  22868311.533    89740166.179  
  23010097.459   120918877.551    23010091.866    94222477.338    23010091.508  
                                
  21424998.491   112589127.044                    87731757.872    21424991.379  
                                
  21284471.455   111850652.253    21284467.685    87156334.151    21284467.059  
  21284468.114    83524824.236  
  20480159.856   109362910.771    20480159.124    85060038.533    20480157.980  
                                
  20279297.296   108100065.670    20279297.046    84077828.276    20279296.206  
                                
  22042806.254   117955508.218    22042804.717    91743167.439    22042803.842  
                                
  19348614.734   103465738.211    19348613.287    80473346.128    19348612.072  
                                
  24161347.664   126968739.688                                                  
  24161346.395    94814312.226  
  23342200.952   122664094.555                                                  
  23342197.396    91599796.111  
  24495998.619   128727342.387                                                  
  24495998.958    96127561.524  
  24384670.782   128142310.502                                                  
  24384671.782    95690689.933  
                 122106217.222    23449215.314   122106217.222                  
                                
                 111504144.153    21413198.521   111504144.153                  
                                
 21  9  2  7 47 48.0000000  0 18G 1G 7G 8G 9G14G17G21G30R13R14R17R24
                                E 2E11E25E36C11C12
  21673279.219   113893850.357    21673276.432    88748444.095    21673276.485  
  21673276.325    85050590.987  
  20096753.111   105609149.902    20096746.625    82292815.801    20096746.232  
                                
  22042994.647   115836718.928    22042991.520    90262362.199    22042990.877  
  22042990.859    86501429.676  
  24075517.297   126517697.062    24075513.830    98585203.129    24075513.616  
  24075515.009    94477491.402  
  22867909.748   120171676.467    22867904.047    93640243.836    22867903.851  
  22867908.479    89738584.525  
  23009575.844   120916136.491    23009570.269    94220341.443    23009569.894  
                                
  21424945.938   112588850.913                    87731542.702    21424938.844  
                                
  21284077.532   111848582.143    21284073.762    87154721.076    21284073.137  
  21284074.191    83523278.379  
  20480381.950   109364096.741    20480381.236    85060960.957    20480380.074  
                                
  20278928.176   108098098.042    20278927.926    84076297.896    20278927.086  
                                
  22042026.450   117951335.305    22042024.895    91739921.837    22042024.038  
                                
  19348400.645   103464593.322    19348399.180    80472455.660    19348397.983  
                                
  24161151.462   126967708.707                                                  
  24161150.193    94813542.338  
  23342355.823   122664908.468                                                  
  23342352.267    91600403.907  
  24496129.849   128728031.941                                                  
  24496130.188    96128076.442  
  24384313.884   128140434.952                                                  
  24384314.884    95689289.347  
                 122103456.897    23448685.248   122103456.897                  
                                
                 111504025.281    21413175.684   111504025.281                  
                                
 21  9  2  7 47 49.0000000  0 18G 1G 7G 8G 9G14G17G21G30R13R14R17R24
                                E 2E11E25E36C11C12
  21672757.372   113891108.001    21672754.585    88746307.199    21672754.621  
  21672754.460    85048543.126  
  20096743.766   105609100.791    20096737.262    82292777.535    20096736.869  
                                
  22043527.394   115839518.456    22043524.249    90264543.647    22043523.606  
  22043523.588    86503520.230  
  24076122.127   126520875.375    24076118.643    98587679.727    24076118.428  
  24076119.804    94479864.811  
  22867506.748   120169558.661    22867501.029    93638593.607    22867500.851  
  22867505.497    89737003.057  
  23009054.319   120913395.890    23009048.744    94218205.905    23009048.386  
                                
  21424893.546   112588575.573                    87731328.154    21424886.452  
                                
  21283683.735   111846512.650    21283679.929    87153108.496    21283679.303  
  21283680.393    83521732.983  
  20480604.170   109365283.316    20480603.455    85061883.849    20480602.275  
                                
  20278559.145   108096130.836    20278558.877    84074767.851    20278558.037  
                                
  22041246.717   117947162.881    22041245.181    91736676.617    22041244.323  
                                
  19348186.735   103463449.491    19348185.288    80471566.006    19348184.091  
                                
  24160955.332   126966677.950                                                  
  24160954.027    94812772.621  
  23342510.819   122665723.036                                                  
  23342507.263    91601012.184  
  24496261.115   128728721.777                                                  
  24496261.454    96128591.584  
  24383957.075   128138559.936                                                  
  24383958.076    95687889.182  
                 122100697.018    23448155.199   122100697.018                  
                                
                 111503907.123    21413152.990   111503907.123                  
                                
 21  9  2  7 47 50.0000000  0 18G 1G 7G 8G 9G14G17G21G30R13R14R17R24
                                E 2E11E25E36C11C12
  21672235.597   113888366.073    21672232.809    88744170.629    21672232.863  
  21672232.702    85046495.575  
  20096734.528   105609052.255    20096728.041    82292739.713    20096727.648  
                                
  22044060.177   115842318.173    22044057.032    90266725.244    22044056.371  
  22044056.353    86505610.925  
  24076726.940   126524053.670    24076723.456    98590156.323    24076723.241  
  24076724.617    94482238.227  
  22867103.748   120167440.907    22867098.029    93636943.410    22867097.851  
  22867102.497    89735421.631  
  23008532.865   120910655.584    23008527.272    94216070.602    23008526.915  
                                
  21424841.279   112588300.859                    87731114.091    21424834.185  
                                
  21283289.991   111844443.550    21283286.203    87151496.205    21283285.577  
  21283286.667    83520187.869  
  20480826.460   109366470.333    20480825.728    85062807.084    20480824.566  
                                
  20278190.132   108094163.874    20278189.899    84073237.990    20278189.059  
                                
  22040467.056   117942990.754    22040465.519    91733431.628    22040464.662  
                                
  19347973.004   103462306.534    19347971.557    80470677.037    19347970.341  
                                
  24160759.201   126965647.228                                                  
  24160757.915    94812002.921  
  23342665.922   122666538.044                                                  
  23342662.366    91601620.794  
  24496392.398   128729411.716                                                  
  24496392.756    96129106.796  
  24383600.356   128136685.308                                                  
  24383601.374    95686489.292  
                 122097937.455    23447625.275   122097937.455                  
                                
                 111503789.466    21413130.404   111503789.466                  
                                
 21  9  2  7 47 51.0000000  0 18G 1G 7G 8G 9G14G17G21G30R13R14R17R24
                                E 2E11E25E36C11C12
  21671713.857   113885624.388    21671711.087    88742034.256    21671711.123  
  21671710.962    85044448.218  
  20096725.379   105609004.133    20096718.874    82292702.213    20096718.481  
                                
  22044592.924   115845117.874    22044589.779    90268906.830    22044589.136  
  22044589.136    86507701.622  
  24077331.717   126527231.801    24077328.233    98592632.791    24077328.018  
  24077329.394    94484611.500  
  22866700.747   120165323.069    22866695.029    93635293.151    22866694.851  
  22866699.479    89733840.120  
  23008011.447   120907915.417    23008005.836    94213935.404    23008005.497  
                                
  21424789.084   112588026.564                    87730900.353    21424781.990  
                                
  21282896.283   111842374.676    21282892.512    87149884.095    21282891.887  
  21282892.959    83518642.935  
  20481048.787   109367657.576    20481048.072    85063730.493    20481046.893  
                                
  20277821.154   108092196.951    20277820.886    84071708.159    20277820.064  
                                
  22039687.413   117938818.748    22039685.876    91730186.736    22039685.018  
                                
  19347759.398   103461164.243    19347757.932    80469788.589    19347756.735  
                                
  24160563.017   126964616.383                                                  
  24160561.749    94811233.132  
  23342821.079   122667353.360                                                  
  23342817.523    91602229.623  
  24496523.682   128730101.590                                                  
  24496524.022    96129621.957  
  24383243.654   128134810.868                                                  
  24383244.673    95685089.546  
                 122095178.001    23447095.351   122095178.001                  
                                
                 111503672.178    21413107.889   111503672.178                  
                                
 21  9  2  7 47 52.0000000  0 18G 1G 7G 8G 9G14G17G21G30R13R14R17R24
                                E 2E11E25E36C11C12
  21671192.225   113882883.106    21671189.455    88739898.187    21671189.473  
  21671189.312    85042401.161  
  20096716.319   105608956.557    20096709.833    82292665.138    20096709.440  
                                
  22045125.725   115847917.769    22045122.580    90271088.564    22045121.954  
  22045121.919    86509792.449  
  24077936.476   126530409.885    24077932.992    98595109.215    24077932.795  
  24077934.171    94486984.755  
  22866297.729   120163205.251    22866292.011    93633642.903    22866291.833  
  22866296.461    89732258.639  
  23007490.065   120905175.525    23007484.454    94211800.422    23007484.114  
                                
  21424737.013   112587752.868                    87730687.083    21424729.884  
                                
  21282502.682   111840306.203    21282498.894    87148272.301    21282498.268  
  21282499.340    83517098.297  
  20481271.202   109368845.237    20481270.470    85064654.231    20481269.290  
                                
  20277452.212   108090230.213    20277451.944    84070178.473    20277451.105  
                                
  22038907.823   117934647.042    22038906.286    91726942.070    22038905.429  
                                
  19347545.916   103460022.783    19347544.487    80468900.786    19347543.254  
                                
  24160366.869   126963585.552                                                  
  24160365.582    94810463.358  
  23342976.307   122668169.101                                                  
  23342972.733    91602838.787  
  24496654.984   128730791.546                                                  
  24496655.323    96130137.186  
  24382887.024   128132936.785                                                  
  24382888.025    95683690.073  
                 122092418.831    23446565.463   122092418.831                  
                                
                 111503555.356    21413085.445   111503555.356                  
                                
 21  9  2  7 47 53.0000000  0 18G 1G 7G 8G 9G14G17G21G30R13R14R17R24
                                E 2E11E25E36C11C12
  21670670.681   113880142.372    21670667.894    88737762.553    21670667.912  
  21670667.787    85040354.511  
  20096707.403   105608909.679    20096700.916    82292628.608    20096700.523  
                                
  22045658.579   115850717.967    22045655.452    90273270.538    22045654.809  
  22045654.791    86511883.512  
  24078541.271   126533588.081    24078537.787    98597585.736    24078537.572  
  24078538.966    94489358.096  
  22865894.747   120161087.612    22865889.029    93631992.802    22865888.850  
  22865893.496    89730677.285  
  23006968.754   120902436.077    23006963.161    94209665.786    23006962.821  
                                
  21424685.068   112587479.897                    87730474.385    21424677.938  
                                
  21282109.152   111838238.248    21282105.364    87146660.912    21282104.739  
  21282105.811    83515554.048  
  20481493.707   109370033.431    20481492.975    85065578.385    20481491.795  
                                
  20277083.306   108088263.793    20277083.038    84068649.038    20277082.199  
                                
  22038128.323   117930475.763    22038126.786    91723697.745    22038125.928  
                                
  19347332.650   103458882.296    19347331.202    80468013.743    19347329.987  
                                
  24160170.739   126962554.871                                                  
  24160169.452    94809693.696  
  23343131.642   122668985.418                                                  
  23343128.086    91603448.376  
  24496786.303   128731481.714                                                  
  24496786.643    96130652.573  
  24382530.502   128131063.175                                                  
  24382531.502    95682290.951  
                 122089660.059    23446035.665   122089660.059                  
                                
                 111503439.187    21413063.145   111503439.187                  
                                
 21  9  2  7 47 54.0000000  0 18G 1G 7G 8G 9G14G17G21G30R13R14R17R24
                                E 2E11E25E36C11C12
  21670149.245   113877402.161    21670146.440    88735627.319    21670146.494  
  21670146.333    85038308.247  
  20096698.611   105608863.491    20096692.107    82292592.622    20096691.731  
                                
  22046191.505   115853518.460    22046188.360    90275452.743    22046187.699  
  22046187.699    86513974.796  
  24079146.084   126536766.405    24079142.600    98600062.355    24079142.385  
  24079143.779    94491731.507  
  22865491.819   120158970.147    22865486.101    93630342.817    22865485.904  
  22865490.550    89729096.050  
  23006447.514   120899697.004    23006441.939    94207531.446    23006441.582  
                                
  21424633.248   112587207.645                    87730262.236    21424626.136  
                                
  21281715.730   111836170.803    21281711.924    87145049.911    21281711.316  
  21281712.389    83514010.177  
  20481716.302   109371222.187    20481715.587    85066502.970    20481714.426  
                                
  20276714.472   108086297.718    20276714.204    84067119.869    20276713.382  
                                
  22037348.894   117926304.879    22037347.339    91720453.712    22037346.481  
                                
  19347119.544   103457742.815    19347118.114    80467127.478    19347116.881  
                                
  24159974.644   126961524.349                                                  
  24159973.357    94808924.150  
  23343287.103   122669802.280                                                  
  23343283.529    91604058.377  
  24496917.676   128732172.107                                                  
  24496918.016    96131168.127  
  24382174.068   128129190.069                                                  
  24382175.069    95680892.197  
                 122086901.686    23445505.955   122086901.686                  
                                
                 111503323.638    21413040.952   111503323.638                  
                                
 21  9  2  7 47 55.0000000  0 18G 1G 7G 8G 9G14G17G21G30R13R14R17R24
                                E 2E11E25E36C11C12
  21669627.899   113874662.486    21669625.111    88733492.507    21669625.129  
  21669625.004    85036262.389  
  20096689.944   105608817.972    20096683.458    82292557.148    20096683.065  
                                
  22046724.466   115856319.253    22046721.339    90277635.180    22046720.678  
  22046720.660    86516066.285  
  24079750.915   126539944.818    24079747.430    98602539.040    24079747.216  
  24079748.610    94494104.990  
  22865088.908   120156852.854    22865083.190    93628692.972    22865083.011  
  22865087.639    89727514.942  
  23005926.364   120896958.345    23005920.789    94205397.424    23005920.432  
                                
  21424581.571   112586936.094                    87730050.640    21424574.459  
                                
  21281322.415   111834103.883    21281318.609    87143439.326    21281317.983  
  21281319.073    83512466.694  
  20481939.003   109372411.437    20481938.289    85067427.942    20481937.127  
                                
  20276345.709   108084332.004    20276345.441    84065590.980    20276344.619  
                                
  22036569.536   117922134.392    22036568.000    91717210.000    22036567.106  
                                
  19346906.634   103456604.281    19346905.187    80466241.956    19346903.990  
                                
  24159778.567   126960493.961                                                  
  24159777.281    94808154.705  
  23343442.635   122670619.709                                                  
  23343439.079    91604668.804  
  24497049.103   128732862.703                                                  
  24497049.460    96131683.832  
  24381817.706   128127317.419                                                  
  24381818.707    95679493.791  
                 122084143.723    23444976.317   122084143.723                  
                                
                 111503208.729    21413018.883   111503208.729                  
                                
 21  9  2  7 47 56.0000000  0 18G 1G 7G 8G 9G14G17G21G30R13R14R17R24
                                E 2E11E25E36C11C12
  21669106.606   113871923.117    21669103.818    88731357.934    21669103.836  
  21669103.711    85034216.749  
  20096681.367   105608772.911    20096674.899    82292522.033    20096674.488  
                                
  22047257.446   115859120.088    22047254.319    90279817.646    22047253.657  
  22047253.640    86518157.825  
  24080355.728   126543123.072    24080352.225    98605015.595    24080352.029  
  24080353.405    94496478.366  
  22864685.979   120154735.453    22864680.261    93627043.046    22864680.083  
  22864684.729    89725933.772  
  23005405.250   120894219.847    23005399.675    94203263.530    23005399.317  
                                
  21424530.001   112586665.021                    87729839.417    21424522.889  
                                
  21280929.136   111832037.224    21280925.347    87141828.945    21280924.722  
  21280925.794    83510923.412  
  20482161.777   109373600.976    20482161.062    85068353.142    20482159.882  
                                
  20275976.964   108082366.379    20275976.696    84064062.160    20275975.856  
                                
  22035790.232   117917964.111    22035788.660    91713966.445    22035787.802  
                                
  19346693.850   103455466.448    19346692.420    80465356.975    19346691.187  
                                
  24159582.472   126959463.480                                                  
  24159581.186    94807385.191  
  23343598.256   122671437.455                                                  
  23343594.700    91605279.453  
  24497180.512   128733553.258                                                  
  24497180.851    96132199.510  
  24381461.398   128125445.009                                                  
  24381462.399    95678095.567  
                 122081385.919    23444446.697   122081385.919                  
                                
                 111503094.171    21412996.869   111503094.171                  
                                
 21  9  2  7 47 57.0000000  0 18G 1G 7G 8G 9G14G17G21G30R13R14R17R24
                                E 2E11E25E36C11C12
  21668585.384   113869184.065    21668582.597    88729223.608    21668582.633  
  21668582.472    85032171.362  
  20096672.897   105608728.366    20096666.411    82292487.320    20096666.018  
                                
  22047790.461   115861921.069    22047787.352    90282000.233    22047786.690  
  22047786.655    86520249.465  
  24080960.505   126546301.256    24080957.020    98607492.101    24080956.806  
  24080958.200    94498851.692  
  22864283.051   120152618.061    22864277.333    93625393.128    22864277.154  
  22864281.800    89724352.600  
  23004884.189   120891481.602    23004878.614    94201129.832    23004878.239  
                                
  21424478.520   112586394.492                    87729628.615    21424471.390  
                                
  21280535.928   111829970.909    21280532.140    87140218.827    21280531.514  
  21280532.604    83509380.384  
  20482384.603   109374790.897    20482383.889    85069278.638    20482382.727  
                                
  20275608.236   108080400.920    20275607.986    84062533.470    20275607.164  
                                
  22035010.964   117913794.078    22035009.392    91710723.089    22035008.534  
                                
  19346481.226   103454329.404    19346479.761    80464472.610    19346478.564  
                                
  24159386.342   126958432.978                                                  
  24159385.073    94806615.663  
  23343753.931   122672255.599                                                  
  23343750.393    91605890.401  
  24497311.921   128734243.857                                                  
  24497312.260    96132715.215  
  24381105.161   128123572.898                                                  
  24381106.162    95676697.562  
                 122078628.343    23443917.131   122078628.343                  
                                
                 111502980.065    21412974.961   111502980.065                  
                                
 21  9  2  7 47 58.0000000  0 18G 1G 7G 8G 9G14G17G21G30R13R14R17R24
                                E 2E11E25E36C11C12
  21668064.270   113866445.473    21668061.465    88727089.640    21668061.482  
  21668061.340    85030126.305  
  20096664.535   105608684.393    20096658.048    82292453.056    20096657.655  
                                
  22048323.494   115864722.258    22048320.384    90284182.973    22048319.723  
  22048319.705    86522341.260  
  24081565.300   126549479.442    24081561.815    98609968.611    24081561.601  
  24081562.995    94501225.007  
  22863880.140   120150500.724    22863874.440    93623743.253    22863874.243  
  22863878.889    89722771.479  
  23004363.164   120888743.679    23004357.607    94198996.386    23004357.250  
                                
  21424427.164   112586124.587                    87729418.302    21424420.035  
                                
  21280142.809   111827905.019    21280139.003    87138609.045    21280138.396  
  21280139.468    83507837.674  
  20482607.537   109375981.241    20482606.822    85070204.464    20482605.643  
                                
  20275239.581   108078435.700    20275239.330    84061004.966    20275238.491  
                                
  22034231.750   117909624.353    22034230.195    91707479.967    22034229.338  
                                
  19346268.764   103453193.235    19346267.299    80463588.923    19346266.101  
                                
  24159190.283   126957402.522                                                  
  24159188.997    94805846.161  
  23343909.713   122673074.202                                                  
  23343906.157    91606501.695  
  24497443.365   128734934.574                                                  
  24497443.705    96133231.003  
  24380748.960   128121701.184                                                  
  24380749.979    95675299.845  
                 122075871.072    23443387.636   122075871.072                  
                                
                 111502866.496    21412953.143   111502866.496                  
                                
 21  9  2  7 47 59.0000000  0 18G 1G 7G 8G 9G14G17G21G30R13R14R17R24
                                E 2E11E25E36C11C12
  21667543.209   113863707.398    21667540.422    88724956.066    21667540.457  
  21667540.315    85028081.639  
  20096656.297   105608641.107    20096649.811    82292419.328    20096649.418  
                                
  22048856.598   115867523.723    22048853.489    90286365.924    22048852.846  
  22048852.828    86524433.263  
  24082170.112   126552657.714    24082166.628    98612445.186    24082166.396  
  24082167.790    94503598.383  
  22863477.265   120148383.546    22863471.547    93622093.492    22863471.350  
  22863476.014    89721190.458  
  23003842.229   120886006.127    23003836.654    94196863.221    23003836.296  
                                
  21424375.934   112585855.387                    87729208.528    21424368.804  
                                
  21279749.762   111825839.628    21279745.992    87136999.638    21279745.366  
  21279746.421    83506295.330  
  20482830.543   109377172.084    20482829.828    85071130.668    20482828.649  
                                
  20274870.961   108076470.813    20274870.710    84059476.718    20274869.888  
                                
  22033452.607   117905455.040    22033451.052    91704237.159    22033450.195  
                                
  19346056.462   103452058.027    19346055.015    80462705.981    19346053.782  
                                
  24158994.206   126956372.197                                                  
  24158992.920    94805076.764  
  23344065.585   122673893.356                                                  
  23344062.029    91607113.399  
  24497574.845   128735625.463                                                  
  24497575.185    96133746.940  
  24380392.866   128119829.916                                                  
  24380393.885    95673902.473  
                 122073114.178    23442858.195   122073114.178                  
                                
                 111502753.546    21412931.468   111502753.546                  
                                
 21  9  2  7 48  0.0000000  0 18G 1G 7G 8G 9G14G17G21G30R13R14R17R24
                                E 2E11E25E36C11C12
  21667022.274   113860969.854    21667019.486    88722822.919    21667019.504  
  21667019.361    85026037.358  
  20096648.185   105608598.493    20096641.716    82292386.118    20096641.305  
                                
  22049389.756   115870325.487    22049386.647    90288549.117    22049386.004  
  22049385.986    86526525.481  
  24082774.907   126555836.071    24082771.441    98614921.823    24082771.209  
  24082772.620    94505971.835  
  22863074.408   120146266.517    22863068.708    93620443.858    22863068.493  
  22863073.157    89719609.563  
  23003321.365   120883268.982    23003315.807    94194730.376    23003315.450  
                                
  21424324.829   112585586.899                    87728999.315    21424317.717  
                                
  21279356.840   111823774.745    21279353.052    87135390.640    21279352.427  
  21279353.499    83504753.363  
  20483053.655   109378363.478    20483052.941    85072057.303    20483051.761  
                                
  20274502.430   108074506.248    20274502.162    84057948.723    20274501.322  
                                
  22032673.535   117901286.115    22032671.981    91700994.660    22032671.123  
                                
  19345844.357   103450923.799    19345842.891    80461823.803    19345841.676  
                                
  24158798.165   126955342.012                                                  
  24158796.879    94804307.470  
  23344221.581   122674713.071                                                  
  23344218.025    91607725.520  
  24497706.361   128736316.579                                                  
  24497706.701    96134263.022  
  24380036.879   128117959.123                                                  
  24380037.880    95672505.453  
                 122070357.695    23442328.861   122070357.695                  
                                
                 111502641.199    21412909.882   111502641.199                  
                                
 21  9  2  7 48  1.0000000  0 18G 1G 7G 8G 9G14G17G21G30R13R14R17R24
                                E 2E11E25E36C11C12
  21666501.427   113858232.800    21666498.622    88720690.150    21666498.676  
  21666498.533    85023993.456  
  20096640.197   105608556.518    20096633.711    82292353.415    20096633.318  
                                
  22049922.968   115873127.484    22049919.841    90290732.490    22049919.197  
  22049919.180    86528617.885  
  24083379.756   126559014.460    24083376.272    98617398.494    24083376.039  
  24083377.451    94508345.319  
  22862671.587   120144149.615    22862665.868    93618794.321    22862665.672  
  22862670.318    89718028.750  
  23002800.590   120880532.186    23002795.015    94192597.808    23002794.675  
                                
  21424273.866   112585319.072                    87728790.621    21424266.754  
                                
  21278964.008   111821710.325    21278960.202    87133781.999    21278959.576  
  21278960.666    83503211.751  
  20483276.839   109379555.361    20483276.125    85072984.323    20483274.945  
                                
  20274133.917   108072541.953    20274133.667    84056420.938    20274132.827  
                                
  22031894.553   117897117.541    22031892.999    91697752.440    22031892.123  
                                
  19345632.412   103449790.445    19345630.947    80460942.304    19345629.750  
                                
  24158602.160   126954311.929                                                  
  24158600.873    94803538.250  
  23344377.667   122675533.308                                                  
  23344374.129    91608338.030  
  24497837.913   128737007.844                                                  
  24497838.253    96134779.229  
  24379680.964   128116088.758                                                  
  24379681.965    95671108.752  
                 122067601.549    23441799.545   122067601.549                  
                                
                 111502529.430    21412888.439   111502529.430                  
                                
 21  9  2  7 48  2.0000000  0 18G 1G 7G 8G 9G14G17G21G30R13R14R17R24
                                E 2E11E25E36C11C12
  21665980.670   113855496.201    21665977.883    88718557.733    21665977.901  
  21665977.758    85021949.892  
  20096632.317   105608515.149    20096625.830    82292321.181    20096625.455  
                                
  22050456.215   115875929.723    22050453.106    90292916.049    22050452.445  
  22050452.427    86530710.464  
  24083984.587   126562192.911    24083981.102    98619875.214    24083980.888  
  24083982.282    94510718.822  
  22862268.765   120142032.801    22862263.047    93617144.858    22862262.850  
  22862267.514    89716448.019  
  23002279.833   120877795.725    23002274.275    94190465.503    23002273.918  
                                
  21424223.029   112585051.899                    87728582.432    21424215.917  
                                
  21278571.229   111819646.351    21278567.440    87132173.713    21278566.815  
  21278567.905    83501670.476  
  20483500.131   109380747.706    20483499.416    85073911.698    20483498.237  
                                
  20273765.476   108070577.923    20273765.208    84054893.362    20273764.386  
                                
  22031115.607   117892949.322    22031114.052    91694510.489    22031113.194  
                                
  19345420.628   103448657.976    19345419.181    80460061.494    19345417.966  
                                
  24158406.137   126953281.911                                                  
  24158404.850    94802769.088  
  23344533.842   122676354.017                                                  
  23344530.287    91608950.908  
  24497969.465   128737699.255                                                  
  24497969.804    96135295.545  
  24379325.121   128114218.795                                                  
  24379326.121    95669712.360  
                 122064845.732    23441270.318   122064845.732                  
                                
                 111502418.211    21412867.068   111502418.211                  
                                
 21  9  2  7 48  3.0000000  0 18G 1G 7G 8G 9G14G17G21G30R13R14R17R24
                                E 2E11E25E36C11C12
  21665459.985   113852759.889    21665457.162    88716425.540    21665457.215  
  21665457.072    85019906.529  
  20096624.526   105608474.234    20096618.057    82292289.300    20096617.646  
                                
  22050989.480   115878732.025    22050986.371    90295099.661    22050985.710  
  22050985.692    86532803.092  
  24084589.382   126565371.188    24084585.915    98622351.796    24084585.683  
  24084587.077    94513092.213  
  22861865.926   120139915.893    22861860.208    93615495.321    22861860.029  
  22861864.675    89714867.215  
  23001759.147   120875059.428    23001753.572    94188333.317    23001753.233  
                                
  21424172.263   112584785.190                    87728374.609    21424165.151  
                                
  21278178.539   111817582.642    21278174.733    87130565.625    21278174.108  
  21278175.198    83500129.397  
  20483723.476   109381940.332    20483722.743    85074839.291    20483721.564  
                                
  20273397.052   108068613.992    20273396.766    84053365.862    20273395.944  
                                
  22030336.714   117888781.270    22030335.159    91691268.673    22030334.302  
                                
  19345208.988   103447526.220    19345207.540    80459181.242    19345206.307  
                                
  24158210.132   126952251.800                                                  
  24158208.845    94801999.839  
  23344690.071   122677175.032                                                  
  23344686.515    91609563.999  
  24498101.052   128738390.632                                                  
  24498101.392    96135811.826  
  24378969.330   128112349.079                                                  
  24378970.331    95668316.135  
                 122062090.101    23440741.145   122062090.101                  
                                
                 111502307.360    21412845.768   111502307.360                  
                                
 21  9  2  7 48  4.0000000  0 18G 1G 7G 8G 9G14G17G21G30R13R14R17R24
                                E 2E11E25E36C11C12
  21664939.317   113850023.792    21664936.512    88714293.520    21664936.530  
  21664936.405    85017863.353  
  20096616.807   105608433.706    20096610.338    82292257.722    20096609.927  
                                
  22051522.746   115881534.341    22051519.619    90297283.286    22051518.957  
  22051518.940    86534895.728  
  24085194.159   126568549.260    24085190.656    98624828.218    24085190.460  
  24085191.836    94515465.449  
  22861463.069   120137798.894    22861457.351    93613845.705    22861457.172  
  22861461.836    89713286.328  
  23001238.462   120872323.254    23001232.905    94186201.249    23001232.547  
                                
  21424121.586   112584518.913                    87728167.120    21424114.474  
                                
  21277785.849   111815519.164    21277782.079    87128957.725    21277781.454  
  21277782.508    83498588.486  
  20483946.856   109383133.217    20483946.124    85075767.088    20483944.944  
                                
  20273028.629   108066650.117    20273028.361    84051838.406    20273027.539  
                                
  22029557.857   117884613.367    22029556.266    91688026.976    22029555.409  
                                
  19344997.490   103446395.145    19344996.025    80458301.505    19344994.810  
                                
  24158014.073   126951221.550                                                  
  24158012.804    94801230.495  
  23344846.354   122677996.311                                                  
  23344842.798    91610177.296  
  24498232.604   128739081.921                                                  
  24498232.926    96136328.052  
  24378613.558   128110479.548                                                  
  24378614.577    95666920.052  
                 122059334.542    23440211.971   122059334.542                  
                                
                 111502196.862    21412824.558   111502196.862                  
                                
 21  9  2  7 48  5.0000000  0 18G 1G 7G 8G 9G14G17G21G30R13R14R17R24
                                E 2E11E25E36C11C12
  21664418.739   113847288.085    21664415.934    88712161.801    21664415.969  
  21664415.827    85015820.450  
  20096609.194   105608393.686    20096602.708    82292226.535    20096602.333  
                                
  22052056.029   115884336.748    22052052.902    90299466.980    22052052.258  
  22052052.241    86536988.444  
  24085798.918   126571727.280    24085795.433    98627304.599    24085795.201  
  24085796.613    94517838.643  
  22861060.212   120135681.853    22861054.494    93612196.065    22861054.315  
  22861058.979    89711705.433  
  23000717.812   120869587.280    23000712.255    94184069.326    23000711.897  
                                
  21424071.035   112584253.163                    87727960.043    21424063.923  
                                
  21277393.249   111813456.021    21277389.461    87127350.074    21277388.853  
  21277389.908    83497047.827  
  20484170.326   109384326.430    20484169.576    85076695.141    20484168.396  
                                
  20272660.241   108064686.385    20272659.973    84050311.059    20272659.133  
                                
  22028779.035   117880445.686    22028777.445    91684785.444    22028776.587  
                                
  19344786.117   103445264.864    19344784.652    80457422.396    19344783.455  
                                
  24157818.014   126950191.259                                                  
  24157816.727    94800461.126  
  23345002.708   122678817.994                                                  
  23344999.152    91610790.891  
  24498364.138   128739773.241                                                  
  24498364.477    96136844.301  
  24378257.875   128108610.313                                                  
  24378258.876    95665524.190  
                 122056579.205    23439682.834   122056579.205                  
                                
                 111502086.818    21412803.436   111502086.818                  
                                
 21  9  2  7 48  6.0000000  0 18G 1G 7G 8G 9G14G17G21G30R13R14R17R24
                                E 2E11E25E36C11C12
  21663898.268   113844553.041    21663895.481    88710030.591    21663895.498  
  21663895.355    85013778.050  
  20096601.743   105608354.493    20096595.257    82292195.996    20096594.881  
                                
  22052589.383   115887139.601    22052586.292    90301651.016    22052585.631  
  22052585.613    86539081.477  
  24086403.713   126574905.537    24086400.211    98629781.166    24086400.014  
  24086401.408    94520212.012  
  22860657.408   120133565.130    22860651.690    93610546.675    22860651.511  
  22860656.175    89710124.758  
  23000197.287   120866851.908    23000191.730    94181937.867    23000191.373  
                                
  21424020.626   112583988.279                    87727753.640    21424013.514  
                                
  21277000.792   111811393.535    21276996.986    87125742.942    21276996.360  
  21276997.450    83495507.659  
  20484393.886   109385520.343    20484393.171    85077623.742    20484391.991  
                                
  20272291.942   108062723.153    20272291.656    84048784.098    20272290.834  
                                
  22028000.303   117876278.570    22027998.731    91681544.351    22027997.873  
                                
  19344574.959   103444135.712    19344573.494    80456544.162    19344572.297  
                                
  24157622.008   126949161.271                                                  
  24157620.740    94799691.979  
  23345159.223   122679640.388                                                  
  23345155.649    91611405.021  
  24498495.779   128740464.932                                                  
  24498496.119    96137360.814  
  24377902.282   128106741.695                                                  
  24377903.282    95664128.798  
                 122053824.423    23439153.804   122053824.423                  
                                
                 111501977.526    21412782.422   111501977.526                  
                                
 21  9  2  7 48  7.0000000  0 18G 1G 7G 8G 9G14G17G21G30R13R14R17R24
                                E 2E11E25E36C11C12
  21663377.922   113841818.599    21663375.117    88707899.857    21663375.152  
  21663375.027    85011736.094  
  20096594.417   105608316.061    20096587.966    82292166.048    20096587.555  
                                
  22053122.827   115889942.818    22053119.718    90303835.344    22053119.075  
  22053119.039    86541174.786  
  24087008.544   126578083.944    24087005.077    98632257.846    24087004.845  
  24087006.221    94522585.502  
  22860254.658   120131448.636    22860248.940    93608897.458    22860248.761  
  22860253.407    89708544.264  
  22999676.852   120864116.990    22999671.277    94179806.767    22999670.938  
                                
  21423970.379   112583724.176                    87727547.845    21423963.267  
                                
  21276608.424   111809331.627    21276604.618    87124136.256    21276604.010  
  21276605.082    83493967.925  
  20484617.588   109386714.856    20484616.873    85078552.808    20484615.694  
                                
  20271923.698   108060760.293    20271923.447    84047257.432    20271922.608  
                                
  22027221.679   117872111.940    22027220.088    91678303.635    22027219.231  
                                
  19344363.997   103443007.590    19344362.532    80455666.731    19344361.335  
                                
  24157426.057   126948131.488                                                  
  24157424.770    94798922.985  
  23345315.827   122680463.419                                                  
  23345312.289    91612019.608  
  24498627.456   128741156.884                                                  
  24498627.777    96137877.538  
  24377546.778   128104873.628                                                  
  24377547.778    95662733.817  
                 122051070.123    23438624.863   122051070.123                  
                                
                 111501868.935    21412761.587   111501868.935                  
                                
 21  9  2  7 48  8.0000000  0 18G 1G 7G 8G 9G14G17G21G30R13R14R17R24
                                E 2E11E25E36C11C12
  21662857.683   113839084.588    21662854.860    88705769.461    21662854.896  
  21662854.753    85009694.464  
  20096587.233   105608278.210    20096580.747    82292136.556    20096580.354  
                                
  22053656.289   115892746.196    22053653.180    90306019.794    22053652.519  
  22053652.501    86543268.220  
  24087613.374   126581262.345    24087609.890    98634734.522    24087609.675  
  24087611.051    94524958.977  
  22859851.908   120129332.200    22859846.190    93607248.283    22859846.012  
  22859850.675    89706963.806  
  22999156.453   120861382.354    22999150.895    94177675.886    22999150.556  
                                
  21423920.238   112583460.686                    87727342.530    21423913.108  
                                
  21276216.127   111807270.136    21276212.321    87122529.904    21276211.714  
  21276212.786    83492428.493  
  20484841.362   109387909.781    20484840.647    85079482.194    20484839.468  
                                
  20271555.506   108058797.645    20271555.256    84045730.930    20271554.416  
                                
  22026443.090   117867945.598    22026441.517    91675063.148    22026440.659  
                                
  19344153.197   103441880.325    19344151.749    80454789.972    19344150.516  
                                
  24157230.087   126947101.752                                                  
  24157228.836    94798154.020  
  23345472.538   122681286.899                                                  
  23345468.982    91612634.545  
  24498759.151   128741848.938                                                  
  24498759.472    96138394.325  
  24377191.398   128103005.925                                                  
  24377192.399    95661339.097  
                 122048316.094    23438095.975   122048316.094                  
                                
                 111501760.854    21412740.823   111501760.854                  
                                
 21  9  2  7 48  9.0000000  0 18G 1G 7G 8G 9G14G17G21G30R13R14R17R24
                                E 2E11E25E36C11C12
  21662337.463   113836350.853    21662334.639    88703639.289    21662334.693  
  21662334.550    85007653.065  
  20096580.104   105608240.819    20096573.635    82292107.420    20096573.242  
                                
  22054189.769   115895549.633    22054186.678    90308204.291    22054186.016  
  22054185.981    86545361.702  
  24088218.187   126584440.640    24088214.703    98637211.102    24088214.488  
  24088215.864    94527332.357  
  22859449.158   120127215.691    22859443.440    93605599.053    22859443.262  
  22859447.908    89705383.287  
  22998636.107   120858647.938    22998630.549    94175545.170    22998630.210  
                                
  21423870.187   112583197.686                    87727137.595    21423863.057  
                                
  21275823.884   111805208.918    21275820.096    87120923.756    21275819.489  
  21275820.543    83490889.278  
  20485065.207   109389105.031    20485064.456    85080411.826    20485063.277  
                                
  20271187.351   108056835.088    20271187.083    84044204.499    20271186.243  
                                
  22025664.536   117863779.435    22025662.982    91671822.794    22025662.124  
                                
  19343942.521   103440753.780    19343941.073    80453913.770    19343939.840  
                                
  24157034.118   126946071.913                                                  
  24157032.867    94797384.993  
  23345629.303   122682110.698                                                  
  23345625.747    91613249.722  
  24498890.827   128742540.981                                                  
  24498891.167    96138911.115  
  24376836.019   128101138.480                                                  
  24376837.020    95659944.576  
                 122045562.237    23437567.124   122045562.237                  
                                
                 111501653.161    21412720.149   111501653.161                  
                                
 21  9  2  7 48 10.0000000  0 18G 1G 7G 8G 9G14G17G21G30R13R14R17R24
                                E 2E11E25E36C11C12
  21661817.349   113833617.722    21661814.561    88701509.579    21661814.579  
  21661814.436    85005612.091  
  20096573.135   105608204.156    20096566.648    82292078.849    20096566.273  
                                
  22054723.302   115898353.437    22054720.211    90310389.077    22054719.550  
  22054719.532    86547455.448  
  24088823.036   126587619.046    24088819.533    98639687.780    24088819.319  
  24088820.713    94529705.856  
  22859046.426   120125099.384    22859040.708    93603949.983    22859040.530  
  22859045.193    89703802.944  
  22998115.850   120855913.960    22998110.293    94173414.797    22998109.935  
                                
  21423820.279   112582935.437                    87726933.248    21423813.149  
                                
  21275431.766   111803148.269    21275427.960    87119318.057    21275427.353  
  21275428.425    83489350.482  
  20485289.142   109390300.844    20485288.409    85081341.905    20485287.230  
                                
  20270819.267   108054872.961    20270818.981    84042678.398    20270818.159  
                                
  22024886.090   117859613.776    22024884.535    91668582.838    22024883.642  
                                
  19343732.042   103439628.241    19343730.576    80453038.353    19343729.379  
                                
  24156838.184   126945042.277                                                  
  24156836.915    94796616.113  
  23345786.193   122682935.105                                                  
  23345782.619    91613865.352  
  24499022.558   128743233.282                                                  
  24499022.897    96139428.088  
  24376480.747   128099271.546                                                  
  24376481.748    95658550.444  
                 122042808.851    23437038.361   122042808.851                  
                                
                 111501546.141    21412699.582   111501546.141                  
                                
 21  9  2  7 48 11.0000000  0 18G 1G 7G 8G 9G14G17G21G30R13R14R17R24
                                E 2E11E25E36C11C12
  21661297.360   113830885.102    21661294.537    88699380.267    21661294.573  
  21661294.448    85003571.507  
  20096566.273   105608168.159    20096559.822    82292050.798    20096559.411  
                                
  22055256.907   115901157.514    22055253.816    90312574.070    22055253.154  
  22055253.137    86549549.405  
  24089427.866   126590797.518    24089424.382    98642164.518    24089424.167  
  24089425.561    94532079.401  
  22858643.730   120122983.230    22858638.012    93602301.034    22858637.833  
  22858642.497    89702222.708  
  22997595.665   120853180.345    22997590.108    94171284.701    22997589.750  
                                
  21423770.496   112582673.887                    87726729.442    21423763.384  
                                
  21275039.720   111801088.110    21275035.950    87117712.737    21275035.324  
  21275036.379    83487812.056  
  20485513.183   109391497.211    20485512.451    85082272.411    20485511.271  
                                
  20270451.219   108052911.149    20270450.951    84041152.548    20270450.129  
                                
  22024107.698   117855448.500    22024106.143    91665343.186    22024105.285  
                                
  19343521.723   103438503.643    19343520.258    80452163.670    19343519.061  
                                
  24156642.268   126944012.784                                                  
  24156641.017    94795847.330  
  23345943.172   122683760.046                                                  
  23345939.599    91614481.386  
  24499154.342   128743925.762                                                  
  24499154.663    96139945.209  
  24376125.583   128097405.093                                                  
  24376126.583    95657156.664  
                 122040055.854    23436509.671   122040055.854                  
                                
                 111501439.728    21412679.157   111501439.728                  
                                
 21  9  2  7 48 12.0000000  0 18G 1G 7G 8G 9G14G17G21G30R13R14R17R24
                                E 2E11E25E36C11C12
  21660777.461   113828152.981    21660774.638    88697251.348    21660774.656  
  21660774.531    85001531.284  
  20096559.554   105608132.816    20096553.086    82292023.260    20096552.675  
                                
  22055790.547   115903961.855    22055787.456    90314759.268    22055786.813  
  22055786.777    86551643.547  
  24090032.733   126593976.083    24090029.230    98644641.322    24090029.034  
  24090030.410    94534453.002  
  22858241.069   120120867.223    22858235.351    93600652.206    22858235.155  
  22858239.837    89700642.566  
  22997075.551   120850447.109    22997069.994    94169154.907    22997069.637  
                                
  21423720.873   112582413.029                    87726526.179    21423713.762  
                                
  21274647.781   111799028.450    21274643.993    87116107.809    21274643.367  
  21274644.439    83486273.994  
  20485737.297   109392694.053    20485736.582    85083203.290    20485735.385  
                                
  20270083.260   108050949.646    20270082.974    84039626.938    20270082.152  
                                
  22023329.394   117851283.619    22023327.840    91662103.836    22023326.982  
                                
  19343311.601   103437380.000    19343310.136    80451289.726    19343308.939  
                                
  24156446.387   126942983.391                                                  
  24156445.119    94795078.632  
  23346100.241   122684585.538                                                  
  23346096.703    91615097.812  
  24499286.162   128744618.432                                                  
  24499286.483    96140462.454  
  24375770.489   128095539.068                                                  
  24375771.490    95655763.202  
                 122037303.203    23435981.069   122037303.203                  
                                
                 111501333.897    21412658.840   111501333.897                  
                                
 21  9  2  7 48 13.0000000  0 18G 1G 7G 8G 9G14G17G21G30R13R14R17R24
                                E 2E11E25E36C11C12
  21660257.669   113825421.494    21660254.846    88695122.914    21660254.864  
  21660254.739    84999491.520  
  20096552.961   105608098.231    20096546.510    82291996.308    20096546.099  
                                
  22056324.277   115906766.577    22056321.168    90316944.764    22056320.543  
  22056320.489    86553737.983  
  24090637.617   126597154.804    24090634.133    98647118.252    24090633.918  
  24090635.312    94536826.722  
  22857838.445   120118751.442    22857832.727    93599003.543    22857832.548  
  22857837.212    89699062.602  
  22996555.527   120847714.330    22996549.970    94167025.464    22996549.630  
                                
  21423671.358   112582152.946                    87726323.519    21423664.246  
                                
  21274255.967   111796969.377    21274252.161    87114503.336    21274251.553  
  21274252.625    83484736.370  
  20485961.571   109393891.539    20485960.820    85084134.666    20485959.641  
                                
  20269715.354   108048988.557    20269715.086    84038101.646    20269714.246  
                                
  22022551.163   117847119.204    22022549.608    91658864.847    22022548.750  
                                
  19343101.658   103436257.414    19343100.211    80450416.608    19343098.996  
                                
  24156250.543   126941954.227                                                  
  24156249.292    94794310.096  
  23346257.435   122685411.650                                                  
  23346253.897    91615714.725  
  24499418.017   128745311.391                                                  
  24499418.357    96140979.919  
  24375415.503   128093673.613                                                  
  24375416.504    95654370.163  
                 122034551.020    23435452.521   122034551.020                  
                                
                 111501228.781    21412638.648   111501228.781                  
                                
 21  9  2  7 48 14.0000000  0 18G 1G 7G 8G 9G14G17G21G30R13R14R17R24
                                E 2E11E25E36C11C12
  21659737.949   113822690.394    21659735.143    88692994.780    21659735.161  
  21659735.018    84997452.058  
  20096546.492   105608064.197    20096540.041    82291969.784    20096539.630  
                                
  22056858.043   115909571.464    22056854.934    90319130.392    22056854.272  
  22056854.255    86555832.548  
  24091242.519   126600333.518    24091239.017    98649595.163    24091238.802  
  24091240.196    94539200.416  
  22857435.856   120116635.707    22857430.120    93597354.903    22857429.923  
  22857434.605    89697482.657  
  22996035.556   120844981.836    22996029.999    94164896.246    22996029.660  
                                
  21423622.004   112581893.459                    87726121.321    21423614.874  
                                
  21273864.206   111794910.691    21273860.400    87112899.161    21273859.793  
  21273860.865    83483199.035  
  20486185.881   109395089.401    20486185.148    85085066.338    20486183.969  
                                
  20269347.485   108047027.662    20269347.235    84036576.503    20269346.395  
                                
  22021773.020   117842955.088    22021771.430    91655626.089    22021770.572  
                                
  19342891.894   103435135.652    19342890.428    80449544.125    19342889.213  
                                
  24156054.698   126940925.072                                                  
  24156053.430    94793541.573  
  23346414.736   122686238.193                                                  
  23346411.180    91616331.955  
  24499549.908   128746004.414                                                  
  24499550.230    96141497.440  
  24375060.571   128091808.486                                                  
  24375061.572    95652977.378  
                 122031799.111    23434924.063   122031799.111                  
                                
                 111501124.145    21412618.546   111501124.145                  
                                
 21  9  2  7 48 15.0000000  0 18G 1G 7G 8G 9G14G17G21G30R13R14R17R24
                                E 2E11E25E36C11C12
  21659218.282   113819959.514    21659215.458    88690866.826    21659215.494  
  21659215.351    84995412.773  
  20096540.095   105608030.548    20096533.644    82291943.561    20096533.233  
                                
  22057391.773   115912376.341    22057388.681    90321316.011    22057388.038  
  22057388.002    86557927.097  
  24091847.368   126603511.996    24091843.865    98652071.890    24091843.651  
  24091845.045    94541573.954  
  22857033.213   120114519.826    22857027.495    93595706.167    22857027.280  
  22857031.962    89695902.605  
  22995515.603   120842249.445    22995510.046    94162767.110    22995509.707  
                                
  21423572.686   112581634.379                    87725919.441    21423565.574  
                                
  21273472.482   111792852.202    21273468.693    87111295.146    21273468.068  
  21273469.140    83481661.852  
  20486410.280   109396287.504    20486409.529    85085998.194    20486408.332  
                                
  20268979.633   108045066.809    20268979.383    84035051.393    20268978.543  
                                
  22020994.860   117838791.106    22020993.306    91652387.437    22020992.448  
                                
  19342682.236   103434014.554    19342680.771    80448672.164    19342679.556  
                                
  24155858.836   126939895.762                                                  
  24155857.585    94792772.924  
  23346572.073   122687065.009                                                  
  23346568.517    91616949.379  
  24499681.764   128746697.342                                                  
  24499682.086    96142014.889  
  24374705.692   128089943.544                                                  
  24374706.693    95651584.724  
                 122029047.298    23434395.604   122029047.298                  
                                
                 111501019.834    21412598.532   111501019.834                  
                                
 21  9  2  7 48 16.0000000  0 18G 1G 7G 8G 9G14G17G21G30R13R14R17R24
                                E 2E11E25E36C11C12
  21658698.633   113817228.790    21658695.809    88688738.985    21658695.845  
  21658695.720    84993373.598  
  20096533.769   105607997.210    20096527.283    82291917.581    20096526.908  
                                
  22057925.520   115915181.155    22057922.429    90323501.576    22057921.786  
  22057921.750    86560021.592  
  24092452.145   126606690.200    24092448.643    98654548.417    24092448.446  
  24092449.822    94543947.273  
  22856630.517   120112403.713    22856624.798    93594057.248    22856624.602  
  22856629.284    89694322.404  
  22994995.651   120839517.092    22994990.111    94160637.999    22994989.754  
                                
  21423523.456   112581375.643                    87725717.824    21423516.345  
                                
  21273080.793   111790793.860    21273077.004    87109691.243    21273076.397  
  21273077.451    83480124.778  
  20486634.661   109397485.745    20486633.911    85086930.156    20486632.731  
                                
  20268611.781   108043105.913    20268611.531    84033526.247    20268610.691  
                                
  22020216.736   117834627.151    22020215.181    91649148.803    22020214.323  
                                
  19342472.704   103432894.067    19342471.221    80447800.672    19342470.024  
                                
  24155662.920   126938866.210                                                  
  24155661.651    94792004.110  
  23346729.445   122687892.004                                                  
  23346725.907    91617566.929  
  24499813.584   128747390.110                                                  
  24499813.905    96142532.215  
  24374350.831   128088078.697                                                  
  24374351.832    95650192.147  
                 122026295.520    23433867.146   122026295.520                  
                                
                 111500915.774    21412578.537   111500915.774                  
                                
 21  9  2  7 48 17.0000000  0 18G 1G 7G 8G 9G14G17G21G30R13R14R17R24
                                E 2E11E25E36C11C12
  21658179.109   113814498.567    21658176.285    88686611.538    21658176.285  
  21658176.160    84991334.791  
  20096527.533   105607964.514    20096521.064    82291892.102    20096520.671  
                                
  22058459.322   115917986.209    22058456.230    90325687.327    22058455.569  
  22058455.551    86562116.281  
  24093056.958   126609868.445    24093053.455    98657024.970    24093053.259  
  24093054.635    94546320.640  
  22856227.856   120110287.721    22856222.138    93592408.422    22856221.941  
  22856226.623    89692742.282  
  22994475.751   120836785.086    22994470.212    94158509.154    22994469.873  
                                
  21423474.352   112581117.570                    87725516.730    21423467.241  
                                
  21272689.193   111788735.981    21272685.387    87108087.696    21272684.797  
  21272685.852    83478588.052  
  20486859.150   109398684.492    20486858.399    85087862.513    20486857.220  
                                
  20268243.965   108041145.298    20268243.715    84032001.319    20268242.875  
                                
  22019438.665   117830463.533    22019437.092    91645910.431    22019436.252  
                                
  19342263.333   103431774.477    19342261.868    80446929.879    19342260.653  
                                
  24155467.022   126937836.771                                                  
  24155465.753    94791235.376  
  23346886.907   122688719.510                                                  
  23346883.369    91618184.869  
  24499945.475   128748083.042                                                  
  24499945.779    96143049.658  
  24373996.042   128086214.286                                                  
  24373997.043    95648799.888  
                 122023544.099    23433338.777   122023544.099                  
                                
                 111500812.280    21412558.667   111500812.280                  
                                
 21  9  2  7 48 18.0000000  0 18G 1G 7G 8G 9G14G17G21G30R13R14R17R24
                                E 2E11E25E36C11C12
  21657659.674   113811769.011    21657656.851    88684484.611    21657656.886  
  21657656.761    84989296.486  
  20096521.475   105607932.637    20096515.007    82291867.260    20096514.614  
                                
  22058993.195   115920791.717    22058990.085    90327873.436    22058989.442  
  22058989.406    86564211.295  
  24093661.806   126613046.946    24093658.322    98659501.712    24093658.107  
  24093659.501    94548694.176  
  22855825.267   120108172.048    22855819.531    93590759.846    22855819.352  
  22855824.034    89691162.394  
  22993955.977   120834053.651    22993950.438    94156380.763    22993950.098  
                                
  21423425.409   112580860.363                    87725316.302    21423418.297  
                                
  21272297.719   111786678.751    21272293.930    87106484.660    21272293.323  
  21272294.377    83477051.807  
  20487083.745   109399883.892    20487083.013    85088795.378    20487081.833  
                                
  20267876.257   108039185.132    20267875.989    84030476.744    20267875.167  
                                
  22018660.701   117826300.481    22018659.147    91642672.499    22018658.289  
                                
  19342054.158   103430655.967    19342052.693    80446059.923    19342051.496  
                                
  24155271.195   126936807.622                                                  
  24155269.927    94790466.847  
  23347044.512   122689547.697                                                  
  23347040.974    91618803.329  
  24500077.384   128748776.317                                                  
  24500077.706    96143567.364  
  24373641.360   128084350.486                                                  
  24373642.360    95647408.092  
                 122020793.204    23432810.479   122020793.204                  
                                
                 111500709.549    21412538.939   111500709.549                  
                                
 21  9  2  7 48 19.0000000  0 18G 1G 7G 8G 9G14G17G21G30R13R14R17R24
                                E 2E11E25E36C11C12
  21657140.364   113809039.944    21657137.523    88682358.057    21657137.559  
  21657137.434    84987258.538  
  20096515.525   105607901.397    20096509.074    82291842.922    20096508.663  
                                
  22059527.103   115923597.464    22059524.012    90330059.729    22059523.368  
  22059523.333    86566306.507  
  24094266.655   126616225.452    24094263.188    98661978.461    24094262.956  
  24094264.368    94551067.738  
  22855422.678   120106056.472    22855416.960    93589111.352    22855416.763  
  22855421.463    89689582.587  
  22993436.275   120831322.548    22993430.735    94154252.638    22993430.396  
                                
  21423376.591   112580603.810                    87725116.386    21423369.479  
                                
  21271906.333   111784621.990    21271902.545    87104881.993    21271901.920  
  21271902.992    83475515.923  
  20487308.448   109401083.808    20487307.716    85089728.660    20487306.518  
                                
  20267508.584   108037225.260    20267508.333    84028952.397    20267507.494  
                                
  22017882.809   117822137.799    22017881.237    91639434.869    22017880.379  
                                
  19341845.180   103429538.365    19341843.715    80445190.688    19341842.500  
                                
  24155075.351   126935778.569                                                  
  24155074.100    94789698.399  
  23347202.206   122690376.414                                                  
  23347198.668    91619422.163  
  24500209.347   128749469.771                                                  
  24500209.668    96144085.200  
  24373286.785   128082487.126                                                  
  24373287.785    95646016.630  
                 122018042.685    23432282.289   122018042.685                  
                                
                 111500607.396    21412519.319   111500607.396                  
                                
 21  9  2  7 48 20.0000000  0 18G 1G 7G 8G 9G14G17G21G30R13R14R17R24
                                E 2E11E25E36C11C12
  21656621.126   113806311.353    21656618.303    88680231.880    21656618.321  
  21656618.196    84985220.956  
  20096509.700   105607870.805    20096503.231    82291819.082    20096502.856  
                                
  22060061.065   115926403.472    22060057.992    90332246.229    22060057.331  
  22060057.295    86568401.900  
  24094871.539   126619404.041    24094868.055    98664455.272    24094867.840  
  24094869.234    94553441.353  
  22855020.124   120103941.034    22855014.389    93587462.961    22855014.210  
  22855018.892    89688002.871  
  22992916.643   120828591.841    22992911.086    94152124.824    22992910.729  
                                
  21423327.916   112580347.943                    87724917.010    21423320.786  
                                
  21271515.037   111782565.713    21271511.231    87103279.698    21271510.624  
  21271511.696    83473980.383  
  20487533.241   109402284.208    20487532.508    85090662.304    20487531.311  
                                
  20267140.982   108035265.684    20267140.714    84027428.284    20267139.874  
                                
  22017104.988   117817975.499    22017103.398    91636197.528    22017102.540  
                                
  19341636.345   103428421.712    19341634.897    80444322.178    19341633.682  
                                
  24154879.560   126934749.611                                                  
  24154878.309    94788930.019  
  23347360.007   122691205.634                                                  
  23347356.451    91620041.392  
  24500341.327   128750163.375                                                  
  24500341.649    96144603.145  
  24372932.281   128080624.200                                                  
  24372933.282    95644625.478  
                 122015292.529    23431754.152   122015292.529                  
                                
                 111500505.819    21412499.806   111500505.819                  
                                
 21  9  2  7 48 21.0000000  0 18G 1G 7G 8G 9G14G17G21G30R13R14R17R24
                                E 2E11E25E36C11C12
  21656101.924   113803582.921    21656099.101    88678105.838    21656099.119  
  21656098.994    84983183.495  
  20096503.946   105607840.519    20096497.477    82291795.485    20096497.084  
                                
  22060595.009   115929209.353    22060591.918    90334432.632    22060591.275  
  22060591.239    86570497.203  
  24095476.352   126622582.327    24095472.867    98666931.852    24095472.653  
  24095474.047    94555814.753  
  22854617.535   120101825.364    22854611.782    93585814.392    22854611.603  
  22854616.285    89686422.998  
  22992396.976   120825861.123    22992391.437    94149997.003    22992391.098  
                                
  21423279.276   112580092.382                    87724717.869    21423272.164  
                                
  21271123.742   111780509.545    21271119.971    87101677.494    21271119.346  
  21271120.418    83472444.944  
  20487758.069   109403484.723    20487757.336    85091596.043    20487756.139  
                                
  20266773.345   108033306.068    20266773.095    84025904.141    20266772.255  
                                
  22016327.150   117813813.223    22016325.577    91632960.204    22016324.737  
                                
  19341427.652   103427305.651    19341426.187    80443454.131    19341424.972  
                                
  24154683.716   126933720.417                                                  
  24154682.447    94788161.467  
  23347517.844   122692035.061                                                  
  23347514.306    91620660.763  
  24500473.272   128750856.803                                                  
  24500473.594    96145120.969  
  24372577.795   128078761.356                                                  
  24372578.796    95643234.398  
                 122012542.353    23431225.997   122012542.353                  
                                
                 111500404.497    21412480.365   111500404.497                  
                                
 21  9  2  7 48 22.0000000  0 18G 1G 7G 8G 9G14G17G21G30R13R14R17R24
                                E 2E11E25E36C11C12
  21655582.775   113800854.826    21655579.952    88675980.049    21655579.970  
  21655579.845    84981146.272  
  20096498.263   105607810.711    20096491.813    82291772.260    20096491.420  
                                
  22061128.972   115932015.325    22061125.898    90336619.100    22061125.237  
  22061125.201    86572592.559  
  24096081.129   126625760.511    24096077.645    98669408.359    24096077.448  
  24096078.824    94558188.061  
  22854214.928   120099709.647    22854209.175    93584165.784    22854208.978  
  22854213.678    89684843.080  
  22991877.381   120823130.633    22991871.842    94147869.355    22991871.484  
                                
  21423230.762   112579837.349                    87724519.142    21423223.632  
                                
  21270732.553   111778453.712    21270728.747    87100075.545    21270728.121  
  21270729.211    83470909.739  
  20487982.950   109404685.585    20487982.200    85092530.048    20487981.003  
                                
  20266405.761   108031346.599    20266405.511    84024380.107    20266404.671  
                                
  22015549.365   117809651.112    22015547.792    91629723.016    22015546.935  
                                
  19341219.085   103426190.351    19341217.620    80442586.671    19341216.423  
                                
  24154487.835   126932691.168                                                  
  24154486.602    94787392.866  
  23347675.735   122692864.838                                                  
  23347672.197    91621280.400  
  24500605.235   128751550.242                                                  
  24500605.557    96145638.799  
  24372223.363   128076898.800                                                  
  24372224.364    95641843.517  
                 122009792.401    23430697.896   122009792.401                  
                                
                 111500303.577    21412460.977   111500303.577                  
                                
 21  9  2  7 48 23.0000000  0 18G 1G 7G 8G 9G14G17G21G30R13R14R17R24
                                E 2E11E25E36C11C12
  21655063.770   113798127.362    21655060.928    88673854.750    21655060.964  
  21655060.839    84979109.536  
  20096492.742   105607781.707    20096486.273    82291749.655    20096485.880  
                                
  22061663.023   115934821.726    22061659.914    90338805.903    22061659.288  
  22061659.235    86574688.243  
  24096685.978   126628938.927    24096682.493    98671885.039    24096682.279  
  24096683.672    94560561.543  
  22853812.357   120097594.218    22853806.621    93582517.400    22853806.443  
  22853811.124    89683263.385  
  22991357.893   120820400.678    22991352.353    94145742.115    22991351.996  
                                
  21423182.373   112579583.147                    87724321.060    21423175.261  
                                
  21270341.454   111776398.512    21270337.648    87098474.091    21270337.040  
  21270338.112    83469375.005  
  20488207.957   109405887.102    20488207.207    85093464.562    20488206.009  
                                
  20266038.249   108029387.579    20266037.999    84022856.422    20266037.159  
                                
  22014771.669   117805489.592    22014770.097    91626486.283    22014769.239  
                                
  19341010.697   103425076.112    19341009.249    80441720.040    19341008.052  
                                
  24154292.027   126931662.178                                                  
  24154290.794    94786624.466  
  23347833.786   122693695.287                                                  
  23347830.231    91621900.531  
  24500737.269   128752244.013                                                  
  24500737.591    96146156.870  
  24371869.038   128075036.828                                                  
  24371870.039    95640453.086  
                 122007042.960    23430169.902   122007042.960                  
                                
                 111500203.405    21412441.732   111500203.405                  
                                
 21  9  2  7 48 24.0000000  0 18G 1G 7G 8G 9G14G17G21G30R13R14R17R24
                                E 2E11E25E36C11C12
  21654544.871   113795400.517    21654542.030    88671729.929    21654542.048  
  21654541.923    84977073.247  
  20096487.363   105607753.448    20096480.913    82291727.632    20096480.502  
                                
  22062197.128   115937628.491    22062194.037    90340992.990    22062193.394  
  22062193.340    86576784.208  
  24097290.844   126632117.468    24097287.360    98674361.836    24097287.145  
  24097288.539    94562935.140  
  22853409.857   120095479.021    22853404.122    93580869.192    22853403.907  
  22853408.607    89681683.855  
  22990838.476   120817671.174    22990832.937    94143615.218    22990832.579  
                                
  21423134.162   112579329.731                    87724123.593    21423127.032  
                                
  21269950.462   111774343.879    21269946.673    87096873.074    21269946.048  
  21269947.138    83467840.706  
  20488433.071   109407089.219    20488432.321    85094399.539    20488431.123  
                                
  20265670.826   108027428.934    20265670.540    84021333.032    20265669.736  
                                
  22013994.081   117801328.554    22013992.508    91623249.922    22013991.651  
                                
  19340802.522   103423962.911    19340801.075    80440854.231    19340799.878  
                                
  24154096.254   126930633.392                                                  
  24154095.021    94785856.219  
  23347991.909   122694526.352                                                  
  23347988.371    91622521.128  
  24500869.339   128752938.040                                                  
  24500869.661    96146675.144  
  24371514.821   128073175.396                                                  
  24371515.821    95639063.057  
                 122004294.002    23429641.998   122004294.002                  
                                
                 111500103.895    21412422.630   111500103.895                  
                                
 21  9  2  7 48 25.0000000  0 18G 1G 7G 8G 9G14G17G21G30R13R14R17R24
                                E 2E11E25E36C11C12
  21654026.062   113792674.226    21654023.221    88669605.549    21654023.239  
  21654023.131    84975037.389  
  20096482.146   105607725.926    20096475.677    82291706.182    20096475.284  
                                
  22062731.305   115940435.590    22062728.231    90343180.340    22062727.570  
  22062727.534    86578880.417  
  24097895.710   126635296.148    24097892.244    98676838.721    24097892.012  
  24097893.423    94565308.838  
  22853007.393   120093364.052    22853001.640    93579221.164    22853001.461  
  22853006.143    89680104.484  
  22990319.131   120814942.146    22990313.609    94141488.695    22990313.252  
                                
  21423086.076   112579077.063                    87723926.709    21423078.947  
                                
  21269559.577   111772289.815    21269555.806    87095272.504    21269555.181  
  21269556.253    83466306.824  
  20488658.292   109408291.902    20488657.542    85095334.962    20488656.344  
                                
  20265303.457   108025470.667    20265303.189    84019809.940    20265302.349  
                                
  22013216.582   117797167.990    22013214.991    91620013.931    22013214.134  
                                
  19340594.563   103422850.723    19340593.097    80439989.196    19340591.882  
                                
  24153900.534   126929604.810                                                  
  24153899.283    94785088.122  
  23348150.175   122695357.998                                                  
  23348146.637    91623142.175  
  24501001.463   128753632.336                                                  
  24501001.784    96147193.607  
  24371160.710   128071314.495                                                  
  24371161.693    95637673.419  
                 122001545.469    23429114.164   122001545.469                  
                                
                 111500005.065    21412403.635   111500005.065                  
                                
 21  9  2  7 48 26.0000000  0 18G 1G 7G 8G 9G14G17G21G30R13R14R17R24
                                E 2E11E25E36C11C12
  21653507.396   113789948.526    21653504.537    88667481.627    21653504.554  
  21653504.447    84973001.959  
  20096477.035   105607699.128    20096470.566    82291685.299    20096470.191  
                                
  22063265.535   115943243.003    22063262.462    90345367.928    22063261.800  
  22063261.765    86580976.870  
  24098500.630   126638474.963    24098497.146    98679315.712    24098496.932  
  24098498.343    94567682.628  
  22852604.947   120091249.254    22852599.229    93577573.270    22852599.015  
  22852603.714    89678525.267  
  22989799.928   120812213.576    22989794.371    94139362.543    22989794.014  
                                
  21423038.152   112578825.158                    87723730.417    21423031.022  
                                
  21269168.835   111770236.308    21269165.029    87093672.367    21269164.403  
  21269165.493    83464773.360  
  20488883.621   109409495.176    20488882.870    85096270.839    20488881.673  
                                
  20264936.177   108023512.802    20264935.891    84018287.154    20264935.051  
                                
  22012439.154   117793007.866    22012437.564    91616778.285    22012436.706  
                                
  19340386.746   103421739.520    19340385.281    80439124.929    19340384.084  
                                
  24153704.833   126928576.409                                                  
  24153703.582    94784320.158  
  23348308.549   122696190.255                                                  
  23348305.010    91623763.665  
  24501133.622   128754326.879                                                  
  24501133.944    96147712.259  
  24370806.689   128069454.110                                                  
  24370807.690    95636284.171  
                 121998797.375    23428586.421   121998797.375                  
                                
                 111499906.896    21412384.801   111499906.896                  
                                
 21  9  2  7 48 27.0000000  0 18G 1G 7G 8G 9G14G17G21G30R13R14R17R24
                                E 2E11E25E36C11C12
  21652988.783   113787223.268    21652985.942    88665358.052    21652985.960  
  21652985.835    84970966.866  
  20096472.032   105607672.927    20096465.599    82291664.886    20096465.206  
                                
  22063799.819   115946050.631    22063796.745    90347555.692    22063796.084  
  22063796.031    86583073.469  
  24099105.533   126641653.792    24099102.066    98681792.722    24099101.834  
  24099103.245    94570056.427  
  22852202.537   120089134.541    22852196.801    93575925.453    22852196.604  
  22852201.304    89676946.102  
  22989280.726   120809485.284    22989275.205    94137236.602    22989274.847  
                                
  21422990.316   112578573.882                    87723534.619    21422983.204  
                                
  21268778.129   111768183.213    21268774.340    87092072.559    21268773.715  
  21268774.787    83463240.215  
  20489109.038   109410698.861    20489108.288    85097207.041    20489107.055  
                                
  20264568.933   108021555.187    20264568.647    84016764.571    20264567.807  
                                
  22011661.798   117788848.070    22011660.190    91613542.893    22011659.332  
                                
  19340179.108   103420629.168    19340177.643    80438261.329    19340176.428  
                                
  24153509.149   126927548.052                                                  
  24153507.880    94783552.231  
  23348467.011   122697022.987                                                  
  23348463.473    91624385.506  
  24501265.817   128755021.539                                                  
  24501266.139    96148230.995  
  24370452.740   128067594.104                                                  
  24370453.740    95634895.210  
                 121996049.571    23428058.731   121996049.571                  
                                
                 111499809.256    21412366.056   111499809.256                  
                                
 21  9  2  7 48 28.0000000  0 18G 1G 7G 8G 9G14G17G21G30R13R14R17R24
                                E 2E11E25E36C11C12
  21652470.242   113784498.266    21652467.401    88663234.676    21652467.401  
  21652467.293    84968931.962  
  20096467.136   105607647.121    20096460.685    82291644.778    20096460.292  
                                
  22064334.085   115948858.276    22064331.029    90349743.468    22064330.368  
  22064330.314    86585170.093  
  24099710.417   126644832.410    24099706.915    98684269.569    24099706.718  
  24099708.112    94572430.073  
  22851800.091   120087019.699    22851794.337    93574277.530    22851794.158  
  22851798.858    89675366.841  
  22988761.560   120806757.127    22988756.038    94135110.774    22988755.681  
                                
  21422942.570   112578323.024                    87723339.153    21422935.476  
                                
  21268387.476   111766130.352    21268383.670    87090472.927    21268383.062  
  21268384.134    83461707.236  
  20489334.492   109411902.806    20489333.741    85098143.447    20489332.526  
                                
  20264201.689   108019597.622    20264201.421    84015242.021    20264200.581  
                                
  22010884.442   117784688.403    22010882.869    91610307.604    22010882.012  
                                
  19339971.595   103419519.506    19339970.112    80437398.263    19339968.915  
                                
  24153313.412   126926519.563                                                  
  24153312.179    94782784.210  
  23348625.527   122697856.003                                                  
  23348621.989    91625007.579  
  24501397.994   128755716.120                                                  
  24501398.298    96148749.684  
  24370098.826   128065734.301                                                  
  24370099.826    95633506.397  
                 121993301.916    23427531.058   121993301.916                  
                                
                 111499711.950    21412347.348   111499711.950                  
                                
 21  9  2  7 48 29.0000000  0 18G 1G 7G 8G 9G14G17G21G30R13R14R17R24
                                E 2E11E25E36C11C12
  21651951.718   113781773.540    21651948.895    88661111.515    21651948.913  
  21651948.788    84966897.255  
  20096462.293   105607621.762    20096455.860    82291625.013    20096455.467  
                                
  22064868.368   115951665.971    22064865.313    90351931.284    22064864.652  
  22064864.598    86587266.740  
  24100315.265   126648010.893    24100311.763    98686746.309    24100311.567  
  24100312.960    94574803.611  
  22851397.627   120084904.780    22851391.891    93572629.542    22851391.676  
  22851396.376    89673787.510  
  22988242.447   120804029.129    22988236.925    94132985.050    22988236.568  
                                
  21422894.949   112578072.648                    87723144.048    21422887.820  
                                
  21267996.877   111764077.784    21267993.089    87088873.519    21267992.463  
  21267993.535    83460174.451  
  20489559.999   109413106.980    20489559.230    85099080.020    20489558.033  
                                
  20263834.462   108017640.126    20263834.194    84013719.527    20263833.354  
                                
  22010107.157   117780528.913    22010105.549    91607072.435    22010104.691  
                                
  19339764.207   103418410.587    19339762.724    80436535.769    19339761.527  
                                
  24153117.674   126925490.974                                                  
  24153116.441    94782016.099  
  23348784.097   122698689.343                                                  
  23348780.559    91625629.863  
  24501530.171   128756410.669                                                  
  24501530.457    96149268.323  
  24369744.966   128063874.723                                                  
  24369745.966    95632117.750  
                 121990554.400    23427003.458   121990554.400                  
                                
                 111499615.052    21412328.764   111499615.052                  
                                
 21  9  2  7 48 30.0000000  0 18G 1G 7G 8G 9G14G17G21G30R13R14R17R24
                                E 2E11E25E36C11C12
  21651433.320   113779049.245    21651430.461    88658988.683    21651430.479  
  21651430.372    84964862.892  
  20096457.594   105607596.969    20096451.125    82291605.698    20096450.750  
                                
  22065402.688   115954473.851    22065399.632    90354119.240    22065398.971  
  22065398.935    86589363.540  
  24100920.096   126651189.347    24100916.594    98689223.031    24100916.397  
  24100917.791    94577177.138  
  22850995.181   120082789.908    22850989.445    93570981.592    22850989.230  
  22850993.930    89672208.236  
  22987723.387   120801301.433    22987717.848    94130859.573    22987717.508  
                                
  21422847.400   112577822.865                    87722949.416    21422840.288  
                                
  21267606.367   111762025.593    21267602.579    87087274.411    21267601.954  
  21267603.026    83458641.987  
  20489785.595   109414311.620    20489784.827    85100016.962    20489783.612  
                                
  20263467.290   108015682.863    20263467.004    84012197.208    20263466.164  
                                
  22009329.908   117776369.718    22009328.300    91603837.510    22009327.442  
                                
  19339556.998   103417302.508    19339555.515    80435673.929    19339554.318  
                                
  24152921.955   126924462.423                                                  
  24152920.704    94781248.035  
  23348942.756   122699523.128                                                  
  23348939.218    91626252.499  
  24501662.349   128757105.315                                                  
  24501662.652    96149787.065  
  24369391.159   128062015.515                                                  
  24369392.160    95630729.389  
                 121987807.184    23426475.857   121987807.184                  
                                
                 111499518.633    21412310.234   111499518.633                  
                                
 21  9  2  7 48 31.0000000  0 18G 1G 7G 8G 9G14G17G21G30R13R14R17R24
                                E 2E11E25E36C11C12
  21650914.958   113776325.188    21650912.099    88656866.043    21650912.117  
  21650912.009    84962828.694  
  20096452.948   105607572.577    20096446.497    82291586.692    20096446.104  
                                
  22065937.008   115957281.739    22065933.934    90356307.207    22065933.291  
  22065933.255    86591460.340  
  24101524.891   126654367.612    24101521.389    98691699.609    24101521.192  
  24101522.604    94579550.512  
  22850592.717   120080674.916    22850586.945    93569333.549    22850586.766  
  22850591.466    89670628.848  
  22987204.346   120798573.857    22987198.806    94128734.187    22987198.467  
                                
  21422799.958   112577573.522                    87722755.125    21422792.846  
                                
  21267215.876   111759973.633    21267212.105    87085675.481    21267211.480  
  21267212.552    83457109.671  
  20490011.227   109415516.486    20490010.477    85100954.073    20490009.244  
                                
  20263100.135   108013725.643    20263099.849    84010674.929    20263099.009  
                                
  22008552.677   117772210.666    22008551.105    91600602.693    22008550.229  
                                
  19339349.896   103416195.124    19339348.431    80434812.631    19339347.216  
                                
  24152726.200   126923433.726                                                  
  24152724.967    94780479.850  
  23349101.486   122700357.169                                                  
  23349097.948    91626875.315  
  24501794.526   128757799.878                                                  
  24501794.830    96150305.724  
  24369037.406   128060156.493                                                  
  24369038.407    95629341.153  
                 121985060.079    23425948.292   121985060.079                  
                                
                 111499422.554    21412291.775   111499422.554                  
                                
 21  9  2  7 48 32.0000000  0 18G 1G 7G 8G 9G14G17G21G30R13R14R17R24
                                E 2E11E25E36C11C12
  21650396.649   113773601.462    21650393.790    88654743.662    21650393.808  
  21650393.700    84960794.745  
  20096448.391   105607548.662    20096441.940    82291568.056    20096441.547  
                                
  22066471.363   115960089.727    22066468.271    90358495.255    22066467.610  
  22066467.575    86593557.208  
  24102129.668   126657545.764    24102126.184    98694176.093    24102125.969  
  24102127.381    94581923.807  
  22850190.217   120078559.875    22850184.481    93567685.464    22850184.284  
  22850188.984    89669049.445  
  22986685.322   120795846.496    22986679.800    94126608.968    22986679.461  
                                
  21422752.605   112577324.690                    87722561.230    21422745.493  
                                
  21266825.473   111757921.998    21266821.685    87084076.808    21266821.060  
  21266822.132    83455577.604  
  20490236.931   109416721.674    20490236.163    85101891.442    20490234.948  
                                
  20262732.980   108011768.564    20262732.694    84009152.758    20262731.854  
                                
  22007775.500   117768051.824    22007773.910    91597368.037    22007773.070  
                                
  19339142.955   103415088.529    19339141.507    80433951.948    19339140.274  
                                
  24152530.445   126922404.979                                                  
  24152529.194    94779711.625  
  23349260.253   122701191.567                                                  
  23349256.715    91627498.410  
  24501926.685   128758494.450                                                  
  24501926.989    96150824.398  
  24368683.706   128058297.757                                                  
  24368684.707    95627953.139  
                 121982313.185    23425420.798   121982313.185                  
                                
                 111499326.889    21412273.405   111499326.889                  
                                
 21  9  2  7 48 33.0000000  0 18G 1G 7G 8G 9G14G17G21G30R13R14R17R24
                                E 2E11E25E36C11C12
  21649878.429   113770878.238    21649875.570    88652621.669    21649875.606  
  21649875.481    84958761.164  
  20096443.977   105607525.380    20096437.509    82291549.917    20096437.134  
                                
  22067005.736   115962897.945    22067002.680    90360683.469    22067002.019  
  22067001.966    86595654.249  
  24102734.445   126660723.956    24102730.979    98696652.609    24102730.782  
  24102732.158    94584297.132  
  22849787.771   120076444.953    22849782.035    93566037.473    22849781.838  
  22849786.538    89667470.118  
  22986166.406   120793119.481    22986160.884    94124484.021    22986160.527  
                                
  21422705.395   112577076.518                    87722367.851    21422698.265  
                                
  21266435.160   111755870.825    21266431.354    87082478.488    21266430.729  
  21266431.819    83454045.881  
  20490462.706   109417927.345    20490461.938    85102829.186    20490460.723  
                                
  20262365.879   108009811.774    20262365.611    84007630.808    20262364.771  
                                
  22006998.394   117763893.346    22006996.804    91594133.666    22006995.928  
                                
  19338936.210   103413982.856    19338934.727    80433091.975    19338933.530  
                                
  24152334.707   126921376.317                                                  
  24152333.439    94778943.468  
  23349419.126   122702026.468                                                  
  23349415.588    91628121.874  
  24502058.898   128759189.187                                                  
  24502059.202    96151343.186  
  24368330.061   128056439.436                                                  
  24368331.061    95626565.424  
                 121979566.650    23424893.358   121979566.650                  
                                
                 111499231.802    21412255.143   111499231.802                  
                                
 21  9  2  7 48 34.0000000  0 18G 1G 7G 8G 9G14G17G21G30R13R14R17R24
                                E 2E11E25E36C11C12
  21649360.317   113768155.522    21649357.476    88650500.072    21649357.476  
  21649357.369    84956727.965  
  20096439.653   105607502.761    20096433.220    82291532.287    20096432.827  
                                
  22067540.163   115965706.414    22067537.107    90362871.889    22067536.446  
  22067536.410    86597751.487  
  24103339.276   126663902.208    24103335.774    98699129.161    24103335.577  
  24103336.971    94586670.504  
  22849385.343   120074330.161    22849379.607    93564389.583    22849379.410  
  22849384.110    89665890.896  
  22985647.543   120790392.826    22985642.021    94122359.364    22985641.664  
                                
  21422658.274   112576829.035                    87722175.008    21422651.162  
                                
  21266044.919   111753820.121    21266041.112    87080880.532    21266040.505  
  21266041.577    83452514.512  
  20490688.606   109419133.544    20490687.820    85103767.334    20490686.623  
                                
  20261998.849   108007855.281    20261998.599    84006109.086    20261997.759  
                                
  22006221.342   117759735.224    22006219.769    91590899.568    22006218.911  
                                
  19338729.609   103412878.091    19338728.143    80432232.711    19338726.928  
                                
  24152138.952   126920347.763                                                  
  24152137.719    94778175.399  
  23349578.107   122702861.885                                                  
  23349574.569    91628745.733  
  24502191.129   128759884.088                                                  
  24502191.432    96151862.123  
  24367976.540   128054581.569                                                  
  24367977.523    95625178.072  
                 121976820.448    23424365.972   121976820.448                  
                                
                 111499137.305    21412237.006   111499137.305                  
                                
 21  9  2  7 48 35.0000000  0 18G 1G 7G 8G 9G14G17G21G30R13R14R17R24
                                E 2E11E25E36C11C12
  21648842.348   113765433.516    21648839.489    88648379.033    21648839.489  
  21648839.381    84954695.300  
  20096435.507   105607481.014    20096429.075    82291515.344    20096428.681  
                                
  22068074.714   115968515.389    22068071.641    90365060.705    22068070.980  
  22068070.926    86599849.100  
  24103944.125   126667080.764    24103940.622    98701605.958    24103940.426  
  24103941.819    94589044.092  
  22848982.968   120072215.723    22848977.214    93562741.974    22848977.035  
  22848981.735    89664311.940  
  22985128.805   120787666.806    22985123.283    94120235.195    22985122.926  
                                
  21422611.368   112576582.459                    87721982.873    21422604.256  
                                
  21265654.802   111751770.136    21265651.032    87079283.141    21265650.406  
  21265651.496    83450983.681  
  20490914.632   109420340.489    20490913.863    85104706.075    20490912.648  
                                
  20261631.927   108005899.324    20261631.659    84004587.789    20261630.819  
                                
  22005444.432   117755577.750    22005442.842    91587665.982    22005441.966  
                                
  19338523.221   103411774.458    19338521.738    80431374.325    19338520.541  
                                
  24151943.304   126919319.568                                                  
  24151942.054    94777407.591  
  23349737.231   122703698.073                                                  
  23349733.692    91629370.167  
  24502323.467   128760579.405                                                  
  24502323.753    96152381.351  
  24367623.126   128052724.377                                                  
  24367624.127    95623791.201  
                 121974074.852    23423838.711   121974074.852                  
                                
                 111499043.611    21412218.994   111499043.611                  
                                
 21  9  2  7 48 36.0000000  0 18G 1G 7G 8G 9G14G17G21G30R13R14R17R24
                                E 2E11E25E36C11C12
  21648324.432   113762711.897    21648321.573    88646258.291    21648321.573  
  21648321.483    84952662.929  
  20096431.487   105607459.809    20096425.036    82291498.821    20096424.643  
                                
  22068609.266   115971324.495    22068606.193    90367249.619    22068605.532  
  22068605.478    86601946.809  
  24104548.973   126670259.250    24104545.489    98704082.705    24104545.292  
  24104546.668    94591417.641  
  22848580.611   120070101.301    22848574.839    93561094.379    22848574.661  
  22848579.360    89662732.992  
  22984610.103   120784941.041    22984604.581    94118111.224    22984604.242  
                                
  21422564.551   112576336.447                    87721791.175    21422557.439  
                                
  21265264.775   111749720.538    21265261.005    87077686.052    21265260.379  
  21265261.451    83449453.135  
  20491140.710   109421547.812    20491139.942    85105645.102    20491138.727  
                                
  20261265.022   108003943.572    20261264.772    84003066.649    20261263.932  
                                
  22004667.559   117751420.543    22004665.968    91584432.601    22004665.111  
                                
  19338316.995   103410671.628    19338315.530    80430516.569    19338314.315  
                                
  24151747.639   126918291.363                                                  
  24151746.388    94776639.776  
  23349896.426   122704534.699                                                  
  23349892.888    91629994.913  
  24502455.769   128761274.775                                                  
  24502456.073    96152900.626  
  24367269.748   128050867.508                                                  
  24367270.749    95622404.589  
                 121971329.529    23423311.503   121971329.529                  
                                
                 111498950.422    21412201.107   111498950.422                  
                                
 21  9  2  7 48 37.0000000  0 18G 1G 7G 8G 9G14G17G21G30R13R14R17R24
                                E 2E11E25E36C11C12
  21647806.605   113759990.727    21647803.746    88644137.901    21647803.746  
  21647803.657    84950630.884  
  20096427.556   105607439.189    20096421.105    82291482.755    20096420.730  
                                
  22069143.836   115974133.801    22069140.780    90369438.687    22069140.119  
  22069140.083    86604044.672  
  24105153.804   126673437.715    24105150.319    98706559.434    24105150.123  
  24105151.517    94593791.179  
  22848178.254   120067986.945    22848172.500    93559446.834    22848172.304  
  22848177.021    89661154.091  
  22984091.455   120782215.581    22984085.933    94115987.489    22984085.594  
                                
  21422517.859   112576091.065                    87721599.969    21422510.747  
                                
  21264874.819   111747671.342    21264871.049    87076089.279    21264870.423  
  21264871.513    83447922.891  
  20491366.897   109422755.555    20491366.110    85106584.463    20491364.895  
                                
  20260898.189   108001988.082    20260897.903    84001545.717    20260897.081  
                                
  22003890.739   117747263.657    22003889.148    91581199.468    22003888.291  
                                
  19338110.929   103409569.697    19338109.446    80429659.513    19338108.249  
                                
  24151551.991   126917263.209                                                  
  24151550.740    94775871.998  
  23350055.728   122705371.777                                                  
  23350052.190    91630619.997  
  24502588.125   128761970.257                                                  
  24502588.429    96153419.977  
  24366916.478   128049011.023                                                  
  24366917.479    95621018.249  
                 121968584.494    23422784.349   121968584.494                  
                                
                 111498857.731    21412183.292   111498857.731                  
                                
 21  9  2  7 48 38.0000000  0 18G 1G 7G 8G 9G14G17G21G30R13R14R17R24
                                E 2E11E25E36C11C12
  21647288.868   113757269.959    21647286.009    88642017.823    21647286.009  
  21647285.902    84948599.144  
  20096423.732   105607419.132    20096417.299    82291467.127    20096416.906  
                                
  22069678.477   115976943.260    22069675.404    90371627.877    22069674.743  
  22069674.707    86606142.651  
  24105758.652   126676616.187    24105755.150    98709036.160    24105754.953  
  24105756.365    94596164.700  
  22847775.915   120065872.637    22847770.162    93557799.321    22847769.965  
  22847774.665    89659575.213  
  22983572.860   120779490.403    22983567.356    94113863.976    22983567.017  
                                
  21422471.275   112575846.262                    87721409.213    21422464.163  
                                
  21264484.953   111745622.537    21264481.182    87074492.807    21264480.557  
  21264481.629    83446392.935  
  20491593.136   109423963.731    20491592.368    85107524.153    20491591.153  
                                
  20260531.391   108000032.798    20260531.105    84000024.935    20260530.266  
                                
  22003113.972   117743107.047    22003112.382    91577966.547    22003111.524  
                                
  19337905.007   103408468.622    19337903.542    80428803.122    19337902.344  
                                
  24151356.343   126916235.061                                                  
  24151355.092    94775104.225  
  23350215.102   122706209.275                                                  
  23350211.564    91631245.401  
  24502720.499   128762665.824                                                  
  24502720.767    96153939.389  
  24366563.279   128047154.888                                                  
  24366564.279    95619632.176  
                 121965839.755    23422257.266   121965839.755                  
                                
                 111498765.552    21412165.620   111498765.552                  
                                
 21  9  2  7 48 39.0000000  0 18G 1G 7G 8G 9G14G17G21G30R13R14R17R24
                                E 2E11E25E36C11C12
  21646771.167   113754549.514    21646768.308    88639897.993    21646768.308  
  21646768.236    84946567.641  
  20096420.015   105607399.551    20096413.564    82291451.873    20096413.171  
                                
  22070213.118   115979752.827    22070210.063    90373817.153    22070209.402  
  22070209.348    86608240.702  
  24106363.465   126679794.494    24106359.981    98711512.758    24106359.766  
  24106361.178    94598538.115  
  22847373.559   120063758.276    22847367.823    93556151.772    22847367.626  
  22847372.326    89657996.305  
  22983054.319   120776765.445    22983048.815    94111740.637    22983048.458  
                                
  21422424.780   112575601.966                    87721218.852    21422417.686  
                                
  21264095.140   111743574.033    21264091.370    87072896.570    21264090.744  
  21264091.799    83444863.217  
  20491819.465   109425172.232    20491818.679    85108464.096    20491817.464  
                                
  20260164.612   107998077.630    20260164.326    83998504.251    20260163.486  
                                
  22002337.241   117738950.649    22002335.651    91574733.795    22002334.793  
                                
  19337699.245   103407368.289    19337697.780    80427947.307    19337696.565  
                                
  24151160.677   126915206.862                                                  
  24151159.444    94774336.410  
  23350374.547   122707047.110                                                  
  23350370.991    91631871.064  
  24502852.854   128763361.391                                                  
  24502853.140    96154458.813  
  24366210.133   128045299.025                                                  
  24366211.116    95618246.300  
                 121963095.182    23421730.166   121963095.182                  
                                
                 111498673.765    21412147.983   111498673.765                  
                                
 21  9  2  7 48 40.0000000  0 18G 1G 7G 8G 9G14G17G21G30R13R14R17R24
                                E 2E11E25E36C11C12
  21646253.573   113751829.510    21646250.714    88637778.513    21646250.732  
  21646250.625    84944536.464  
  20096416.388   105607380.547    20096409.955    82291437.060    20096409.562  
                                
  22070747.795   115982562.593    22070744.740    90376006.579    22070744.078  
  22070744.025    86610338.893  
  24106968.260   126682972.795    24106964.794    98713989.363    24106964.561  
  24106965.973    94600911.540  
  22846971.202   120061643.939    22846965.466    93554504.241    22846965.269  
  22846969.969    89656417.436  
  22982535.831   120774040.780    22982530.327    94109617.528    22982529.970  
                                
  21422378.409   112575358.263                    87721028.958    21422371.298  
                                
  21263705.417   111741525.944    21263701.628    87071300.657    21263701.003  
  21263702.075    83443333.797  
  20492045.848   109426381.151    20492045.062    85109404.364    20492043.847  
                                
  20259797.850   107996122.673    20259797.582    83996983.727    20259796.742  
                                
  22001560.582   117734794.565    22001558.992    91571501.285    22001558.134  
                                
  19337493.626   103406268.773    19337492.179    80427092.124    19337490.946  
                                
  24150965.011   126914178.690                                                  
  24150963.778    94773568.621  
  23350534.064   122707885.385                                                  
  23350530.490    91632497.059  
  24502985.246   128764057.055                                                  
  24502985.514    96154978.300  
  24365857.041   128043443.523                                                  
  24365858.006    95616860.700  
                 121960350.914    23421203.155   121960350.914                  
                                
                 111498582.502    21412130.453   111498582.502                  
                                
 21  9  2  7 48 41.0000000  0 18G 1G 7G 8G 9G14G17G21G30R13R14R17R24
                                E 2E11E25E36C11C12
  21645736.068   113749109.910    21645733.191    88635659.342    21645733.209  
  21645733.102    84942505.597  
  20096412.885   105607362.107    20096406.435    82291422.691    20096406.041  
                                
  22071282.508   115985372.507    22071279.452    90378196.122    22071278.791  
  22071278.720    86612437.212  
  24107573.073   126686151.087    24107569.588    98716465.950    24107569.374  
  24107570.786    94603284.933  
  22846568.881   120059529.695    22846563.145    93552856.776    22846562.930  
  22846567.630    89654838.609  
  22982017.379   120771316.400    22982011.893    94107494.639    22982011.554  
                                
  21422332.147   112575115.176                    87720839.540    21422325.035  
                                
  21263315.747   111739478.248    21263311.977    87069705.047    21263311.351  
  21263312.423    83441804.678  
  20492272.302   109427590.451    20492271.534    85110344.930    20492270.301  
                                
  20259431.142   107994167.927    20259430.892    83995463.369    20259430.052  
                                
  22000783.977   117730638.777    22000782.386    91568269.001    22000781.529  
                                
  19337288.168   103405170.103    19337286.721    80426237.605    19337285.506  
                                
  24150769.363   126913150.547                                                  
  24150768.130    94772800.857  
  23350693.634   122708724.106                                                  
  23350690.096    91633123.386  
  24503117.638   128764752.807                                                  
  24503117.906    96155497.861  
  24365504.003   128041588.383                                                  
  24365505.004    95615475.377  
                 121957606.937    23420676.215   121957606.937                  
                                
                 111498491.742    21412113.031   111498491.742                  
                                
 21  9  2  7 48 42.0000000  0 18G 1G 7G 8G 9G14G17G21G30R13R14R17R24
                                E 2E11E25E36C11C12
  21645218.617   113746390.774    21645215.758    88633540.539    21645215.758  
  21645215.651    84940475.077  
  20096409.490   105607344.286    20096403.057    82291408.805    20096402.664  
                                
  22071817.256   115988182.643    22071814.201    90380385.836    22071813.539  
  22071813.486    86614535.688  
  24108177.904   126689329.394    24108174.401    98718942.551    24108174.187  
  24108175.599    94605658.338  
  22846166.560   120057415.507    22846160.824    93551209.359    22846160.627  
  22846165.327    89653259.835  
  22981499.017   120768592.345    22981493.495    94105371.999    22981493.156  
                                
  21422286.027   112574872.732                    87720650.625    21422278.915  
                                
  21262926.184   111737431.006    21262922.396    87068109.789    21262921.771  
  21262922.843    83440275.885  
  20492498.863   109428800.225    20492498.077    85111285.866    20492496.844  
                                
  20259064.487   107992213.458    20259064.219    83993943.225    20259063.380  
                                
  22000007.425   117726483.353    22000005.852    91565036.997    22000004.994  
                                
  19337082.889   103404072.340    19337081.406    80425383.789    19337080.208  
                                
  24150573.733   126912122.490                                                  
  24150572.500    94772033.143  
  23350853.348   122709563.337                                                  
  23350849.809    91633750.071  
  24503250.047   128765448.703                                                  
  24503250.351    96156017.517  
  24365151.072   128039733.659                                                  
  24365152.055    95614090.347  
                 121954863.295    23420149.329   121954863.295                  
                                
                 111498401.525    21412095.698   111498401.525                  
                                
 21  9  2  7 48 43.0000000  0 18G 1G 7G 8G 9G14G17G21G30R13R14R17R24
                                E 2E11E25E36C11C12
  21644701.273   113743672.107    21644698.414    88631422.098    21644698.414  
  21644698.307    84938444.906  
  20096406.220   105607327.073    20096399.769    82291395.390    20096399.394  
                                
  22072352.058   115990992.999    22072349.003    90382575.720    22072348.341  
  22072348.270    86616634.333  
  24108782.716   126692507.692    24108779.214    98721419.145    24108779.018  
  24108780.411    94608031.764  
  22845764.274   120055301.433    22845758.521    93549562.031    22845758.324  
  22845763.041    89651681.144  
  22980980.690   120765868.640    22980975.222    94103249.634    22980974.865  
                                
  21422239.996   112574630.942                    87720462.215    21422232.884  
                                
  21262536.675   111735384.202    21262532.905    87066514.879    21262532.262  
  21262533.352    83438747.429  
  20492725.496   109430010.450    20492724.710    85112227.154    20492723.477  
                                
  20258697.887   107990259.258    20258697.601    83992423.293    20258696.797  
                                
  21999230.962   117722328.293    21999229.372    91561805.282    21999228.514  
                                
  19336877.770   103402975.464    19336876.287    80424530.664    19336875.090  
                                
  24150378.121   126911094.503                                                  
  24150376.870    94771265.494  
  23351013.150   122710403.065                                                  
  23351009.612    91634377.132  
  24503382.492   128766144.736                                                  
  24503382.796    96156537.280  
  24364798.195   128037879.340                                                  
  24364799.177    95612705.632  
                 121952119.967    23419622.497   121952119.967                  
                                
                 111498311.858    21412078.490   111498311.858                  
                                
 21  9  2  7 48 44.0000000  0 18G 1G 7G 8G 9G14G17G21G30R13R14R17R24
                                E 2E11E25E36C11C12
  21644184.001   113740953.792    21644181.124    88629303.933    21644181.124  
  21644181.052    84936415.003  
  20096403.039   105607310.367    20096396.589    82291382.372    20096396.213  
                                
  22072886.860   115993803.465    22072883.805    90384765.699    22072883.143  
  22072883.108    86618733.068  
  24109387.511   126695685.937    24109384.009    98723895.711    24109383.795  
  24109385.206    94610405.151  
  22845361.971   120053187.325    22845356.217    93547914.678    22845356.021  
  22845360.738    89650102.439  
  22980462.435   120763145.152    22980456.931    94101127.427    22980456.592  
                                
  21422194.108   112574389.678                    87720274.221    21422186.979  
                                
  21262147.238   111733337.738    21262143.468    87064920.237    21262142.842  
  21262143.914    83437219.235  
  20492952.201   109431221.050    20492951.414    85113168.727    20492950.181  
                                
  20258331.304   107988305.203    20258331.053    83990903.470    20258330.214  
                                
  21998454.553   117718173.452    21998452.945    91558573.741    21998452.087  
                                
  19336672.795   103401879.368    19336671.312    80423678.151    19336670.114  
                                
  24150182.473   126910066.463                                                  
  24150181.240    94770497.817  
  23351173.006   122711243.154                                                  
  23351169.468    91635004.480  
  24503514.955   128766840.790                                                  
  24503515.241    96157057.072  
  24364445.371   128036025.291                                                  
  24364446.371    95611321.131  
                 121949376.856    23419095.700   121949376.856                  
                                
                 111498222.622    21412061.336   111498222.622                  
                                
 21  9  2  7 48 45.0000000  0 18G 1G 7G 8G 9G14G17G21G30R13R14R17R24
                                E 2E11E25E36C11C12
  21643666.835   113738236.068    21643663.958    88627186.230    21643663.958  
  21643663.851    84934385.531  
  20096400.002   105607294.403    20096393.569    82291369.935    20096393.176  
                                
  22073421.752   115996614.285    22073418.696    90386955.949    22073418.035  
  22073417.963    86620832.046  
  24109992.324   126698864.332    24109988.840    98726372.389    24109988.643  
  24109990.019    94612778.608  
  22844959.704   120051073.442    22844953.950    93546267.497    22844953.753  
  22844958.471    89648523.882  
  22979944.269   120760422.137    22979938.765    94099005.605    22979938.426  
                                
  21422148.310   112574149.194                    87720086.836    21422141.198  
                                
  21261757.908   111731291.838    21261754.155    87063326.029    21261753.512  
  21261754.602    83435691.450  
  20493179.012   109432432.261    20493178.226    85114110.785    20493176.993  
                                
  20257964.810   107986351.535    20257964.524    83989383.953    20257963.684  
                                
  21997678.197   117714019.062    21997676.607    91555342.547    21997675.749  
                                
  19336467.998   103400784.317    19336466.515    80422826.447    19336465.317  
                                
  24149986.896   126909038.643                                                  
  24149985.646    94769730.274  
  23351332.988   122712083.841                                                  
  23351329.450    91635632.274  
  24503647.472   128767537.114                                                  
  24503647.740    96157577.039  
  24364092.690   128034171.811                                                  
  24364093.655    95609937.025  
                 121946634.226    23418569.029   121946634.226                  
                                
                 111498134.080    21412044.325   111498134.080                  
                                
 21  9  2  7 48 46.0000000  0 18G 1G 7G 8G 9G14G17G21G30R13R14R17R24
                                E 2E11E25E36C11C12
  21643149.741   113735518.760    21643146.865    88625068.847    21643146.865  
  21643146.775    84932356.363  
  20096397.071   105607278.992    20096390.620    82291357.924    20096390.245  
                                
  22073956.661   115999425.275    22073953.623    90389146.329    22073952.944  
  22073952.890    86622931.158  
  24110597.155   126702042.675    24110593.653    98728849.022    24110593.456  
  24110594.850    94615152.037  
  22844557.454   120048959.589    22844551.700    93544620.341    22844551.504  
  22844556.221    89646945.355  
  22979426.139   120757699.403    22979420.635    94096883.997    22979420.295  
                                
  21422102.673   112573909.282                    87719899.892    21422095.561  
                                
  21261368.685   111729246.345    21261364.914    87061732.138    21261364.289  
  21261365.343    83434163.965  
  20493405.895   109433643.875    20493405.127    85115053.149    20493403.876  
                                
  20257598.334   107984398.090    20257598.066    83987864.609    20257597.226  
                                
  21996901.896   117709864.950    21996900.323    91552111.568    21996899.465  
                                
  19336263.362   103399690.122    19336261.896    80421975.407    19336260.681  
                                
  24149791.320   126908010.835                                                  
  24149790.069    94768962.757  
  23351493.041   122712924.968                                                  
  23351489.503    91636260.380  
  24503779.989   128768233.521                                                  
  24503780.257    96158097.085  
  24363740.027   128032318.663                                                  
  24363741.027    95608553.181  
                 121943891.839    23418042.375   121943891.839                  
                                
                 111498046.024    21412027.421   111498046.024                  
                                
 21  9  2  7 48 47.0000000  0 18G 1G 7G 8G 9G14G17G21G30R13R14R17R24
                                E 2E11E25E36C11C12
  21642632.791   113732802.129    21642629.914    88622951.997    21642629.914  
  21642629.807    84930327.713  
  20096394.284   105607264.416    20096387.869    82291346.569    20096387.458  
                                
  22074491.659   116002236.702    22074488.604    90391337.051    22074487.943  
  22074487.889    86625030.602  
  24111202.003   126705221.263    24111198.519    98731325.848    24111198.305  
  24111199.698    94617525.660  
  22844155.258   120046846.064    22844149.522    93542973.436    22844149.326  
  22844154.025    89645367.062  
  22978908.116   120754977.224    22978902.630    94094762.821    22978902.290  
                                
  21422057.196   112573670.248                    87719713.629    21422050.066  
                                
  21260979.551   111727201.490    21260975.780    87060138.744    21260975.155  
  21260976.227    83432636.969  
  20493632.939   109434856.157    20493632.135    85115996.038    20493630.920  
                                
  20257231.983   107982445.130    20257231.698    83986345.643    20257230.858  
                                
  21996125.737   117705711.448    21996124.129    91548881.067    21996123.271  
                                
  19336058.976   103398597.057    19336057.493    80421125.243    19336056.296  
                                
  24149595.779   126906983.314                                                  
  24149594.528    94768195.453  
  23351653.236   122713766.791                                                  
  23351649.698    91636889.016  
  24503912.577   128768930.276                                                  
  24503912.863    96158617.393  
  24363387.525   128030466.160                                                  
  24363388.525    95607169.810  
                 121941150.020    23417515.846   121941150.020                  
                                
                 111497958.724    21412010.642   111497958.724                  
                                
 21  9  2  7 48 48.0000000  0 18G 1G 7G 8G 9G14G17G21G30R13R14R17R24
                                E 2E11E25E36C11C12
  21642115.947   113730086.086    21642113.070    88620835.597    21642113.070  
  21642112.963    84928299.501  
  20096391.657   105607250.589    20096385.224    82291335.792    20096384.849  
                                
  22075026.729   116005048.485    22075023.674    90393528.055    22075023.013  
  22075022.959    86627130.310  
  24111806.888   126708399.981    24111803.403    98733802.769    24111803.189  
  24111804.601    94619899.387  
  22843753.116   120044732.733    22843747.380    93541326.678    22843747.165  
  22843751.901    89643788.939  
  22978390.182   120752255.517    22978384.714    94092642.012    22978384.357  
                                
  21422011.844   112573431.988                    87719527.970    21422004.732  
                                
  21260590.560   111725157.227    21260586.772    87058545.814    21260586.146  
  21260587.219    83431110.411  
  20493860.072   109436069.045    20493859.286    85116939.397    20493858.035  
                                
  20256865.686   107980492.563    20256865.400    83984826.977    20256864.561  
                                
  21995349.632   117701558.441    21995348.041    91545650.950    21995347.183  
                                
  19335854.769   103397505.021    19335853.286    80420275.877    19335852.088  
                                
  24149400.292   126905956.008                                                  
  24149399.041    94767428.306  
  23351813.557   122714609.236                                                  
  23351810.001    91637518.121  
  24504045.219   128769627.316                                                  
  24504045.504    96159137.902  
  24363035.094   128028614.171                                                  
  24363036.094    95605786.838  
                 121938408.660    23416989.389   121938408.660                  
                                
                 111497872.139    21411994.041   111497872.139                  
                                
 21  9  2  7 48 49.0000000  0 18G 1G 7G 8G 9G14G17G21G30R13R14R17R24
                                E 2E11E25E36C11C12
  21641599.175   113727370.530    21641596.298    88618719.580    21641596.298  
  21641596.209    84926271.644  
  20096389.137   105607237.387    20096382.722    82291325.503    20096382.311  
                                
  22075561.835   116007860.502    22075558.779    90395719.233    22075558.118  
  22075558.065    86629230.189  
  24112411.808   126711578.746    24112408.305    98736279.713    24112408.109  
  24112409.503    94622273.113  
  22843350.973   120042619.516    22843345.238    93539680.022    22843345.041  
  22843349.758    89642210.894  
  22977872.338   120749534.159    22977866.834    94090521.467    22977866.495  
                                
  21421966.618   112573194.380                    87719342.816    21421959.506  
                                
  21260201.623   111723113.407    21260197.853    87056953.230    21260197.227  
  21260198.281    83429584.186  
  20494087.294   109437282.430    20494086.490    85117883.136    20494085.275  
                                
  20256499.425   107978540.268    20256499.139    83983308.527    20256498.299  
                                
  21994573.598   117697405.787    21994572.025    91542421.113    21994571.168  
                                
  19335650.722   103396413.894    19335649.239    80419427.220    19335648.042  
                                
  24149204.823   126904928.777                                                  
  24149203.572    94766661.228  
  23351973.950   122715452.200                                                  
  23351970.412    91638147.608  
  24504177.896   128770324.488                                                  
  24504178.164    96159658.533  
  24362682.752   128026762.616                                                  
  24362683.735    95604404.190  
                 121935667.644    23416463.003   121935667.644                  
                                
                 111497786.084    21411977.512   111497786.084                  
                                
 21  9  2  7 48 50.0000000  0 18G 1G 7G 8G 9G14G17G21G30R13R14R17R24
                                E 2E11E25E36C11C12
  21641082.528   113724655.455    21641079.651    88616603.932    21641079.651  
  21641079.544    84924244.155  
  20096386.761   105607224.819    20096380.310    82291315.711    20096379.935  
                                
  22076096.977   116010672.755    22076093.939    90397910.598    22076093.278  
  22076093.224    86631330.256  
  24113016.692   126714757.537    24113013.208    98738756.690    24113013.011  
  24113014.405    94624646.895  
  22842948.867   120040506.420    22842943.131    93538033.456    22842942.934  
  22842947.652    89640632.930  
  22977354.547   120746813.157    22977349.043    94088401.208    22977348.704  
                                
  21421921.552   112572957.444                    87719158.193    21421914.422  
                                
  21259812.775   111721070.068    21259809.005    87055361.020    21259808.379  
  21259809.452    83428058.314  
  20494314.606   109438496.289    20494313.820    85118827.251    20494312.587  
                                
  20256133.235   107976588.263    20256132.967    83981790.304    20256132.127  
                                
  21993797.653   117693253.456    21993796.045    91539191.527    21993795.205  
                                
  19335446.837   103395323.644    19335445.371    80418579.248    19335444.156  
                                
  24149009.354   126903901.656                                                  
  24149008.121    94765894.217  
  23352134.467   122716295.678                                                  
  23352130.929    91638777.473  
  24504310.591   128771021.833                                                  
  24504310.877    96160179.275  
  24362330.483   128024911.484                                                  
  24362331.483    95603021.853  
                 121932926.976    23415936.689   121932926.976                  
                                
                 111497700.607    21411961.091   111497700.607                  
                                
 21  9  2  7 48 51.0000000  0 18G 1G 7G 8G 9G14G17G21G30R13R14R17R24
                                E 2E11E25E36C11C12
  21640565.899   113721940.668    21640563.022    88614488.518    21640563.022  
  21640562.950    84922216.879  
  20096384.438   105607212.682    20096378.023    82291306.259    20096377.612  
                                
  22076632.154   116013485.048    22076629.098    90400101.998    22076628.437  
  22076628.366    86633430.341  
  24113621.576   126717936.190    24113618.092    98741233.568    24113617.877  
  24113619.289    94627020.556  
  22842546.760   120038393.238    22842540.989    93536386.821    22842540.792  
  22842545.509    89639054.896  
  22976836.774   120744092.307    22976831.306    94086281.067    22976830.967  
                                
  21421876.540   112572720.963                    87718973.924    21421869.428  
                                
  21259423.999   111719026.985    21259420.211    87053769.009    21259419.585  
  21259420.675    83426532.642  
  20494541.972   109439710.417    20494541.186    85119771.575    20494539.953  
                                
  20255767.045   107974636.355    20255766.795    83980272.155    20255765.937  
                                
  21993021.727   117689101.296    21993020.136    91535962.071    21993019.279  
                                
  19335243.076   103394234.072    19335241.593    80417731.805    19335240.396  
                                
  24148813.884   126902874.414                                                  
  24148812.634    94765127.125  
  23352295.020   122717139.441                                                  
  23352291.482    91639407.564  
  24504443.287   128771719.129                                                  
  24504443.555    96160699.981  
  24361978.284   128023060.592                                                  
  24361979.285    95601639.687  
                 121930186.459    23415410.393   121930186.459                  
                                
                 111497615.511    21411944.741   111497615.511                  
                                
 21  9  2  7 48 52.0000000  0 18G 1G 7G 8G 9G14G17G21G30R13R14R17R24
                                E 2E11E25E36C11C12
  21640049.377   113719226.206    21640046.482    88612373.353    21640046.482  
  21640046.393    84920189.844  
  20096382.222   105607201.020    20096375.789    82291297.172    20096375.396  
                                
  22077167.331   116016297.423    22077164.275    90402293.455    22077163.614  
  22077163.561    86635530.491  
  24114226.425   126721114.694    24114222.940    98743710.321    24114222.726  
  24114224.138    94629394.127  
  22842144.618   120036279.990    22842138.864    93534740.129    22842138.667  
  22842143.403    89637476.827  
  22976319.055   120741371.654    22976313.569    94084161.075    22976313.230  
                                
  21421831.635   112572484.980                    87718790.039    21421824.523  
                                
  21259035.276   111716984.219    21259031.488    87052177.243    21259030.862  
  21259031.935    83425007.197  
  20494769.409   109440924.882    20494768.605    85120716.161    20494767.389  
                                
  20255400.927   107972684.589    20255400.641    83978754.115    20255399.801  
                                
  21992245.818   117684949.359    21992244.245    91532732.787    21992243.388  
                                
  19335039.477   103393145.264    19335037.994    80416884.953    19335036.796  
                                
  24148618.397   126901847.111                                                  
  24148617.147    94764359.981  
  23352455.663   122717983.561                                                  
  23352452.107    91640037.905  
  24504575.964   128772416.421                                                  
  24504576.250    96161220.686  
  24361626.103   128021209.944                                                  
  24361627.104    95600257.714  
                 121927446.108    23414884.132   121927446.108                  
                                
                 111497530.808    21411928.462   111497530.808                  
                                
 21  9  2  7 48 53.0000000  0 18G 1G 7G 8G 9G14G17G21G30R13R14R17R24
                                E 2E11E25E36C11C12
  21639532.873   113716511.973    21639529.978    88610258.364    21639529.996  
  21639529.888    84918162.984  
  20096380.078   105607189.746    20096373.645    82291288.384    20096373.252  
                                
  22077702.508   116019109.763    22077699.453    90404484.889    22077698.792  
  22077698.720    86637630.618  
  24114831.238   126724293.012    24114827.771    98746186.931    24114827.557  
  24114828.968    94631767.540  
  22841742.440   120034166.597    22841736.704    93533093.332    22841736.507  
  22841741.225    89635898.647  
  22975801.336   120738651.121    22975795.868    94082041.175    22975795.546  
                                
  21421786.820   112572249.415                    87718606.481    21421779.708  
                                
  21258646.589   111714941.652    21258642.801    87050585.635    21258642.175  
  21258643.248    83423481.908  
  20494996.881   109442139.555    20494996.077    85121660.905    20494994.844  
                                
  20255034.790   107970732.873    20255034.505    83977236.112    20255033.665  
                                
  21991469.981   117680797.566    21991468.373    91529503.617    21991467.515  
                                
  19334835.984   103392057.126    19334834.519    80416038.623    19334833.304  
                                
  24148422.875   126900819.646                                                  
  24148421.624    94763592.723  
  23352616.341   122718827.913                                                  
  23352612.785    91640668.437  
  24504708.642   128773113.620                                                  
  24504708.928    96161741.321  
  24361273.977   128019359.481                                                  
  24361274.977    95598875.874  
                 121924705.888    23414357.907   121924705.888                  
                                
                 111497446.427    21411912.273   111497446.427                  
                                
 21  9  2  7 48 54.0000000  0 18G 1G 7G 8G 9G14G17G21G30R13R14R17R24
                                E 2E11E25E36C11C12
  21639016.404   113713797.937    21639013.527    88608143.529    21639013.527  
  21639013.438    84916136.262  
  20096378.005   105607178.815    20096371.554    82291279.869    20096371.179  
                                
  22078237.650   116021922.059    22078234.612    90406676.286    22078233.951  
  22078233.897    86639730.696  
  24115436.015   126727471.067    24115432.530    98748663.335    24115432.334  
  24115433.728    94634140.754  
  22841340.244   120032053.034    22841334.508    93531446.400    22841334.293  
  22841339.029    89634320.328  
  22975283.652   120735930.614    22975278.167    94079921.295    22975277.827  
                                
  21421742.058   112572014.221                    87718423.209    21421734.946  
                                
  21258257.920   111712899.276    21258254.150    87048994.169    21258253.542  
  21258254.596    83421956.740  
  20495224.372   109443354.381    20495223.586    85122605.765    20495222.335  
                                
  20254668.636   107968781.095    20254668.350    83975718.058    20254667.511  
                                
  21990694.126   117676645.811    21990692.517    91526274.484    21990691.660  
                                
  19334632.617   103390969.608    19334631.134    80415192.780    19334629.936  
                                
  24148227.316   126899791.981                                                  
  24148226.083    94762825.300  
  23352777.055   122719672.480                                                  
  23352773.499    91641299.113  
  24504841.301   128773810.678                                                  
  24504841.569    96162261.847  
  24360921.885   128017509.141                                                  
  24360922.868    95597494.125  
                 121921965.724    23413831.683   121921965.724                  
                                
                 111497362.311    21411896.119   111497362.311                  
                                
 21  9  2  7 48 55.0000000  0 18G 1G 7G 8G 9G14G17G21G30R13R14R17R24
                                E 2E11E25E36C11C12
  21638500.043   113711084.365    21638497.148    88606029.052    21638497.148  
  21638497.059    84914109.891  
  20096376.039   105607168.501    20096369.607    82291271.827    20096369.213  
                                
  22078772.863   116024734.579    22078769.825    90408867.857    22078769.164  
  22078769.110    86641830.958  
  24116040.774   126730649.113    24116037.307    98751139.732    24116037.093  
  24116038.505    94636513.978  
  22840938.048   120029939.542    22840932.312    93529799.520    22840932.115  
  22840936.851    89632742.079  
  22974766.023   120733210.471    22974760.537    94077801.703    22974760.197  
                                
  21421697.421   112571779.662                    87718240.436    21421690.291  
                                
  21257869.358   111710857.313    21257865.570    87047403.027    21257864.944  
  21257866.034    83420431.909  
  20495451.952   109444569.689    20495451.166    85123551.000    20495449.915  
                                
  20254302.536   107966829.556    20254302.250    83974200.194    20254301.410  
                                
  21989918.324   117672494.391    21989916.716    91523045.604    21989915.858  
                                
  19334429.410   103389882.960    19334427.927    80414347.612    19334426.730  
                                
  24148031.775   126898764.388                                                  
  24148030.542    94762057.943  
  23352937.858   122720517.542                                                  
  23352934.320    91641930.162  
  24504973.961   128774507.873                                                  
  24504974.247    96162782.482  
  24360569.830   128015659.212                                                  
  24360570.830    95596112.691  
                 121919225.876    23413305.529   121919225.876                  
                                
                 111497278.745    21411880.073   111497278.745                  
                                
 21  9  2  7 48 56.0000000  0 18G 1G 7G 8G 9G14G17G21G30R13R14R17R24
                                E 2E11E25E36C11C12
  21637983.807   113708371.537    21637980.912    88603915.156    21637980.912  
  21637980.841    84912084.083  
  20096374.235   105607159.067    20096367.820    82291264.476    20096367.426  
                                
  22079308.165   116027547.588    22079305.109    90411059.812    22079304.448  
  22079304.395    86643931.582  
  24116645.605   126733827.481    24116642.120    98753616.383    24116641.924  
  24116643.335    94638887.429  
  22840535.959   120027826.439    22840530.205    93528152.947    22840529.991  
  22840534.744    89631164.107  
  22974248.518   120730490.933    22974243.032    94075682.585    22974242.692  
                                
  21421652.963   112571546.039                    87718058.390    21421645.833  
                                
  21257480.921   111708816.111    21257477.151    87045812.480    21257476.525  
  21257477.580    83418907.626  
  20495679.692   109445785.740    20495678.888    85124496.822    20495677.655  
                                
  20253936.542   107964878.581    20253936.257    83972682.769    20253935.417  
                                
  21989142.648   117668343.605    21989141.057    91519817.215    21989140.200  
                                
  19334226.418   103388797.506    19334224.953    80413503.372    19334223.738  
                                
  24147836.288   126897737.157                                                  
  24147835.055    94761290.853  
  23353098.805   122721363.374                                                  
  23353095.267    91642561.793  
  24505106.728   128775205.491                                                  
  24505106.978    96163303.429  
  24360217.953   128013809.984                                                  
  24360218.954    95594731.765  
                 121916486.653    23412779.501   121916486.653                  
                                
                 111497196.021    21411864.187   111497196.021                  
                                
 21  9  2  7 48 57.0000000  0 18G 1G 7G 8G 9G14G17G21G30R13R14R17R24
                                E 2E11E25E36C11C12
  21637467.696   113705659.318    21637464.801    88601801.738    21637464.801  
  21637464.712    84910058.724  
  20096372.573   105607150.413    20096366.158    82291257.730    20096365.783  
                                
  22079843.539   116030360.967    22079840.501    90413252.051    22079839.822  
  22079839.751    86646032.475  
  24117250.453   126737006.002    24117246.969    98756093.150    24117246.772  
  24117248.184    94641261.002  
  22840133.888   120025713.566    22840128.134    93526506.555    22840127.938  
  22840132.655    89629586.312  
  22973731.084   120727771.876    22973725.617    94073563.839    22973725.277  
                                
  21421608.648   112571313.190                    87717876.954    21421601.536  
                                
  21257092.610   111706775.469    21257088.821    87044222.369    21257088.214  
  21257089.286    83417383.778  
  20495907.540   109447002.412    20495906.736    85125443.120    20495905.503  
                                
  20253570.603   107962928.042    20253570.335    83971165.681    20253569.495  
                                
  21988367.061   117664193.327    21988365.470    91516589.223    21988364.613  
                                
  19334023.623   103387713.088    19334022.140    80412659.938    19334020.942  
                                
  24147640.855   126896710.136                                                  
  24147639.622    94760523.924  
  23353259.894   122722209.833                                                  
  23353256.356    91643193.892  
  24505239.530   128775903.385                                                  
  24505239.798    96163824.581  
  24359866.148   128011961.291                                                  
  24359867.148    95593351.252  
                 121913747.887    23412253.544   121913747.887                  
                                
                 111497113.993    21411848.427   111497113.993                  
                                
 21  9  2  7 48 58.0000000  0 18G 1G 7G 8G 9G14G17G21G30R13R14R17R24
                                E 2E11E25E36C11C12
  21636951.656   113702947.541    21636948.744    88599688.668    21636948.780  
  21636948.690    84908033.696  
  20096371.072   105607142.346    20096364.621    82291251.447    20096364.246  
                                
  22080378.948   116033174.542    22080375.911    90415444.445    22080375.232  
  22080375.160    86648133.528  
  24117855.302   126740184.532    24117851.817    98758569.925    24117851.639  
  24117853.050    94643634.577  
  22839731.817   120023600.760    22839726.081    93524860.215    22839725.885  
  22839730.602    89628008.574  
  22973213.723   120725053.139    22973208.255    94071445.338    22973207.897  
                                
  21421564.458   112571080.967                    87717696.003    21421557.328  
                                
  21256704.369   111704735.276    21256700.599    87042632.606    21256699.973  
  21256701.046    83415860.253  
  20496135.460   109448219.539    20496134.656    85126389.777    20496133.423  
                                
  20253204.752   107960977.779    20253204.484    83969648.812    20253203.644  
                                
  21987591.563   117660043.425    21987589.955    91513361.526    21987589.097  
                                
  19333821.006   103386629.565    19333819.523    80411817.201    19333818.325  
                                
  24147445.439   126895683.170                                                  
  24147444.170    94759757.042  
  23353421.055   122723056.768                                                  
  23353417.499    91643826.350  
  24505372.351   128776601.403                                                  
  24505372.619    96164345.832  
  24359514.432   128010112.990                                                  
  24359515.432    95591971.034  
                 121911009.444    23411727.659   121911009.444                  
                                
                 111497032.474    21411832.773   111497032.474                  
                                
 21  9  2  7 48 59.0000000  0 18G 1G 7G 8G 9G14G17G21G30R13R14R17R24
                                E 2E11E25E36C11C12
  21636435.671   113700236.035    21636432.776    88597575.808    21636432.794  
  21636432.704    84906008.867  
  20096369.607   105607134.699    20096363.174    82291245.490    20096362.781  
                                
  22080914.358   116035988.130    22080911.320    90417636.853    22080910.641  
  22080910.570    86650234.581  
  24118460.133   126743362.869    24118456.648    98761046.555    24118456.452  
  24118457.845    94646008.006  
  22839329.746   120021487.852    22839324.010    93523213.790    22839323.814  
  22839328.531    89626430.748  
  22972696.379   120722334.534    22972690.911    94069326.954    22972690.571  
                                
  21421520.357   112570849.181                    87717515.390    21421513.227  
                                
  21256316.183   111702695.315    21256312.394    87041043.031    21256311.787  
  21256312.841    83414336.908  
  20496363.451   109449436.911    20496362.629    85127336.622    20496361.378  
                                
  20252838.902   107959027.570    20252838.634    83968131.982    20252837.794  
                                
  21986816.065   117655893.643    21986814.475    91510133.918    21986813.617  
                                
  19333618.514   103385546.754    19333617.031    80410975.002    19333615.834  
                                
  24147249.988   126894656.089                                                  
  24147248.755    94758990.058  
  23353582.287   122723904.004                                                  
  23353578.749    91644459.007  
  24505505.171   128777299.355                                                  
  24505505.421    96164867.035  
  24359162.751   128008264.904                                                  
  24359163.752    95590590.963  
                 121908271.120    23411201.773   121908271.120                  
                                
                 111496951.332    21411817.209   111496951.332                  
                                
 21  9  2  7 49  0.0000000  0 18G 1G 7G 8G 9G14G17G21G30R13R14R17R24
                                E 2E11E25E36C11C12
  21635919.810   113697525.109    21635916.897    88595463.398    21635916.897  
  21635916.843    84903984.472  
  20096368.284   105607127.783    20096361.869    82291240.099    20096361.476  
                                
  22081449.821   116038802.069    22081446.783    90419829.529    22081446.122  
  22081446.069    86652335.893  
  24119064.981   126746541.334    24119061.497    98763523.283    24119061.300  
  24119062.694    94648381.542  
  22838927.711   120019375.160    22838921.975    93521567.539    22838921.779  
  22838926.514    89624853.080  
  22972179.124   120719616.384    22972173.656    94067208.924    22972173.317  
                                
  21421476.399   112570618.169                    87717335.381    21421469.269  
                                
  21255928.103   111700655.941    21255924.315    87039453.906    21255923.690  
  21255924.780    83412813.988  
  20496591.513   109450654.844    20496590.709    85128283.905    20496589.458  
                                
  20252473.123   107957077.721    20252472.837    83966615.433    20252471.997  
                                
  21986040.675   117651744.312    21986039.066    91506906.658    21986038.209  
                                
  19333416.201   103384464.946    19333414.736    80410133.598    19333413.521  
                                
  24147054.590   126893629.194                                                  
  24147053.321    94758223.218  
  23353743.626   122724751.811                                                  
  23353740.070    91645092.111  
  24505638.027   128777997.560                                                  
  24505638.296    96165388.420  
  24358811.178   128006417.343                                                  
  24358812.161    95589211.284  
                 121905533.237    23410675.995   121905533.237                  
                                
                 111496870.854    21411801.753   111496870.854                  
                                
 21  9  2  7 49  1.0000000  0 18G 1G 7G 8G 9G14G17G21G30R13R14R17R24
                                E 2E11E25E36C11C12
  21635404.020   113694814.585    21635401.126    88593351.297    21635401.126  
  21635401.036    84901960.380  
  20096367.069   105607121.397    20096360.654    82291235.116    20096360.243  
                                
  22081985.338   116041616.158    22081982.300    90422022.325    22081981.639  
  22081981.550    86654437.323  
  24119669.830   126749719.785    24119666.345    98765999.989    24119666.149  
  24119667.542    94650755.038  
  22838525.694   120017262.484    22838519.958    93519921.298    22838519.744  
  22838524.479    89623275.428  
  22971661.923   120716898.512    22971656.473    94065091.100    22971656.134  
                                
  21421432.548   112570387.727                    87717155.814    21421425.437  
                                
  21255540.077   111698616.913    21255536.307    87037865.051    21255535.699  
  21255536.754    83411291.341  
  20496819.665   109451873.194    20496818.843    85129231.513    20496817.610  
                                
  20252107.362   107955128.044    20252107.094    83965099.018    20252106.254  
                                
  21985265.320   117647595.247    21985263.712    91503679.607    21985262.854  
                                
  19333214.049   103383383.914    19333212.566    80409292.794    19333211.368  
                                
  24146859.156   126892602.298                                                  
  24146857.923    94757456.378  
  23353905.019   122725600.022                                                  
  23353901.463    91645725.533  
  24505770.919   128778695.850                                                  
  24505771.170    96165909.861  
  24358459.659   128004570.105                                                  
  24358460.660    95587831.857  
                 121902795.640    23410150.289   121902795.640                  
                                
                 111496790.844    21411786.367   111496790.844                  
                                
 21  9  2  7 49  2.0000000  0 18G 1G 7G 8G 9G14G17G21G30R13R14R17R24
                                E 2E11E25E36C11C12
  21634888.338   113692104.693    21634885.443    88591239.690    21634885.443  
  21634885.372    84899936.766  
  20096365.997   105607115.804    20096359.600    82291230.760    20096359.189  
                                
  22082520.926   116044430.629    22082517.870    90424215.419    22082517.209  
  22082517.138    86656539.036  
  24120274.696   126752898.368    24120271.212    98768476.800    24120271.015  
  24120272.409    94653128.677  
  22838123.712   120015150.054    22838117.976    93518275.248    22838117.762  
  22838122.497    89621697.972  
  22971144.829   120714181.125    22971139.379    94062973.660    22971139.040  
                                
  21421388.859   112570158.086                    87716976.870    21421381.729  
                                
  21255152.194   111696578.519    21255148.406    87036276.687    21255147.799  
  21255148.871    83409769.168  
  20497047.941   109453092.167    20497047.137    85130179.601    20497045.886  
                                
  20251741.690   107953178.805    20251741.422    83963582.941    20251740.582  
                                
  21984490.072   117643446.729    21984488.482    91500452.982    21984487.624  
                                
  19333012.075   103382303.912    19333010.592    80408452.788    19333009.395  
                                
  24146663.794   126891575.649                                                  
  24146662.543    94756689.729  
  23354066.555   122726448.914                                                  
  23354063.017    91646359.439  
  24505903.847   128779394.434                                                  
  24505904.115    96166431.531  
  24358108.265   128002723.459                                                  
  24358109.247    95586452.869  
                 121900058.532    23409624.653   121900058.532                  
                                
                 111496711.531    21411771.143   111496711.531                  
                                
 21  9  2  7 49  3.0000000  0 18G 1G 7G 8G 9G14G17G21G30R13R14R17R24
                                E 2E11E25E36C11C12
  21634372.692   113689394.953    21634369.797    88589128.205    21634369.797  
  21634369.726    84897913.250  
  20096364.996   105607110.499    20096358.581    82291226.624    20096358.206  
                                
  22083056.479   116047244.976    22083053.405    90426408.417    22083052.744  
  22083052.690    86658640.657  
  24120879.491   126756076.686    24120876.007    98770953.410    24120875.810  
  24120877.222    94655502.080  
  22837721.677   120013037.394    22837715.941    93516629.016    22837715.745  
  22837720.480    89620120.340  
  22970627.718   120711463.767    22970622.285    94060856.238    22970621.946  
                                
  21421345.205   112569928.773                    87716798.187    21421338.093  
                                
  21254764.312   111694540.231    21254760.541    87034688.413    21254759.934  
  21254760.988    83408247.068  
  20497276.236   109454311.284    20497275.414    85131127.805    20497274.181  
                                
  20251376.001   107951229.531    20251375.733    83962066.836    20251374.893  
                                
  21983714.807   117639298.228    21983713.234    91497226.370    21983712.377  
                                
  19332810.227   103381224.499    19332808.744    80407613.246    19332807.546  
                                
  24146468.379   126890548.751                                                  
  24146467.146    94755922.883  
  23354228.127   122727297.955                                                  
  23354224.571    91646993.464  
  24506036.757   128780092.827                                                  
  24506037.025    96166953.056  
  24357756.870   128000876.884                                                  
  24357757.853    95585073.931  
                 121897321.429    23409099.018   121897321.429                  
                                
                 111496632.481    21411755.972   111496632.481                  
                                
 21  9  2  7 49  4.0000000  0 18G 1G 7G 8G 9G14G17G21G30R13R14R17R24
                                E 2E11E25E36C11C12
  21633857.099   113686685.515    21633854.204    88587016.963    21633854.204  
  21633854.133    84895889.986  
  20096364.085   105607105.657    20096357.670    82291222.849    20096357.259  
                                
  22083592.049   116050059.403    22083588.975    90428601.477    22083588.314  
  22083588.261    86660742.346  
  24121484.286   126759254.823    24121480.802    98773429.880    24121480.605  
  24121482.017    94657875.385  
  22837319.642   120010924.700    22837313.906    93514982.768    22837313.710  
  22837318.445    89618542.678  
  22970110.660   120708746.612    22970105.210    94058738.969    22970104.870  
                                
  21421301.676   112569699.957                    87716619.886    21421294.546  
                                
  21254376.500   111692502.265    21254372.730    87033100.390    21254372.104  
  21254373.194    83406725.217  
  20497504.602   109455530.728    20497503.780    85132076.250    20497502.547  
                                
  20251010.365   107949280.396    20251010.079    83960550.843    20251009.239  
                                
  21982939.613   117635149.946    21982938.023    91493999.922    21982937.147  
                                
  19332608.521   103380145.868    19332607.038    80406774.309    19332605.841  
                                
  24146272.963   126889521.776                                                  
  24146271.712    94755155.988  
  23354389.770   122728147.358                                                  
  23354386.214    91647627.751  
  24506169.667   128780791.226                                                  
  24506169.917    96167474.583  
  24357405.512   127999030.591                                                  
  24357406.512    95583695.201  
                 121894584.535    23408573.419   121894584.535                  
                                
                 111496553.811    21411740.855   111496553.811                  
                                
 21  9  2  7 49  5.0000000  0 18G 1G 7G 8G 9G14G17G21G30R13R14R17R24
                                E 2E11E25E36C11C12
  21633341.631   113683976.561    21633338.701    88584906.093    21633338.701  
  21633338.647    84893867.068  
  20096363.263   105607101.440    20096356.866    82291219.563    20096356.473  
                                
  22084127.655   116052874.076    22084124.617    90430794.729    22084123.938  
  22084123.867    86662844.219  
  24122089.081   126762433.048    24122085.596    98775906.423    24122085.400  
  24122086.812    94660248.709  
  22836917.625   120008812.085    22836911.889    93513336.576    22836911.674  
  22836916.428    89616965.085  
  22969593.673   120706029.776    22969588.205    94056621.954    22969587.866  
                                
  21421258.254   112569471.786                    87716442.095    21421251.142  
                                
  21253988.760   111690464.745    21253985.008    87031512.710    21253984.382  
  21253985.454    83405203.688  
  20497733.058   109456750.617    20497732.236    85133025.057    20497731.003  
                                
  20250644.765   107947331.550    20250644.497    83959035.074    20250643.657  
                                
  21982164.455   117631001.975    21982162.882    91490773.726    21982162.025  
                                
  19332406.976   103379068.154    19332405.493    80405936.086    19332404.296  
                                
  24146077.547   126888494.889                                                  
  24146076.314    94754389.153  
  23354551.503   122728997.268                                                  
  23354547.947    91648262.424  
  24506302.576   128781489.748                                                  
  24506302.827    96167996.211  
  24357054.242   127997184.700                                                  
  24357055.243    95582316.778  
                 121891847.970    23408047.891   121891847.970                  
                                
                 111496475.711    21411725.863   111496475.711                  
                                
 21  9  2  7 49  6.0000000  0 18G 1G 7G 8G 9G14G17G21G30R13R14R17R24
                                E 2E11E25E36C11C12
  21632826.199   113681268.045    21632823.305    88582795.560    21632823.305  
  21632823.215    84891844.474  
  20096362.566   105607097.810    20096356.169    82291216.734    20096355.776  
                                
  22084663.297   116055688.954    22084660.259    90432988.140    22084659.580  
  22084659.526    86664946.240  
  24122693.840   126765611.217    24122690.391    98778382.923    24122690.195  
  24122691.589    94662622.034  
  22836515.625   120006699.529    22836509.890    93511690.431    22836509.657  
  22836514.410    89615387.535  
  22969076.740   120703313.260    22969071.272    94054505.189    22969070.933  
                                
  21421214.957   112569244.237                    87716264.785    21421207.810  
                                
  21253601.128   111688427.648    21253597.375    87029925.359    21253596.750  
  21253597.804    83403682.488  
  20497961.585   109457970.956    20497960.763    85133974.205    20497959.530  
                                
  20250279.200   107945382.919    20250278.914    83957519.474    20250278.074  
                                
  21981389.386   117626854.344    21981387.778    91487547.791    21981386.920  
                                
  19332205.593   103377991.290    19332204.109    80405098.528    19332202.912  
                                
  24145882.150   126887468.041                                                  
  24145880.917    94753622.359  
  23354713.325   122729847.627                                                  
  23354709.769    91648897.426  
  24506435.522   128782188.390                                                  
  24506435.772    96168517.924  
  24356703.063   127995339.190                                                  
  24356704.063    95580938.642  
                 121889111.705    23407522.434   121889111.705                  
                                
                 111496398.129    21411710.960   111496398.129                  
                                
 21  9  2  7 49  7.0000000  0 18G 1G 7G 8G 9G14G17G21G30R13R14R17R24
                                E 2E11E25E36C11C12
  21632310.910   113678560.247    21632308.016    88580685.591    21632308.016  
  21632307.962    84889822.418  
  20096362.048   105607095.040    20096355.633    82291214.576    20096355.258  
                                
  22085199.046   116058504.287    22085195.990    90435181.907    22085195.329  
  22085195.276    86667048.593  
  24123298.689   126768789.641    24123295.204    98780859.620    24123295.008  
  24123296.419    94664995.546  
  22836113.680   120004587.319    22836107.926    93510044.560    22836107.729  
  22836112.465    89613810.229  
  22968559.896   120700597.328    22968554.464    94052388.874    22968554.125  
                                
  21421171.822   112569017.569                    87716088.160    21421164.692  
                                
  21253213.602   111686391.238    21253209.850    87028338.550    21253209.224  
  21253210.278    83402161.785  
  20498190.254   109459191.986    20498189.432    85134923.902    20498188.182  
                                
  20249913.725   107943434.805    20249913.457    83956004.274    20249912.617  
                                
  21980614.406   117622707.308    21980612.816    91484322.321    21980611.940  
                                
  19332004.423   103376915.544    19332002.940    80404261.839    19332001.743  
                                
  24145686.805   126886441.503                                                  
  24145685.572    94752855.787  
  23354875.289   122730698.696                                                  
  23354871.716    91649532.967  
  24506568.557   128782887.422                                                  
  24506568.789    96169039.922  
  24356352.008   127993494.328                                                  
  24356352.991    95579560.977  
                 121886375.995    23406997.049   121886375.995                  
                                
                 111496321.329    21411696.200   111496321.329                  
                                
 21  9  2  7 49  8.0000000  0 18G 1G 7G 8G 9G14G17G21G30R13R14R17R24
                                E 2E11E25E36C11C12
  21631795.818   113675853.339    21631792.905    88578576.314    21631792.905  
  21631792.834    84887801.017  
  20096361.726   105607093.309    20096355.293    82291213.224    20096354.918  
                                
  22085734.902   116061320.284    22085731.864    90437376.187    22085731.203  
  22085731.132    86669151.445  
  24123903.609   126771968.561    24123900.142    98783336.701    24123899.928  
  24123901.339    94667369.400  
  22835711.823   120002475.631    22835706.087    93508399.089    22835705.891  
  22835710.626    89612233.308  
  22968043.214   120697882.174    22968037.781    94050273.172    22968037.442  
                                
  21421128.900   112568791.980                    87715912.374    21421121.753  
                                
  21252826.255   111684355.693    21252822.485    87026752.414    21252821.859  
  21252822.932    83400641.731  
  20498419.067   109460413.900    20498418.245    85135874.277    20498416.994  
                                
  20249548.411   107941487.397    20249548.125    83954489.623    20249547.285  
                                
  21979839.588   117618561.090    21979837.997    91481097.485    21979837.140  
                                
  19331803.504   103375841.117    19331802.003    80403426.176    19331800.806  
                                
  24145491.551   126885415.488                                                  
  24145490.318    94752089.596  
  23355037.397   122731550.666                                                  
  23355033.841    91650169.176  
  24506701.681   128783587.015                                                  
  24506701.949    96169562.344  
  24356001.096   127991650.312                                                  
  24356002.097    95578183.949  
                 121883641.067    23406471.825   121883641.067                  
                                
                 111496245.491    21411681.655   111496245.491                  
                                
 21  9  2  7 49  9.0000000  0 18G 1G 7G 8G 9G14G17G21G30R13R14R17R24
                                E 2E11E25E36C11C12
  21631280.779   113673146.777    21631277.866    88576467.293    21631277.866  
  21631277.813    84885779.885  
  20096361.494   105607092.088    20096355.079    82291212.275    20096354.686  
                                
  22086270.794   116064136.392    22086267.756    90439570.559    22086267.095  
  22086267.006    86671254.383  
  24124508.511   126775147.350    24124505.044    98785813.662    24124504.830  
  24124506.242    94669743.159  
  22835309.985   120000363.911    22835304.249    93506753.586    22835304.034  
  22835308.770    89610656.368  
  22967526.584   120695167.240    22967521.134    94048157.645    22967520.795  
                                
  21421086.050   112568566.922                    87715737.000    21421078.938  
                                
  21252438.962   111682320.495    21252435.209    87025166.541    21252434.566  
  21252435.638    83399121.929  
  20498647.969   109461636.207    20498647.147    85136824.963    20498645.915  
                                
  20249183.096   107939540.140    20249182.811    83952975.091    20249181.971  
                                
  21979064.823   117614415.112    21979063.214    91477872.836    21979062.357  
                                
  19331602.710   103374767.503    19331601.226    80402591.140    19331600.029  
                                
  24145296.314   126884389.423                                                  
  24145295.081    94751323.383  
  23355199.594   122732403.036                                                  
  23355196.038    91650805.686  
  24506834.805   128784286.632                                                  
  24506835.073    96170084.785  
  24355650.255   127989806.584                                                  
  24355651.256    95576807.132  
                 121880906.354    23405946.672   121880906.354                  
                                
                 111496170.107    21411667.181   111496170.107                  
                                
 21  9  2  7 49 10.0000000  0 18G 1G 7G 8G 9G14G17G21G30R13R14R17R24
                                E 2E11E25E36C11C12
  21630765.776   113670440.408    21630762.863    88574358.437    21630762.863  
  21630762.810    84883758.897  
  20096361.315   105607091.205    20096354.918    82291211.587    20096354.525  
                                
  22086806.650   116066952.429    22086803.613    90441764.877    22086802.952  
  22086802.880    86673357.275  
  24125113.377   126778325.912    24125109.893    98788290.462    24125109.696  
  24125111.108    94672116.746  
  22834908.110   119998252.012    22834902.374    93505107.948    22834902.160  
  22834906.877    89609079.298  
  22967009.973   120692452.359    22967004.523    94046042.154    22967004.184  
                                
  21421043.308   112568342.217                    87715561.905    21421036.178  
                                
  21252051.705   111680285.455    21252047.952    87023580.795    21252047.327  
  21252048.399    83397602.272  
  20498876.907   109462858.651    20498876.068    85137775.750    20498874.835  
                                
  20248817.818   107937592.857    20248817.514    83951460.535    20248816.674  
                                
  21978290.040   117610269.167    21978288.449    91474648.211    21978287.574  
                                
  19331402.058   103373694.521    19331400.593    80401756.597    19331399.378  
                                
  24145101.005   126883363.158                                                  
  24145099.772    94750557.018  
  23355361.827   122733255.604                                                  
  23355358.271    91651442.353  
  24506967.912   128784986.111                                                  
  24506968.180    96170607.120  
  24355299.415   127987962.984                                                  
  24355300.416    95575430.425  
                 121878171.700    23405421.502   121878171.700                  
                                
                 111496095.008    21411652.743   111496095.008                  
                                
 21  9  2  7 49 11.0000000  0 18G 1G 7G 8G 9G14G17G21G30R13R14R17R24
                                E 2E11E25E36C11C12
  21630250.809   113667734.225    21630247.896    88572249.722    21630247.878  
  21630247.824    84881738.046  
  20096361.226   105607090.647    20096354.793    82291211.150    20096354.418  
                                
  22087342.525   116069768.399    22087339.487    90443959.139    22087338.808  
  22087338.754    86675460.112  
  24125718.172   126781504.172    24125714.706    98790767.033    24125714.509  
  24125715.903    94674490.130  
  22834506.182   119996139.916    22834500.446    93503462.159    22834500.250  
  22834504.967    89607502.086  
  22966493.344   120689737.536    22966487.912    94043926.707    22966487.572  
                                
  21421000.618   112568117.893                    87715387.100    21420993.507  
                                
  21251664.483   111678250.600    21251660.730    87021995.191    21251660.105  
  21251661.177    83396082.726  
  20499105.863   109464081.289    20499105.041    85138726.684    20499103.808  
                                
  20248452.504   107935645.574    20248452.200    83949945.977    20248451.360  
                                
  21977515.292   117606123.281    21977513.684    91471423.631    21977512.826  
                                
  19331201.532   103372622.149    19331200.031    80400922.534    19331198.834  
                                
  24144905.679   126882336.685                                                  
  24144904.446    94749790.498  
  23355524.131   122734108.399                                                  
  23355520.576    91652079.165  
  24507101.000   128785685.445                                                  
  24507101.232    96171129.357  
  24354948.628   127986119.520                                                  
  24354949.629    95574053.808  
                 121875437.086    23404896.331   121875437.086                  
                                
                 111496020.162    21411638.358   111496020.162                  
                                
 21  9  2  7 49 12.0000000  0 18G 1G 7G 8G 9G14G17G21G30R13R14R17R24
                                E 2E11E25E36C11C12
  21629735.895   113665028.343    21629732.982    88570141.243    21629732.982  
  21629732.929    84879717.418  
  20096361.190   105607090.527    20096354.793    82291211.059    20096354.382  
                                
  22087878.399   116072584.408    22087875.361    90446153.434    22087874.682  
  22087874.628    86677562.973  
  24126322.967   126784682.297    24126319.483    98793243.501    24126319.286  
  24126320.680    94676863.388  
  22834104.237   119994027.718    22834098.501    93501816.295    22834098.286  
  22834103.021    89605924.808  
  22965976.768   120687022.884    22965971.336    94041811.398    22965970.997  
                                
  21420958.019   112567894.018                    87715212.657    21420950.907  
                                
  21251277.333   111676216.000    21251273.544    87020409.789    21251272.937  
  21251274.009    83394563.385  
  20499334.873   109465304.189    20499334.051    85139677.829    20499332.818  
                                
  20248087.207   107933698.371    20248086.921    83948431.490    20248086.081  
                                
  21976740.545   117601977.551    21976738.955    91468199.179    21976738.097  
                                
  19331001.113   103371550.464    19330999.630    80400089.001    19330998.433  
                                
  24144710.317   126881310.103                                                  
  24144709.084    94749023.895  
  23355686.472   122734961.490                                                  
  23355682.898    91652716.214  
  24507234.071   128786384.736                                                  
  24507234.303    96171651.553  
  24354597.877   127984276.275                                                  
  24354598.860    95572677.363  
                 121872702.623    23404371.214   121872702.623                  
                                
                 111495945.703    21411624.099   111495945.703                  
                                
 21  9  2  7 49 13.0000000  0 18G 1G 7G 8G 9G14G17G21G30R13R14R17R24
                                E 2E11E25E36C11C12
  21629221.070   113662322.979    21629218.158    88568033.171    21629218.158  
  21629218.104    84877697.178  
  20096361.297   105607091.081    20096354.882    82291211.493    20096354.489  
                                
  22088414.309   116075400.680    22088411.271    90448347.931    22088410.610  
  22088410.538    86679666.040  
  24126927.744   126787860.457    24126924.260    98795719.989    24126924.063  
  24126925.457    94679236.703  
  22833702.344   119991915.693    22833696.608    93500170.561    22833696.376  
  22833701.129    89604347.649  
  22965460.246   120684308.622    22965454.832    94039696.396    22965454.493  
                                
  21420915.544   112567670.853                    87715038.764    21420908.432  
                                
  21250890.254   111674181.911    21250886.483    87018824.787    21250885.858  
  21250886.930    83393044.422  
  20499563.989   109466527.635    20499563.167    85140629.400    20499561.916  
                                
  20247721.982   107931751.508    20247721.696    83946917.265    20247720.856  
                                
  21975965.923   117597832.283    21975964.315    91464975.087    21975963.457  
                                
  19330800.891   103370479.704    19330799.390    80399256.188    19330798.175  
                                
  24144515.009   126880283.669                                                  
  24144513.758    94748257.400  
  23355848.901   122735815.118                                                  
  23355845.345    91653353.668  
  24507367.177   128787084.229                                                  
  24507367.409    96172173.897  
  24354247.198   127982433.506                                                  
  24354248.198    95571301.263  
                 121869968.562    23403846.169   121869968.562                  
                                
                 111495871.831    21411609.893   111495871.831                  
                                
 21  9  2  7 49 14.0000000  0 18G 1G 7G 8G 9G14G17G21G30R13R14R17R24
                                E 2E11E25E36C11C12
  21628706.371   113659618.239    21628703.476    88565925.580    21628703.458  
  21628703.405    84875677.403  
  20096361.548   105607092.402    20096355.133    82291212.525    20096354.739  
                                
  22088950.308   116078217.316    22088947.252    90450542.715    22088946.573  
  22088946.502    86681769.366  
  24127532.557   126791038.802    24127529.091    98798196.619    24127528.912  
  24127530.288    94681610.138  
  22833300.488   119989803.917    22833294.716    93498525.023    22833294.520  
  22833299.255    89602770.665  
  22964943.832   120681594.841    22964938.417    94037581.759    22964938.078  
                                
  21420873.230   112567448.478                    87714865.490    21420866.100  
                                
  21250503.282   111672148.423    21250499.512    87017240.246    21250498.886  
  21250499.959    83391525.897  
  20499793.213   109467751.666    20499792.391    85141581.438    20499791.140  
                                
  20247356.829   107929805.082    20247356.543    83945403.381    20247355.703  
                                
  21975191.354   117593687.521    21975189.764    91461751.383    21975188.906  
                                
  19330600.829   103369409.968    19330599.346    80398424.171    19330598.149  
                                
  24144319.736   126879257.445                                                  
  24144318.467    94747491.062  
  23356011.455   122736669.377                                                  
  23356007.900    91653991.590  
  24507500.337   128787783.996                                                  
  24507500.587    96172696.454  
  24353896.643   127980591.277                                                  
  24353897.644    95569925.570  
                 121867234.989    23403321.230   121867234.989                  
                                
                 111495798.651    21411595.830   111495798.651                  
                                
 21  9  2  7 49 15.0000000  0 18G 1G 7G 8G 9G14G17G21G30R13R14R17R24
                                E 2E11E25E36C11C12
  21628191.779   113656913.986    21628188.866    88563818.372    21628188.848  
  21628188.795    84873657.996  
  20096361.905   105607094.359    20096355.508    82291214.050    20096355.133  
                                
  22089486.325   116081034.208    22089483.287    90452737.696    22089482.608  
  22089482.554    86683872.895  
  24128137.388   126794217.206    24128133.921    98800673.291    24128133.725  
  24128135.101    94683983.608  
  22832898.631   119987692.241    22832892.895    93496879.564    22832892.681  
  22832897.416    89601193.768  
  22964427.488   120678881.407    22964422.056    94035467.392    22964421.717  
                                
  21420831.041   112567226.769                    87714692.731    21420823.912  
                                
  21250116.418   111670115.393    21250112.665    87015656.067    21250112.022  
  21250113.094    83390007.732  
  20500022.526   109468976.186    20500021.704    85142533.840    20500020.436  
                                
  20246991.747   107927858.939    20246991.443    83943889.716    20246990.603  
                                
  21974416.875   117589543.145    21974415.285    91458527.986    21974414.427  
                                
  19330400.964   103368341.176    19330399.481    80397592.889    19330398.284  
                                
  24144124.445   126878231.318                                                  
  24144123.212    94746724.800  
  23356174.117   122737524.144                                                  
  23356170.561    91654629.888  
  24507633.533   128788483.944                                                  
  24507633.765    96173219.139  
  24353546.160   127978749.488                                                  
  24353547.143    95568550.210  
                 121864501.748    23402796.328   121864501.748                  
                                
                 111495726.047    21411581.874   111495726.047                  
                                
 21  9  2  7 49 16.0000000  0 18G 1G 7G 8G 9G14G17G21G30R13R14R17R24
                                E 2E11E25E36C11C12
  21627677.276   113654210.267    21627674.363    88561711.578    21627674.346  
  21627674.292    84871638.989  
  20096362.423   105607096.985    20096355.990    82291216.099    20096355.615  
                                
  22090022.413   116083851.375    22090019.376    90454932.891    22090018.697  
  22090018.643    86685976.624  
  24128742.219   126797395.657    24128738.770    98803150.003    24128738.555  
  24128739.967    94686357.137  
  22832496.811   119985580.723    22832491.075    93495234.230    22832490.878  
  22832495.613    89599616.990  
  22963911.216   120676168.403    22963905.784    94033353.364    22963905.445  
                                
  21420788.996   112567005.778                    87714520.533    21420781.866  
                                
  21249729.643   111668082.889    21249725.872    87014072.297    21249725.265  
  21249726.319    83388489.955  
  20500251.947   109470201.254    20500251.107    85143486.673    20500249.856  
                                
  20246626.700   107925913.114    20246626.432    83942376.302    20246625.593  
                                
  21973642.485   117585399.156    21973640.877    91455304.884    21973640.002  
                                
  19330201.278   103367273.373    19330199.795    80396762.379    19330198.597  
                                
  24143929.226   126877205.338                                                  
  24143927.975    94745958.646  
  23356336.868   122738379.451                                                  
  23356333.312    91655268.600  
  24507766.764   128789184.091                                                  
  24507767.014    96173741.972  
  24353195.766   127976908.186                                                  
  24353196.749    95567175.215  
                 121861768.922    23402271.515   121861768.922                  
                                
                 111495654.068    21411568.062   111495654.068                  
                                
 21  9  2  7 49 17.0000000  0 18G 1G 7G 8G 9G14G17G21G30R13R14R17R24
                                E 2E11E25E36C11C12
  21627162.863   113651506.992    21627159.950    88559605.132    21627159.932  
  21627159.861    84869620.314  
  20096363.031   105607100.225    20096356.634    82291218.623    20096356.223  
                                
  22090558.556   116086668.727    22090555.500    90457128.237    22090554.839  
  22090554.749    86688080.495  
  24129347.067   126800574.137    24129343.600    98805626.746    24129343.404  
  24129344.798    94688730.676  
  22832095.044   119983469.273    22832089.272    93493588.942    22832089.075  
  22832093.811    89598040.262  
  22963395.016   120673455.705    22963389.566    94031239.571    22963389.227  
                                
  21420747.057   112566785.425                    87714348.829    21420739.927  
                                
  21249342.939   111666050.804    21249339.187    87012488.850    21249338.561  
  21249339.651    83386972.487  
  20500481.438   109471426.757    20500480.599    85144439.849    20500479.348  
                                
  20246261.726   107923967.522    20246261.422    83940863.063    20246260.582  
                                
  21972868.131   117581255.470    21972866.523    91452082.021    21972865.665  
                                
  19330001.770   103366206.435    19330000.269    80395932.539    19329999.072  
                                
  24143734.007   126876179.420                                                  
  24143732.756    94745192.534  
  23356499.727   122739235.230                                                  
  23356496.153    91655907.662  
  24507900.014   128789884.356                                                  
  24507900.282    96174264.904  
  24352845.444   127975067.266                                                  
  24352846.445    95565800.499  
                 121859036.417    23401746.773   121859036.417                  
                                
                 111495582.621    21411554.338   111495582.621                  
                                
 21  9  2  7 49 18.0000000  0 18G 1G 7G 8G 9G14G17G21G30R13R14R17R24
                                E 2E11E25E36C11C12
  21626648.521   113648804.098    21626645.608    88557498.983    21626645.590  
  21626645.519    84867601.917  
  20096363.728   105607103.969    20096357.330    82291221.541    20096356.955  
                                
  22091094.698   116089486.200    22091091.642    90459323.670    22091090.981  
  22091090.909    86690184.459  
  24129951.898   126803752.535    24129948.413    98808103.408    24129948.217  
  24129949.628    94691104.141  
  22831693.241   119981357.814    22831687.487    93491943.654    22831687.273  
  22831692.008    89596463.530  
  22962878.852   120670743.242    22962873.402    94029125.961    22962873.062  
                                
  21420705.226   112566565.596                    87714177.539    21420698.096  
                                
  21248956.325   111664019.071    21248952.573    87010905.681    21248951.947  
  21248953.002    83385455.288  
  20500711.002   109472652.634    20500710.162    85145393.304    20500708.911  
                                
  20245896.751   107922022.099    20245896.483    83939349.956    20245895.625  
                                
  21972093.831   117577112.070    21972092.223    91448859.380    21972091.365  
                                
  19329802.370   103365140.283    19329800.905    80395103.307    19329799.689  
                                
  24143538.752   126875153.466                                                  
  24143537.519    94744426.404  
  23356662.638   122740091.428                                                  
  23356659.082    91656547.023  
  24508033.281   128790584.657                                                  
  24508033.531    96174787.853  
  24352495.194   127973226.654                                                  
  24352496.194    95564426.018  
                 121856304.117    23401222.049   121856304.117                  
                                
                 111495511.622    21411540.704   111495511.622                  
                                
 21  9  2  7 49 19.0000000  0 18G 1G 7G 8G 9G14G17G21G30R13R14R17R24
                                E 2E11E25E36C11C12
  21626134.268   113646101.659    21626131.338    88555393.177    21626131.320  
  21626131.284    84865583.848  
  20096364.567   105607108.336    20096358.170    82291224.941    20096357.777  
                                
  22091630.894   116092303.924    22091627.856    90461519.295    22091627.177  
  22091627.087    86692288.584  
  24130556.728   126806930.889    24130553.262    98810580.050    24130553.065  
  24130554.441    94693477.605  
  22831291.456   119979246.455    22831285.702    93490298.437    22831285.505  
  22831290.223    89594886.850  
  22962362.741   120668031.125    22962357.326    94027012.621    22962356.987  
                                
  21420663.519   112566346.431                    87714006.752    21420656.407  
                                
  21248569.782   111661987.796    21248566.030    87009322.874    21248565.405  
  21248566.477    83383938.418  
  20500940.637   109473878.978    20500939.815    85146347.130    20500938.564  
                                
  20245531.848   107920076.980    20245531.579    83937837.088    20245530.740  
                                
  21971319.620   117572969.050    21971318.011    91445637.031    21971317.136  
                                
  19329603.184   103364075.059    19329601.683    80394274.809    19329600.486  
                                
  24143343.551   126874127.604                                                  
  24143342.318    94743660.327  
  23356825.675   122740948.114                                                  
  23356822.119    91657186.744  
  24508166.566   128791285.104                                                  
  24508166.816    96175310.912  
  24352145.014   127971386.452                                                  
  24352146.015    95563051.840  
                 121853572.158    23400697.415   121853572.158                  
                                
                 111495441.187    21411527.195   111495441.187                  
                                
 21  9  2  7 49 20.0000000  0 18G 1G 7G 8G 9G14G17G21G30R13R14R17R24
                                E 2E11E25E36C11C12
  21625620.123   113643399.780    21625617.210    88553287.813    21625617.174  
  21625617.139    84863566.218  
  20096365.532   105607113.410    20096359.135    82291228.894    20096358.760  
                                
  22092167.143   116095121.934    22092164.087    90463715.149    22092163.426  
  22092163.355    86694392.959  
  24131161.559   126810109.401    24131158.093    98813056.806    24131157.896  
  24131159.290    94695851.163  
  22830889.707   119977135.278    22830883.971    93488653.357    22830883.774  
  22830888.491    89593310.322  
  22961846.719   120665319.416    22961841.305    94024899.594    22961840.965  
                                
  21420621.938   112566127.982                    87713836.529    21420614.826  
                                
  21248183.347   111659957.043    21248179.594    87007740.467    21248178.969  
  21248180.041    83382421.958  
  20501170.396   109475105.871    20501169.575    85147301.375    20501168.324  
                                
  20245167.034   107918132.232    20245166.748    83936324.503    20245165.890  
                                
  21970545.480   117568826.458    21970543.854    91442415.017    21970542.996  
                                
  19329404.159   103363010.788    19329402.675    80393447.040    19329401.478  
                                
  24143148.368   126873101.885                                                  
  24143147.099    94742894.371  
  23356988.820   122741805.369                                                  
  23356985.246    91657826.907  
  24508299.904   128791985.771                                                  
  24508300.137    96175834.137  
  24351794.924   127969546.747                                                  
  24351795.925    95561678.036  
                 121850840.624    23400172.852   121850840.624                  
                                
                 111495371.377    21411513.775   111495371.377                  
                                
 21  9  2  7 49 21.0000000  0 18G 1G 7G 8G 9G14G17G21G30R13R14R17R24
                                E 2E11E25E36C11C12
  21625106.049   113640698.274    21625103.118    88551182.743    21625103.100  
  21625103.065    84861548.858  
  20096366.587   105607118.982    20096360.190    82291233.232    20096359.796  
                                
  22092703.428   116097940.078    22092700.372    90465911.101    22092699.693  
  22092699.622    86696497.409  
  24131766.390   126813287.837    24131762.941    98815533.514    24131762.745  
  24131764.120    94698224.657  
  22830487.957   119975024.080    22830482.221    93487008.272    22830482.007  
  22830486.742    89591733.785  
  22961330.751   120662607.956    22961325.337    94022786.768    22961324.997  
                                
  21420580.482   112565910.073                    87713666.728    21420573.370  
                                
  21247796.983   111657926.657    21247793.213    87006158.346    21247792.605  
  21247793.659    83380905.754  
  20501400.246   109476333.134    20501399.406    85148255.911    20501398.137  
                                
  20244802.237   107916187.625    20244801.952    83934812.030    20244801.094  
                                
  21969771.358   117564684.095    21969769.768    91439193.174    21969768.892  
                                
  19329205.294   103361947.323    19329203.811    80392619.901    19329202.614  
                                
  24142953.167   126872076.148                                                  
  24142951.916    94742128.403  
  23357152.017   122742663.000                                                  
  23357148.461    91658467.345  
  24508433.261   128792686.473                                                  
  24508433.493    96176357.391  
  24351444.906   127967707.341                                                  
  24351445.907    95560304.453  
                 121848109.328    23399648.342   121848109.328                  
                                
                 111495302.018    21411500.463   111495302.018                  
                                
 21  9  2  7 49 22.0000000  0 18G 1G 7G 8G 9G14G17G21G30R13R14R17R24
                                E 2E11E25E36C11C12
  21624592.011   113637997.053    21624589.098    88549077.893    21624589.080  
  21624589.044    84859531.712  
  20096367.730   105607124.998    20096361.333    82291237.922    20096360.958  
                                
  22093239.695   116100758.232    22093236.658    90468107.070    22093235.978  
  22093235.889    86698601.876  
  24132371.185   126816466.068    24132367.736    98818010.066    24132367.540  
  24132368.915    94700598.024  
  22830086.190   119972912.791    22830080.436    93485363.117    22830080.240  
  22830084.975    89590157.180  
  22960814.819   120659896.649    22960809.386    94020674.066    22960809.047  
                                
  21420539.115   112565692.633                    87713497.292    21420531.985  
                                
  21247410.673   111655896.518    21247406.902    87004576.419    21247406.277  
  21247407.349    83379389.743  
  20501630.095   109477560.647    20501629.255    85149210.648    20501628.022  
                                
  20244437.441   107914243.087    20244437.155    83933299.611    20244436.316  
                                
  21968997.308   117560541.876    21968995.700    91435971.453    21968994.824  
                                
  19329006.555   103360884.566    19329005.054    80391793.317    19329003.857  
                                
  24142757.965   126871050.300                                                  
  24142756.697    94741362.343  
  23357315.269   122743520.927                                                  
  23357311.713    91659107.999  
  24508566.582   128793387.131                                                  
  24508566.832    96176880.610  
  24351094.923   127965868.169                                                  
  24351095.906    95558931.046  
                 121845378.189    23399123.868   121845378.189                  
                                
                 111495233.020    21411487.222   111495233.020                  
                                
 21  9  2  7 49 23.0000000  0 18G 1G 7G 8G 9G14G17G21G30R13R14R17R24
                                E 2E11E25E36C11C12
  21624078.062   113635296.183    21624075.131    88546973.319    21624075.113  
  21624075.078    84857514.831  
  20096368.963   105607131.506    20096362.584    82291242.993    20096362.191  
                                
  22093775.980   116103576.476    22093772.943    90470303.104    22093772.264  
  22093772.174    86700706.410  
  24132975.962   126819644.213    24132972.513    98820486.541    24132972.317  
  24132973.693    94702971.311  
  22829684.441   119970801.479    22829678.669    93483717.936    22829678.473  
  22829683.208    89588580.548  
  22960298.904   120657185.562    22960293.490    94018561.533    22960293.150  
                                
  21420497.838   112565475.713                    87713328.268    21420490.708  
                                
  21247024.398   111653866.716    21247020.628    87002994.755    21247020.002  
  21247021.092    83377873.982  
  20501860.051   109478788.560    20501859.229    85150165.689    20501857.961  
                                
  20244072.681   107912298.694    20244072.395    83931787.308    20244071.555  
                                
  21968223.257   117556399.904    21968221.667    91432749.922    21968220.809  
                                
  19328807.941   103359822.576    19328806.458    80390967.327    19328805.260  
                                
  24142562.746   126870024.394                                                  
  24142561.478    94740596.257  
  23357478.592   122744379.200                                                  
  23357475.000    91659748.932  
  24508699.920   128794087.807                                                  
  24508700.170    96177403.842  
  24350744.994   127964029.282                                                  
  24350745.977    95557557.858  
                 121842647.242    23398599.413   121842647.242                  
                                
                 111495164.437    21411474.017   111495164.437                  
                                
 21  9  2  7 49 24.0000000  0 18G 1G 7G 8G 9G14G17G21G30R13R14R17R24
                                E 2E11E25E36C11C12
  21623564.202   113632595.751    21623561.254    88544869.100    21623561.236  
  21623561.200    84855498.279  
  20096370.321   105607138.616    20096363.942    82291248.536    20096363.531  
                                
  22094312.319   116106394.920    22094309.281    90472499.296    22094308.602  
  22094308.513    86702811.096  
  24133580.739   126822822.338    24133577.290    98822963.004    24133577.094  
  24133578.470    94705344.590  
  22829282.674   119968690.235    22829276.920    93482072.815    22829276.706  
  22829281.441    89587003.976  
  22959783.061   120654474.798    22959777.647    94016449.244    22959777.307  
                                
  21420456.685   112565259.420                    87713159.733    21420449.538  
                                
  21246638.213   111651837.333    21246634.460    87001413.430    21246633.835  
  21246634.925    83376358.538  
  20502090.061   109480016.858    20502089.222    85151121.029    20502087.989  
                                
  20243707.956   107910354.542    20243707.670    83930275.188    20243706.831  
                                
  21967449.314   117552258.292    21967447.706    91429528.670    21967446.831  
                                
  19328609.505   103358761.461    19328608.022    80390142.011    19328606.807  
                                
  24142367.509   126868998.555                                                  
  24142366.276    94739830.200  
  23357642.004   122745237.940                                                  
  23357638.430    91660390.204  
  24508833.277   128794788.600                                                  
  24508833.509    96177927.161  
  24350395.137   127962190.774                                                  
  24350396.137    95556184.952  
                 121839916.603    23398075.028   121839916.603                  
                                
                 111495096.404    21411460.972   111495096.404                  
                                
 21  9  2  7 49 25.0000000  0 18G 1G 7G 8G 9G14G17G21G30R13R14R17R24
                                E 2E11E25E36C11C12
  21623050.396   113629895.718    21623047.448    88542765.179    21623047.430  
  21623047.394    84853482.023  
  20096371.769   105607146.252    20096365.389    82291254.486    20096364.996  
                                
  22094848.694   116109213.505    22094845.620    90474695.598    22094844.941  
  22094844.870    86704915.883  
  24134185.516   126826000.422    24134182.067    98825439.420    24134181.835  
  24134183.247    94707717.830  
  22828880.925   119966579.013    22828875.171    93480427.712    22828874.956  
  22828879.692    89585427.412  
  22959267.254   120651764.268    22959261.858    94014337.139    22959261.518  
                                
  21420415.622   112565043.697                    87712991.637    21420408.510  
                                
  21246252.117   111649808.321    21246248.364    86999832.379    21246247.721  
  21246248.793    83374843.373  
  20502320.179   109481245.591    20502319.339    85152076.710    20502318.088  
                                
  20243343.267   107908410.587    20243342.999    83928763.225    20243342.160  
                                
  21966675.407   117548116.957    21966673.781    91426307.632    21966672.923  
                                
  19328411.248   103357701.171    19328409.747    80389317.345    19328408.550  
                                
  24142172.308   126867972.713                                                  
  24142171.057    94739064.153  
  23357805.505   122746097.118                                                  
  23357801.914    91661031.790  
  24508966.651   128795489.458                                                  
  24508966.866    96178450.529  
  24350045.333   127960352.624                                                  
  24350046.333    95554812.301  
                 121837186.211    23397550.662   121837186.211                  
                                
                 111495028.833    21411447.982   111495028.833                  
                                
