     2.11           OBSERVATION DATA    M (MIXED)           RINEX VERSION / TYPE
CONVBIN 2.4.3                           20210901 190827 UTC PGM / RUN BY / DATE 
log: logs/21_09_01_09_12_19_pass_SW.rtcm                    COMMENT             
format: RTCM 3, station ID: 1171                            COMMENT             
1171                                                        MARKER NAME         
                                                            MARKER NUMBER       
                                                            OBSERVER / AGENCY   
                    SWFT                                    REC # / TYPE / VERS 
                    NULL                                    ANT # / TYPE        
  1174954.0883 -4768561.4199  4055921.6518                  APPROX POSITION XYZ 
        0.0000        0.0000        0.0000                  ANTENNA: DELTA H/E/N
     1     1                                                WAVELENGTH FACT L1/2
     5    C1    L1    P2    L2    C2                        # / TYPES OF OBSERV 
  2021     9     1     9    12   24.0000000     GPS         TIME OF FIRST OBS   
  2021     9     1     9    42   22.0000000     GPS         TIME OF LAST OBS    
                                                            END OF HEADER       
 21  9  1  9 12 24.0000000  0 15G 1G 7G 8G13G14G17G19G21G30C23C25C28
                                C34E21E27
  20218640.040   106249633.032    20218642.738    82791911.503                  
  21886838.578   115016121.529    21886838.274    89622953.638                  
  24021043.526   126231394.427    24021045.903    98362115.300                  
  24323099.525   127818762.899    24323098.900    99599038.856                  
  21007830.961   110396911.933    21007830.925    86023573.625                  
  21660403.337   113826201.737    21660402.712    88695744.520                  
  23809343.922   125118961.367    23809342.082    97495298.703                  
  21890343.658   115034540.175    21890342.372    89637306.578                  
  20955733.074   110123083.737    20955735.022    85810185.898                  
                 114289684.979                   114289684.979    21948122.894  
                 124227353.818                   124227353.818    23856554.864  
                 121844022.577                   121844022.577    23398862.820  
                 126638426.369                   126638426.369    24319577.719  
  24705518.381   129828356.393                                                  
  23530190.847   123651976.375                                                  
 21  9  1  9 12 25.0000000  0 15G 1G 7G 8G13G14G17G19G21G30C23C25C28
                                C34E21E27
  20218608.680   106249468.245    20218611.378    82791783.102                  
  21887415.193   115019151.702    21887414.907    89625314.812                  
  24021615.961   126234402.583    24021618.337    98364459.317                  
  24323329.374   127819970.874    24323328.785    99599980.137                  
  21007493.004   110395135.925    21007492.968    86022189.723                  
  21660096.973   113824591.796    21660096.365    88694490.020                  
  23808774.311   125115968.153    23808772.489    97492966.329                  
  21890733.239   115036587.423    21890731.952    89638901.835                  
  20955955.847   110124254.345    20955957.777    85811098.062                  
                 114289837.477                   114289837.477    21948152.181  
                 124230133.839                   124230133.839    23857088.719  
                 121841749.801                   121841749.801    23398426.351  
                 126641082.042                   126641082.042    24320087.719  
  24705179.155   129826573.792                                                  
  23530302.296   123652562.118                                                  
 21  9  1  9 12 26.0000000  0 15G 1G 7G 8G13G14G17G19G21G30C23C25C28
                                C34E21E27
  20218577.481   106249304.215    20218580.161    82791655.285                  
  21887991.898   115022182.265    21887991.594    89627676.290                  
  24022188.377   126237410.745    24022190.771    98366803.339                  
  24323559.366   127821179.356    24323558.741    99600921.810                  
  21007155.083   110393360.191    21007155.047    86020806.034                  
  21659790.680   113822982.157    21659790.055    88693235.758                  
  23808204.772   125112975.121    23808202.914    97490634.099                  
  21891122.908   115038635.122    21891121.640    89640497.445                  
  20956178.727   110125425.586    20956180.657    85812010.715                  
                 114289990.481                   114289990.481    21948181.558  
                 124232914.152                   124232914.152    23857622.663  
                 121839477.329                   121839477.329    23397989.954  
                 126643737.841                   126643737.841    24320597.737  
  24704839.984   129824791.347                                                  
  23530413.816   123653148.148                                                  
 21  9  1  9 12 27.0000000  0 15G 1G 7G 8G13G14G17G19G21G30C23C25C28
                                C34E21E27
  20218546.406   106249140.922    20218549.105    82791528.043                  
  21888568.675   115025213.228    21888568.389    89630038.074                  
  24022760.829   126240418.909    24022763.223    98369147.364                  
  24323789.412   127822388.349    24323788.805    99601863.880                  
  21006817.215   110391584.723    21006817.180    86019422.555                  
  21659484.441   113821372.818    21659483.797    88691981.723                  
  23807635.233   125109982.263    23807633.392    97488301.999                  
  21891512.668   115040683.279    21891511.381    89642093.414                  
  20956401.715   110126597.452    20956403.663    85812923.860                  
                 114290143.989                   114290143.989    21948211.042  
                 124235694.749                   124235694.749    23858156.643  
                 121837205.152                   121837205.152    23397553.628  
                 126646393.759                   126646393.759    24321107.772  
  24704500.812   129823009.054                                                  
  23530525.409   123653734.474                                                  
 21  9  1  9 12 28.0000000  0 15G 1G 7G 8G13G14G17G19G21G30C23C25C28
                                C34E21E27
  20218515.475   106248978.386    20218518.155    82791401.391                  
  21889145.522   115028244.566    21889145.219    89632400.160                  
  24023333.263   126243427.062    24023335.640    98371491.379                  
  24324019.583   127823597.835    24324018.958    99602806.341                  
  21006479.419   110389809.532    21006479.384    86018039.285                  
  21659178.237   113819763.775    21659177.612    88690727.921                  
  23807065.765   125106989.589    23807063.924    97485970.050                  
  21891902.498   115042731.890    21891901.212    89643689.735                  
  20956624.845   110127769.946    20956626.775    85813837.489                  
                 114290298.004                   114290298.004    21948240.615  
                 124238475.637                   124238475.637    23858690.676  
                 121834933.278                   121834933.278    23397117.320  
                 126649049.793                   126649049.793    24321617.844  
  24704161.675   129821226.910                                                  
  23530637.018   123654321.094                                                  
 21  9  1  9 12 29.0000000  0 15G 1G 7G 8G13G14G17G19G21G30C23C25C28
                                C34E21E27
  20218484.687   106248816.595    20218487.385    82791275.321                  
  21889722.442   115031276.297    21889722.138    89634762.546                  
  24023905.679   126246435.207    24023908.074    98373835.388                  
  24324249.826   127824807.831    24324249.218    99603749.193                  
  21006141.659   110388034.607    21006141.623    86016656.226                  
  21658872.105   113818155.031    21658871.480    88689474.359                  
  23806496.297   125103997.103    23806494.456    97483638.238                  
  21892292.418   115044780.957    21892291.132    89645286.410                  
  20956848.083   110128943.074    20956850.013    85814751.617                  
                 114290452.526                   114290452.526    21948270.295  
                 124241256.813                   124241256.813    23859224.782  
                 121832661.704                   121832661.704    23396681.102  
                 126651705.946                   126651705.946    24322127.915  
  24703822.575   129819444.925                                                  
  23530748.700   123654908.004                                                  
 21  9  1  9 12 30.0000000  0 15G 1G 7G 8G13G14G17G19G21G30C23C25C28
                                C34E21E27
  20218454.041   106248655.558    20218456.740    82791149.835                  
  21890299.432   115034308.418    21890299.146    89637125.233                  
  24024478.113   126249443.351    24024480.508    98376179.394                  
  24324480.175   127826018.329    24324479.568    99604692.438                  
  21005803.953   110386259.961    21005803.917    86015273.388                  
  21658566.044   113816546.589    21658565.401    88688221.032                  
  23805926.900   125101004.790    23805925.042    97481306.566                  
  21892682.427   115046830.484    21892681.159    89646883.442                  
  20957071.446   110130116.833    20957073.376    85815666.234                  
                 114290607.554                   114290607.554    21948300.065  
                 124244038.277                   124244038.277    23859758.922  
                 121830390.426                   121830390.426    23396244.919  
                 126654362.219                   126654362.219    24322638.040  
  24703483.528   129817663.090                                                  
  23530860.453   123655495.219                                                  
 21  9  1  9 12 31.0000000  0 15G 1G 7G 8G13G14G17G19G21G30C23C25C28
                                C34E21E27
  20218423.539   106248495.273    20218426.237    82791024.942                  
  21890876.495   115037340.918    21890876.209    89639488.223                  
  24025050.565   126252451.504    24025052.942    98378523.409                  
  24324710.614   127827229.335    24324710.024    99605636.079                  
  21005466.299   110384485.582    21005466.264    86013890.755                  
  21658260.020   113814938.456    21658259.394    88686967.937                  
  23805357.504   125098012.668    23805355.663    97478975.047                  
  21893072.526   115048880.464    21893071.257    89648480.833                  
  20957294.898   110131291.211    20957296.864    85816581.332                  
                 114290763.091                   114290763.091    21948329.942  
                 124246820.031                   124246820.031    23860293.135  
                 121828119.453                   121828119.453    23395808.807  
                 126657018.614                   126657018.614    24323148.182  
  24703144.481   129815881.410                                                  
  23530972.259   123656082.725                                                  
 21  9  1  9 12 32.0000000  0 15G 1G 7G 8G13G14G17G19G21G30C23C25C28
                                C34E21E27
  20218393.180   106248335.739    20218395.878    82790900.630                  
  21891453.646   115040373.806    21891453.342    89641851.512                  
  24025622.982   126255459.657    24025625.376    98380867.422                  
  24324941.160   127828440.831    24324940.553    99606580.101                  
  21005128.700   110382711.479    21005128.664    86012508.339                  
  21657954.066   113813330.619    21657953.423    88685715.079                  
  23804788.161   125095020.722    23804786.321    97476643.660                  
  21893462.696   115050930.886    21893461.445    89650078.562                  
  20957518.493   110132466.225    20957520.459    85817496.930                  
                 114290919.134                   114290919.134    21948359.909  
                 124249602.074                   124249602.074    23860827.401  
                 121825848.777                   121825848.777    23395372.732  
                 126659675.125                   126659675.125    24323658.325  
  24702805.452   129814099.883                                                  
  23531084.101   123656670.524                                                  
 21  9  1  9 12 33.0000000  0 15G 1G 7G 8G13G14G17G19G21G30C23C25C28
                                C34E21E27
  20218362.963   106248176.953    20218365.661    82790776.898                  
  21892030.851   115043407.087    21892030.565    89644215.105                  
  24026195.416   126258467.810    24026197.793    98383211.437                  
  24325171.796   127829652.840    24325171.206    99607524.524                  
  21004791.154   110380937.649    21004791.101    86011126.132                  
  21657648.149   113811723.081    21657647.523    88684462.452                  
  23804218.836   125092028.949    23804216.996    97474312.411                  
  21893852.974   115052981.760    21893851.705    89651676.649                  
  20957742.213   110133641.868    20957744.179    85818413.011                  
                 114291075.679                   114291075.679    21948389.964  
                 124252384.401                   124252384.401    23861361.720  
                 121823578.407                   121823578.407    23394936.745  
                 126662331.755                   126662331.755    24324168.504  
  24702466.477   129812318.512                                                  
  23531196.015   123657258.614                                                  
 21  9  1  9 12 34.0000000  0 15G 1G 7G 8G13G14G17G19G21G30C23C25C28
                                C34E21E27
  20218332.907   106248018.918    20218335.588    82790653.754                  
  21892608.146   115046440.755    21892607.842    89646579.004                  
  24026767.868   126261475.968    24026770.245    98385555.462                  
  24325402.538   127830865.342    24325401.913    99608469.329                  
  21004453.662   110379164.095    21004453.626    86009744.142                  
  21657342.302   113810115.848    21657341.677    88683210.063                  
  23803649.565   125089037.358    23803647.724    97471981.301                  
  21894243.340   115055033.098    21894242.054    89653275.089                  
  20957966.059   110134818.148    20957968.024    85819329.594                  
                 114291232.740                   114291232.740    21948420.127  
                 124255167.020                   124255167.020    23861896.075  
                 121821308.333                   121821308.333    23394500.795  
                 126664988.505                   126664988.505    24324678.700  
  24702127.519   129810537.293                                                  
  23531307.982   123657847.001                                                  
 21  9  1  9 12 35.0000000  0 15G 1G 7G 8G13G14G17G19G21G30C23C25C28
                                C34E21E27
  20218302.959   106247861.637    20218305.657    82790531.196                  
  21893185.494   115049474.813    21893185.208    89648943.203                  
  24027340.284   126264484.142    24027342.679    98387899.488                  
  24325633.353   127832078.346    24325632.763    99609414.527                  
  21004116.223   110377390.808    21004116.152    86008362.359                  
  21657036.528   113808508.909    21657035.884    88681957.907                  
  23803080.311   125086045.958    23803078.489    97469650.335                  
  21894633.778   115057084.882    21894632.492    89654873.882                  
  20958190.029   110135995.046    20958191.959    85820246.656                  
                 114291390.297                   114291390.297    21948450.379  
                 124257949.926                   124257949.926    23862430.520  
                 121819038.558                   121819038.558    23394064.898  
                 126667645.376                   126667645.376    24325188.914  
  24701788.598   129808756.215                                                  
  23531420.003   123658435.686                                                  
 21  9  1  9 12 36.0000000  0 15G 1G 7G 8G13G14G17G19G21G30C23C25C28
                                C34E21E27
  20218273.171   106247705.093    20218275.852    82790409.216                  
  21893762.932   115052509.250    21893762.646    89651307.699                  
  24027912.718   126267492.315    24027915.113    98390243.524                  
  24325864.274   127833291.844    24325863.684    99610360.109                  
  21003778.820   110375617.794    21003778.785    86006980.790                  
  21656730.789   113806902.255    21656730.163    88680705.964                  
  23802511.094   125083054.719    23802509.253    97467319.504                  
  21895024.306   115059137.118    21895023.037    89656473.027                  
  20958414.106   110137172.579    20958416.036    85821164.214                  
                 114291548.367                   114291548.367    21948480.739  
                 124260733.123                   124260733.123    23862965.000  
                 121816769.086                   121816769.086    23393629.072  
                 126670302.358                   126670302.358    24325699.182  
  24701449.694   129806975.298                                                  
  23531532.078   123659024.659                                                  
 21  9  1  9 12 37.0000000  0 15G 1G 7G 8G13G14G17G19G21G30C23C25C28
                                C34E21E27
  20218243.526   106247549.309    20218246.225    82790287.823                  
  21894340.458   115055544.077    21894340.137    89653672.500                  
  24028485.153   126270500.492    24028487.565    98392587.556                  
  24326095.302   127834505.854    24326094.695    99611306.094                  
  21003441.471   110373845.052    21003441.435    86005599.431                  
  21656425.103   113805295.890    21656424.460    88679454.249                  
  23801941.912   125080063.665    23801940.071    97464988.813                  
  21895414.923   115061189.812    21895413.636    89658072.530                  
  20958638.291   110138350.742    20958640.239    85822082.261                  
                 114291706.942                   114291706.942    21948511.206  
                 124263516.601                   124263516.601    23863499.534  
                 121814499.913                   121814499.913    23393193.301  
                 126672959.469                   126672959.469    24326209.432  
  24701110.826   129805194.542                                                  
  23531644.224   123659613.929                                                  
 21  9  1  9 12 38.0000000  0 15G 1G 7G 8G13G14G17G19G21G30C23C25C28
                                C34E21E27
  20218214.025   106247394.274    20218216.723    82790167.016                  
  21894918.039   115058579.288    21894917.717    89656037.602                  
  24029057.605   126273508.657    24029059.981    98394931.578                  
  24326326.420   127835720.358    24326325.795    99612252.458                  
  21003104.175   110372072.581    21003104.140    86004218.284                  
  21656119.454   113803689.823    21656118.846    88678202.773                  
  23801372.783   125077072.793    23801370.943    97462658.261                  
  21895805.629   115063242.948    21895804.342    89659672.379                  
  20958862.601   110139529.531    20958864.567    85823000.800                  
                 114291866.023                   114291866.023    21948541.744  
                 124266300.374                   124266300.374    23864034.140  
                 121812231.040                   121812231.040    23392757.600  
                 126675616.692                   126675616.692    24326719.736  
  24700771.993   129803413.925                                                  
  23531756.406   123660203.492                                                  
 21  9  1  9 12 39.0000000  0 15G 1G 7G 8G13G14G17G19G21G30C23C25C28
                                C34E21E27
  20218184.666   106247239.983    20218187.364    82790046.792                  
  21895495.673   115061614.887    21895495.387    89658403.001                  
  24029630.039   126276516.821    24029632.415    98397275.602                  
  24326557.628   127836935.372    24326557.020    99613199.222                  
  21002766.933   110370300.385    21002766.898    86002837.355                  
  21655813.893   113802084.075    21655813.286    88676951.538                  
  23800803.673   125074082.109    23800801.814    97460327.860                  
  21896196.407   115065296.546    21896195.138    89661272.583                  
  20959087.036   110140708.956    20959089.002    85823919.832                  
                 114292025.613                   114292025.613    21948572.371  
                 124269084.429                   124269084.429    23864568.781  
                 121809962.470                   121809962.470    23392321.936  
                 126678274.035                   126678274.035    24327230.057  
  24700433.179   129801633.472                                                  
  23531868.659   123660793.342                                                  
 21  9  1  9 12 40.0000000  0 15G 1G 7G 8G13G14G17G19G21G30C23C25C28
                                C34E21E27
  20218155.432   106247086.450    20218158.148    82789927.156                  
  21896073.414   115064650.876    21896073.128    89660768.707                  
  24030202.455   126279524.983    24030204.867    98399619.624                  
  24326788.924   127838150.882    24326788.317    99614146.371                  
  21002429.763   110368528.460    21002429.727    86001456.636                  
  21655508.404   113800478.621    21655507.779    88675700.535                  
  23800234.598   125071091.598    23800232.740    97457997.594                  
  21896587.274   115067350.589    21896586.005    89662873.136                  
  20959311.596   110141889.000    20959313.562    85824839.348                  
                 114292185.707                   114292185.707    21948603.142  
                 124271868.777                   124271868.777    23865103.476  
                 121807694.195                   121807694.195    23391886.342  
                 126680931.497                   126680931.497    24327740.396  
  24700094.400   129799853.171                                                  
  23531980.966   123661383.492                                                  
 21  9  1  9 12 41.0000000  0 15G 1G 7G 8G13G14G17G19G21G30C23C25C28
                                C34E21E27
  20218126.377   106246933.659    20218129.058    82789808.098                  
  21896651.227   115067687.247    21896650.923    89663134.710                  
  24030774.907   126282533.180    24030777.301    98401963.672                  
  24327020.328   127839366.891    24327019.721    99615093.910                  
  21002092.628   110366756.813    21002092.574    86000076.129                  
  21655202.934   113798873.472    21655202.326    88674449.774                  
  23799665.559   125068101.278    23799663.701    97455667.472                  
  21896978.248   115069405.082    21896976.961    89664474.040                  
  20959536.281   110143069.684    20959538.229    85825759.359                  
                 114292346.309                   114292346.309    21948633.984  
                 124274653.410                   124274653.410    23865638.242  
                 121805426.227                   121805426.227    23391450.803  
                 126683589.078                   126683589.078    24328250.753  
  24699755.639   129798073.021                                                  
  23532093.326   123661973.938                                                  
 21  9  1  9 12 42.0000000  0 15G 1G 7G 8G13G14G17G19G21G30C23C25C28
                                C34E21E27
  20218097.447   106246781.617    20218100.145    82789689.626                  
  21897229.093   115070723.973    21897228.771    89665500.987                  
  24031347.341   126285541.359    24031349.736    98404307.708                  
  24327251.821   127840583.411    24327251.214    99616041.848                  
  21001755.547   110364985.442    21001755.493    85998695.840                  
  21654897.552   113797268.645    21654896.944    88673199.258                  
  23799096.556   125065111.134    23799094.697    97453337.492                  
  21897369.276   115071460.026    21897368.007    89666075.297                  
  20959761.073   110144250.997    20959763.021    85826679.864                  
                 114292507.417                   114292507.417    21948664.915  
                 124277438.332                   124277438.332    23866173.062  
                 121803158.554                   121803158.554    23391015.317  
                 126686246.778                   126686246.778    24328761.146  
  24699416.914   129796293.028                                                  
  23532205.722   123662564.681                                                  
 21  9  1  9 12 43.0000000  0 15G 1G 7G 8G13G14G17G19G21G30C23C25C28
                                C34E21E27
  20218068.660   106246630.331    20218071.341    82789571.738                  
  21897807.049   115073761.088    21897806.745    89667867.574                  
  24031919.775   126288549.548    24031922.188    98406651.750                  
  24327483.422   127841800.426    24327482.796    99616990.167                  
  21001418.519   110363214.335    21001418.483    85997315.757                  
  21654592.224   113795664.106    21654591.599    88671948.965                  
  23798527.588   125062121.171    23798525.748    97451007.653                  
  21897760.393   115073515.425    21897759.142    89667676.907                  
  20959985.973   110145432.931    20959987.938    85827600.852                  
                 114292669.031                   114292669.031    21948695.953  
                 124280223.543                   124280223.543    23866707.935  
                 121800891.185                   121800891.185    23390579.902  
                 126688904.595                   126688904.595    24329271.539  
  24699078.242   129794513.182                                                  
  23532318.208   123663155.711                                                  
 21  9  1  9 12 44.0000000  0 16G 1G 7G 8G13G14G17G19G21G22G30C23C25
                                C28C34E21E27
  20218039.998   106246479.797    20218042.697    82789454.437                  
  21898385.058   115076798.612    21898384.754    89670234.473                  
  24032492.227   126291557.718    24032494.622    98408995.777                  
  24327715.094   127843017.947    24327714.504    99617938.886                  
  21001081.545   110361443.507    21001081.491    85995935.891                  
  21654286.932   113794059.879    21654286.324    88670698.922                  
  23797958.638   125059131.382    23797956.798    97448677.945                  
  21898151.617   115075571.282    21898150.348    89669278.866                  
  24069986.816   126488655.255    24069984.529    98562594.366                  
  20960211.015   110146615.499    20960212.981    85828522.331                  
                 114292831.153                   114292831.153    21948727.081  
                 124283009.040                   124283009.040    23867242.862  
                 121798624.114                   121798624.114    23390144.524  
                 126691562.531                   126691562.531    24329781.968  
  24698739.588   129792733.495                                                  
  23532430.729   123663747.038                                                  
 21  9  1  9 12 45.0000000  0 16G 1G 7G 8G13G14G17G19G21G22G30C23C25
                                C28C34E21E27
  20218011.497   106246330.008    20218014.195    82789337.723                  
  21898963.139   115079836.497    21898962.835    89672601.651                  
  24033064.661   126294565.895    24033067.038    98411339.808                  
  24327946.873   127844235.969    24327946.283    99618887.997                  
  21000744.625   110359672.958    21000744.589    85994556.242                  
  21653981.729   113792455.933    21653981.103    88669449.094                  
  23797389.742   125056141.778    23797387.902    97446348.386                  
  21898542.913   115077627.591    21898541.662    89670881.187                  
  24069577.562   126486504.595    24069575.257    98560918.532                  
  20960436.183   110147798.698    20960438.149    85829444.309                  
                 114292993.782                   114292993.782    21948758.316  
                 124285794.825                   124285794.825    23867777.843  
                 121796357.344                   121796357.344    23389709.216  
                 126694220.586                   126694220.586    24330292.414  
  24698400.935   129790953.964                                                  
  23532543.304   123664338.673                                                  
 21  9  1  9 12 46.0000000  0 16G 1G 7G 8G13G14G17G19G21G22G30C23C25
                                C28C34E21E27
  20217983.139   106246180.982    20217985.837    82789221.594                  
  21899541.291   115082874.760    21899541.005    89674969.134                  
  24033637.078   126297574.030    24033639.472    98413683.817                  
  24328178.759   127845454.484    24328178.152    99619837.489                  
  21000407.740   110357902.669    21000407.704    85993176.797                  
  21653676.562   113790852.268    21653675.936    88668199.484                  
  23796820.882   125053152.358    23796819.024    97444018.968                  
  21898934.298   115079684.337    21898933.047    89672483.847                  
  24069168.361   126484354.219    24069166.056    98559242.914                  
  20960661.458   110148982.531    20960663.405    85830366.774                  
                 114293156.917                   114293156.917    21948789.641  
                 124288580.895                   124288580.895    23868312.877  
                 121794090.875                   121794090.875    23389273.963  
                 126696878.757                   126696878.757    24330802.897  
  24698062.335   129789174.587                                                  
  23532655.932   123664930.589                                                  
 21  9  1  9 12 47.0000000  0 16G 1G 7G 8G13G14G17G19G21G22G30C23C25
                                C28C34E21E27
  20217954.924   106246032.687    20217957.622    82789106.044                  
  21900119.533   115085913.429    21900119.247    89677336.925                  
  24034209.512   126300582.192    24034211.924    98416027.837                  
  24328410.735   127846673.504    24328410.127    99620787.374                  
  21000070.927   110356132.660    21000070.873    85991797.566                  
  21653371.466   113789248.933    21653370.840    88666950.133                  
  23796252.040   125050163.112    23796250.181    97441689.683                  
  21899325.773   115081741.547    21899324.522    89674086.867                  
  24068759.214   126482204.128    24068756.927    98557567.519                  
  20960886.858   110150166.980    20960888.805    85831289.723                  
                 114293320.557                   114293320.557    21948821.072  
                 124291367.253                   124291367.253    23868847.965  
                 121791824.706                   121791824.706    23388838.780  
                 126699537.048                   126699537.048    24331313.397  
  24697723.752   129787395.355                                                  
  23532768.632   123665522.808                                                  
 21  9  1  9 12 48.0000000  0 16G 1G 7G 8G13G14G17G19G21G22G30C23C25
                                C28C34E21E27
  20217926.834   106245885.151    20217929.532    82788991.081                  
  21900697.864   115088952.476    21900697.560    89679705.016                  
  24034781.964   126303590.350    24034784.341    98418371.857                  
  24328642.800   127847893.022    24328642.174    99621737.649                  
  20999734.167   110354362.921    20999734.096    85990418.556                  
  21653066.406   113787645.899    21653065.781    88665701.016                  
  23795683.233   125047174.042    23795681.374    97439360.544                  
  21899717.337   115083799.206    21899716.086    89675690.238                  
  24068350.121   126480054.313    24068347.816    98555892.340                  
  20961112.365   110151352.071    20961114.312    85832213.169                  
                 114293484.707                   114293484.707    21948852.593  
                 124294153.901                   124294153.901    23869383.125  
                 121789558.840                   121789558.840    23388403.634  
                 126702195.458                   126702195.458    24331823.915  
  24697385.224   129785616.284                                                  
  23532881.403   123666115.308                                                  
 21  9  1  9 12 49.0000000  0 16G 1G 7G 8G13G14G17G19G21G22G30C23C25
                                C28C34E21E27
  20217898.922   106245738.364    20217901.603    82788876.700                  
  21901276.248   115091991.913    21901275.944    89682073.406                  
  24035354.380   126306598.503    24035356.775    98420715.867                  
  24328874.954   127849113.040    24328874.364    99622688.309                  
  20999397.443   110352593.457    20999397.372    85989039.750                  
  21652761.417   113786043.148    21652760.792    88664452.121                  
  23795114.462   125044185.159    23795112.621    97437031.542                  
  21900109.008   115085857.325    21900107.721    89677293.969                  
  24067941.081   126477904.786    24067938.776    98554217.382                  
  20961337.997   110152537.785    20961339.962    85833137.102                  
                 114293649.362                   114293649.362    21948884.221  
                 124296940.837                   124296940.837    23869918.320  
                 121787293.273                   121787293.273    23387968.559  
                 126704853.984                   126704853.984    24332334.468  
  24697046.695   129783837.363                                                  
  23532994.193   123666708.105                                                  
 21  9  1  9 12 50.0000000  0 16G 1G 7G 8G13G14G17G19G21G22G30C23C25
                                C28C34E21E27
  20217871.118   106245592.337    20217873.816    82788762.915                  
  21901854.704   115095031.737    21901854.400    89684442.101                  
  24035926.814   126309606.648    24035929.227    98423059.878                  
  24329107.216   127850333.562    24329106.608    99623639.368                  
  20999060.755   110350824.269    20999060.719    85987661.160                  
  21652456.483   113784440.695    21652455.857    88663203.452                  
  23794545.744   125041196.453    23794543.886    97434702.680                  
  21900500.715   115087915.890    21900499.464    89678898.046                  
  24067532.095   126475755.543    24067529.772    98552542.652                  
  20961563.754   110153724.124    20961565.702    85834061.519                  
                 114293814.527                   114293814.527    21948915.939  
                 124299728.058                   124299728.058    23870453.586  
                 121785028.005                   121785028.005    23387533.538  
                 126707512.629                   126707512.629    24332845.022  
  24696708.202   129782058.597                                                  
  23533107.053   123667301.207                                                  
 21  9  1  9 12 51.0000000  0 16G 1G 7G 8G13G14G17G19G21G22G30C23C25
                                C28C34E21E27
  20217843.475   106245447.047    20217846.173    82788649.699                  
  21902433.232   115098071.952    21902432.946    89686811.097                  
  24036499.266   126312614.798    24036501.643    98425403.891                  
  24329339.584   127851554.595    24329338.959    99624590.820                  
  20998724.156   110349055.351    20998724.103    85986282.785                  
  21652151.601   113782838.542    21652150.976    88661955.024                  
  23793977.045   125038207.928    23793975.204    97432373.960                  
  21900892.547   115089974.914    21900891.260    89680502.480                  
  24067123.162   126473606.573    24067120.839    98550868.130                  
  20961789.618   110154911.096    20961791.584    85834986.433                  
                 114293980.200                   114293980.200    21948947.746  
                 124302515.567                   124302515.567    23870988.889  
                 121782763.046                   121782763.046    23387098.588  
                 126710171.388                   126710171.388    24333355.594  
  24696369.745   129780279.990                                                  
  23533219.986   123667894.599                                                  
 21  9  1  9 12 52.0000000  0 16G 1G 7G 8G13G14G17G19G21G22G30C23C25
                                C28C34E21E27
  20217815.974   106245302.511    20217818.655    82788537.073                  
  21903011.848   115101112.531    21903011.545    89689180.379                  
  24037071.683   126315622.951    24037074.077    98427747.902                  
  24329572.025   127852776.138    24329571.417    99625542.672                  
  20998387.593   110347286.715    20998387.540    85984904.625                  
  21651846.774   113781236.700    21651846.166    88660706.833                  
  23793408.381   125035219.586    23793406.523    97430045.384                  
  21901284.432   115092034.374    21901283.181    89682107.257                  
  24066714.283   126471457.890    24066711.960    98549193.832                  
  20962015.626   110156098.700    20962017.574    85835911.841                  
                 114294146.379                   114294146.379    21948979.660  
                 124305303.364                   124305303.364    23871524.262  
                 121780498.383                   121780498.383    23386663.656  
                 126712830.266                   126712830.266    24333866.219  
  24696031.324   129778501.523                                                  
  23533332.954   123668488.285                                                  
 21  9  1  9 12 53.0000000  0 16G 1G 7G 8G13G14G17G19G21G22G30C23C25
                                C28C34E21E27
  20217788.599   106245158.711    20217791.297    82788425.024                  
  21903590.519   115104153.532    21903590.215    89691549.988                  
  24037644.117   126318631.095    24037646.493    98430091.915                  
  24329804.554   127853998.163    24329803.965    99626494.899                  
  20998051.084   110345518.335    20998051.048    85983526.668                  
  21651542.017   113779635.146    21651541.374    88659458.871                  
  23792839.735   125032231.417    23792837.895    97427716.942                  
  21901676.443   115094094.298    21901675.156    89683712.390                  
  24066305.440   126469309.493    24066303.135    98547519.753                  
  20962241.740   110157286.923    20962243.688    85836837.726                  
                 114294313.061                   114294313.061    21949011.681  
                 124308091.449                   124308091.449    23872059.672  
                 121778234.014                   121778234.014    23386228.813  
                 126715489.266                   126715489.266    24334376.844  
  24695692.920   129776723.215                                                  
  23533445.975   123669082.258                                                  
 21  9  1  9 12 54.0000000  0 16G 1G 7G 8G13G14G17G19G21G22G30C23C25
                                C28C34E21E27
  20217761.402   106245015.671    20217764.083    82788313.567                  
  21904169.279   115107194.900    21904168.975    89693919.887                  
  24038216.533   126321639.242    24038218.945    98432435.921                  
  24330037.191   127855220.692    24330036.601    99627447.517                  
  20997714.628   110343750.241    20997714.574    85982148.933                  
  21651237.297   113778033.911    21651236.672    88658211.155                  
  23792271.161   125029243.441    23792269.302    97425388.645                  
  21902068.507   115096154.668    21902067.238    89685317.871                  
  24065896.686   126467161.383    24065894.363    98545845.903                  
  20962467.962   110158475.782    20962469.928    85837764.110                  
                 114294480.250                   114294480.250    21949043.774  
                 124310879.816                   124310879.816    23872595.153  
                 121775969.954                   121775969.954    23385794.024  
                 126718148.382                   126718148.382    24334887.505  
  24695354.534   129774945.066                                                  
  23533559.068   123669676.531                                                  
 21  9  1  9 12 55.0000000  0 16G 1G 7G 8G13G14G17G19G21G22G30C23C25
                                C28C34E21E27
  20217734.313   106244873.392    20217736.993    82788202.695                  
  21904748.092   115110236.629    21904747.806    89696290.066                  
  24038788.985   126324647.392    24038791.380    98434779.934                  
  24330269.935   127856443.723    24330269.345    99628400.528                  
  20997378.226   110341982.421    20997378.172    85980771.411                  
  21650932.666   113776432.973    21650932.040    88656963.671                  
  23791702.604   125026255.632    23791700.746    97423060.485                  
  21902460.678   115098215.505    21902459.392    89686923.718                  
  24065487.968   126465013.548    24065485.645    98544172.266                  
  20962694.327   110159665.270    20962696.257    85838690.982                  
                 114294647.949                   114294647.949    21949075.974  
                 124313668.477                   124313668.477    23873130.688  
                 121773706.186                   121773706.186    23385359.306  
                 126720807.618                   126720807.618    24335398.184  
  24695016.202   129773167.074                                                  
  23533672.215   123670271.100                                                  
 21  9  1  9 12 56.0000000  0 16G 1G 7G 8G13G14G17G19G21G22G30C23C25
                                C28C34E21E27
  20217707.384   106244731.860    20217710.083    82788092.415                  
  21905326.995   115113278.774    21905326.709    89698660.571                  
  24039361.419   126327655.542    24039363.796    98437123.945                  
  24330502.786   127857667.250    24330502.161    99629353.926                  
  20997041.859   110340214.871    20997041.824    85979394.097                  
  21650628.053   113774832.337    21650627.445    88655716.422                  
  23791134.065   125023268.012    23791132.225    97420732.469                  
  21902852.921   115100276.794    21902851.653    89688529.919                  
  24065079.303   126462866.004    24065076.980    98542498.856                  
  20962920.781   110160855.379    20962922.747    85839618.340                  
                 114294816.152                   114294816.152    21949108.281  
                 124316457.422                   124316457.422    23873666.276  
                 121771442.728                   121771442.728    23384924.625  
                 126723466.970                   126723466.970    24335908.881  
  24694677.906   129771389.227                                                  
  23533785.415   123670865.966                                                  
 21  9  1  9 12 57.0000000  0 16G 1G 7G 8G13G14G17G19G21G22G30C23C25
                                C28C34E21E27
  20217680.599   106244591.071    20217683.279    82787982.707                  
  21905905.987   115116321.301    21905905.683    89701031.367                  
  24039933.836   126330663.695    24039936.248    98439467.960                  
  24330735.691   127858891.276    24330735.102    99630307.710                  
  20996705.564   110338447.593    20996705.529    85978017.000                  
  21650323.547   113773232.009    21650322.921    88654469.418                  
  23790565.580   125020280.570    23790563.722    97418404.594                  
  21903245.254   115102338.531    21903243.985    89690136.466                  
  24064670.675   126460718.742    24064668.387    98540825.664                  
  20963147.378   110162046.126    20963149.326    85840546.196                  
                 114294984.864                   114294984.864    21949140.678  
                 124319246.653                   124319246.653    23874201.918  
                 121769179.565                   121769179.565    23384489.996  
                 126726126.438                   126726126.438    24336419.595  
  24694339.592   129769611.547                                                  
  23533898.651   123671461.116                                                  
 21  9  1  9 12 58.0000000  0 16G 1G 7G 8G13G14G17G19G21G22G30C23C25
                                C28C34E21E27
  20217653.938   106244451.031    20217656.636    82787873.587                  
  21906485.015   115119364.192    21906484.729    89703402.448                  
  24040506.288   126333671.862    24040508.682    98441811.989                  
  24330968.721   127860115.804    24330968.114    99631261.890                  
  20996369.323   110336680.600    20996369.287    85976640.122                  
  21650019.058   113771631.983    21650018.433    88653222.645                  
  23789997.113   125017293.316    23789995.255    97416076.864                  
  21903637.675   115104400.724    21903636.407    89691743.366                  
  24064262.117   126458571.771    24064259.812    98539152.699                  
  20963374.083   110163237.488    20963376.048    85841474.531                  
                 114295154.082                   114295154.082    21949173.181  
                 124322036.171                   124322036.171    23874737.613  
                 121766916.703                   121766916.703    23384055.440  
                 126728786.023                   126728786.023    24336930.363  
  24694001.367   129767834.005                                                  
  23534011.977   123672056.571                                                  
 21  9  1  9 12 59.0000000  0 16G 1G 7G 8G13G14G17G19G21G22G30C23C25
                                C28C34E21E27
  20217627.438   106244311.741    20217630.119    82787765.047                  
  21907064.132   115122407.462    21907063.846    89705773.827                  
  24041078.722   126336680.030    24041081.098    98444156.016                  
  24331201.840   127861340.836    24331201.215    99632216.460                  
  20996033.117   110334913.875    20996033.081    85975263.450                  
  21649714.642   113770032.263    21649714.016    88651976.105                  
  23789428.699   125014306.239    23789426.841    97413749.269                  
  21904030.186   115106463.359    21904028.918    89693350.617                  
  24063853.613   126456425.087    24063851.326    98537479.961                  
  20963600.912   110164429.493    20963602.860    85842403.364                  
                 114295323.809                   114295323.809    21949205.774  
                 124324825.977                   124324825.977    23875273.362  
                 121764654.145                   121764654.145    23383620.936  
                 126731445.730                   126731445.730    24337441.114  
  24693663.124   129766056.621                                                  
  23534125.338   123672652.308                                                  
 21  9  1  9 13  0.0000000  0 16G 1G 7G 8G13G14G17G19G21G22G30C23C25
                                C28C34E21E27
  20217601.081   106244173.215    20217603.762    82787657.105                  
  21907643.321   115125451.127    21907643.017    89708145.519                  
  24041651.156   126339688.192    24041653.532    98446500.036                  
  24331435.031   127862566.371    24331434.441    99633171.422                  
  20995696.983   110333147.422    20995696.912    85973886.996                  
  21649410.279   113768432.845    21649409.653    88650729.810                  
  23788860.304   125011319.337    23788858.463    97411421.815                  
  21904422.787   115108526.447    21904421.500    89694958.218                  
  24063445.181   126454278.676    24063442.858    98535807.433                  
  20963827.866   110165622.124    20963829.814    85843332.688                  
                 114295494.038                   114295494.038    21949238.457  
                 124327616.071                   124327616.071    23875809.183  
                 121762391.884                   121762391.884    23383186.505  
                 126734105.550                   126734105.550    24337951.917  
  24693324.935   129764279.402                                                  
  23534238.752   123673248.359                                                  
 21  9  1  9 13  1.0000000  0 16G 1G 7G 8G13G14G17G19G21G22G30C23C25
                                C28C34E21E27
  20217574.868   106244035.419    20217577.548    82787549.731                  
  21908222.599   115128495.180    21908222.277    89710517.504                  
  24042223.572   126342696.357    24042225.984    98448844.058                  
  24331668.365   127863792.415    24331667.739    99634126.782                  
  20995360.885   110331381.245    20995360.849    85972510.754                  
  21649105.987   113766833.723    21649105.362    88649483.738                  
  23788291.962   125008332.620    23788290.103    97409094.504                  
  21904815.458   115110589.989    21904814.172    89696566.175                  
  24063036.785   126452132.555    24063034.480    98534135.133                  
  20964054.946   110166815.376    20964056.876    85844262.493                  
                 114295664.777                   114295664.777    21949271.264  
                 124330406.450                   124330406.450    23876345.039  
                 121760129.926                   121760129.926    23382752.127  
                 126736765.492                   126736765.492    24338462.721  
  24692986.764   129762502.329                                                  
  23534352.238   123673844.695                                                  
 21  9  1  9 13  2.0000000  0 16G 1G 7G 8G13G14G17G19G21G22G30C23C25
                                C28C34E21E27
  20217548.779   106243898.380    20217551.459    82787442.950                  
  21908801.912   115131539.618    21908801.626    89712889.793                  
  24042796.024   126345704.507    24042798.419    98451188.075                  
  24331901.752   127865018.950    24331901.145    99635082.523                  
  20995024.840   110329615.347    20995024.804    85971134.727                  
  21648801.731   113765234.909    21648801.124    88648237.910                  
  23787723.637   125005346.085    23787721.779    97406767.336                  
  21905208.219   115112653.980    21905206.969    89698174.480                  
  24062628.442   126449986.722    24062626.137    98532463.051                  
  20964282.115   110168009.256    20964284.080    85845192.794                  
                 114295836.024                   114295836.024    21949304.143  
                 124333197.115                   124333197.115    23876880.967  
                 121757868.267                   121757868.267    23382317.784  
                 126739425.548                   126739425.548    24338973.561  
  24692648.646   129760725.409                                                  
  23534465.778   123674441.327                                                  
 21  9  1  9 13  3.0000000  0 16G 1G 7G 8G13G14G17G19G21G22G30C23C25
                                C28C34E21E27
  20217522.833   106243762.098    20217525.531    82787336.754                  
  21909381.333   115134584.437    21909381.047    89715262.379                  
  24043368.458   126348712.677    24043370.835    98453532.097                  
  24332135.265   127866245.984    24332134.639    99636038.653                  
  20994688.866   110327849.715    20994688.795    85969758.913                  
  21648497.547   113763636.386    21648496.922    88646992.309                  
  23787155.349   125002359.735    23787153.508    97404440.307                  
  21905601.088   115114718.409    21905599.801    89699783.126                  
  24062220.152   126447841.168    24062217.865    98530791.191                  
  20964509.445   110169203.774    20964511.374    85846123.582                  
                 114296007.778                   114296007.778    21949337.112  
                 124335988.066                   124335988.066    23877416.912  
                 121755606.910                   121755606.910    23381883.513  
                 126742085.723                   126742085.723    24339484.418  
  24692310.528   129758948.648                                                  
  23534579.372   123675038.247                                                  
 21  9  1  9 13  4.0000000  0 16G 1G 7G 8G13G14G17G19G21G22G30C23C25
                                C28C34E21E27
  20217497.048   106243626.553    20217499.746    82787231.137                  
  21909960.826   115137629.646    21909960.522    89717635.269                  
  24043940.875   126351720.845    24043943.287    98455876.124                  
  24332368.848   127867473.520    24332368.241    99636995.172                  
  20994352.929   110326084.360    20994352.875    85968383.309                  
  21648193.416   113762038.177    21648192.809    88645746.949                  
  23786587.096   124999373.558    23786585.238    97402113.419                  
  21905993.992   115116783.292    21905992.741    89701392.125                  
  24061811.917   126445695.895    24061809.612    98529119.550                  
  20964736.864   110170398.913    20964738.811    85847054.859                  
                 114296180.040                   114296180.040    21949370.205  
                 124338779.303                   124338779.303    23877952.965  
                 121753345.856                   121753345.856    23381449.296  
                 126744746.011                   126744746.011    24339995.294  
  24691972.446   129757172.042                                                  
  23534693.019   123675635.471                                                  
 21  9  1  9 13  5.0000000  0 16G 1G 7G 8G13G14G17G19G21G22G30C23C25
                                C28C34E21E27
  20217471.406   106243491.765    20217474.104    82787126.105                  
  21910540.372   115140675.240    21910540.086    89720008.457                  
  24044513.327   126354729.018    24044515.721    98458220.160                  
  24332602.540   127868701.542    24332601.914    99637952.075                  
  20994017.045   110324319.278    20994016.973    85967007.922                  
  21647889.339   113760440.270    21647888.714    88644501.827                  
  23786018.879   124996387.563    23786017.038    97399786.667                  
  21906387.021   115118848.621    21906385.752    89703001.473                  
  24061403.753   126443550.919    24061401.447    98527448.140                  
  20964964.408   110171594.683    20964966.355    85847986.628                  
                 114296352.805                   114296352.805    21949403.388  
                 124341570.831                   124341570.831    23878489.036  
                 121751085.099                   121751085.099    23381015.168  
                 126747406.421                   126747406.421    24340506.205  
  24691634.400   129755395.597                                                  
  23534806.719   123676232.993                                                  
 21  9  1  9 13  6.0000000  0 16G 1G 7G 8G13G14G17G19G21G22G30C23C25
                                C28C34E21E27
  20217445.907   106243357.723    20217448.587    82787021.656                  
  21911120.007   115143721.200    21911119.703    89722381.932                  
  24045085.761   126357737.165    24045088.155    98460564.168                  
  24332836.320   127869930.067    24332835.695    99638909.363                  
  20993681.196   110322554.468    20993681.161    85965632.746                  
  21647585.333   113758842.671    21647584.708    88643256.949                  
  23785450.698   124993401.730    23785448.839    97397460.046                  
  21906780.139   115120914.403    21906778.853    89704611.173                  
  24060995.624   126441406.207    24060993.319    98525776.942                  
  20965192.077   110172791.081    20965194.025    85848918.886                  
                 114296526.082                   114296526.082    21949436.660  
                 124344362.643                   124344362.643    23879025.178  
                 121748824.644                   121748824.644    23380581.058  
                 126750066.945                   126750066.945    24341017.116  
  24691296.372   129753619.308                                                  
  23534920.473   123676830.795                                                  
 21  9  1  9 13  7.0000000  0 16G 1G 7G 8G13G14G17G19G21G22G30C23C25
                                C28C34E21E27
  20217420.515   106243224.425    20217423.213    82786917.788                  
  21911699.696   115146767.539    21911699.392    89724755.708                  
  24045658.195   126360745.321    24045660.572    98462908.188                  
  24333070.172   127871159.105    24333069.582    99639867.054                  
  20993345.420   110320789.934    20993345.384    85964257.785                  
  21647281.381   113757245.395    21647280.756    88642012.316                  
  23784882.534   124990416.081    23784880.694    97395133.571                  
  21907173.312   115122980.642    21907172.061    89706221.227                  
  24060587.567   126439261.771    24060585.244    98524105.949                  
  20965419.853   110173988.110    20965421.819    85849851.636                  
                 114296699.862                   114296699.862    21949470.039  
                 124347154.741                   124347154.741    23879561.374  
                 121746564.491                   121746564.491    23380147.020  
                 126752727.591                   126752727.591    24341528.081  
  24690958.397   129751843.207                                                  
  23535034.299   123677428.904                                                  
 21  9  1  9 13  8.0000000  0 16G 1G 7G 8G13G14G17G19G21G22G30C23C25
                                C28C34E21E27
  20217395.302   106243091.906    20217398.000    82786814.528                  
  21912279.492   115149814.347    21912279.206    89727129.844                  
  24046230.611   126363753.483    24046233.024    98465252.208                  
  24333304.167   127872388.624    24333303.559    99640825.126                  
  20993009.696   110319025.682    20993009.661    85962883.043                  
  21646977.465   113755648.322    21646976.839    88640767.844                  
  23784314.442   124987430.661    23784312.584    97392807.265                  
  21907566.609   115125047.312    21907565.322    89707831.622                  
  24060179.546   126437117.672    24060177.241    98522435.227                  
  20965647.773   110175185.767    20965649.721    85850784.871                  
                 114296874.151                   114296874.151    21949503.508  
                 124349947.124                   124349947.124    23880097.623  
                 121744304.640                   121744304.640    23379713.035  
                 126755388.347                   126755388.347    24342039.045  
  24690620.440   129750067.149                                                  
  23535148.161   123678027.302                                                  
 21  9  1  9 13  9.0000000  0 16G 1G 7G 8G13G14G17G19G21G22G30C23C25
                                C28C34E21E27
  20217370.232   106242960.122    20217372.912    82786711.840                  
  21912859.342   115152861.449    21912859.038    89729504.207                  
  24046803.063   126366761.633    24046805.458    98467596.223                  
  24333538.215   127873618.657    24333537.625    99641783.591                  
  20992674.027   110317261.706    20992673.973    85961508.516                  
  21646673.620   113754051.621    21646672.995    88639523.663                  
  23783746.368   124984445.391    23783744.492    97390481.083                  
  21907959.960   115127114.446    21907958.673    89709442.375                  
  24059771.578   126434973.820    24059769.273    98520764.690                  
  20965875.799   110176384.052    20965877.747    85851718.602                  
                 114297048.949                   114297048.949    21949537.084  
                 124352739.797                   124352739.797    23880633.926  
                 121742045.090                   121742045.090    23379279.121  
                 126758049.226                   126758049.226    24342550.046  
  24690282.502   129748291.327                                                  
  23535262.093   123678625.991                                                  
 21  9  1  9 13 10.0000000  0 16G 1G 7G 8G13G14G17G19G21G22G30C23C25
                                C28C34E21E27
  20217345.304   106242829.079    20217347.985    82786609.726                  
  21913439.263   115155908.965    21913438.959    89731878.894                  
  24047375.497   126369769.812    24047377.874    98469940.255                  
  24333772.389   127874849.179    24333771.781    99642742.442                  
  20992338.393   110315498.000    20992338.357    85960134.200                  
  21646369.847   113752455.216    21646369.221    88638279.712                  
  23783178.312   124981460.300    23783176.453    97388155.038                  
  21908353.400   115129182.035    21908352.149    89711053.484                  
  24059363.682   126432830.255    24059361.359    98519094.378                  
  20966103.933   110177582.953    20966105.899    85852652.813                  
                 114297224.250                   114297224.250    21949570.731  
                 124355532.755                   124355532.755    23881170.283  
                 121739785.841                   121739785.841    23378845.243  
                 126760710.218                   126760710.218    24343061.064  
  24689944.598   129746515.648                                                  
  23535376.080   123679224.988                                                  
 21  9  1  9 13 11.0000000  0 16G 1G 7G 8G13G14G17G19G21G22G30C23C25
                                C28C34E21E27
  20217320.502   106242698.780    20217323.200    82786508.199                  
  21914019.256   115158956.868    21914018.952    89734253.884                  
  24047947.932   126372777.995    24047950.326    98472284.293                  
  24334006.634   127876080.204    24334006.044    99643701.680                  
  20992002.848   110313734.567    20992002.777    85958760.093                  
  21646066.127   113750859.105    21646065.484    88637035.989                  
  23782610.291   124978475.403    23782608.469    97385829.144                  
  21908746.947   115131250.061    21908745.661    89712664.930                  
  24058955.821   126430686.972    24058953.516    98517424.294                  
  20966332.192   110178782.497    20966334.158    85853587.520                  
                 114297400.062                   114297400.062    21949604.504  
                 124358326.001                   124358326.001    23881706.693  
                 121737526.887                   121737526.887    23378411.437  
                 126763371.329                   126763371.329    24343572.100  
  24689606.749   129744740.134                                                  
  23535490.120   123679824.276                                                  
 21  9  1  9 13 12.0000000  0 16G 1G 7G 8G13G14G17G19G21G22G30C23C25
                                C28C34E21E27
  20217295.843   106242569.233    20217298.541    82786407.254                  
  21914599.320   115162005.138    21914599.016    89736629.157                  
  24048520.384   126375786.165    24048522.760    98474628.320                  
  24334241.004   127877311.719    24334240.378    99644661.301                  
  20991667.322   110311971.406    20991667.268    85957386.202                  
  21645762.443   113749263.308    21645761.817    88635792.511                  
  23782042.342   124975490.673    23782040.484    97383503.378                  
  21909140.566   115133318.542    21909139.279    89714276.734                  
  24058548.015   126428543.991    24058545.727    98515754.437                  
  20966560.594   110179982.669    20966562.542    85854522.719                  
                 114297576.378                   114297576.378    21949638.366  
                 124361119.526                   124361119.526    23882243.157  
                 121735268.243                   121735268.243    23377977.685  
                 126766032.554                   126766032.554    24344083.154  
  24689268.899   129742964.763                                                  
  23535604.214   123680423.854                                                  
 21  9  1  9 13 13.0000000  0 16G 1G 7G 8G13G14G17G19G21G22G30C23C25
                                C28C34E21E27
  20217271.344   106242440.449    20217274.043    82786306.898                  
  21915179.456   115165053.804    21915179.152    89739004.738                  
  24049092.800   126378794.321    24049095.194    98476972.340                  
  24334475.445   127878543.741    24334474.838    99645621.316                  
  20991331.849   110310208.525    20991331.795    85956012.530                  
  21645458.812   113747667.813    21645458.205    88634549.266                  
  23781474.393   124972506.130    23781472.535    97381177.763                  
  21909534.256   115135387.481    21909533.005    89715888.894                  
  24058140.279   126426401.292    24058137.974    98514084.801                  
  20966789.103   110181183.457    20966791.033    85855458.398                  
                 114297753.202                   114297753.202    21949672.317  
                 124363913.343                   124363913.343    23882779.674  
                 121733009.896                   121733009.896    23377544.003  
                 126768693.897                   126768693.897    24344594.244  
  24688931.085   129741189.548                                                  
  23535718.379   123681023.729                                                  
 21  9  1  9 13 14.0000000  0 16G 1G 7G 8G13G14G17G19G21G22G30C23C25
                                C28C34E21E27
  20217246.989   106242312.422    20217249.651    82786207.136                  
  21915759.681   115168102.851    21915759.377    89741380.622                  
  24049665.234   126381802.471    24049667.628    98479316.353                  
  24334709.976   127879776.250    24334709.387    99646581.716                  
  20990996.447   110308445.913    20990996.376    85954639.071                  
  21645155.271   113746072.618    21645154.646    88633306.258                  
  23780906.480   124969521.758    23780904.639    97378852.282                  
  21909928.054   115137456.857    21909926.785    89717501.394                  
  24057732.598   126424258.887    24057730.275    98512415.394                  
  20967017.719   110182384.887    20967019.685    85856394.575                  
                 114297930.539                   114297930.539    21949706.375  
                 124366707.446                   124366707.446    23883316.263  
                 121730751.848                   121730751.848    23377110.358  
                 126771355.360                   126771355.360    24345105.334  
  24688593.307   129739414.488                                                  
  23535832.580   123681623.906                                                  
 21  9  1  9 13 15.0000000  0 16G 1G 7G 8G13G14G17G19G21G22G30C23C25
                                C28C34E21E27
  20217222.759   106242185.120    20217225.439    82786107.942                  
  21916339.977   115171152.274    21916339.656    89743756.793                  
  24050237.686   126384810.633    24050240.063    98481660.375                  
  24334944.614   127881009.262    24334944.007    99647542.499                  
  20990661.081   110306683.583    20990661.028    85953265.820                  
  21644851.784   113744477.722    21644851.140    88632063.484                  
  23780338.620   124966537.571    23780336.762    97376526.942                  
  21910321.941   115139526.691    21910320.654    89719114.254                  
  24057324.951   126422116.754    24057322.664    98510746.200                  
  20967246.461   110183586.934    20967248.426    85857331.237                  
                 114298108.375                   114298108.375    21949740.523  
                 124369501.835                   124369501.835    23883852.905  
                 121728494.100                   121728494.100    23376676.784  
                 126774016.937                   126774016.937    24345616.477  
  24688255.547   129737639.578                                                  
  23535946.834   123682224.367                                                  
 21  9  1  9 13 16.0000000  0 16G 1G 7G 8G13G14G17G19G21G22G30C23C25
                                C28C34E21E27
  20217198.671   106242058.581    20217201.351    82786009.340                  
  21916920.345   115174202.085    21916920.024    89746133.269                  
  24050810.102   126387818.792    24050812.497    98484004.395                  
  24335179.342   127882242.789    24335178.734    99648503.692                  
  20990325.751   110304921.520    20990325.715    85951892.784                  
  21644548.332   113742883.133    21644547.707    88630820.946                  
  23779770.778   124963553.565    23779768.920    97374201.743                  
  21910715.899   115141596.967    21910714.612    89720727.457                  
  24056917.377   126419974.927    24056915.072    98509077.246                  
  20967475.327   110184789.618    20967477.275    85858268.391                  
                 114298286.723                   114298286.723    21949774.778  
                 124372296.509                   124372296.509    23884389.584  
                 121726236.661                   121726236.661    23376243.264  
                 126776678.632                   126776678.632    24346127.621  
  24687917.822   129735864.827                                                  
  23536061.160   123682825.125                                                  
 21  9  1  9 13 17.0000000  0 16G 1G 7G 8G13G14G17G19G21G22G30C23C25
                                C28C34E21E27
  20217174.744   106241932.778    20217177.425    82785911.308                  
  21917500.767   115177252.271    21917500.463    89748510.039                  
  24051382.536   126390826.948    24051384.949    98486348.414                  
  24335414.159   127883476.751    24335413.551    99649465.207                  
  20989990.493   110303159.689    20989990.457    85950519.911                  
  21644244.934   113741288.845    21644244.326    88629578.648                  
  23779202.972   124960569.754    23779201.114    97371876.706                  
  21911109.947   115143667.708    21911108.660    89722341.028                  
  24056509.856   126417833.352    24056507.569    98507408.477                  
  20967704.301   110185992.909    20967706.266    85859206.021                  
                 114298465.577                   114298465.577    21949809.122  
                 124375091.468                   124375091.468    23884926.315  
                 121723979.515                   121723979.515    23375809.797  
                 126779340.441                   126779340.441    24346638.800  
  24687580.116   129734090.219                                                  
  23536175.540   123683426.124                                                  
 21  9  1  9 13 18.0000000  0 16G 1G 7G 8G13G14G17G19G21G22G30C23C25
                                C28C34E21E27
  20217150.943   106241807.735    20217153.641    82785813.872                  
  21918081.278   115180302.853    21918080.974    89750887.110                  
  24051954.953   126393835.086    24051957.365    98488692.418                  
  24335649.083   127884711.271    24335648.475    99650427.168                  
  20989655.305   110301398.175    20989655.252    85949147.300                  
  21643941.625   113739694.846    21643941.000    88628336.573                  
  23778635.202   124957586.106    23778633.362    97369551.781                  
  21911504.084   115145738.874    21911502.797    89723954.919                  
  24056102.407   126415692.079    24056100.084    98505739.952                  
  20967933.400   110187196.849    20967935.365    85860144.153                  
                 114298644.937                   114298644.937    21949843.556  
                 124377886.715                   124377886.715    23885463.119  
                 121721722.677                   121721722.677    23375376.402  
                 126782002.367                   126782002.367    24347149.997  
  24687242.462   129732315.770                                                  
  23536289.973   123684027.480                                                  
 21  9  1  9 13 19.0000000  0 16G 1G 7G 8G13G14G17G19G21G22G30C23C25
                                C28C34E21E27
  20217127.302   106241683.453    20217129.983    82785717.023                  
  21918661.843   115183353.793    21918661.539    89753264.466                  
  24052527.405   126396843.227    24052529.799    98491036.422                  
  24335884.096   127885946.254    24335883.507    99651389.492                  
  20989320.154   110299636.945    20989320.100    85947774.913                  
  21643638.352   113738101.159    21643637.727    88627094.735                  
  23778067.467   124954602.629    23778065.627    97367226.992                  
  21911898.274   115147810.501    21911897.024    89725569.171                  
  24055694.975   126413551.085    24055692.652    98504071.645                  
  20968162.623   110188401.402    20968164.571    85861082.761                  
                 114298824.809                   114298824.809    21949878.096  
                 124380682.246                   124380682.246    23885999.976  
                 121719466.133                   121719466.133    23374943.060  
                 126784664.411                   126784664.411    24347661.212  
  24686904.827   129730541.485                                                  
  23536404.460   123684629.113                                                  
 21  9  1  9 13 20.0000000  0 16G 1G 7G 8G13G14G17G19G21G22G30C23C25
                                C28C34E21E27
  20217103.787   106241559.909    20217106.485    82785620.754                  
  21919242.496   115186405.129    21919242.193    89755642.128                  
  24053099.839   126399851.369    24053102.215    98493380.421                  
  24336119.217   127887181.718    24336118.627    99652352.169                  
  20988985.056   110297875.980    20988985.003    85946402.726                  
  21643335.133   113736507.745    21643334.525    88625853.109                  
  23777499.769   124951619.378    23777497.892    97364902.394                  
  21912292.608   115149882.582    21912291.321    89727183.782                  
  24055287.615   126411410.375    24055285.292    98502403.555                  
  20968391.954   110189606.597    20968393.920    85862021.884                  
                 114299005.193                   114299005.193    21949912.745  
                 124383478.063                   124383478.063    23886536.886  
                 121717209.894                   121717209.894    23374509.772  
                 126787326.566                   126787326.566    24348172.462  
  24686567.228   129728767.335                                                  
  23536519.000   123685231.056                                                  
 21  9  1  9 13 21.0000000  0 16G 1G 7G 8G13G14G17G19G21G22G30C23C25
                                C28C34E21E27
  20217080.414   106241437.114    20217083.094    82785525.069                  
  21919823.222   115189456.853    21919822.918    89758020.094                  
  24053672.255   126402859.516    24053674.667    98495724.434                  
  24336354.427   127888417.734    24336353.819    99653315.296                  
  20988649.994   110296115.296    20988649.959    85945030.769                  
  21643031.985   113734914.671    21643031.359    88624611.755                  
  23776932.105   124948636.273    23776930.247    97362577.899                  
  21912686.977   115151955.118    21912685.709    89728798.741                  
  24054880.308   126409269.965    24054878.003    98500735.703                  
  20968621.428   110190812.415    20968623.376    85862961.480                  
                 114299186.074                   114299186.074    21949947.482  
                 124386274.167                   124386274.167    23887073.833  
                 121714953.957                   121714953.957    23374076.537  
                 126789988.841                   126789988.841    24348683.713  
  24686229.646   129726993.355                                                  
  23536633.612   123685833.281                                                  
 21  9  1  9 13 22.0000000  0 16G 1G 7G 8G13G14G17G19G21G22G30C23C25
                                C28C34E21E27
  20217057.202   106241315.071    20217059.882    82785429.973                  
  21920404.019   115192508.949    21920403.715    89760398.351                  
  24054244.707   126405867.660    24054247.084    98498068.441                  
  24336589.726   127889654.226    24336589.119    99654278.796                  
  20988315.022   110294354.888    20988314.968    85943659.020                  
  21642728.872   113733321.882    21642728.265    88623370.618                  
  23776364.460   124945653.359    23776362.620    97360253.551                  
  21913081.454   115154028.089    21913080.185    89730414.048                  
  24054473.055   126407129.842    24054470.732    98499068.078                  
  20968850.992   110192018.861    20968852.957    85863901.563                  
                 114299367.466                   114299367.466    21949982.326  
                 124389070.554                   124389070.554    23887610.868  
                 121712698.320                   121712698.320    23373643.374  
                 126792651.234                   126792651.234    24349194.999  
  24685892.100   129725219.519                                                  
  23536748.260   123686435.812                                                  
 21  9  1  9 13 23.0000000  0 16G 1G 7G 8G13G14G17G19G21G22G30C23C25
                                C28C34E21E27
  20217034.115   106241193.790    20217036.796    82785335.468                  
  21920984.887   115195561.442    21920984.583    89762776.919                  
  24054817.123   126408875.804    24054819.518    98500412.449                  
  24336825.115   127890891.231    24336824.525    99655242.698                  
  20987980.067   110292594.753    20987980.013    85942287.489                  
  21642425.867   113731729.404    21642425.224    88622129.726                  
  23775796.869   124942670.616    23775795.028    97357929.335                  
  21913476.020   115156101.515    21913474.733    89732029.704                  
  24054065.856   126404990.004    24054063.533    98497400.667                  
  20969080.698   110193225.928    20969082.664    85864842.140                  
                 114299549.362                   114299549.362    21950017.243  
                 124391867.231                   124391867.231    23888147.939  
                 121710442.986                   121710442.986    23373210.265  
                 126795313.741                   126795313.741    24349706.304  
  24685554.572   129723445.857                                                  
  23536862.979   123687038.632                                                  
 21  9  1  9 13 24.0000000  0 16G 1G 7G 8G13G14G17G19G21G22G30C23C25
                                C28C34E21E27
  20217011.171   106241073.246    20217013.852    82785241.540                  
  21921565.827   115198614.301    21921565.523    89765155.770                  
  24055389.558   126411883.957    24055391.952    98502756.464                  
  24337060.593   127892128.726    24337060.003    99656206.976                  
  20987645.183   110290834.897    20987645.148    85940916.172                  
  21642122.862   113730137.219    21642122.237    88620889.062                  
  23775229.295   124939688.063    23775227.454    97355605.266                  
  21913870.657   115158175.386    21913869.388    89733645.708                  
  24053658.693   126402850.436    24053656.405    98495733.476                  
  20969310.512   110194433.633    20969312.477    85865783.208                  
                 114299731.769                   114299731.769    21950052.284  
                 124394664.188                   124394664.188    23888685.064  
                 121708187.954                   121708187.954    23372777.191  
                 126797976.364                   126797976.364    24350217.644  
  24685217.098   129721672.344                                                  
  23536977.752   123687641.747                                                  
 21  9  1  9 13 25.0000000  0 16G 1G 7G 8G13G14G17G19G21G22G30C23C25
                                C28C34E21E27
  20216988.388   106240953.456    20216991.069    82785148.195                  
  21922146.838   115201667.542    21922146.534    89767534.917                  
  24055961.992   126414892.113    24055964.386    98505100.480                  
  24337296.178   127893366.737    24337295.588    99657171.664                  
  20987310.336   110289075.314    20987310.300    85939545.066                  
  21641819.947   113728545.333    21641819.321    88619648.632                  
  23774661.775   124936705.686    23774659.916    97353281.340                  
  21914265.402   115160249.715    21914264.115    89735262.066                  
  24053251.618   126400711.159    24053249.295    98494066.508                  
  20969540.468   110195641.954    20969542.398    85866724.754                  
                 114299914.683                   114299914.683    21950087.396  
                 124397461.435                   124397461.435    23889222.243  
                 121705933.218                   121705933.218    23372344.207  
                 126800639.107                   126800639.107    24350728.984  
  24684879.642   129719898.983                                                  
  23537092.578   123688245.160                                                  
 21  9  1  9 13 26.0000000  0 16G 1G 7G 8G13G14G17G19G21G22G30C23C25
                                C28C34E21E27
  20216965.713   106240834.417    20216968.429    82785055.437                  
  21922727.921   115204721.167    21922727.617    89769914.363                  
  24056534.426   126417900.269    24056536.820    98507444.497                  
  24337531.852   127894605.233    24337531.263    99658136.724                  
  20986975.560   110287316.009    20986975.524    85938174.179                  
  21641517.085   113726953.750    21641516.441    88618408.437                  
  23774094.272   124933723.491    23774092.432    97350957.550                  
  21914660.200   115162324.488    21914658.931    89736878.774                  
  24052844.580   126398572.172    24052842.275    98492399.765                  
  20969770.514   110196850.902    20969772.462    85867666.792                  
                 114300098.105                   114300098.105    21950122.616  
                 124400258.964                   124400258.964    23889759.475  
                 121703678.788                   121703678.788    23371911.258  
                 126803301.960                   126803301.960    24351240.359  
  24684542.203   129718125.784                                                  
  23537207.458   123688848.858                                                  
 21  9  1  9 13 27.0000000  0 16G 1G 7G 8G13G14G17G19G21G22G30C23C25
                                C28C34E21E27
  20216943.216   106240716.126    20216945.896    82784963.265                  
  21923309.075   115207775.171    21923308.771    89772294.110                  
  24057106.860   126420908.433    24057109.255    98509788.524                  
  24337767.634   127895844.222    24337767.045    99659102.172                  
  20986640.819   110285556.978    20986640.783    85936803.508                  
  21641214.258   113725362.469    21641213.633    88617168.476                  
  23773526.824   124930741.481    23773524.983    97348633.906                  
  21915055.105   115164399.706    21915053.837    89738495.827                  
  24052437.595   126396433.476    24052435.272    98490733.246                  
  20970000.685   110198060.479    20970002.632    85868609.320                  
                 114300282.030                   114300282.030    21950157.961  
                 124403056.781                   124403056.781    23890296.779  
                 121701424.657                   121701424.657    23371478.381  
                 126805964.935                   126805964.935    24351751.753  
  24684204.800   129716352.731                                                  
  23537322.392   123689452.871                                                  
 21  9  1  9 13 28.0000000  0 16G 1G 7G 8G13G14G17G19G21G22G30C23C25
                                C28C34E21E27
  20216920.844   106240598.587    20216923.542    82784871.671                  
  21923890.319   115210829.562    21923890.015    89774674.153                  
  24057679.294   126423916.583    24057681.689    98512132.535                  
  24338003.505   127897083.695    24338002.898    99660067.992                  
  20986306.132   110283798.216    20986306.097    85935433.039                  
  21640911.503   113723771.488    21640910.878    88615928.754                  
  23772959.393   124927759.642    23772957.534    97346310.394                  
  21915450.100   115166475.374    21915448.814    89740113.230                  
  24052030.682   126394295.064    24052028.359    98489066.954                  
  20970230.981   110199270.687    20970232.946    85869552.341                  
                 114300466.467                   114300466.467    21950193.360  
                 124405854.883                   124405854.883    23890834.118  
                 121699170.829                   121699170.829    23371045.558  
                 126808628.020                   126808628.020    24352263.182  
  24683867.433   129714579.843                                                  
  23537437.397   123690057.167                                                  
 21  9  1  9 13 29.0000000  0 16G 1G 7G 8G13G14G17G19G21G22G30C23C25
                                C28C34E21E27
  20216898.614   106240481.790    20216901.313    82784780.661                  
  21924471.616   115213884.343    21924471.312    89777054.500                  
  24058251.728   126426924.733    24058254.123    98514476.548                  
  24338239.466   127898323.687    24338238.858    99661034.218                  
  20985971.517   110282039.742    20985971.481    85934062.804                  
  21640608.820   113722180.817    21640608.177    88614689.269                  
  23772392.016   124924777.999    23772390.157    97343987.038                  
  21915845.166   115168551.493    21915843.898    89741730.983                  
  24051623.804   126392156.937    24051621.499    98487400.878                  
  20970461.402   110200481.519    20970463.332    85870495.844                  
                 114300651.410                   114300651.410    21950228.883  
                 124408653.270                   124408653.270    23891371.511  
                 121696917.300                   121696917.300    23370612.806  
                 126811291.228                   126811291.228    24352774.611  
  24683530.102   129712807.117                                                  
  23537552.438   123690661.766                                                  
 21  9  1  9 13 30.0000000  0 16G 1G 7G 8G13G14G17G19G21G22G30C23C25
                                C28C34E21E27
  20216876.546   106240365.741    20216879.244    82784690.238                  
  21925053.002   115216939.488    21925052.699    89779435.133                  
  24058824.163   126429932.875    24058826.557    98516820.552                  
  24338475.516   127899564.160    24338474.926    99662000.825                  
  20985636.937   110280281.538    20985636.902    85932692.773                  
  21640306.172   113720590.425    21640305.547    88613450.007                  
  23771824.656   124921796.531    23771822.798    97341663.817                  
  21916240.322   115170628.038    21916239.035    89743349.070                  
  24051216.980   126390019.094    24051214.675    98485735.027                  
  20970691.912   110201692.980    20970693.878    85871439.840                  
                 114300836.862                   114300836.862    21950264.496  
                 124411451.937                   124411451.937    23891908.976  
                 121694664.079                   121694664.079    23370180.072  
                 126813954.543                   126813954.543    24353286.077  
  24683192.788   129711034.543                                                  
  23537667.568   123691266.656                                                  
 21  9  1  9 13 31.0000000  0 16G 1G 7G 8G13G14G17G19G21G22G30C23C25
                                C28C34E21E27
  20216854.603   106240250.444    20216857.283    82784600.398                  
  21925634.443   115219995.021    21925634.139    89781816.067                  
  24059396.579   126432941.007    24059398.973    98519164.551                  
  24338711.673   127900805.144    24338711.083    99662967.821                  
  20985302.411   110278523.609    20985302.376    85931322.961                  
  21640003.596   113719000.347    21640002.953    88612210.985                  
  23771257.333   124918815.249    23771255.474    97339340.742                  
  21916635.567   115172705.055    21916634.298    89744967.528                  
  24050810.227   126387881.536    24050807.904    98484069.398                  
  20970922.583   110202905.063    20970924.549    85872384.320                  
                 114301022.820                   114301022.820    21950300.216  
                 124414250.894                   124414250.894    23892446.476  
                 121692411.152                   121692411.152    23369747.445  
                 126816617.981                   126816617.981    24353797.559  
  24682855.492   129709262.124                                                  
  23537782.716   123691871.848                                                  
 21  9  1  9 13 32.0000000  0 16G 1G 7G 8G13G14G17G19G21G22G30C23C25
                                C28C34E21E27
  20216832.803   106240135.904    20216835.501    82784511.141                  
  21926215.954   115223050.929    21926215.668    89784197.297                  
  24059969.013   126435949.137    24059971.407    98521508.548                  
  24338947.919   127902046.613    24338947.311    99663935.199                  
  20984967.939   110276765.957    20984967.903    85929953.359                  
  21639701.056   113717410.572    21639700.448    88610972.194                  
  23770690.063   124915834.155    23770688.204    97337017.809                  
  21917030.883   115174782.507    21917029.615    89746586.323                  
  24050403.528   126385744.275    24050401.205    98482403.999                  
  20971153.362   110204117.782    20971155.292    85873329.294                  
                 114301209.284                   114301209.284    21950336.026  
                 124417050.136                   124417050.136    23892984.065  
                 121690158.528                   121690158.528    23369314.836  
                 126819281.531                   126819281.531    24354309.060  
  24682518.268   129707489.855                                                  
  23537897.935   123692477.327                                                  
 21  9  1  9 13 33.0000000  0 16G 1G 7G 8G13G14G17G19G21G22G30C23C25
                                C28C34E21E27
  20216811.146   106240022.106    20216813.844    82784422.470                  
  21926797.555   115226107.216    21926797.251    89786578.816                  
  24060541.447   126438957.269    24060543.842    98523852.547                  
  24339184.255   127903288.598    24339183.665    99664902.979                  
  20984633.538   110275008.583    20984633.485    85928583.977                  
  21639398.605   113715821.087    21639397.979    88609733.637                  
  23770122.793   124912853.222    23770120.934    97334695.009                  
  21917426.307   115176860.410    21917425.020    89748205.464                  
  24049996.865   126383607.289    24049994.542    98480738.820                  
  20971384.247   110205331.124    20971386.195    85874274.755                  
                 114301396.259                   114301396.259    21950371.925  
                 124419849.665                   124419849.665    23893521.673  
                 121687906.206                   121687906.206    23368882.298  
                 126821945.195                   126821945.195    24354820.597  
  24682181.044   129705717.739                                                  
  23538013.226   123693083.109                                                  
 21  9  1  9 13 34.0000000  0 16G 1G 7G 8G13G14G17G19G21G22G30C23C25
                                C28C34E21E27
  20216789.631   106239909.068    20216792.312    82784334.386                  
  21927379.228   115229163.896    21927378.924    89788960.645                  
  24061113.881   126441965.413    24061116.258    98526196.556                  
  24339420.698   127904531.069    24339420.108    99665871.142                  
  20984299.155   110273251.488    20984299.119    85927214.812                  
  21639096.171   113714231.910    21639095.564    88608495.319                  
  23769555.576   124909872.491    23769553.736    97332372.359                  
  21917821.802   115178938.754    21917820.515    89749824.957                  
  24049590.256   126381470.597    24049587.933    98479073.863                  
  20971615.258   110206545.102    20971617.206    85875220.712                  
                 114301583.741                   114301583.741    21950407.949  
                 124422649.477                   124422649.477    23894059.334  
                 121685654.186                   121685654.186    23368449.814  
                 126824608.982                   126824608.982    24355332.133  
  24681843.838   129703945.790                                                  
  23538128.535   123693689.181                                                  
 21  9  1  9 13 35.0000000  0 16G 1G 7G 8G13G14G17G19G21G22G30C23C25
                                C28C34E21E27
  20216768.260   106239796.772    20216770.958    82784246.883                  
  21927960.954   115232220.954    21927960.668    89791342.766                  
  24061686.298   126444973.540    24061688.692    98528540.548                  
  24339657.212   127905774.031    24339656.622    99666839.683                  
  20983964.862   110271494.661    20983964.808    85925845.860                  
  21638793.845   113712643.038    21638793.202    88607257.238                  
  23768988.413   124906891.946    23768986.555    97330049.856                  
  21918217.386   115181017.555    21918216.100    89751444.800                  
  24049183.717   126379334.186    24049181.394    98477409.130                  
  20971846.376   110207759.697    20971848.342    85876167.149                  
                 114301771.731                   114301771.731    21950444.044  
                 124425449.574                   124425449.574    23894597.084  
                 121683402.469                   121683402.469    23368017.402  
                 126827272.876                   126827272.876    24355843.723  
  24681506.685   129702173.996                                                  
  23538243.933   123694295.561                                                  
 21  9  1  9 13 36.0000000  0 16G 1G 7G 8G13G14G17G19G21G22G30C23C25
                                C28C34E21E27
  20216747.032   106239685.222    20216749.748    82784159.965                  
  21928542.787   115235278.394    21928542.483    89793725.187                  
  24062258.714   126447981.652    24062261.126    98530884.531                  
  24339893.834   127907017.504    24339893.244    99667808.621                  
  20983630.604   110269738.117    20983630.568    85924477.125                  
  21638491.537   113711054.466    21638490.912    88606019.391                  
  23768421.269   124903911.570    23768419.392    97327727.488                  
  21918613.042   115183096.800    21918611.774    89753064.993                  
  24048777.215   126377198.063    24048774.892    98475744.618                  
  20972077.637   110208974.934    20972079.603    85877114.085                  
                 114301960.227                   114301960.227    21950480.247  
                 124428249.953                   124428249.953    23895134.853  
                 121681151.054                   121681151.054    23367585.043  
                 126829936.892                   126829936.892    24356355.314  
  24681169.568   129700402.355                                                  
  23538359.385   123694902.229                                                  
 21  9  1  9 13 37.0000000  0 16G 1G 7G 8G13G14G17G19G21G22G30C23C25
                                C28C34E21E27
  20216725.964   106239574.426    20216728.644    82784073.629                  
  21929124.656   115238336.204    21929124.352    89796107.893                  
  24062831.166   126450989.790    24062833.560    98533228.535                  
  24340130.562   127908261.463    24340129.955    99668777.942                  
  20983296.381   110267981.844    20983296.346    85923108.598                  
  21638189.301   113709466.184    21638188.675    88604781.767                  
  23767854.159   124900931.382    23767852.301    97325405.262                  
  21919008.805   115185176.517    21919007.537    89754685.547                  
  24048370.784   126375062.231    24048368.479    98474080.333                  
  20972309.005   110210190.779    20972310.953    85878061.497                  
                 114302149.230                   114302149.230    21950516.521  
                 124431050.620                   124431050.620    23895672.692  
                 121678899.939                   121678899.939    23367152.738  
                 126832601.018                   126832601.018    24356866.939  
  24680832.433   129698630.870                                                  
  23538474.872   123695509.179                                                  
 21  9  1  9 13 38.0000000  0 16G 1G 7G 8G13G14G17G19G21G22G30C23C25
                                C28C34E21E27
  20216705.021   106239464.382    20216707.702    82783987.879                  
  21929706.614   115241394.398    21929706.328    89798490.902                  
  24063403.582   126453997.899    24063405.977    98535572.516                  
  24340367.380   127909505.934    24340366.773    99669747.657                  
  20982962.249   110266225.847    20982962.177    85921740.289                  
  21637887.118   113707878.219    21637886.492    88603544.391                  
  23767287.086   124897951.374    23767285.228    97323083.179                  
  21919404.640   115187256.665    21919403.353    89756306.442                  
  24047964.407   126372926.672    24047962.084    98472416.261                  
  20972540.498   110211407.263    20972542.446    85879009.406                  
                 114302338.738                   114302338.738    21950552.920  
                 124433851.571                   124433851.571    23896210.603  
                 121676649.126                   121676649.126    23366720.504  
                 126835265.261                   126835265.261    24357378.583  
  24680495.387   129696859.534                                                  
  23538590.431   123696116.434                                                  
 21  9  1  9 13 39.0000000  0 16G 1G 7G 8G13G14G17G19G21G22G30C23C25
                                C28C34E21E27
  20216684.222   106239355.079    20216686.902    82783902.707                  
  21930288.644   115244452.973    21930288.340    89800874.207                  
  24063975.998   126457006.008    24063978.393    98537916.497                  
  24340604.288   127910750.894    24340603.680    99670717.754                  
  20982628.134   110264470.128    20982628.080    85920372.196                  
  21637585.006   113706290.544    21637584.363    88602307.242                  
  23766720.048   124894971.556    23766718.172    97320761.243                  
  21919800.564   115189337.251    21919799.295    89757927.680                  
  24047558.083   126370791.417    24047555.760    98470752.426                  
  20972772.099   110212624.373    20972774.064    85879957.806                  
                 114302528.758                   114302528.758    21950589.427  
                 124436652.808                   124436652.808    23896748.533  
                 121674398.612                   121674398.612    23366288.324  
                 126837929.620                   126837929.620    24357890.245  
  24680158.342   129695088.362                                                  
  23538706.044   123696723.985                                                  
 21  9  1  9 13 40.0000000  0 19G 1G 7G 8G13G14G17G19G21G22G30C23C25
                                C28C34E13E15E21E27E30
  20216663.565   106239246.540    20216666.264    82783818.133                  
  21930870.745   115247511.930    21930870.441    89803257.808                  
  24064548.415   126460014.114    24064550.827    98540260.474                  
  24340841.285   127911996.347    24340840.677    99671688.239                  
  20982294.072   110262714.688    20982294.036    85919004.321                  
  21637282.912   113704703.172    21637282.305    88601070.329                  
  23766153.028   124891991.914    23766151.188    97318439.444                  
  21920196.577   115191418.300    21920195.308    89759549.277                  
  24047151.795   126368656.442    24047149.508    98469088.809                  
  20973003.842   110213842.101    20973005.772    85880906.683                  
                 114302719.284                   114302719.284    21950626.004  
                 124439454.327                   124439454.327    23897286.533  
                 121672148.401                   121672148.401    23365856.179  
                 126840594.093                   126840594.093    24358401.924  
  23866508.714   125419310.062                                                  
  23732768.994   124716516.285                                                  
  24679821.314   129693317.341                                                  
  23538821.728   123697331.832                                                  
  26334850.400   138390539.239                                                  
 21  9  1  9 13 41.0000000  0 19G 1G 7G 8G13G14G17G19G21G22G30C23C25
                                C28C34E13E15E21E27E30
  20216643.034   106239138.746    20216645.732    82783734.137                  
  21931452.918   115250571.269    21931452.614    89805641.711                  
  24065120.849   126463022.211    24065123.243    98542604.445                  
  24341078.389   127913242.294    24341077.781    99672659.106                  
  20981960.082   110260959.518    20981960.046    85917636.656                  
  21636980.926   113703116.102    21636980.300    88599833.649                  
  23765586.062   124889012.457    23765584.204    97316117.790                  
  21920592.680   115193499.798    21920591.393    89761171.219                  
  24046745.579   126366521.762    24046743.273    98467425.425                  
  20973235.675   110215060.461    20973237.622    85881856.058                  
                 114302910.321                   114302910.321    21950662.672  
                 124442256.133                   124442256.133    23897824.605  
                 121669898.493                   121669898.493    23365424.124  
                 126843258.685                   126843258.685    24358913.622  
  23866168.827   125417523.925                                                  
  23732974.863   124717598.079                                                  
  24679484.340   129691546.480                                                  
  23538937.448   123697939.967                                                  
  26335306.829   138392937.816                                                  
 21  9  1  9 13 42.0000000  0 19G 1G 7G 8G13G14G17G19G21G22G30C23C25
                                C28C34E13E15E21E27E30
  20216622.681   106239031.694    20216625.361    82783650.718                  
  21932035.162   115253630.989    21932034.859    89808025.910                  
  24065693.283   126466030.323    24065695.677    98544948.429                  
  24341315.582   127914488.753    24341314.975    99673630.376                  
  20981626.146   110259204.633    20981626.092    85916269.215                  
  21636678.957   113701529.325    21636678.332    88598597.204                  
  23765019.114   124886033.167    23765017.255    97313796.265                  
  21920988.836   115195581.730    21920987.585    89762793.508                  
  24046339.416   126364387.359    24046337.128    98465762.253                  
  20973467.633   110216279.445    20973469.598    85882805.914                  
                 114303101.862                   114303101.862    21950699.482  
                 124445058.222                   124445058.222    23898362.713  
                 121667648.886                   121667648.886    23364992.105  
                 126845923.387                   126845923.387    24359425.355  
  23865829.012   125415738.169                                                  
  23733180.803   124718680.262                                                  
  24679147.384   129689775.772                                                  
  23539053.221   123698548.402                                                  
  26335763.275   138395336.540                                                  
 21  9  1  9 13 43.0000000  0 19G 1G 7G 8G13G14G17G19G21G22G30C23C25
                                C28C34E13E15E21E27E30
  20216602.453   106238925.403    20216605.134    82783567.894                  
  21932617.478   115256691.082    21932617.174    89810410.393                  
  24066265.699   126469038.438    24066268.094    98547292.414                  
  24341552.865   127915735.694    24341552.258    99674602.016                  
  20981292.245   110257450.021    20981292.192    85914901.980                  
  21636377.060   113699942.839    21636376.435    88597360.981                  
  23764452.219   124883054.074    23764450.361    97311474.894                  
  21921385.117   115197664.109    21921383.849    89764416.141                  
  24045933.324   126362253.255    24045931.001    98464099.313                  
  20973699.715   110217499.058    20973701.681    85883756.262                  
                 114303293.915                   114303293.915    21950736.364  
                 124447860.599                   124447860.599    23898900.874  
                 121665399.582                   121665399.582    23364560.139  
                 126848588.208                   126848588.208    24359937.106  
  23865489.268   125413952.789                                                  
  23733386.798   124719762.848                                                  
  24678810.464   129688005.226                                                  
  23539169.066   123699157.141                                                  
  26336219.775   138397735.419                                                  
 21  9  1  9 13 44.0000000  0 19G 1G 7G 8G13G14G17G19G21G22G30C23C25
                                C28C34E13E15E21E27E30
  20216582.368   106238819.851    20216585.067    82783485.647                  
  21933199.865   115259751.550    21933199.561    89812795.176                  
  24066838.116   126472046.547    24066840.528    98549636.395                  
  24341790.237   127916983.134    24341789.647    99675574.047                  
  20980958.398   110255695.684    20980958.363    85913534.965                  
  21636075.217   113698356.652    21636074.591    88596124.991                  
  23763885.342   124880075.160    23763883.484    97309153.664                  
  21921781.452   115199746.942    21921780.201    89766039.126                  
  24045527.269   126360119.442    24045524.963    98462436.601                  
  20973931.941   110218719.298    20973933.889    85884707.094                  
                 114303486.470                   114303486.470    21950773.335  
                 124450663.254                   124450663.254    23899439.107  
                 121663150.578                   121663150.578    23364128.245  
                 126851253.140                   126851253.140    24360448.874  
  23865149.596   125412167.794                                                  
  23733592.899   124720845.835                                                  
  24678473.561   129686234.835                                                  
  23539284.964   123699766.169                                                  
  26336676.293   138400134.448                                                  
 21  9  1  9 13 45.0000000  0 19G 1G 7G 8G13G14G17G19G21G22G30C23C25
                                C28C34E13E15E21E27E30
  20216562.427   106238715.050    20216565.125    82783403.989                  
  21933782.324   115262812.403    21933782.020    89815180.254                  
  24067410.532   126475054.656    24067412.944    98551980.374                  
  24342027.716   127918231.070    24342027.127    99676546.460                  
  20980624.623   110253941.621    20980624.587    85912168.164                  
  21635773.445   113696770.771    21635772.819    88594889.235                  
  23763318.501   124877096.431    23763316.660    97306832.574                  
  21922177.894   115201830.219    21922176.626    89767662.460                  
  24045121.267   126357985.919    24045118.961    98460774.118                  
  20974164.256   110219940.161    20974166.204    85885658.418                  
                 114303679.535                   114303679.535    21950810.395  
                 124453466.195                   124453466.195    23899977.376  
                 121660901.876                   121660901.876    23363696.404  
                 126853918.191                   126853918.191    24360960.679  
  23864809.995   125410383.180                                                  
  23733799.054   124721929.219                                                  
  24678136.694   129684464.597                                                  
  23539400.899   123700375.492                                                  
  26337132.864   138402533.633                                                  
 21  9  1  9 13 46.0000000  0 19G 1G 7G 8G13G14G17G19G21G22G30C23C25
                                C28C34E13E15E21E27E30
  20216542.628   106238611.003    20216545.326    82783322.909                  
  21934364.854   115265873.649    21934364.568    89817565.640                  
  24067982.984   126478062.782    24067985.378    98554324.371                  
  24342265.285   127919479.493    24342264.678    99677519.257                  
  20980290.883   110252187.836    20980290.847    85910801.579                  
  21635471.726   113695185.206    21635471.083    88593653.735                  
  23762751.696   124874117.875    23762749.855    97304511.626                  
  21922574.426   115203913.953    21922573.139    89769286.149                  
  24044715.318   126355852.680    24044713.013    98459111.857                  
  20974396.697   110221161.637    20974398.644    85886610.219                  
                 114303873.111                   114303873.111    21950847.580  
                 124456269.426                   124456269.426    23900515.698  
                 121658653.477                   121658653.477    23363264.617  
                 126856583.356                   126856583.356    24361472.501  
  23864470.466   125408598.956                                                  
  23734005.298   124723013.005                                                  
  24677799.863   129682694.517                                                  
  23539516.922   123700985.109                                                  
  26337589.418   138404932.970                                                  
 21  9  1  9 13 47.0000000  0 19G 1G 7G 8G13G14G17G19G21G22G30C23C25
                                C28C34E13E15E21E27E30
  20216522.954   106238507.704    20216525.652    82783242.419                  
  21934947.456   115268935.264    21934947.152    89819951.317                  
  24068555.400   126481070.903    24068557.795    98556668.359                  
  24342502.943   127920728.409    24342502.336    99678492.441                  
  20979957.197   110250434.321    20979957.161    85909435.204                  
  21635170.043   113693599.926    21635169.418    88592418.449                  
  23762184.944   124871139.506    23762183.085    97302190.820                  
  21922971.029   115205998.121    21922969.760    89770910.177                  
  24044309.441   126353719.741    24044307.118    98457449.824                  
  20974629.262   110222383.749    20974631.192    85887562.513                  
                 114304067.190                   114304067.190    21950884.855  
                 124459072.937                   124459072.937    23901054.091  
                 121656405.380                   121656405.380    23362832.901  
                 126859248.634                   126859248.634    24361984.342  
  23864131.008   125406815.090                                                  
  23734211.596   124724097.192                                                  
  24677463.068   129680924.590                                                  
  23539632.982   123701595.031                                                  
  26338046.043   138407332.462                                                  
 21  9  1  9 13 48.0000000  0 19G 1G 7G 8G13G14G17G19G21G22G30C23C25
                                C28C34E13E15E21E27E30
  20216503.441   106238405.151    20216506.139    82783162.508                  
  21935530.147   115271997.259    21935529.843    89822337.285                  
  24069127.816   126484079.009    24069130.229    98559012.340                  
  24342740.708   127921977.835    24342740.101    99679466.020                  
  20979623.582   110248681.091    20979623.547    85908069.050                  
  21634868.432   113692014.943    21634867.807    88591183.399                  
  23761618.228   124868161.317    23761616.351    97299870.153                  
  21923367.703   115208082.721    21923366.435    89772534.542                  
  24043903.600   126351587.075    24043901.295    98455788.008                  
  20974861.934   110223606.493    20974863.882    85888515.300                  
                 114304261.778                   114304261.778    21950922.219  
                 124461876.730                   124461876.730    23901592.539  
                 121654157.582                   121654157.582    23362401.239  
                 126861914.028                   126861914.028    24362496.200  
  23863791.621   125405031.617                                                  
  23734418.001   124725181.764                                                  
  24677126.273   129679154.824                                                  
  23539749.094   123702205.238                                                  
  26338502.685   138409732.099                                                  
 21  9  1  9 13 49.0000000  0 19G 1G 7G 8G13G14G17G19G21G22G30C23C25
                                C28C34E13E15E21E27E30
  20216484.089   106238303.352    20216486.751    82783083.184                  
  21936112.891   115275059.634    21936112.605    89824723.551                  
  24069700.233   126487087.106    24069702.645    98561356.309                  
  24342978.563   127923227.755    24342977.955    99680439.981                  
  20979290.003   110246928.136    20979289.968    85906703.114                  
  21634566.874   113690430.258    21634566.267    88589948.583                  
  23761051.512   124865183.310    23761049.653    97297549.625                  
  21923764.485   115210167.788    21923763.216    89774159.265                  
  24043497.848   126349454.714    24043495.525    98454126.431                  
  20975094.732   110224829.864    20975096.680    85889468.579                  
                 114304456.875                   114304456.875    21950959.673  
                 124464680.813                   124464680.813    23902131.022  
                 121651910.087                   121651910.087    23361969.613  
                 126864579.536                   126864579.536    24363008.076  
  23863452.306   125403248.523                                                  
  23734624.460   124726266.750                                                  
  24676789.549   129677385.220                                                  
  23539865.279   123702815.747                                                  
  26338959.346   138412131.888                                                  
 21  9  1  9 13 50.0000000  0 19G 1G 7G 8G13G14G17G19G21G22G30C23C25
                                C28C34E13E15E21E27E30
  20216464.844   106238202.305    20216467.542    82783004.445                  
  21936695.725   115278122.386    21936695.421    89827110.109                  
  24070272.685   126490095.212    24070275.079    98563700.286                  
  24343216.507   127924478.173    24343215.899    99681414.333                  
  20978956.478   110245175.461    20978956.442    85905337.391                  
  21634265.388   113688845.870    21634264.763    88588713.992                  
  23760484.867   124862205.499    23760483.009    97295229.258                  
  21924161.338   115212253.288    21924160.052    89775784.333                  
  24043092.114   126347322.632    24043089.809    98452465.066                  
  20975327.655   110226053.855    20975329.603    85890422.335                  
                 114304652.481                   114304652.481    21950997.251  
                 124467485.175                   124467485.175    23902669.576  
                 121649662.894                   121649662.894    23361538.076  
                 126867245.160                   126867245.160    24363519.988  
  23863113.081   125401465.813                                                  
  23734831.008   124727352.121                                                  
  24676452.825   129675615.753                                                  
  23539981.499   123703426.547                                                  
  26339416.043   138414531.829                                                  
 21  9  1  9 13 51.0000000  0 19G 1G 7G 8G13G14G17G19G21G22G30C23C25
                                C28C34E13E15E21E27E30
  20216445.760   106238101.988    20216448.458    82782926.278                  
  21937278.613   115281185.515    21937278.327    89829496.965                  
  24070845.101   126493103.327    24070847.495    98566044.274                  
  24343454.540   127925729.085    24343453.933    99682389.071                  
  20978623.006   110243423.055    20978622.953    85903971.880                  
  21633963.938   113687261.793    21633963.313    88587479.644                  
  23759918.240   124859227.855    23759916.382    97292909.011                  
  21924558.281   115214339.250    21924557.012    89777409.757                  
  24042686.433   126345190.849    24042684.146    98450803.938                  
  20975560.703   110227278.486    20975562.632    85891376.591                  
                 114304848.593                   114304848.593    21951034.919  
                 124470289.835                   124470289.835    23903208.184  
                 121647416.015                   121647416.015    23361106.575  
                 126869910.892                   126869910.892    24364031.899  
  23862773.891   125399683.479                                                  
  23735037.627   124728437.908                                                  
  24676116.119   129673846.454                                                  
  23540097.808   123704037.646                                                  
  26339872.757   138416931.926                                                  
 21  9  1  9 13 52.0000000  0 19G 1G 7G 8G13G14G17G19G21G22G30C23C25
                                C28C34E13E15E21E27E30
  20216426.819   106238002.442    20216429.499    82782848.706                  
  21937861.572   115284249.033    21937861.286    89831884.117                  
  24071417.517   126496111.430    24071419.912    98568388.250                  
  24343692.681   127926980.495    24343692.073    99683364.196                  
  20978289.588   110241670.934    20978289.535    85902606.591                  
  21633662.559   113685678.013    21633661.916    88586245.532                  
  23759351.632   124856250.403    23759349.773    97290588.923                  
  21924955.312   115216425.640    21924954.044    89779035.516                  
  24042280.842   126343059.336    24042278.519    98449143.019                  
  20975793.840   110228503.735    20975795.805    85892331.333                  
                 114305045.216                   114305045.216    21951072.676  
                 124473094.767                   124473094.767    23903746.846  
                 121645169.424                   121645169.424    23360675.163  
                 126872576.746                   126872576.746    24364543.865  
  23862434.809   125397901.527                                                  
  23735244.300   124729524.085                                                  
  24675779.484   129672077.310                                                  
  23540214.136   123704649.032                                                  
  26340329.507   138419332.176                                                  
 21  9  1  9 13 53.0000000  0 19G 1G 7G 8G13G14G17G19G21G22G30C23C25
                                C28C34E13E15E21E27E30
  20216408.020   106237903.639    20216410.701    82782771.719                  
  21938444.620   115287312.914    21938444.316    89834271.564                  
  24071989.934   126499119.518    24071992.346    98570732.215                  
  24343930.893   127928232.401    24343930.303    99684339.707                  
  20977956.224   110239919.083    20977956.188    85901241.512                  
  21633361.216   113684094.523    21633360.608    88585011.644                  
  23758785.076   124853273.129    23758783.218    97288268.969                  
  21925352.416   115218512.485    21925351.165    89780661.626                  
  24041875.287   126340928.134    24041872.964    98447482.340                  
  20976027.120   110229729.610    20976029.085    85893286.557                  
                 114305242.343                   114305242.343    21951110.523  
                 124475899.982                   124475899.982    23904285.561  
                 121642923.136                   121642923.136    23360243.787  
                 126875242.710                   126875242.710    24365055.812  
  23862095.780   125396119.961                                                  
  23735451.081   124730610.655                                                  
  24675442.832   129670308.328                                                  
  23540330.535   123705260.727                                                  
  26340786.275   138421732.564                                                  
 21  9  1  9 13 54.0000000  0 19G 1G 7G 8G13G14G17G19G21G22G30C23C25
                                C28C34E13E15E21E27E30
  20216389.365   106237805.573    20216392.046    82782695.304                  
  21939027.722   115290377.176    21939027.436    89836659.296                  
  24072562.368   126502127.630    24072564.762    98573076.196                  
  24344169.247   127929484.797    24344168.640    99685315.598                  
  20977622.895   110238167.516    20977622.859    85899876.657                  
  21633059.962   113682511.341    21633059.336    88583777.995                  
  23758218.557   124850296.034    23758216.698    97285949.155                  
  21925749.626   115220599.793    21925748.358    89782288.102                  
  24041469.785   126338797.211    24041467.462    98445821.883                  
  20976260.525   110230956.101    20976262.473    85894242.265                  
                 114305439.975                   114305439.975    21951148.477  
                 124478705.481                   124478705.481    23904824.312  
                 121640677.153                   121640677.153    23359812.465  
                 126877908.793                   126877908.793    24365567.813  
  23861756.840   125394338.778                                                  
  23735657.915   124731697.637                                                  
  24675106.269   129668539.504                                                  
  23540447.005   123705872.703                                                  
  26341243.097   138424133.121                                                  
 21  9  1  9 13 55.0000000  0 19G 1G 7G 8G13G14G17G19G21G22G30C23C25
                                C28C34E13E15E21E27E30
  20216370.835   106237708.281    20216373.515    82782619.487                  
  21939610.913   115293441.817    21939610.627    89839047.328                  
  24073134.802   126505135.727    24073137.178    98575420.168                  
  24344407.638   127930737.692    24344407.048    99686291.880                  
  20977289.638   110236416.223    20977289.602    85898512.011                  
  21632758.744   113680928.461    21632758.118    88582544.585                  
  23757652.073   124847319.124    23757650.215    97283629.487                  
  21926146.926   115222687.536    21926145.640    89783914.915                  
  24041064.319   126336666.579    24041062.014    98444161.647                  
  20976494.037   110232183.234    20976495.985    85895198.473                  
                 114305638.122                   114305638.122    21951186.538  
                 124481511.265                   124481511.265    23905363.135  
                 121638431.469                   121638431.469    23359381.196  
                 126880574.987                   126880574.987    24366079.832  
  23861417.954   125392557.969                                                  
  23735864.838   124732785.011                                                  
  24674769.688   129666770.830                                                  
  23540563.493   123706484.984                                                  
  26341699.936   138426533.811                                                  
 21  9  1  9 13 56.0000000  0 19G 1G 7G 8G13G14G17G19G21G22G30C23C25
                                C28C34E13E15E21E27E30
  20216352.466   106237611.726    20216355.164    82782544.254                  
  21940194.158   115296506.828    21940193.854    89841435.648                  
  24073707.218   126508143.816    24073709.595    98577764.133                  
  24344646.154   127931991.077    24344645.564    99687268.544                  
  20976956.434   110234665.211    20976956.398    85897147.586                  
  21632457.597   113679345.884    21632456.954    88581311.406                  
  23757085.625   124844342.399    23757083.767    97281309.957                  
  21926544.280   115224775.721    21926542.993    89785542.075                  
  24040658.943   126334536.239    24040656.620    98442501.645                  
  20976727.657   110233410.984    20976729.623    85896155.161                  
                 114305836.773                   114305836.773    21951224.688  
                 124484317.332                   124484317.332    23905902.029  
                 121636186.091                   121636186.091    23358949.998  
                 126883241.297                   126883241.297    24366591.887  
  23861079.157   125390777.540                                                  
  23736071.833   124733872.782                                                  
  24674433.143   129665002.314                                                  
  23540680.088   123707097.565                                                  
  26342156.793   138428934.671                                                  
 21  9  1  9 13 57.0000000  0 19G 1G 7G 8G13G14G17G19G21G22G30C23C25
                                C28C34E13E15E21E27E30
  20216334.239   106237515.917    20216336.920    82782469.597                  
  21940777.475   115299572.218    21940777.207    89843824.266                  
  24074279.617   126511151.890    24074282.029    98580108.086                  
  24344884.759   127933244.961    24344884.151    99688245.598                  
  20976623.284   110232914.472    20976623.248    85895783.376                  
  21632156.504   113677763.618    21632155.861    88580078.473                  
  23756519.195   124841365.850    23756517.336    97278990.575                  
  21926941.740   115226864.362    21926940.454    89787169.585                  
  24040253.602   126332406.188    24040251.279    98440841.863                  
  20976961.420   110234639.368    20976963.385    85897112.340                  
                 114306035.935                   114306035.935    21951262.928  
                 124487123.683                   124487123.683    23906440.941  
                 121633941.009                   121633941.009    23358518.837  
                 126885907.724                   126885907.724    24367103.924  
  23860740.414   125388997.492                                                  
  23736278.899   124734960.952                                                  
  24674096.633   129663233.954                                                  
  23540796.702   123707710.442                                                  
  26342613.704   138431335.684                                                  
 21  9  1  9 13 58.0000000  0 19G 1G 7G 8G13G14G17G19G21G22G30C23C25
                                C28C34E13E15E21E27E30
  20216316.138   106237420.864    20216318.836    82782395.528                  
  21941360.880   115302637.985    21941360.577    89846213.171                  
  24074852.033   126514159.957    24074854.445    98582452.031                  
  24345123.453   127934499.332    24345122.864    99689223.030                  
  20976290.188   110231164.006    20976290.134    85894419.379                  
  21631855.465   113676181.636    21631854.821    88578845.762                  
  23755952.818   124838389.480    23755950.960    97276671.323                  
  21927339.272   115228953.431    21927338.004    89788797.429                  
  24039848.314   126330276.430    24039846.027    98439182.315                  
  20977195.307   110235868.367    20977197.237    85898070.005                  
                 114306235.603                   114306235.603    21951301.275  
                 124489930.317                   124489930.317    23906979.942  
                 121631696.230                   121631696.230    23358087.764  
                 126888574.258                   126888574.258    24367615.997  
  23860401.760   125387217.819                                                  
  23736486.054   124736049.532                                                  
  24673760.160   129661465.749                                                  
  23540913.386   123708323.601                                                  
  26343070.615   138433736.840                                                  
 21  9  1  9 13 59.0000000  0 19G 1G 7G 8G13G14G17G19G21G22G30C23C25
                                C28C34E13E15E21E27E30
  20216298.197   106237326.563    20216300.896    82782322.046                  
  21941944.340   115305704.114    21941944.054    89848602.362                  
  24075424.467   126517168.022    24075426.861    98584795.984                  
  24345362.255   127935754.202    24345361.665    99690200.849                  
  20975957.145   110229413.825    20975957.091    85893055.597                  
  21631554.479   113674599.959    21631553.836    88577613.289                  
  23755386.460   124835413.301    23755384.601    97274352.218                  
  21927736.894   115231042.973    21927735.625    89790425.645                  
  24039443.099   126328146.968    24039440.776    98437522.997                  
  20977429.284   110237097.995    20977431.232    85899028.156                  
                 114306435.776                   114306435.776    21951339.711  
                 124492737.238                   124492737.238    23907518.979  
                 121629451.753                   121629451.753    23357656.746  
                 126891240.912                   126891240.912    24368128.123  
  23860063.178   125385438.543                                                  
  23736693.282   124737138.497                                                  
  24673423.704   129659697.691                                                  
  23541030.125   123708937.071                                                  
  26343527.580   138436138.152                                                  
 21  9  1  9 14  0.0000000  0 19G 1G 7G 8G13G14G17G19G21G22G30C23C25
                                C28C34E13E15E21E27E30
  20216280.400   106237233.015    20216283.080    82782249.152                  
  21942527.888   115308770.616    21942527.585    89850991.844                  
  24075996.883   126520176.090    24075999.278    98587139.929                  
  24345601.146   127937009.565    24345600.538    99691179.056                  
  20975624.138   110227663.925    20975624.102    85891692.038                  
  21631253.547   113673018.568    21631252.921    88576381.031                  
  23754820.154   124832437.289    23754818.296    97272033.255                  
  21928134.605   115233132.945    21928133.336    89792054.195                  
  24039037.936   126326017.788    24039035.613    98435863.895                  
  20977663.404   110238328.245    20977665.334    85899986.793                  
                 114306636.462                   114306636.462    21951378.255  
                 124495544.439                   124495544.439    23908058.052  
                 121627207.581                   121627207.581    23357225.763  
                 126893907.675                   126893907.675    24368640.231  
  23859724.667   125383659.642                                                  
  23736900.580   124738227.867                                                  
  24673087.302   129657929.812                                                  
  23541146.917   123709550.831                                                  
  26343984.562   138438539.608                                                  
 21  9  1  9 14  1.0000000  0 19G 1G 7G 8G13G14G17G19G21G22G30C23C25
                                C28C34E13E15E21E27E30
  20216262.745   106237140.205    20216265.426    82782176.832                  
  21943111.508   115311837.493    21943111.205    89853381.616                  
  24076569.300   126523184.176    24076571.694    98589483.892                  
  24345840.144   127938265.430    24345839.536    99692157.652                  
  20975291.202   110225914.296    20975291.166    85890328.695                  
  21630952.668   113671437.469    21630952.043    88575149.007                  
  23754253.885   124829461.477    23754252.027    97269714.438                  
  21928532.405   115235223.367    21928531.136    89793683.093                  
  24038632.828   126323888.899    24038630.505    98434205.021                  
  20977897.613   110239559.132    20977899.579    85900945.925                  
                 114306837.654                   114306837.654    21951416.905  
                 124498351.921                   124498351.921    23908597.214  
                 121624963.712                   121624963.712    23356794.851  
                 126896574.558                   126896574.558    24369152.375  
  23859386.228   125381881.117                                                  
  23737107.968   124739317.633                                                  
  24672750.899   129656162.085                                                  
  23541263.762   123710164.882                                                  
  26344441.580   138440941.234                                                  
 21  9  1  9 14  2.0000000  0 19G 1G 7G 8G13G14G17G19G21G22G30C23C25
                                C28C34E13E15E21E27E30
  20216245.216   106237048.145    20216247.896    82782105.098                  
  21943695.182   115314904.755    21943694.878    89855771.692                  
  24077141.716   126526192.258    24077144.128    98591827.852                  
  24346079.196   127939521.793    24346078.624    99693136.632                  
  20974958.302   110224164.942    20974958.266    85888965.558                  
  21630651.861   113669856.667    21630651.218    88573917.215                  
  23753687.634   124826485.852    23753685.775    97267395.769                  
  21928930.277   115237314.235    21928929.008    89795312.343                  
  24038227.755   126321760.308    24038225.432    98432546.374                  
  20978131.966   110240790.632    20978133.913    85901905.536                  
                 114307039.351                   114307039.351    21951455.627  
                 124501159.692                   124501159.692    23909136.411  
                 121622720.139                   121622720.139    23356363.993  
                 126899241.552                   126899241.552    24369664.555  
  23859047.860   125380102.982                                                  
  23737315.392   124740407.793                                                  
  24672414.533   129654394.503                                                  
  23541380.679   123710779.236                                                  
  26344898.616   138443343.004                                                  
 21  9  1  9 14  3.0000000  0 19G 1G 7G 8G13G14G17G19G21G22G30C23C25
                                C28C34E13E15E21E27E30
  20216227.847   106236956.837    20216230.545    82782033.948                  
  21944278.927   115317972.403    21944278.642    89858162.066                  
  24077714.132   126529200.347    24077716.544    98594171.817                  
  24346318.373   127940778.641    24346317.783    99694115.996                  
  20974625.456   110222415.867    20974625.420    85887602.644                  
  21630351.107   113668276.164    21630350.464    88572685.652                  
  23753121.418   124823510.395    23753119.560    97265077.231                  
  21929328.238   115239405.552    21929326.987    89796941.941                  
  24037822.753   126319631.991    24037820.448    98430887.950                  
  20978366.443   110242022.763    20978368.373    85902865.638                  
                 114307241.564                   114307241.564    21951494.457  
                 124503967.747                   124503967.747    23909675.681  
                 121620476.875                   121620476.875    23355933.207  
                 126901908.659                   126901908.659    24370176.735  
  23858709.564   125378325.208                                                  
  23737522.940   124741498.360                                                  
  24672078.220   129652627.082                                                  
  23541497.632   123711393.882                                                  
  26345355.688   138445744.926                                                  
 21  9  1  9 14  4.0000000  0 19G 1G 7G 8G13G14G17G19G21G22G30C23C25
                                C28C34E13E15E21E27E30
  20216210.621   106236866.277    20216213.302    82781963.382                  
  21944862.762   115321040.422    21944862.458    89860552.730                  
  24078286.566   126532208.414    24078288.961    98596515.761                  
  24346557.639   127942035.994    24346557.031    99695095.751                  
  20974292.681   110220667.071    20974292.645    85886239.946                  
  21630050.372   113666695.961    21630049.764    88571454.327                  
  23752555.238   124820535.122    23752553.380    97262758.839                  
  21929726.306   115241497.300    21929725.019    89798571.874                  
  24037417.806   126317503.982    24037415.501    98429229.759                  
  20978601.028   110243255.524    20978602.975    85903826.227                  
                 114307444.276                   114307444.276    21951533.376  
                 124506776.079                   124506776.079    23910214.986  
                 121618233.910                   121618233.910    23355502.456  
                 126904575.882                   126904575.882    24370688.968  
  23858371.339   125376547.836                                                  
  23737730.543   124742589.312                                                  
  24671741.925   129650859.825                                                  
  23541614.656   123712008.825                                                  
  26345812.778   138448146.989                                                  
 21  9  1  9 14  5.0000000  0 19G 1G 7G 8G13G14G17G19G21G22G30C23C25
                                C28C34E13E15E21E27E30
  20216193.521   106236776.462    20216196.201    82781893.399                  
  21945446.632   115324108.819    21945446.364    89862943.691                  
  24078858.983   126535216.491    24078861.377    98598859.722                  
  24346796.994   127943293.824    24346796.405    99696075.879                  
  20973959.960   110218918.556    20973959.906    85884877.465                  
  21629749.743   113665116.066    21629749.118    88570223.242                  
  23751989.094   124817560.038    23751987.235    97260440.593                  
  21930124.428   115243589.512    21930123.159    89800202.167                  
  24037012.911   126315376.246    24037010.606    98427571.785                  
  20978835.719   110244488.914    20978837.685    85904787.312                  
                 114307647.500                   114307647.500    21951572.419  
                 124509584.698                   124509584.698    23910754.362  
                 121615991.245                   121615991.245    23355071.777  
                 126907243.219                   126907243.219    24371201.184  
  23858033.186   125374770.840                                                  
  23737938.216   124743680.668                                                  
  24671405.666   129649092.723                                                  
  23541731.734   123712624.059                                                  
  26346269.921   138450549.214                                                  
 21  9  1  9 14  6.0000000  0 19G 1G 7G 8G13G14G17G19G21G22G30C23C25
                                C28C34E13E15E21E27E30
  20216176.563   106236687.390    20216179.261    82781823.992                  
  21946030.628   115327177.595    21946030.324    89865334.942                  
  24079431.381   126538224.556    24079433.775    98601203.664                  
  24347036.457   127944552.139    24347035.868    99697056.382                  
  20973627.274   110217170.306    20973627.221    85883515.192                  
  21629449.168   113663536.482    21629448.543    88568992.395                  
  23751423.003   124814585.109    23751421.145    97258122.465                  
  21930522.639   115245682.167    21930521.388    89801832.809                  
  24036608.089   126313248.800    24036605.766    98425914.035                  
  20979070.554   110245722.905    20979072.502    85905748.863                  
                 114307851.233                   114307851.233    21951611.535  
                 124512393.603                   124512393.603    23911293.774  
                 121613748.882                   121613748.882    23354641.152  
                 126909910.669                   126909910.669    24371713.435  
  23857695.104   125372994.228                                                  
  23738145.979   124744772.430                                                  
  24671069.424   129647325.775                                                  
  23541848.865   123713239.597                                                  
  26346727.082   138452951.591                                                  
 21  9  1  9 14  7.0000000  0 19G 1G 7G 8G13G14G17G19G21G22G30C23C25
                                C28C34E13E15E21E27E30
  20216159.766   106236599.072    20216162.464    82781755.173                  
  21946614.659   115330246.735    21946614.355    89867726.480                  
  24080003.797   126541232.630    24080006.192    98603547.617                  
  24347275.991   127945810.974    24347275.402    99698037.294                  
  20973294.642   110215422.340    20973294.607    85882153.141                  
  21629148.647   113661957.202    21629148.004    88567761.788                  
  23750856.912   124811610.355    23750855.054    97255804.477                  
  21930920.939   115247775.259    21930919.689    89803463.788                  
  24036203.284   126311121.653    24036200.979    98424256.516                  
  20979305.496   110246957.548    20979307.444    85906710.923                  
                 114308055.472                   114308055.472    21951650.757  
                 124515202.786                   124515202.786    23911833.240  
                 121611506.824                   121611506.824    23354210.597  
                 126912578.230                   126912578.230    24372225.722  
  23857357.093   125371218.009                                                  
  23738353.796   124745864.593                                                  
  24670733.201   129645558.975                                                  
  23541966.068   123713855.433                                                  
  26347184.261   138455354.112                                                  
 21  9  1  9 14  8.0000000  0 19G 1G 7G 8G13G14G17G19G21G22G30C23C25
                                C28C34E13E15E21E27E30
  20216143.094   106236511.543    20216145.793    82781686.969                  
  21947198.779   115333316.300    21947198.476    89870118.349                  
  24080576.214   126544240.692    24080578.626    98605891.562                  
  24347515.633   127947070.277    24347515.043    99699018.567                  
  20972962.082   110213674.664    20972962.028    85880791.316                  
  21628848.162   113660378.185    21628847.518    88566531.382                  
  23750290.893   124808635.875    23750289.035    97253486.698                  
  21931319.347   115249868.812    21931318.061    89805095.128                  
  24035798.568   126308994.824    24035796.263    98422599.246                  
  20979540.563   110248192.813    20979542.529    85907673.465                  
                 114308260.223                   114308260.223    21951690.087  
                 124518012.255                   124518012.255    23912372.777  
                 121609265.069                   121609265.069    23353780.097  
                 126915245.907                   126915245.907    24372738.027  
  23857019.154   125369442.134                                                  
  23738561.702   124746957.144                                                  
  24670397.013   129643792.358                                                  
  23542083.307   123714471.558                                                  
  26347641.476   138457756.797                                                  
 21  9  1  9 14  9.0000000  0 19G 1G 7G 8G13G14G17G19G21G22G30C23C25
                                C28C34E13E15E21E27E30
  20216126.583   106236424.716    20216129.282    82781619.309                  
  21947782.954   115336386.211    21947782.668    89872510.487                  
  24081148.648   126547248.739    24081151.042    98608235.497                  
  24347755.382   127948330.098    24347754.774    99700000.246                  
  20972629.557   110211927.262    20972629.504    85879429.703                  
  21628547.748   113658799.504    21628547.122    88565301.246                  
  23749724.874   124805661.515    23749723.016    97251169.015                  
  21931717.826   115251962.796    21931716.540    89806726.804                  
  24035393.906   126306868.247    24035391.584    98420942.175                  
  20979775.737   110249428.694    20979777.703    85908636.493                  
                 114308465.477                   114308465.477    21951729.506  
                 124520822.003                   124520822.003    23912912.368  
                 121607023.613                   121607023.613    23353349.632  
                 126917913.700                   126917913.700    24373250.332  
  23856681.305   125367666.663                                                  
  23738769.698   124748050.097                                                  
  24670060.879   129642025.888                                                  
  23542200.599   123715087.980                                                  
  26348098.726   138460159.626                                                  
 21  9  1  9 14 10.0000000  0 19G 1G 7G 8G13G14G17G19G21G22G30C23C25
                                C28C34E13E15E21E27E30
  20216110.197   106236338.651    20216112.896    82781552.245                  
  21948367.217   115339456.513    21948366.913    89874902.926                  
  24081721.046   126550256.792    24081723.441    98610579.435                  
  24347995.202   127949590.405    24347994.594    99700982.306                  
  20972297.086   110210180.133    20972297.033    85878068.304                  
  21628247.387   113657221.117    21628246.762    88564071.332                  
  23749158.926   124802687.340    23749157.068    97248851.476                  
  21932116.359   115254057.218    21932115.108    89808358.821                  
  24034989.280   126304741.978    24034986.957    98419285.340                  
  20980011.036   110250665.203    20980013.002    85909600.005                  
                 114308671.242                   114308671.242    21951769.014  
                 124523632.038                   124523632.038    23913451.995  
                 121604782.466                   121604782.466    23352919.257  
                 126920581.601                   126920581.601    24373762.672  
  23856343.527   125365891.571                                                  
  23738977.747   124749143.440                                                  
  24669724.762   129640259.567                                                  
  23542317.963   123715704.698                                                  
  26348555.976   138462562.608                                                  
 21  9  1  9 14 11.0000000  0 19G 1G 7G 8G13G14G17G19G21G22G30C23C25
                                C28C34E13E15E21E27E30
  20216093.972   106236253.341    20216096.653    82781485.774                  
  21948951.534   115342527.178    21948951.266    89877295.657                  
  24082293.462   126553264.831    24082295.857    98612923.358                  
  24348235.111   127950851.206    24348234.522    99701964.745                  
  20971964.687   110208433.282    20971964.615    85876707.121                  
  21627947.081   113655643.027    21627946.455    88562841.653                  
  23748592.979   124799713.339    23748591.120    97246534.075                  
  21932514.999   115256152.094    21932513.748    89809991.192                  
  24034584.726   126302615.999    24034582.403    98417628.738                  
  20980246.461   110251902.340    20980248.426    85910564.003                  
                 114308877.517                   114308877.517    21951808.612  
                 124526442.356                   124526442.356    23913991.675  
                 121602541.615                   121602541.615    23352488.917  
                 126923249.621                   126923249.621    24374275.049  
  23856005.802   125364116.864                                                  
  23739185.885   124750237.200                                                  
  24669388.664   129638493.411                                                  
  23542435.380   123716321.719                                                  
  26349013.280   138464965.742                                                  
 21  9  1  9 14 12.0000000  0 19G 1G 7G 8G13G14G17G19G21G22G30C23C25
                                C28C34E13E15E21E27E30
  20216077.872   106236168.776    20216080.588    82781419.880                  
  21949535.940   115345598.225    21949535.655    89879688.680                  
  24082865.879   126556272.878    24082868.273    98615267.289                  
  24348475.146   127952112.496    24348474.538    99702947.571                  
  20971632.305   110206686.710    20971632.252    85875346.156                  
  21627646.845   113654065.241    21627646.220    88561612.210                  
  23748027.085   124796739.519    23748025.226    97244216.817                  
  21932913.729   115258247.396    21932912.460    89811623.895                  
  24034180.207   126300490.308    24034177.902    98415972.355                  
  20980481.992   110253140.096    20980483.958    85911528.493                  
                 114309084.297                   114309084.297    21951848.335  
                 124529252.956                   124529252.956    23914531.445  
                 121600301.066                   121600301.066    23352058.649  
                 126925917.751                   126925917.751    24374787.443  
  23855668.167   125362342.532                                                  
  23739394.095   124751331.350                                                  
  24669052.601   129636727.407                                                  
  23542552.833   123716939.027                                                  
  26349470.620   138467369.035                                                  
 21  9  1  9 14 13.0000000  0 19G 1G 7G 8G13G14G17G19G21G22G30C23C25
                                C28C34E13E15E21E27E30
  20216061.915   106236084.956    20216064.614    82781354.566                  
  21950120.418   115348669.645    21950120.115    89882081.992                  
  24083438.277   126559280.902    24083440.672    98617611.206                  
  24348715.252   127953374.306    24348714.662    99703930.793                  
  20971299.995   110204940.417    20971299.959    85873985.411                  
  21627346.663   113652487.761    21627346.020    88560383.005                  
  23747461.226   124793765.898    23747459.368    97241899.708                  
  21933312.547   115260343.161    21933311.261    89813256.956                  
  24033775.759   126298364.914    24033773.436    98414316.203                  
  20980717.667   110254378.484    20980719.597    85912493.470                  
                 114309291.586                   114309291.586    21951888.147  
                 124532063.840                   124532063.840    23915071.232  
                 121598060.820                   121598060.820    23351628.434  
                 126928585.995                   126928585.995    24375299.837  
  23855330.585   125360568.591                                                  
  23739602.376   124752425.894                                                  
  24668716.574   129634961.561                                                  
  23542670.376   123717556.641                                                  
  26349927.978   138469772.472                                                  
 21  9  1  9 14 14.0000000  0 19G 1G 7G 8G13G14G17G19G21G22G30C23C25
                                C28C34E13E15E21E27E30
  20216046.119   106236001.891    20216048.817    82781289.837                  
  21950704.968   115351741.440    21950704.664    89884475.601                  
  24084010.693   126562288.941    24084013.106    98619955.132                  
  24348955.465   127954636.580    24348954.858    99704914.383                  
  20970967.738   110203194.402    20970967.703    85872624.880                  
  21627046.517   113650910.583    21627045.892    88559154.035                  
  23746895.404   124790792.448    23746893.545    97239582.734                  
  21933711.437   115262439.367    21933710.169    89814890.368                  
  24033371.365   126296239.815    24033369.060    98412660.285                  
  20980953.413   110255617.487    20980955.379    85913458.925                  
                 114309499.384                   114309499.384    21951928.067  
                 124534875.007                   124534875.007    23915611.109  
                 121595820.879                   121595820.879    23351198.273  
                 126931254.353                   126931254.353    24375812.285  
  23854993.075   125358795.025                                                  
  23739810.747   124753520.836                                                  
  24668380.583   129633195.883                                                  
  23542787.954   123718174.539                                                  
  26350385.353   138472176.064                                                  
 21  9  1  9 14 15.0000000  0 19G 1G 7G 8G13G14G17G19G21G22G30C23C25
                                C28C34E13E15E21E27E30
  20216030.466   106235919.583    20216033.146    82781225.703                  
  21951289.588   115354813.614    21951289.285    89886869.500                  
  24084583.092   126565296.991    24084585.504    98622299.068                  
  24349195.768   127955899.355    24349195.160    99705898.368                  
  20970635.535   110201448.664    20970635.500    85871264.566                  
  21626746.461   113649333.698    21626745.835    88557925.296                  
  23746329.599   124787819.183    23746327.741    97237265.906                  
  21934110.417   115264536.019    21934109.148    89816524.120                  
  24032967.025   126294115.017    24032964.720    98411004.593                  
  20981189.320   110256857.130    20981191.285    85914424.878                  
                 114309707.688                   114309707.688    21951968.057  
                 124537686.453                   124537686.453    23916151.004  
                 121593581.238                   121593581.238    23350768.184  
                 126933922.823                   126933922.823    24376324.715  
  23854655.655   125357021.840                                                  
  23740019.171   124754616.175                                                  
  24668044.628   129631430.352                                                  
  23542905.604   123718792.742                                                  
  26350842.782   138474579.805                                                  
 21  9  1  9 14 16.0000000  0 19G 1G 7G 8G13G14G17G19G21G22G30C23C25
                                C28C34E13E15E21E27E30
  20216014.938   106235838.040    20216017.618    82781162.175                  
  21951874.281   115357886.052    21951873.995    89889263.551                  
  24085155.526   126568304.918    24085157.938    98624642.870                  
  24349436.160   127957162.547    24349435.552    99706882.641                  
  20970303.404   110199703.195    20970303.332    85869904.456                  
  21626446.440   113647757.184    21626445.797    88556696.875                  
  23745763.848   124784846.061    23745761.972    97234949.176                  
  21934509.468   115266633.172    21934508.181    89818158.305                  
  24032562.738   126291990.520    24032560.416    98409349.171                  
  20981425.334   110258097.430    20981427.282    85915391.371                  
                 114309916.472                   114309916.472    21952008.155  
                 124540498.184                   124540498.184    23916690.952  
                 121591341.980                   121591341.980    23350338.112  
                 126936591.390                   126936591.390    24376837.199  
  23854318.287   125355249.140                                                  
  23740227.703   124755711.833                                                  
  24667708.672   129629664.970                                                  
  23543023.307   123719411.177                                                  
  26351300.212   138476983.679                                                  
 21  9  1  9 14 17.0000000  0 19G 1G 7G 8G13G14G17G19G21G22G30C23C25
                                C28C34E13E15E21E27E30
  20215999.552   106235757.255    20216002.233    82781099.250                  
  21952459.045   115360958.918    21952458.759    89891657.969                  
  24085727.942   126571312.974    24085730.337    98626986.833                  
  24349676.641   127958426.226    24349676.051    99707867.292                  
  20969971.308   110197958.067    20969971.254    85868544.644                  
  21626146.473   113646180.886    21626145.847    88555468.593                  
  23745198.114   124781873.145    23745196.256    97232632.614                  
  21934908.626   115268730.751    21934907.340    89819792.800                  
  24032158.505   126289866.237    24032156.182    98407693.863                  
  20981661.455   110259338.294    20981663.421    85916358.273                  
                 114310125.788                   114310125.788    21952048.361  
                 124543310.191                   124543310.191    23917230.972  
                 121589102.938                   121589102.938    23349908.148  
                 126939260.082                   126939260.082    24377349.700  
  23853980.992   125353476.718                                                  
  23740436.288   124756807.876                                                  
  24667372.752   129627899.679                                                  
  23543141.064   123720029.973                                                  
  26351757.694   138479387.773                                                  
 21  9  1  9 14 18.0000000  0 19G 1G 7G 8G13G14G17G19G21G22G30C23C25
                                C28C34E13E15E21E27E30
  20215984.328   106235677.188    20215987.008    82781036.859                  
  21953043.880   115364032.219    21953043.594    89894052.747                  
  24086300.341   126574320.989    24086302.735    98629330.738                  
  24349917.212   127959690.489    24349916.640    99708852.425                  
  20969639.266   110196213.156    20969639.194    85867184.973                  
  21625846.577   113644604.893    21625845.934    88554240.547                  
  23744632.435   124778900.429    23744630.576    97230316.211                  
  21935307.838   115270828.723    21935306.552    89821427.586                  
  24031754.344   126287742.293    24031752.021    98406038.841                  
  20981897.719   110260579.804    20981899.667    85917325.683                  
                 114310335.613                   114310335.613    21952088.655  
                 124546122.486                   124546122.486    23917771.063  
                 121586864.198                   121586864.198    23349478.201  
                 126941928.887                   126941928.887    24377862.219  
  23853643.803   125351704.678                                                  
  23740644.962   124757904.433                                                  
  24667036.886   129626134.626                                                  
  23543258.856   123720649.062                                                  
  26352215.195   138481791.972                                                  
 21  9  1  9 14 19.0000000  0 19G 1G 7G 8G13G14G17G19G21G22G30C23C25
                                C28C34E13E15E21E27E30
  20215969.229   106235597.864    20215971.927    82780975.048                  
  21953628.787   115367105.898    21953628.501    89896447.821                  
  24086872.739   126577329.001    24086875.151    98631674.642                  
  24350157.908   127960955.245    24350157.318    99709837.954                  
  20969307.259   110194468.526    20969307.224    85865825.523                  
  21625546.735   113643029.212    21625546.091    88553012.741                  
  23744066.773   124775927.897    23744064.915    97227999.953                  
  21935707.157   115272927.159    21935705.888    89823062.726                  
  24031350.218   126285618.653    24031347.895    98404384.054                  
  20982134.109   110261821.941    20982136.038    85918293.578                  
                 114310545.946                   114310545.946    21952129.039  
                 124548935.054                   124548935.054    23918311.172  
                 121584625.761                   121584625.761    23349048.344  
                 126944597.805                   126944597.805    24378374.757  
  23853306.668   125349933.020                                                  
  23740853.708   124759001.376                                                  
  24666701.038   129624369.722                                                  
  23543376.738   123721268.442                                                  
  26352672.731   138484196.321                                                  
 21  9  1  9 14 20.0000000  0 19G 1G 7G 8G13G14G17G19G21G22G30C23C25
                                C28C34E13E15E21E27E30
  20215954.272   106235519.286    20215956.953    82780913.815                  
  21954213.765   115370179.953    21954213.479    89898843.186                  
  24087445.155   126580336.996    24087447.568    98634018.536                  
  24350398.675   127962220.485    24350398.085    99710823.856                  
  20968975.324   110192724.179    20968975.289    85864466.289                  
  21625246.964   113641453.821    21625246.321    88551785.164                  
  23743501.165   124772955.547    23743499.306    97225683.836                  
  21936106.583   115275026.035    21936105.297    89824698.216                  
  24030946.164   126283495.298    24030943.841    98402729.492                  
  20982370.587   110263064.689    20982372.517    85919261.953                  
                 114310756.789                   114310756.789    21952169.549  
                 124551747.913                   124551747.913    23918851.352  
                 121582387.629                   121582387.629    23348618.540  
                 126947266.837                   126947266.837    24378887.312  
  23852969.605   125348161.740                                                  
  23741062.508   124760098.693                                                  
  24666365.225   129622604.980                                                  
  23543494.656   123721888.112                                                  
  26353130.303   138486600.806                                                  
 21  9  1  9 14 21.0000000  0 19G 1G 7G 8G13G14G17G19G21G22G30C23C25
                                C28C34E13E15E21E27E30
  20215939.459   106235441.461    20215942.157    82780853.175                  
  21954798.797   115373254.386    21954798.529    89901238.851                  
  24088017.554   126583345.008    24088019.966    98636362.437                  
  24350639.531   127963486.228    24350638.959    99711810.144                  
  20968643.443   110190980.110    20968643.407    85863107.275                  
  21624947.229   113639878.738    21624946.586    88550557.829                  
  23742935.575   124769983.376    23742933.716    97223367.859                  
  21936506.063   115277125.345    21936504.777    89826334.042                  
  24030542.163   126281372.233    24030539.840    98401075.156                  
  20982607.173   110264308.070    20982609.139    85920230.824                  
                 114310968.140                   114310968.140    21952210.147  
                 124554561.051                   124554561.051    23919391.605  
                 121580149.796                   121580149.796    23348188.772  
                 126949935.980                   126949935.980    24379399.902  
  23852632.595   125346390.844                                                  
  23741271.397   124761196.417                                                  
  24666029.448   129620840.400                                                  
  23543612.645   123722508.091                                                  
  26353587.875   138489005.457                                                  
 21  9  1  9 14 22.0000000  0 19G 1G 7G 8G13G14G17G19G21G22G30C23C25
                                C28C34E13E15E21E27E30
  20215924.806   106235364.394    20215927.505    82780793.125                  
  21955383.918   115376329.204    21955383.632    89903634.813                  
  24088589.952   126586352.987    24088592.382    98638706.319                  
  24350880.495   127964752.445    24350879.905    99712796.809                  
  20968311.615   110189236.317    20968311.562    85861748.472                  
  21624647.565   113638303.961    21624646.922    88549330.730                  
  23742370.038   124767011.391    23742368.179    97221052.028                  
  21936905.633   115279225.104    21936904.364    89827970.218                  
  24030138.216   126279249.476    24030135.893    98399421.058                  
  20982843.920   110265552.077    20982845.868    85921200.180                  
                 114311179.995                   114311179.995    21952250.817  
                 124557374.472                   124557374.472    23919931.874  
                 121577912.269                   121577912.269    23347759.094  
                 126952605.238                   126952605.238    24379912.493  
  23852295.693   125344620.336                                                  
  23741480.357   124762294.546                                                  
  24665693.672   129619075.972                                                  
  23543730.652   123723128.363                                                  
  26354045.519   138491410.261                                                  
 21  9  1  9 14 23.0000000  0 19G 1G 7G 8G13G14G17G19G21G22G30C23C25
                                C28C34E13E15E21E27E30
  20215910.279   106235288.066    20215912.959    82780733.649                  
  21955969.128   115379404.392    21955968.842    89906031.058                  
  24089162.368   126589360.985    24089164.781    98641050.211                  
  24351121.548   127966019.179    24351120.959    99713783.874                  
  20967979.841   110187492.800    20967979.805    85860389.895                  
  21624347.938   113636729.479    21624347.294    88548103.859                  
  23741804.519   124764039.587    23741802.661    97218736.337                  
  21937305.291   115281325.301    21937304.022    89829606.735                  
  24029734.322   126277126.993    24029731.999    98397767.176                  
  20983080.756   110266796.711    20983082.721    85922170.022                  
                 114311392.364                   114311392.364    21952291.594  
                 124560188.177                   124560188.177    23920472.234  
                 121575675.044                   121575675.044    23347329.451  
                 126955274.605                   126955274.605    24380425.120  
  23851958.862   125342850.194                                                  
  23741689.425   124763393.069                                                  
  24665357.948   129617311.696                                                  
  23543848.766   123723748.928                                                  
  26354503.163   138493815.206                                                  
 21  9  1  9 14 24.0000000  0 19G 1G 7G 8G13G14G17G19G21G22G30C23C25
                                C28C34E13E15E21E27E30
  20215895.894   106235212.492    20215898.575    82780674.758                  
  21956554.374   115382479.949    21956554.106    89908427.599                  
  24089734.785   126592368.985    24089737.179    98643394.105                  
  24351362.709   127967286.382    24351362.101    99714771.305                  
  20967648.121   110185749.561    20967648.067    85859031.527                  
  21624048.381   113635155.292    21624047.738    88546877.223                  
  23741239.036   124761067.956    23741237.178    97216420.780                  
  21937705.039   115283425.946    21937703.752    89831243.597                  
  24029330.482   126275004.800    24029328.159    98396113.524                  
  20983317.735   110268041.968    20983319.683    85923140.352                  
                 114311605.239                   114311605.239    21952332.478  
                 124563002.161                   124563002.161    23921012.647  
                 121573438.118                   121573438.118    23346899.880  
                 126957944.090                   126957944.090    24380937.782  
  23851622.084   125341080.440                                                  
  23741898.528   124764491.970                                                  
  24665022.243   129615547.582                                                  
  23543966.899   123724369.784                                                  
  26354960.842   138496220.300                                                  
 21  9  1  9 14 25.0000000  0 19G 1G 7G 8G13G14G17G19G21G22G30C23C25
                                C28C34E13E15E21E27E30
  20215881.653   106235137.664    20215884.369    82780616.450                  
  21957139.728   115385555.893    21957139.442    89910824.434                  
  24090307.183   126595376.989    24090309.578    98645738.004                  
  24351603.922   127968554.067    24351603.333    99715759.105                  
  20967316.436   110184006.613    20967316.400    85857673.379                  
  21623748.879   113633581.409    21623748.253    88545650.817                  
  23740673.606   124758096.519    23740671.748    97214105.375                  
  21938104.858   115285527.035    21938103.572    89832880.809                  
  24028926.696   126272882.909    24028924.373    98394460.098                  
  20983554.821   110269287.853    20983556.769    85924111.169                  
                 114311818.626                   114311818.626    21952373.452  
                 124565816.430                   124565816.430    23921553.077  
                 121571201.501                   121571201.501    23346470.362  
                 126960613.686                   126960613.686    24381450.444  
  23851285.378   125339311.071                                                  
  23742107.721   124765591.285                                                  
  24664686.573   129613783.629                                                  
  23544085.120   123724990.942                                                  
  26355418.539   138498625.568                                                  
 21  9  1  9 14 26.0000000  0 19G 1G 7G 8G13G14G17G19G21G22G30C23C25
                                C28C34E13E15E21E27E30
  20215867.554   106235063.595    20215870.252    82780558.727                  
  21957725.117   115388632.211    21957724.831    89913221.562                  
  24090879.582   126598384.980    24090881.994    98648081.891                  
  24351845.261   127969822.283    24351844.672    99716747.325                  
  20966984.822   110182263.938    20966984.787    85856315.446                  
  21623449.447   113632007.835    21623448.822    88544424.653                  
  23740108.177   124755125.269    23740106.319    97211790.109                  
  21938504.767   115287628.566    21938503.481    89834518.364                  
  24028522.981   126270761.317    24028520.658    98392806.903                  
  20983792.014   110270534.359    20983793.980    85925082.468                  
                 114312032.524                   114312032.524    21952414.533  
                 124568630.985                   124568630.985    23922093.597  
                 121568965.186                   121568965.186    23346040.898  
                 126963283.399                   126963283.399    24381963.142  
  23850948.761   125337542.074                                                  
  23742317.003   124766690.996                                                  
  24664350.940   129612019.829                                                  
  23544203.377   123725612.403                                                  
  26355876.272   138501030.953                                                  
 21  9  1  9 14 27.0000000  0 19G 1G 7G 8G13G14G17G19G21G22G30C23C25
                                C28C34E13E15E21E27E30
  20215853.616   106234990.272    20215856.296    82780501.590                  
  21958310.596   115391708.904    21958310.328    89915618.981                  
  24091451.980   126601393.013    24091454.392    98650425.804                  
  24352086.672   127971090.980    24352086.100    99717735.918                  
  20966653.263   110180521.542    20966653.191    85854957.734                  
  21623150.052   113630434.562    21623149.427    88543198.719                  
  23739542.801   124752154.199    23739540.943    97209474.989                  
  21938904.765   115289730.547    21938903.479    89836156.266                  
  24028119.302   126268640.010    24028116.979    98391153.937                  
  20984029.333   110271781.497    20984031.299    85926054.257                  
                 114312246.929                   114312246.929    21952455.721  
                 124571445.824                   124571445.824    23922634.153  
                 121566729.177                   121566729.177    23345611.505  
                 126965953.222                   126965953.222    24382475.840  
  23850612.198   125335773.464                                                  
  23742526.338   124767791.103                                                  
  24664015.342   129610256.188                                                  
  23544321.706   123726234.154                                                  
  26356334.040   138503436.520                                                  
 21  9  1  9 14 28.0000000  0 19G 1G 7G 8G13G14G17G19G21G22G30C23C25
                                C28C34E13E15E21E27E30
  20215839.803   106234917.694    20215842.502    82780445.036                  
  21958896.146   115394785.981    21958895.860    89918016.699                  
  24092024.396   126604401.007    24092026.809    98652769.691                  
  24352328.208   127972360.184    24352327.618    99718724.899                  
  20966321.739   110178779.430    20966321.703    85853600.238                  
  21622850.746   113628861.589    21622850.103    88541973.024                  
  23738977.461   124749183.325    23738975.620    97207160.015                  
  21939304.835   115291832.965    21939303.566    89837794.507                  
  24027715.677   126266519.000    24027713.354    98389501.194                  
  20984266.777   110273029.254    20984268.742    85927026.531                  
                 114312461.842                   114312461.842    21952496.980  
                 124574260.942                   124574260.942    23923174.763  
                 121564493.464                   121564493.464    23345182.166  
                 126968623.161                   126968623.161    24382988.574  
  23850275.725   125334005.236                                                  
  23742735.763   124768891.597                                                  
  24663679.761   129608492.707                                                  
  23544440.052   123726856.195                                                  
  26356791.845   138505842.219                                                  
 21  9  1  9 14 29.0000000  0 19G 1G 7G 8G13G14G17G19G21G22G30C23C25
                                C28C34E13E15E21E27E30
  20215826.134   106234845.880    20215828.814    82780389.067                  
  21959481.767   115397863.419    21959481.481    89920414.696                  
  24092596.795   126607408.999    24092599.225    98655113.578                  
  24352569.815   127973629.864    24352569.243    99719714.258                  
  20965990.286   110177037.589    20965990.233    85852242.956                  
  21622551.458   113627288.910    21622550.832    88540747.555                  
  23738412.156   124746212.625    23738410.298    97204845.184                  
  21939704.994   115293935.829    21939703.725    89839433.102                  
  24027312.123   126264398.286    24027309.818    98387848.687                  
  20984504.345   110274277.642    20984506.293    85927999.296                  
                 114312677.265                   114312677.265    21952538.365  
                 124577076.343                   124577076.343    23923715.443  
                 121562258.062                   121562258.062    23344752.863  
                 126971293.210                   126971293.210    24383501.344  
  23849939.322   125332237.392                                                  
  23742945.260   124769992.503                                                  
  24663344.217   129606729.380                                                  
  23544558.506   123727478.536                                                  
  26357249.667   138508248.082                                                  
 21  9  1  9 14 30.0000000  0 19G 1G 7G 8G13G14G17G19G21G22G30C23C25
                                C28C34E13E15E21E27E30
  20215812.625   106234774.804    20215815.305    82780333.684                  
  21960067.460   115400941.245    21960067.174    89922812.999                  
  24093169.193   126610416.976    24093171.623    98657457.454                  
  24352811.529   127974900.040    24352810.939    99720704.001                  
  20965658.887   110175296.038    20965658.834    85850885.899                  
  21622252.259   113625716.539    21622251.615    88539522.328                  
  23737846.906   124743242.112    23737845.047    97202530.492                  
  21940105.242   115296039.124    21940103.955    89841072.027                  
  24026908.622   126262277.859    24026906.299    98386196.407                  
  20984742.021   110275526.645    20984743.987    85928972.543                  
                 114312893.196                   114312893.196    21952579.821  
                 124579892.028                   124579892.028    23924256.160  
                 121560022.957                   121560022.957    23344323.631  
                 126973963.376                   126973963.376    24384014.113  
  23849602.974   125330469.927                                                  
  23743154.827   124771093.792                                                  
  24663008.708   129604966.213                                                  
  23544676.978   123728101.176                                                  
  26357707.507   138510654.083                                                  
 21  9  1  9 14 31.0000000  0 19G 1G 7G 8G13G14G17G19G21G22G30C23C25
                                C28C34E13E15E21E27E30
  20215799.241   106234704.477    20215801.921    82780278.879                  
  21960653.225   115404019.440    21960652.939    89925211.590                  
  24093741.591   126613424.956    24093744.022    98659801.332                  
  24353053.315   127976170.707    24353052.743    99721694.128                  
  20965327.524   110173554.754    20965327.488    85849529.050                  
  21621953.095   113624144.464    21621952.452    88538297.332                  
  23737281.655   124740271.790    23737279.796    97200215.953                  
  21940505.562   115298142.859    21940504.293    89842711.301                  
  24026505.175   126260157.735    24026502.852    98384544.360                  
  20984979.822   110276776.277    20984981.788    85929946.280                  
                 114313109.636                   114313109.636    21952621.402  
                 124582707.993                   124582707.993    23924796.948  
                 121557788.157                   121557788.157    23343894.489  
                 126976633.647                   126976633.647    24384526.918  
  23849266.715   125328702.849                                                  
  23743364.485   124772195.493                                                  
  24662673.199   129603203.203                                                  
  23544795.521   123728724.113                                                  
  26358165.383   138513060.234                                                  
 21  9  1  9 14 32.0000000  0 19G 1G 7G 8G13G14G17G19G21G22G30C23C25
                                C28C34E13E15E21E27E30
  20215786.000   106234634.910    20215788.680    82780224.671                  
  21961239.043   115407098.011    21961238.757    89927610.477                  
  24094314.008   126616432.956    24094316.420    98662145.226                  
  24353295.225   127977441.871    24353294.636    99722684.648                  
  20964996.215   110171813.763    20964996.179    85848172.438                  
  21621654.004   113622572.697    21621653.360    88537072.579                  
  23736716.458   124737301.653    23736714.599    97197901.562                  
  21940905.989   115300247.056    21940904.702    89844350.934                  
  24026101.782   126258037.895    24026099.459    98382892.534                  
  20985217.748   110278026.540    20985219.696    85930920.511                  
                 114313326.582                   114313326.582    21952663.055  
                 124585524.239                   124585524.239    23925337.754  
                 121555553.659                   121555553.659    23343465.364  
                 126979304.034                   126979304.034    24385039.741  
  23848930.527   125326936.149                                                  
  23743574.196   124773297.581                                                  
  24662337.744   129601440.368                                                  
  23544914.118   123729347.351                                                  
  26358623.295   138515466.564                                                  
 21  9  1  9 14 33.0000000  0 19G 1G 7G 8G13G14G17G19G21G22G30C23C25
                                C28C34E13E15E21E27E30
  20215772.902   106234566.077    20215775.582    82780171.035                  
  21961824.932   115410176.966    21961824.682    89930009.661                  
  24094886.406   126619440.918    24094888.818    98664489.093                  
  24353537.208   127978713.523    24353536.618    99723675.544                  
  20964664.959   110170073.042    20964664.923    85846816.030                  
  21621354.966   113621001.223    21621354.322    88535848.054                  
  23736151.296   124734331.706    23736149.438    97195587.316                  
  21941306.487   115302351.689    21941305.200    89845990.906                  
  24025698.461   126255918.361    24025696.138    98381240.949                  
  20985455.781   110279277.422    20985457.711    85931895.226                  
                 114313544.039                   114313544.039    21952704.815  
                 124588340.765                   124588340.765    23925878.632  
                 121553319.464                   121553319.464    23343036.293  
                 126981974.534                   126981974.534    24385552.582  
  23848594.393   125325169.840                                                  
  23743783.996   124774400.071                                                  
  24662002.325   129599677.680                                                  
  23545032.786   123729970.883                                                  
  26359081.224   138517873.023                                                  
 21  9  1  9 14 34.0000000  0 19G 1G 7G 8G13G14G17G19G21G22G30C23C25
                                C28C34E13E15E21E27E30
  20215759.947   106234497.995    20215762.627    82780117.984                  
  21962410.929   115413256.282    21962410.643    89932409.130                  
  24095458.805   126622448.895    24095461.217    98666832.969                  
  24353779.297   127979985.683    24353778.708    99724666.835                  
  20964333.774   110168332.597    20964333.738    85845459.839                  
  21621055.981   113619430.052    21621055.338    88534623.763                  
  23735586.153   124731361.930    23735584.312    97193273.207                  
  21941707.057   115304456.754    21941705.788    89847631.219                  
  24025295.175   126253799.108    24025292.852    98379589.586                  
  20985693.922   110280528.915    20985695.887    85932870.413                  
                 114313762.003                   114313762.003    21952746.682  
                 124591157.579                   124591157.579    23926419.581  
                 121551085.575                   121551085.575    23342607.294  
                 126984645.148                   126984645.148    24386065.441  
  23848258.366   125323403.907                                                  
  23743993.867   124775502.965                                                  
  24661666.923   129597915.156                                                  
  23545151.472   123730594.703                                                  
  26359539.207   138520279.640                                                  
 21  9  1  9 14 35.0000000  0 19G 1G 7G 8G13G14G17G19G21G22G30C23C25
                                C28C34E13E15E21E27E30
  20215747.117   106234430.667    20215749.815    82780065.520                  
  21962996.979   115416335.977    21962996.693    89934808.888                  
  24096031.203   126625456.875    24096033.615    98669176.847                  
  24354021.458   127981258.312    24354020.887    99725658.496                  
  20964002.643   110166592.437    20964002.608    85844103.870                  
  21620757.032   113617859.180    21620756.425    88533399.711                  
  23735021.080   124728392.344    23735019.222    97190959.242                  
  21942107.734   115306562.273    21942106.465    89849271.883                  
  24024891.942   126251680.157    24024889.637    98377938.453                  
  20985932.205   110281781.047    20985934.153    85933846.103                  
                 114313980.481                   114313980.481    21952788.621  
                 124593974.669                   124593974.669    23926960.583  
                 121548851.984                   121548851.984    23342178.384  
                 126987315.872                   126987315.872    24386578.318  
  23847922.374   125321638.352                                                  
  23744203.828   124776606.253                                                  
  24661331.557   129596152.785                                                  
  23545270.265   123731218.837                                                  
  26359997.172   138522686.413                                                  
 21  9  1  9 14 36.0000000  0 19G 1G 7G 8G13G14G17G19G21G22G30C23C25
                                C28C34E13E15E21E27E30
  20215734.465   106234364.081    20215737.146    82780013.638                  
  21963583.101   115419416.051    21963582.815    89937208.945                  
  24096603.584   126628464.820    24096605.996    98671520.702                  
  24354263.744   127982531.449    24354263.155    99726650.551                  
  20963671.548   110164852.550    20963671.495    85842748.116                  
  21620458.173   113616288.605    21620457.548    88532175.886                  
  23734456.026   124725422.929    23734454.168    97188645.414                  
  21942508.483   115308668.242    21942507.196    89850912.895                  
  24024488.781   126249561.503    24024486.458    98376287.554                  
  20986170.578   110283033.798    20986172.544    85934822.270                  
                 114314199.460                   114314199.460    21952830.684  
                 124596792.043                   124596792.043    23927501.621  
                 121546618.697                   121546618.697    23341749.491  
                 126989986.707                   126989986.707    24387091.212  
  23847586.472   125319873.187                                                  
  23744413.843   124777709.935                                                  
  24660996.227   129594390.573                                                  
  23545389.076   123731843.255                                                  
  26360455.191   138525093.339                                                  
 21  9  1  9 14 37.0000000  0 19G 1G 7G 8G13G14G17G19G21G22G30C23C25
                                C28C34E13E15E21E27E30
  20215721.921   106234298.247    20215724.620    82779962.336                  
  21964169.276   115422496.488    21964169.008    89939609.290                  
  24097175.982   126631472.794    24097178.394    98673864.578                  
  24354506.102   127983805.067    24354505.512    99727642.981                  
  20963340.507   110163112.956    20963340.453    85841392.586                  
  21620159.367   113614718.329    21620158.724    88530952.292                  
  23733890.972   124722453.699    23733889.131    97186331.730                  
  21942909.320   115310774.645    21942908.034    89852554.250                  
  24024085.656   126247443.134    24024083.369    98374636.878                  
  20986409.094   110284287.180    20986411.059    85935798.929                  
                 114314418.953                   114314418.953    21952872.838  
                 124599609.700                   124599609.700    23928042.713  
                 121544385.711                   121544385.711    23341320.688  
                 126992657.652                   126992657.652    24387604.161  
  23847250.660   125318108.398                                                  
  23744623.947   124778814.015                                                  
  24660660.897   129592628.519                                                  
  23545507.959   123732467.976                                                  
  26360913.264   138527500.411                                                  
 21  9  1  9 14 38.0000000  0 19G 1G 7G 8G13G14G17G19G21G22G30C23C25
                                C28C34E13E15E21E27E30
  20215709.538   106234233.167    20215712.236    82779911.624                  
  21964755.541   115425577.312    21964755.255    89942009.930                  
  24097748.380   126634480.762    24097750.793    98676208.449                  
  24354748.567   127985079.184    24354747.977    99728635.797                  
  20963009.519   110161373.632    20963009.483    85840037.269                  
  21619860.597   113613148.360    21619859.972    88529728.940                  
  23733326.007   124719484.659    23733324.149    97184018.195                  
  21943310.248   115312881.488    21943308.961    89854195.946                  
  24023682.620   126245325.064    24023680.297    98372986.434                  
  20986647.717   110285541.173    20986649.682    85936776.071                  
                 114314638.952                   114314638.952    21952915.080  
                 124602427.633                   124602427.633    23928583.877  
                 121542153.031                   121542153.031    23340891.903  
                 126995328.714                   126995328.714    24388117.109  
  23846914.901   125316343.991                                                  
  23744834.122   124779918.492                                                  
  24660325.638   129590866.629                                                  
  23545626.895   123733092.990                                                  
  26361371.336   138529907.630                                                  
 21  9  1  9 14 39.0000000  0 19G 1G 7G 8G13G14G17G19G21G22G30C23C25
                                C28C34E13E15E21E27E30
  20215697.298   106234168.829    20215699.996    82779861.489                  
  21965341.877   115428658.504    21965341.592    89944410.859                  
  24098320.779   126637488.724    24098323.209    98678552.316                  
  24354991.103   127986353.788    24354990.513    99729628.997                  
  20962678.602   110159634.590    20962678.567    85838682.171                  
  21619561.899   113611578.689    21619561.273    88528505.820                  
  23732761.042   124716515.798    23732759.184    97181704.797                  
  21943711.246   115314988.783    21943709.960    89855837.992                  
  24023279.620   126243207.284    24023277.297    98371336.218                  
  20986886.483   110286795.796    20986888.412    85937753.700                  
                 114314859.460                   114314859.460    21952957.412  
                 124605245.851                   124605245.851    23929125.094  
                 121539920.653                   121539920.653    23340463.208  
                 126997999.886                   126997999.886    24388630.075  
  23846579.214   125314579.974                                                  
  23745044.352   124781023.364                                                  
  24659990.380   129589104.892                                                  
  23545745.885   123733718.300                                                  
  26361829.444   138532315.005                                                  
 21  9  1  9 14 40.0000000  0 19G 1G 7G 8G13G14G17G19G21G22G30C23C25
                                C28C34E13E15E21E27E30
  20215685.201   106234105.251    20215687.899    82779811.950                  
  21965928.285   115431740.071    21965927.999    89946812.077                  
  24098893.177   126640496.695    24098895.607    98680896.187                  
  24355233.746   127987628.897    24355233.157    99730622.586                  
  20962347.722   110157895.821    20962347.686    85837327.286                  
  21619263.254   113610009.319    21619262.646    88527282.937                  
  23732196.113   124713547.111    23732194.255    97179391.532                  
  21944112.317   115317096.512    21944111.066    89857480.378                  
  24022876.656   126241089.798    24022874.369    98369686.231                  
  20987125.338   110288051.047    20987127.303    85938731.818                  
                 114315080.477                   114315080.477    21952999.886  
                 124608064.351                   124608064.351    23929666.364  
                 121537688.575                   121537688.575    23340034.565  
                 127000671.169                   127000671.169    24389143.059  
  23846243.598   125312816.329                                                  
  23745254.688   124782128.636                                                  
  24659655.175   129587343.325                                                  
  23545864.946   123734343.910                                                  
  26362287.588   138534722.532                                                  
 21  9  1  9 14 41.0000000  0 19G 1G 7G 8G13G14G17G19G21G22G30C23C25
                                C28C34E13E15E21E27E30
  20215673.246   106234042.410    20215675.944    82779762.985                  
  21966514.747   115434822.010    21966514.478    89949213.589                  
  24099465.576   126643504.639    24099467.988    98683240.042                  
  24355476.479   127988904.493    24355475.907    99731616.559                  
  20962016.895   110156157.339    20962016.859    85835972.625                  
  21618964.680   113608440.246    21618964.037    88526060.284                  
  23731631.237   124710578.614    23731629.379    97177078.418                  
  21944513.494   115319204.681    21944512.225    89859123.110                  
  24022473.781   126238972.611    24022471.458    98368036.473                  
  20987364.318   110289306.915    20987366.284    85939710.411                  
                 114315302.000                   114315302.000    21953042.415  
                 124610883.134                   124610883.134    23930207.688  
                 121535456.805                   121535456.805    23339605.959  
                 127003342.562                   127003342.562    24389656.078  
  23845908.089   125311053.075                                                  
  23745465.096   124783234.304                                                  
  24659319.988   129585581.902                                                  
  23545984.043   123734969.813                                                  
  26362745.732   138537130.211                                                  
 21  9  1  9 14 42.0000000  0 19G 1G 7G 8G13G14G17G19G21G22G30C23C25
                                C28C34E13E15E21E27E30
  20215661.417   106233980.332    20215664.115    82779714.612                  
  21967101.297   115437904.317    21967101.011    89951615.386                  
  24100037.956   126646512.602    24100040.386    98685583.907                  
  24355719.319   127990180.579    24355718.747    99732610.910                  
  20961686.121   110154419.136    20961686.085    85834618.184                  
  21618666.160   113606871.481    21618665.517    88524837.868                  
  23731066.380   124707610.290    23731064.521    97174765.438                  
  21944914.761   115321313.294    21944913.474    89860766.185                  
  24022070.942   126236855.711    24022068.619    98366386.941                  
  20987603.423   110290563.419    20987605.371    85940689.503                  
                 114315524.034                   114315524.034    21953085.068  
                 124613702.195                   124613702.195    23930749.048  
                 121533225.332                   121533225.332    23339177.442  
                 127006014.071                   127006014.071    24390169.116  
  23845572.598   125309290.196                                                  
  23745675.557   124784340.371                                                  
  24658984.818   129583820.651                                                  
  23546103.194   123735596.024                                                  
  26363203.947   138539538.044                                                  
 21  9  1  9 14 43.0000000  0 19G 1G 7G 8G13G14G17G19G21G22G30C23C25
                                C28C34E13E15E21E27E30
  20215649.766   106233919.005    20215652.465    82779666.825                  
  21967687.901   115440986.999    21967687.633    89954017.476                  
  24100610.355   126649520.546    24100612.785    98687927.757                  
  24355962.249   127991457.161    24355961.659    99733605.649                  
  20961355.419   110152681.218    20961355.383    85833263.962                  
  21618367.676   113605303.013    21618367.068    88523615.685                  
  23730501.558   124704642.160    23730499.699    97172452.614                  
  21945316.099   115323422.352    21945314.813    89862409.605                  
  24021668.174   126234739.120    24021665.869    98364737.652                  
  20987842.636   110291820.540    20987844.602    85941669.082                  
                 114315746.577                   114315746.577    21953127.775  
                 124616521.535                   124616521.535    23931290.480  
                 121530994.164                   121530994.164    23338748.961  
                 127008685.691                   127008685.691    24390682.171  
  23845237.214   125307527.711                                                  
  23745886.125   124785446.828                                                  
  24658649.703   129582059.554                                                  
  23546222.416   123736222.520                                                  
  26363662.163   138541946.029                                                  
 21  9  1  9 14 44.0000000  0 19G 1G 7G 8G13G14G17G19G21G22G30C23C25
                                C28C34E13E15E21E27E30
  20215638.223   106233858.417    20215640.921    82779619.614                  
  21968274.595   115444070.060    21968274.327    89956419.859                  
  24101182.753   126652528.479    24101185.165    98690271.601                  
  24356205.267   127992734.227    24356204.678    99734600.765                  
  20961024.753   110150943.575    20961024.717    85831909.952                  
  21618069.263   113603734.829    21618068.638    88522393.723                  
  23729936.772   124701674.206    23729934.913    97170139.923                  
  21945717.527   115325531.857    21945716.240    89864053.374                  
  24021265.460   126232622.819    24021263.137    98363088.586                  
  20988081.974   110293078.286    20988083.939    85942649.142                  
                 114315969.630                   114315969.630    21953170.625  
                 124619341.161                   124619341.161    23931831.965  
                 121528763.301                   121528763.301    23338320.533  
                 127011357.421                   127011357.421    24391195.244  
  23844901.902   125305765.601                                                  
  23746096.748   124786553.687                                                  
  24658314.605   129580298.612                                                  
  23546341.692   123736849.321                                                  
  26364120.414   138544354.163                                                  
 21  9  1  9 14 45.0000000  0 19G 1G 7G 8G13G14G17G19G21G22G30C23C25
                                C28C34E13E15E21E27E30
  20215626.840   106233798.575    20215629.539    82779572.984                  
  21968861.360   115447153.484    21968861.074    89958822.527                  
  24101755.133   126655536.421    24101757.564    98692615.454                  
  24356448.375   127994011.801    24356447.804    99735596.277                  
  20960694.140   110149206.215    20960694.104    85830556.167                  
  21617770.922   113602166.956    21617770.279    88521172.009                  
  23729372.021   124698706.434    23729370.181    97167827.371                  
  21946119.044   115327641.795    21946117.757    89865697.489                  
  24020862.799   126230506.812    24020860.476    98361439.749                  
  20988321.437   110294336.656    20988323.402    85943629.692                  
                 114316193.188                   114316193.188    21953213.564  
                 124622161.065                   124622161.065    23932373.485  
                 121526532.741                   121526532.741    23337892.195  
                 127014029.262                   127014029.262    24391708.336  
  23844566.661   125304003.866                                                  
  23746307.459   124787660.946                                                  
  24657979.543   129578537.831                                                  
  23546461.039   123737476.419                                                  
  26364578.700   138546762.450                                                  
 21  9  1  9 14 46.0000000  0 19G 1G 7G 8G13G14G17G19G21G22G30C23C25
                                C28C34E13E15E21E27E30
  20215615.601   106233739.481    20215618.281    82779526.934                  
  21969448.179   115450237.293    21969447.893    89961225.495                  
  24102327.532   126658544.357    24102329.962    98694959.298                  
  24356691.573   127995289.868    24356691.001    99736592.176                  
  20960363.581   110147469.133    20960363.545    85829202.594                  
  21617472.617   113600599.394    21617471.973    88519950.532                  
  23728807.324   124695738.847    23728805.466    97165514.970                  
  21946520.614   115329752.186    21946519.346    89867341.945                  
  24020460.174   126228391.089    24020457.851    98359791.136                  
  20988561.024   110295595.652    20988562.972    85944610.730                  
                 114316417.258                   114316417.258    21953256.575  
                 124624981.255                   124624981.255    23932915.078  
                 121524302.480                   121524302.480    23337463.892  
                 127016701.216                   127016701.216    24392221.462  
  23844231.474   125302242.528                                                  
  23746518.242   124788768.594                                                  
  24657644.499   129576777.215                                                  
  23546580.422   123738103.810                                                  
  26365037.023   138549170.884                                                  
 21  9  1  9 14 47.0000000  0 19G 1G 7G 8G13G14G17G19G21G22G30C23C25
                                C28C34E13E15E21E27E30
  20215604.504   106233681.135    20215607.184    82779481.472                  
  21970035.087   115453321.472    21970034.801    89963628.753                  
  24102899.912   126661552.246    24102902.343    98697303.110                  
  24356934.877   127996568.430    24356934.306    99737588.454                  
  20960033.076   110145732.327    20960033.040    85827849.239                  
  21617174.383   113599032.117    21617173.739    88518729.277                  
  23728242.645   124692771.445    23728240.787    97163202.704                  
  21946922.292   115331863.008    21946921.023    89868986.742                  
  24020057.639   126226275.684    24020055.316    98358142.766                  
  20988800.719   110296855.270    20988802.685    85945592.251                  
                 114316641.831                   114316641.831    21953299.728  
                 124627801.718                   124627801.718    23933456.723  
                 121522072.527                   121522072.527    23337035.661  
                 127019373.281                   127019373.281    24392734.625  
  23843896.376   125300481.560                                                  
  23746729.079   124789876.633                                                  
  24657309.508   129575016.749                                                  
  23546699.858   123738731.491                                                  
  26365495.363   138551579.468                                                  
 21  9  1  9 14 48.0000000  0 19G 1G 7G 8G13G14G17G19G21G22G30C23C25
                                C28C34E13E15E21E27E30
  20215593.532   106233623.547    20215596.213    82779436.598                  
  21970622.067   115456406.020    21970621.781    89966032.298                  
  24103472.293   126664560.155    24103474.723    98699646.933                  
  24357178.271   127997847.454    24357177.700    99738585.097                  
  20959702.642   110143995.805    20959702.606    85826496.105                  
  21616876.184   113597465.139    21616875.559    88517508.253                  
  23727678.002   124689804.216    23727676.144    97160890.577                  
  21947324.059   115333974.282    21947322.773    89870631.890                  
  24019655.139   126224160.566    24019652.816    98356494.624                  
  20989040.540   110298115.516    20989042.505    85946574.254                  
                 114316866.919                   114316866.919    21953342.936  
                 124630622.469                   124630622.469    23933998.405  
                 121519842.874                   121519842.874    23336607.483  
                 127022045.456                   127022045.456    24393247.788  
  23843561.368   125298720.982                                                  
  23746940.023   124790985.083                                                  
  24656974.518   129573256.446                                                  
  23546819.366   123739359.478                                                  
  26365953.722   138553988.210                                                  
 21  9  1  9 14 49.0000000  0 19G 1G 7G 8G13G14G17G19G21G22G30C23C25
                                C28C34E13E15E21E27E30
  20215582.722   106233566.698    20215585.402    82779392.300                  
  21971209.100   115459490.941    21971208.814    89968436.130                  
  24104044.691   126667568.067    24104047.104    98701990.758                  
  24357421.755   127999126.982    24357421.183    99739582.132                  
  20959372.243   110142259.565    20959372.208    85825143.191                  
  21616578.058   113595898.464    21616577.414    88516287.465                  
  23727113.377   124686837.177    23727111.518    97158578.601                  
  21947725.898   115336085.985    21947724.647    89872277.370                  
  24019252.693   126222045.735    24019250.388    98354846.702                  
  20989280.485   110299376.372    20989282.433    85947556.741                  
                 114317092.515                   114317092.515    21953386.268  
                 124633443.496                   124633443.496    23934540.158  
                 121517613.524                   121517613.524    23336179.359  
                 127024717.745                   127024717.745    24393760.968  
  23843226.395   125296960.776                                                  
  23747151.020   124792093.923                                                  
  24656639.581   129571496.297                                                  
  23546938.928   123739987.758                                                  
  26366412.116   138556397.098                                                  
 21  9  1  9 14 50.0000000  0 19G 1G 7G 8G13G14G17G19G21G22G30C23C25
                                C28C34E13E15E21E27E30
  20215572.036   106233510.615    20215574.734    82779348.597                  
  21971796.204   115462576.238    21971795.936    89970840.255                  
  24104617.072   126670575.962    24104619.502    98704334.575                  
  24357665.345   128000407.009    24357664.756    99740579.554                  
  20959041.899   110140523.601    20959041.863    85823790.492                  
  21616279.984   113594332.093    21616279.359    88515066.918                  
  23726548.805   124683870.318    23726546.964    97156266.761                  
  21948127.844   115338198.145    21948126.557    89873923.212                  
  24018850.318   126219931.204    24018847.995    98353199.015                  
  20989520.537   110300637.859    20989522.485    85948539.718                  
                 114317318.618                   114317318.618    21953429.672  
                 124636264.808                   124636264.808    23935081.965  
                 121515384.481                   121515384.481    23335751.271  
                 127027390.144                   127027390.144    24394274.166  
  23842891.512   125295200.970                                                  
  23747362.107   124793203.156                                                  
  24656304.662   129569736.311                                                  
  23547058.543   123740616.332                                                  
  26366870.546   138558806.149                                                  
 21  9  1  9 14 51.0000000  0 19G 1G 7G 8G13G14G17G19G21G22G30C23C25
                                C28C34E13E15E21E27E30
  20215561.511   106233455.274    20215564.192    82779305.476                  
  21972383.380   115465661.910    21972383.112    89973244.675                  
  24105189.452   126673583.868    24105191.883    98706678.396                  
  24357909.025   128001687.523    24357908.435    99741577.359                  
  20958711.608   110138787.919    20958711.554    85822438.012                  
  21615981.983   113592766.007    21615981.339    88513846.594                  
  23725984.269   124680903.640    23725982.428    97153955.071                  
  21948529.861   115340310.742    21948528.574    89875569.392                  
  24018447.997   126217816.972    24018445.674    98351551.567                  
  20989760.697   110301899.968    20989762.663    85949523.185                  
                 114317545.232                   114317545.232    21953473.201  
                 124639086.399                   124639086.399    23935623.825  
                 121513155.735                   121513155.735    23335323.272  
                 127030062.654                   127030062.654    24394787.401  
  23842556.700   125293441.536                                                  
  23747573.265   124794312.786                                                  
  24655969.778   129567976.493                                                  
  23547178.212   123741245.210                                                  
  26367328.993   138561215.348                                                  
 21  9  1  9 14 52.0000000  0 19G 1G 7G 8G13G14G17G19G21G22G30C23C25
                                C28C34E13E15E21E27E30
  20215551.111   106233400.678    20215553.828    82779262.934                  
  21972970.646   115468747.949    21972970.360    89975649.378                  
  24105761.833   126676591.778    24105764.263    98709022.219                  
  24358152.776   128002968.533    24358152.205    99742575.546                  
  20958381.388   110137052.519    20958381.335    85821085.754                  
  21615684.017   113591200.227    21615683.373    88512626.503                  
  23725419.769   124677937.148    23725417.892    97151643.516                  
  21948931.932   115342423.780    21948930.681    89877215.914                  
  24018045.712   126215703.042    24018043.407    98349904.349                  
  20990001.000   110303162.703    20990002.947    85950507.129                  
                 114317772.341                   114317772.341    21953516.819  
                 124641908.263                   124641908.263    23936165.721  
                 121510927.300                   121510927.300    23334895.345  
                 127032735.274                   127032735.274    24395300.635  
  23842221.959   125291682.481                                                  
  23747784.477   124795422.817                                                  
  24655634.913   129566216.825                                                  
  23547297.935   123741874.379                                                  
  26367787.477   138563624.683                                                  
 21  9  1  9 14 53.0000000  0 19G 1G 7G 8G13G14G17G19G21G22G30C23C25
                                C28C34E13E15E21E27E30
  20215540.872   106233346.837    20215543.589    82779220.980                  
  21973557.965   115471834.346    21973557.697    89978054.368                  
  24106334.231   126679599.699    24106336.662    98711366.056                  
  24358396.635   128004250.024    24358396.063    99743574.113                  
  20958051.187   110135317.397    20958051.133    85819733.711                  
  21615386.122   113589634.751    21615385.479    88511406.652                  
  23724855.304   124674970.837    23724853.446    97149332.105                  
  21949334.146   115344537.267    21949332.859    89878862.785                  
  24017643.516   126213589.409    24017641.193    98348257.359                  
  20990241.392   110304426.059    20990243.357    85951491.562                  
                 114317999.970                   114317999.970    21953560.527  
                 124644730.415                   124644730.415    23936707.706  
                 121508699.165                   121508699.165    23334467.436  
                 127035408.004                   127035408.004    24395813.922  
  23841887.308   125289923.802                                                  
  23747995.796   124796533.236                                                  
  24655300.101   129564457.312                                                  
  23547417.729   123742503.851                                                  
  26368245.996   138566034.179                                                  
 21  9  1  9 14 54.0000000  0 19G 1G 7G 8G13G14G17G19G21G22G30C23C25
                                C28C34E13E15E21E27E30
  20215530.776   106233293.741    20215533.457    82779179.604                  
  21974145.355   115474921.104    21974145.087    89980459.634                  
  24106906.612   126682607.617    24106909.042    98713709.886                  
  24358640.601   128005532.005    24358640.011    99744573.055                  
  20957721.056   110133582.563    20957721.021    85818381.890                  
  21615088.264   113588069.567    21615087.638    88510187.032                  
  23724290.857   124672004.708    23724288.999    97147020.836                  
  21949736.395   115346651.185    21949735.126    89880509.991                  
  24017241.356   126211476.066    24017239.033    98346610.601                  
  20990481.926   110305690.043    20990483.874    85952476.485                  
                 114318228.105                   114318228.105    21953604.342  
                 124647552.847                   124647552.847    23937249.727  
                 121506471.329                   121506471.329    23334039.598  
                 127038080.848                   127038080.848    24396327.192  
  23841552.729   125288165.519                                                  
  23748207.186   124797644.051                                                  
  24654965.325   129562697.969                                                  
  23547537.558   123743133.610                                                  
  26368704.533   138568443.828                                                  
 21  9  1  9 14 55.0000000  0 19G 1G 7G 8G13G14G17G19G21G22G30C23C25
                                C28C34E13E15E21E27E30
  20215520.823   106233241.399    20215523.504    82779138.821                  
  21974732.817   115478008.241    21974732.532    89982865.192                  
  24107478.993   126685615.488    24107481.423    98716053.684                  
  24358884.638   128006814.474    24358884.066    99745572.384                  
  20957390.980   110131847.999    20957390.944    85817030.284                  
  21614790.476   113586504.687    21614789.833    88508967.641                  
  23723726.464   124669038.770    23723724.606    97144709.715                  
  21950138.734   115348765.540    21950137.465    89882157.543                  
  24016839.267   126209363.017    24016836.944    98344964.067                  
  20990722.586   110306954.644    20990724.534    85953461.886                  
                 114318456.754                   114318456.754    21953648.264  
                 124650375.557                   124650375.557    23937791.784  
                 121504243.796                   121504243.796    23333611.849  
                 127040753.800                   127040753.800    24396840.516  
  23841218.203   125286407.614                                                  
  23748418.648   124798755.273                                                  
  24654630.549   129560938.773                                                  
  23547657.459   123743763.677                                                  
  26369163.106   138570853.620                                                  
 21  9  1  9 14 56.0000000  0 19G 1G 7G 8G13G14G17G19G21G22G30C23C25
                                C28C34E13E15E21E27E30
  20215510.995   106233189.800    20215513.676    82779098.614                  
  21975320.369   115481095.750    21975320.083    89985271.044                  
  24108051.373   126688623.351    24108053.803    98718397.473                  
  24359128.782   128008097.438    24359128.193    99746572.094                  
  20957060.957   110130113.719    20957060.921    85815678.895                  
  21614492.760   113584940.109    21614492.117    88507748.492                  
  23723162.107   124666073.008    23723160.248    97142398.734                  
  21950541.180   115350880.344    21950539.894    89883805.442                  
  24016437.214   126207250.258    24016434.909    98343317.761                  
  20990963.336   110308219.866    20990965.301    85954447.778                  
                 114318685.910                   114318685.910    21953692.257  
                 124653198.556                   124653198.556    23938333.912  
                 121502016.571                   121502016.571    23333184.118  
                 127043426.868                   127043426.868    24397353.857  
  23840883.748   125284650.090                                                  
  23748630.164   124799866.878                                                  
  24654295.826   129559179.751                                                  
  23547777.414   123744394.038                                                  
  26369621.696   138573263.566                                                  
 21  9  1  9 14 57.0000000  0 19G 1G 7G 8G13G14G17G19G21G22G30C23C25
                                C28C34E13E15E21E27E30
  20215501.328   106233138.952    20215504.027    82779058.996                  
  21975907.956   115484183.632    21975907.688    89987677.183                  
  24108623.754   126691631.225    24108626.184    98720741.269                  
  24359373.016   128009380.886    24359372.444    99747572.188                  
  20956731.005   110128379.718    20956730.952    85814327.726                  
  21614195.080   113583375.828    21614194.437    88506529.571                  
  23722597.767   124663107.440    23722595.891    97140087.902                  
  21950943.698   115352995.582    21950942.411    89885453.685                  
  24016035.215   126205137.804    24016032.892    98341671.696                  
  20991204.228   110309485.720    20991206.176    85955434.153                  
                 114318915.577                   114318915.577    21953736.358  
                 124656021.827                   124656021.827    23938876.094  
                 121499789.645                   121499789.645    23332756.459  
                 127046100.043                   127046100.043    24397867.198  
  23840549.383   125282892.957                                                  
  23748841.787   124800978.890                                                  
  24653961.121   129557420.877                                                  
  23547897.422   123745024.701                                                  
  26370080.322   138575673.660                                                  
 21  9  1  9 14 58.0000000  0 19G 1G 7G 8G13G14G17G19G21G22G30C23C25
                                C28C34E13E15E21E27E30
  20215491.786   106233088.846    20215494.485    82779019.948                  
  21976495.632   115487271.896    21976495.364    89990083.620                  
  24109196.134   126694639.114    24109198.564    98723085.078                  
  24359617.339   128010664.828    24359616.768    99748572.660                  
  20956401.072   110126646.005    20956401.036    85812976.780                  
  21613897.454   113581811.852    21613896.829    88505310.891                  
  23722033.464   124660142.054    23722031.605    97137777.211                  
  21951346.305   115355111.267    21951345.018    89887102.265                  
  24015633.304   126203025.644    24015630.982    98340025.859                  
  20991445.228   110310752.193    20991447.175    85956421.015                  
                 114319145.751                   114319145.751    21953780.566  
                 124658845.384                   124658845.384    23939418.312  
                 121497563.022                   121497563.022    23332328.853  
                 127048773.332                   127048773.332    24398380.575  
  23840215.072   125281136.200                                                  
  23749053.463   124802091.289                                                  
  24653626.435   129555662.163                                                  
  23548017.484   123745655.648                                                  
  26370538.985   138578083.919                                                  
 21  9  1  9 14 59.0000000  0 19G 1G 7G 8G13G14G17G19G21G22G30C23C25
                                C28C34E13E15E21E27E30
  20215482.405   106233039.504    20215485.085    82778981.499                  
  21977083.380   115490360.532    21977083.112    89992490.352                  
  24109768.515   126697646.985    24109770.945    98725428.874                  
  24359861.752   128011949.256    24359861.180    99749573.515                  
  20956071.227   110124912.568    20956071.174    85811626.050                  
  21613599.899   113580248.176    21613599.274    88504092.442                  
  23721469.196   124657176.847    23721467.337    97135466.660                  
  21951748.983   115357227.392    21951747.697    89888751.196                  
  24015231.412   126200913.789    24015229.107    98338380.253                  
  20991686.334   110312019.293    20991688.300    85957408.364                  
                 114319376.433                   114319376.433    21953824.863  
                 124661669.220                   124661669.220    23939960.619  
                 121495336.707                   121495336.707    23331901.319  
                 127051446.732                   127051446.732    24398893.988  
  23839880.867   125279379.827                                                  
  23749265.211   124803204.097                                                  
  24653291.801   129553903.621                                                  
  23548137.618   123746286.904                                                  
  26370997.664   138580494.331                                                  
 21  9  1  9 15  0.0000000  0 19G 1G 7G 8G13G14G17G19G21G22G30C23C25
                                C28C34E13E15E21E27E30
  20215473.149   106232990.897    20215475.847    82778943.624                  
  21977671.200   115493449.540    21977670.914    89994897.372                  
  24110340.895   126700654.851    24110343.325    98727772.665                  
  24360106.272   128013234.181    24360105.700    99750574.751                  
  20955741.401   110123179.409    20955741.365    85810275.539                  
  21613302.398   113578684.796    21613301.754    88502874.224                  
  23720904.981   124654211.821    23720903.123    97133156.251                  
  21952151.769   115359343.962    21952150.482    89890400.470                  
  24014829.592   126198802.216    24014827.286    98336734.876                  
  20991927.584   110313287.016    20991929.532    85958396.204                  
                 114319607.624                   114319607.624    21953869.268  
                 124664493.332                   124664493.332    23940502.962  
                 121493110.692                   121493110.692    23331473.838  
                 127054120.239                   127054120.239    24399407.401  
  23839546.699   125277623.835                                                  
  23749477.049   124804317.289                                                  
  24652957.204   129552145.229                                                  
  23548257.805   123746918.450                                                  
  26371456.380   138582904.878                                                  
 21  9  1  9 15  1.0000000  0 19G 1G 7G 8G13G14G17G19G21G22G30C23C25
                                C28C34E13E15E21E27E30
  20215464.036   106232943.042    20215466.716    82778906.337                  
  21978259.108   115496538.922    21978258.822    89997304.679                  
  24110913.276   126703662.698    24110915.706    98730116.440                  
  24360350.881   128014519.581    24360350.309    99751576.363                  
  20955411.664   110121446.538    20955411.628    85808925.250                  
  21613004.968   113577121.715    21613004.324    88501656.238                  
  23720340.803   124651246.984    23720338.944    97130845.992                  
  21952554.608   115361460.964    21952553.322    89892050.086                  
  24014427.842   126196690.950    24014425.519    98335089.734                  
  20992168.941   110314555.352    20992170.907    85959384.516                  
                 114319839.327                   114319839.327    21953913.762  
                 124667317.726                   124667317.726    23941045.358  
                 121490884.982                   121490884.982    23331046.411  
                 127056793.856                   127056793.856    24399920.831  
  23839212.619   125275868.225                                                  
  23749688.957   124805430.874                                                  
  24652622.624   129550386.996                                                  
  23548378.028   123747550.289                                                  
  26371915.114   138585315.583                                                  
 21  9  1  9 15  2.0000000  0 19G 1G 7G 8G13G14G17G19G21G22G30C23C25
                                C28C34E13E15E21E27E30
  20215455.083   106232895.950    20215457.764    82778869.640                  
  21978847.053   115499628.676    21978846.785    89999712.282                  
  24111485.638   126706670.543    24111488.069    98732460.216                  
  24360595.579   128015805.486    24360595.007    99752578.362                  
  20955081.945   110119713.946    20955081.927    85807575.180                  
  21612707.556   113575558.930    21612706.948    88500438.480                  
  23719776.642   124648282.331    23719774.783    97128535.871                  
  21952957.537   115363578.409    21952956.268    89893700.039                  
  24014026.147   126194579.985    24014023.824    98333444.823                  
  20992410.423   110315824.313    20992412.389    85960373.317                  
                 114320071.536                   114320071.536    21953958.363  
                 124670142.403                   124670142.403    23941587.808  
                 121488659.571                   121488659.571    23330619.038  
                 127059467.587                   127059467.587    24400434.298  
  23838878.594   125274113.008                                                  
  23749900.938   124806544.867                                                  
  24652288.063   129548628.930                                                  
  23548498.322   123748182.446                                                  
  26372373.901   138587726.438                                                  
 21  9  1  9 15  3.0000000  0 19G 1G 7G 8G13G14G17G19G21G22G30C23C25
                                C28C34E13E15E21E27E30
  20215446.256   106232849.598    20215448.936    82778833.523                  
  21979435.087   115502718.809    21979434.819    90002120.176                  
  24112058.019   126709678.394    24112060.431    98734803.993                  
  24360840.367   128017091.874    24360839.777    99753580.746                  
  20954752.297   110117981.632    20954752.261    85806225.323                  
  21612410.233   113573996.442    21612409.608    88499220.961                  
  23719212.517   124645317.866    23719210.658    97126225.898                  
  21953360.555   115365696.289    21953359.286    89895350.337                  
  24013624.505   126192469.312    24013622.182    98331800.146                  
  20992652.012   110317093.903    20992653.978    85961362.605                  
                 114320304.254                   114320304.254    21954003.035  
                 124672967.358                   124672967.358    23942130.294  
                 121486434.466                   121486434.466    23330191.736  
                 127062141.426                   127062141.426    24400947.782  
  23838544.675   125272358.161                                                  
  23750113.007   124807659.247                                                  
  24651953.537   129546871.019                                                  
  23548618.688   123748814.884                                                  
  26372832.706   138590137.448                                                  
 21  9  1  9 15  4.0000000  0 19G 1G 7G 8G13G14G17G19G21G22G30C23C25
                                C28C34E13E15E21E27E30
  20215437.572   106232803.994    20215440.252    82778797.985                  
  21980023.174   115505809.305    21980022.924    90004528.355                  
  24112630.400   126712686.251    24112632.812    98737147.777                  
  24361085.262   128018378.750    24361084.672    99754583.508                  
  20954422.703   110116249.601    20954422.667    85804875.688                  
  21612112.964   113572434.259    21612112.321    88498003.676                  
  23718648.427   124642353.574    23718646.587    97123916.063                  
  21953763.662   115367814.614    21953762.375    89897000.980                  
  24013222.898   126190358.939    24013220.575    98330155.699                  
  20992893.726   110318364.105    20992895.674    85962352.375                  
                 114320537.483                   114320537.483    21954047.833  
                 124675792.593                   124675792.593    23942672.869  
                 121484209.666                   121484209.666    23329764.487  
                 127064815.378                   127064815.378    24401461.284  
  23838210.793   125270603.705                                                  
  23750325.148   124808774.012                                                  
  24651619.064   129545113.261                                                  
  23548739.071   123749447.613                                                  
  26373291.529   138592548.608                                                  
 21  9  1  9 15  5.0000000  0 19G 1G 7G 8G13G14G17G19G21G22G30C23C25
                                C28C34E13E15E21E27E30
  20215429.048   106232759.149    20215431.746    82778763.039                  
  21980611.369   115508900.180    21980611.101    90006936.829                  
  24113202.780   126715694.098    24113205.192    98739491.555                  
  24361330.246   128019666.137    24361329.656    99755586.664                  
  20954093.162   110114517.851    20954093.126    85803526.273                  
  21611815.749   113570872.378    21611815.123    88496786.628                  
  23718084.374   124639389.476    23718082.515    97121606.376                  
  21954166.859   115369933.380    21954165.572    89898651.964                  
  24012821.364   126188248.859    24012819.041    98328511.481                  
  20993135.566   110319634.950    20993137.513    85963342.642                  
                 114320771.218                   114320771.218    21954092.720  
                 124678618.109                   124678618.109    23943215.479  
                 121481985.168                   121481985.168    23329337.293  
                 127067489.437                   127067489.437    24401974.822  
  23837877.017   125268849.620                                                  
  23750537.343   124809889.199                                                  
  24651284.592   129543355.676                                                  
  23548859.544   123750080.653                                                  
  26373750.387   138594959.909                                                  
 21  9  1  9 15  6.0000000  0 19G 1G 7G 8G13G14G17G19G21G22G30C23C25
                                C28C34E13E15E21E27E30
  20215420.632   106232715.030    20215423.348    82778728.665                  
  21981199.599   115511991.425    21981199.349    90009345.593                  
  24113775.161   126718701.952    24113777.573    98741835.339                  
  24361575.302   128020953.984    24361574.712    99756590.179                  
  20953763.675   110112786.376    20953763.640    85802177.070                  
  21611518.587   113569310.794    21611517.961    88495569.804                  
  23717520.356   124636425.531    23717518.498    97119296.808                  
  21954570.127   115372052.586    21954568.840    89900303.293                  
  24012419.882   126186139.067    24012417.559    98326867.487                  
  20993377.494   110320906.394    20993379.460    85964333.379                  
                 114321005.466                   114321005.466    21954137.696  
                 124681443.905                   124681443.905    23943758.144  
                 121479760.973                   121479760.973    23328910.152  
                 127070163.610                   127070163.610    24402488.360  
  23837543.295   125267095.926                                                  
  23750749.645   124811004.762                                                  
  24650950.155   129541598.244                                                  
  23548980.053   123750713.989                                                  
  26374209.264   138597371.368                                                  
 21  9  1  9 15  7.0000000  0 19G 1G 7G 8G13G14G17G19G21G22G30C23C25
                                C28C34E13E15E21E27E30
  20215412.394   106232671.659    20215415.075    82778694.867                  
  21981787.919   115515083.037    21981787.633    90011754.637                  
  24114347.523   126721709.794    24114349.936    98744179.110                  
  24361820.483   128022242.348    24361819.893    99757594.101                  
  20953434.242   110111055.184    20953434.206    85800828.091                  
  21611221.478   113567749.497    21611220.835    88494353.212                  
  23716956.374   124633461.764    23716954.515    97116987.380                  
  21954973.484   115374172.232    21954972.198    89901954.968                  
  24012018.455   126184029.565    24012016.132    98325223.722                  
  20993619.584   110322178.468    20993621.532    85965324.606                  
                 114321240.219                   114321240.219    21954182.780  
                 124684269.980                   124684269.980    23944300.862  
                 121477537.077                   121477537.077    23328483.082  
                 127072837.893                   127072837.893    24403001.916  
  23837209.663   125265342.602                                                  
  23750962.000   124812120.718                                                  
  24650615.754   129539840.964                                                  
  23549100.633   123751347.612                                                  
  26374668.176   138599782.989                                                  
 21  9  1  9 15  8.0000000  0 19G 1G 7G 8G13G14G17G19G21G22G30C23C25
                                C28C34E13E15E21E27E30
  20215404.300   106232629.074    20215406.980    82778661.686                  
  21982376.292   115518175.027    21982376.042    90014163.984                  
  24114919.904   126724717.633    24114922.316    98746522.883                  
  24362065.735   128023531.187    24362065.163    99758598.392                  
  20953104.862   110109324.282    20953104.827    85799479.336                  
  21610924.442   113566188.520    21610923.798    88493136.866                  
  23716392.445   124630498.271    23716390.587    97114678.164                  
  21955376.913   115376292.309    21955375.644    89903606.972                  
  24011617.099   126181920.384    24011614.776    98323580.204                  
  20993861.763   110323451.177    20993863.728    85966316.325                  
                 114321475.484                   114321475.484    21954227.953  
                 124687096.337                   124687096.337    23944843.615  
                 121475313.492                   121475313.492    23328056.066  
                 127075512.284                   127075512.284    24403515.525  
  23836876.084   125263589.692                                                  
  23751174.427   124813237.079                                                  
  24650281.407   129538083.854                                                  
  23549221.267   123751981.538                                                  
  26375127.124   138602194.753                                                  
 21  9  1  9 15  9.0000000  0 19G 1G 7G 8G13G14G17G19G21G22G30C23C25
                                C28C34E13E15E21E27E30
  20215396.312   106232587.208    20215399.028    82778629.061                  
  21982964.755   115521267.390    21982964.504    90016573.613                  
  24115492.284   126727725.472    24115494.697    98748866.653                  
  24362311.077   128024820.519    24362310.505    99759603.066                  
  20952775.536   110107593.656    20952775.500    85798130.796                  
  21610627.441   113564627.825    21610626.815    88491920.738                  
  23715828.517   124627534.903    23715826.658    97112369.046                  
  21955780.431   115378412.839    21955779.163    89905259.337                  
  24011215.778   126179811.490    24011213.455    98321936.907                  
  20994104.067   110324724.501    20994106.015    85967308.528                  
                 114321711.257                   114321711.257    21954273.233  
                 124689922.973                   124689922.973    23945386.458  
                 121473090.207                   121473090.207    23327629.121  
                 127078186.789                   127078186.789    24404029.116  
  23836542.576   125261837.140                                                  
  23751386.943   124814353.836                                                  
  24649947.060   129536326.906                                                  
  23549341.954   123752615.769                                                  
  26375586.108   138604606.667                                                  
 21  9  1  9 15 10.0000000  0 19G 1G 7G 8G13G14G17G19G21G22G30C23C25
                                C28C34E13E15E21E27E30
  20215388.503   106232546.097    20215391.202    82778597.026                  
  21983553.307   115524360.125    21983553.021    90018983.539                  
  24116064.647   126730733.281    24116067.059    98751210.399                  
  24362556.526   128026110.332    24362555.936    99760608.113                  
  20952446.264   110105863.311    20952446.228    85796782.476                  
  21610330.511   113563067.438    21610329.886    88490704.856                  
  23715264.660   124624571.718    23715262.801    97110060.075                  
  21956184.039   115380533.796    21956182.752    89906912.031                  
  24010814.547   126177702.895    24010812.224    98320293.849                  
  20994346.496   110325998.454    20994348.461    85968301.214                  
                 114321947.540                   114321947.540    21954318.620  
                 124692749.888                   124692749.888    23945929.337  
                 121470867.222                   121470867.222    23327202.213  
                 127080861.403                   127080861.403    24404542.761  
  23836209.158   125260084.980                                                  
  23751599.513   124815470.980                                                  
  24649612.766   129534570.116                                                  
  23549462.695   123753250.285                                                  
  26376045.092   138607018.734                                                  
 21  9  1  9 15 11.0000000  0 19G 1G 7G 8G13G14G17G19G21G22G30C23C25
                                C28C34E13E15E21E27E30
  20215380.820   106232505.727    20215383.518    82778565.570                  
  21984141.894   115527453.230    21984141.626    90021393.751                  
  24116636.992   126733741.082    24116639.422    98753554.137                  
  24362802.064   128027400.636    24362801.474    99761613.547                  
  20952117.045   110104133.251    20952116.991    85795434.375                  
  21610033.635   113561507.344    21610032.992    88489489.194                  
  23714700.821   124621608.723    23714698.962    97107751.246                  
  21956587.736   115382655.203    21956586.467    89908565.075                  
  24010413.334   126175594.596    24010411.029    98318651.019                  
  20994589.032   110327273.029    20994590.998    85969294.391                  
                 114322184.329                   114322184.329    21954364.097  
                 124695577.082                   124695577.082    23946472.252  
                 121468644.547                   121468644.547    23326775.357  
                 127083536.126                   127083536.126    24405056.424  
  23835875.794   125258333.200                                                  
  23751812.173   124816588.530                                                  
  24649278.472   129532813.479                                                  
  23549583.508   123753885.100                                                  
  26376504.111   138609430.950                                                  
 21  9  1  9 15 12.0000000  0 19G 1G 7G 8G13G14G17G19G21G22G30C23C25
                                C28C34E13E15E21E27E30
  20215373.279   106232466.112    20215375.977    82778534.703                  
  21984730.554   115530546.699    21984730.286    90023804.242                  
  24117209.372   126736748.863    24117211.803    98755897.856                  
  24363047.691   128028691.382    24363047.120    99762619.298                  
  20951787.880   110102403.464    20951787.844    85794086.489                  
  21609736.813   113559947.547    21609736.205    88488273.766                  
  23714136.999   124618645.931    23714135.141    97105442.586                  
  21956991.504   115384777.059    21956990.236    89910218.469                  
  24010012.192   126173486.594    24010009.887    98317008.417                  
  20994831.693   110328548.234    20994833.659    85970288.058                  
                 114322421.638                   114322421.638    21954409.663  
                 124698404.556                   124698404.556    23947015.256  
                 121466422.169                   121466422.169    23326348.574  
                 127086210.950                   127086210.950    24405570.087  
  23835542.537   125256581.798                                                  
  23752024.921   124817706.473                                                  
  24648944.232   129531056.995                                                  
  23549704.356   123754520.226                                                  
  26376963.184   138611843.314                                                  
 21  9  1  9 15 13.0000000  0 19G 1G 7G 8G13G14G17G19G21G22G30C23C25
                                C28C34E13E15E21E27E30
  20215365.881   106232427.246    20215368.579    82778504.417                  
  21985319.302   115533640.538    21985319.016    90026215.028                  
  24117781.735   126739756.672    24117784.165    98758241.601                  
  24363293.426   128029982.657    24363292.854    99763625.481                  
  20951458.768   110100673.965    20951458.714    85792738.825                  
  21609440.062   113558388.052    21609439.419    88487058.575                  
  23713573.232   124615683.306    23713571.373    97103134.047                  
  21957395.362   115386899.348    21957394.093    89911872.204                  
  24009611.122   126171378.891    24009608.799    98315366.054                  
  20995074.480   110329824.047    20995076.445    85971282.200                  
                 114322659.444                   114322659.444    21954455.336  
                 124701232.308                   124701232.308    23947558.295  
                 121464200.097                   121464200.097    23325921.861  
                 127088885.891                   127088885.891    24406083.786  
  23835209.315   125254830.774                                                  
  23752237.741   124818824.805                                                  
  24648610.028   129529300.692                                                  
  23549825.276   123755155.628                                                  
  26377422.257   138614255.817                                                  
 21  9  1  9 15 14.0000000  0 19G 1G 7G 8G13G14G17G19G21G22G30C23C25
                                C28C34E13E15E21E27E30
  20215358.644   106232389.130    20215361.325    82778474.715                  
  21985908.104   115536734.747    21985907.836    90028626.097                  
  24118354.098   126742764.485    24118356.546    98760585.351                  
  24363539.233   128031274.422    24363538.661    99764632.054                  
  20951129.692   110098944.747    20951129.656    85791391.383                  
  21609143.365   113556828.856    21609142.721    88485843.617                  
  23713009.500   124612720.869    23713007.641    97100825.652                  
  21957799.291   115389022.076    21957798.041    89913526.275                  
  24009210.088   126169271.485    24009207.765    98313723.921                  
  20995317.373   110331100.480    20995319.339    85972276.825                  
                 114322897.765                   114322897.765    21954501.099  
                 124704060.343                   124704060.343    23948101.388  
                 121461978.333                   121461978.333    23325495.203  
                 127091560.945                   127091560.945    24406597.502  
  23834876.183   125253080.144                                                  
  23752450.615   124819943.532                                                  
  24648275.841   129527544.536                                                  
  23549946.249   123755791.344                                                  
  26377881.384   138616668.489                                                  
 21  9  1  9 15 15.0000000  0 19G 1G 7G 8G13G14G17G19G21G22G30C23C25
                                C28C34E13E15E21E27E30
  20215351.514   106232351.757    20215354.213    82778445.593                  
  21986496.978   115539829.331    21986496.728    90031037.461                  
  24118926.478   126745772.286    24118928.908    98762929.090                  
  24363785.146   128032566.679    24363784.574    99765639.008                  
  20950800.705   110097215.809    20950800.652    85790044.160                  
  21608846.703   113555269.960    21608846.078    88484628.895                  
  23712445.804   124609758.610    23712443.945    97098517.403                  
  21958203.346   115391145.231    21958202.059    89915180.684                  
  24008809.125   126167164.398    24008806.802    98312082.036                  
  20995560.392   110332377.546    20995562.340    85973271.942                  
                 114323136.589                   114323136.589    21954546.968  
                 124706888.657                   124706888.657    23948644.535  
                 121459756.868                   121459756.868    23325068.580  
                 127094236.109                   127094236.109    24407111.237  
  23834543.122   125251329.895                                                  
  23752663.578   124821062.651                                                  
  24647941.673   129525788.539                                                  
  23550067.276   123756427.351                                                  
  26378340.546   138619081.310                                                  
 21  9  1  9 15 16.0000000  0 19G 1G 7G 8G13G14G17G19G21G22G30C23C25
                                C28C34E13E15E21E27E30
  20215344.563   106232315.138    20215347.244    82778417.059                  
  21987085.941   115542924.276    21987085.655    90033449.109                  
  24119498.841   126748780.078    24119501.253    98765272.828                  
  24364031.167   128033859.427    24364030.577    99766646.344                  
  20950471.737   110095487.151    20950471.701    85788697.152                  
  21608550.113   113553711.363    21608549.488    88483414.401                  
  23711882.143   124606796.540    23711880.285    97096209.297                  
  21958607.436   115393268.836    21958606.167    89916835.441                  
  24008408.215   126165057.593    24008405.892    98310440.367                  
  20995803.518   110333655.234    20995805.484    85974267.543                  
                 114323375.925                   114323375.925    21954592.928  
                 124709717.247                   124709717.247    23949187.736  
                 121457535.708                   121457535.708    23324642.046  
                 127096911.378                   127096911.378    24407625.007  
  23834210.133   125249580.031                                                  
  23752876.612   124822182.172                                                  
  24647607.558   129524032.706                                                  
  23550188.356   123757063.648                                                  
  26378799.709   138621494.274                                                  
 21  9  1  9 15 17.0000000  0 19G 1G 7G 8G13G14G17G19G21G22G30C23C25
                                C28C34E13E15E21E27E30
  20215337.720   106232279.235    20215340.418    82778389.059                  
  21987674.958   115546019.609    21987674.672    90035861.054                  
  24120071.204   126751787.858    24120073.616    98767616.544                  
  24364277.241   128035152.656    24364276.687    99767654.048                  
  20950142.839   110093758.782    20950142.804    85787350.370                  
  21608253.577   113552153.054    21608252.933    88482200.132                  
  23711318.518   124603834.672    23711316.642    97093901.354                  
  21959011.633   115395392.875    21959010.364    89918490.536                  
  24008007.359   126162951.097    24008005.036    98308798.948                  
  20996046.787   110334933.562    20996048.735    85975263.649                  
                 114323615.772                   114323615.772    21954638.976  
                 124712546.116                   124712546.116    23949731.008  
                 121455314.848                   121455314.848    23324215.548  
                 127099586.761                   127099586.761    24408138.777  
  23833877.215   125247830.466                                                  
  23753089.736   124823302.081                                                  
  24647273.461   129522277.081                                                  
  23550309.508   123757700.300                                                  
  26379258.907   138623907.345                                                  
 21  9  1  9 15 18.0000000  0 19G 1G 7G 8G13G14G17G19G21G22G30C23C25
                                C28C34E13E15E21E27E30
  20215331.037   106232244.110    20215333.735    82778361.691                  
  21988264.064   115549115.308    21988263.778    90038273.290                  
  24120643.566   126754795.656    24120645.997    98769960.278                  
  24364523.440   128036446.366    24364522.869    99768662.134                  
  20949813.996   110092030.688    20949813.960    85786003.804                  
  21607957.094   113550595.052    21607956.486    88480986.105                  
  23710754.912   124600872.957    23710753.053    97091593.527                  
  21959415.902   115397517.348    21959414.615    89920145.969                  
  24007606.557   126160844.891    24007604.234    98307157.751                  
  20996290.163   110336212.485    20996292.129    85976260.215                  
                 114323856.129                   114323856.129    21954685.132  
                 124715375.270                   124715375.270    23950274.297  
                 121453094.296                   121453094.296    23323789.104  
                 127102262.254                   127102262.254    24408652.583  
  23833544.387   125246081.358                                                  
  23753302.914   124824422.380                                                  
  24646939.399   129520521.562                                                  
  23550430.696   123758337.193                                                  
  26379718.141   138626320.617                                                  
 21  9  1  9 15 19.0000000  0 19G 1G 7G 8G13G14G17G19G21G22G30C23C25
                                C28C34E13E15E21E27E30
  20215324.496   106232209.747    20215327.195    82778334.913                  
  21988853.223   115552211.374    21988852.937    90040685.809                  
  24121215.947   126757803.445    24121218.359    98772304.012                  
  24364769.711   128037740.581    24364769.140    99769670.613                  
  20949485.224   110090302.879    20949485.188    85784657.461                  
  21607660.683   113549037.356    21607660.057    88479772.316                  
  23710191.358   124597911.444    23710189.500    97089285.859                  
  21959820.260   115399642.273    21959818.973    89921801.753                  
  24007205.827   126158738.992    24007203.504    98305516.789                  
  20996533.646   110337492.031    20996535.594    85977257.262                  
                 114324096.991                   114324096.991    21954731.395  
                 124718204.698                   124718204.698    23950817.659  
                 121450874.047                   121450874.047    23323362.713  
                 127104937.854                   127104937.854    24409166.407  
  23833211.612   125244332.644                                                  
  23753516.180   124825543.090                                                  
  24646605.374   129518766.219                                                  
  23550551.955   123758974.388                                                  
  26380177.393   138628734.034                                                  
 21  9  1  9 15 20.0000000  0 19G 1G 7G 8G13G14G17G19G21G22G30C23C25
                                C28C34E13E15E21E27E30
  20215318.099   106232176.130    20215320.798    82778308.718                  
  21989442.436   115555307.816    21989442.186    90043098.618                  
  24121788.292   126760811.246    24121790.722    98774647.751                  
  24365016.072   128039035.289    24365015.518    99770679.476                  
  20949156.487   110088575.349    20949156.434    85783311.336                  
  21607364.325   113547479.962    21607363.681    88478558.762                  
  23709627.841   124594950.113    23709625.982    97086978.328                  
  21960224.707   115401767.629    21960223.439    89923457.875                  
  24006805.132   126156633.382    24006802.826    98303876.056                  
  20996777.255   110338772.199    20996779.202    85978254.793                  
                 114324338.368                   114324338.368    21954777.765  
                 124721034.408                   124721034.408    23951361.073  
                 121448654.097                   121448654.097    23322936.412  
                 127107613.565                   127107613.565    24409680.248  
  23832878.926   125242584.309                                                  
  23753729.519   124826664.184                                                  
  24646271.384   129517011.023                                                  
  23550673.268   123759611.882                                                  
  26380636.680   138631147.609                                                  
 21  9  1  9 15 21.0000000  0 19G 1G 7G 8G13G14G17G19G21G22G30C23C25
                                C28C34E13E15E21E27E30
  20215311.863   106232143.258    20215314.543    82778283.106                  
  21990031.757   115558404.630    21990031.489    90045511.718                  
  24122360.654   126763819.020    24122363.085    98776991.469                  
  24365262.557   128040330.485    24365261.985    99771688.719                  
  20948827.787   110086848.103    20948827.733    85781965.426                  
  21607068.021   113545922.856    21607067.377    88477345.435                  
  23709064.341   124591988.958    23709062.483    97084670.930                  
  21960629.244   115403893.423    21960627.958    89925114.335                  
  24006404.508   126154528.082    24006402.185    98302235.563                  
  20997020.988   110340052.980    20997022.936    85979252.809                  
                 114324580.245                   114324580.245    21954824.206  
                 124723864.393                   124723864.393    23951904.542  
                 121446434.458                   121446434.458    23322510.164  
                 127110289.390                   127110289.390    24410194.108  
  23832546.277   125240836.363                                                  
  23753942.946   124827785.672                                                  
  24645937.394   129515255.996                                                  
  23550794.634   123760249.667                                                  
  26381096.003   138633561.331                                                  
 21  9  1  9 15 22.0000000  0 19G 1G 7G 8G13G14G17G19G21G22G30C23C25
                                C28C34E13E15E21E27E30
  20215305.734   106232111.117    20215308.414    82778258.063                  
  21990621.113   115561501.811    21990620.863    90047925.108                  
  24122933.017   126766826.768    24122935.447    98779335.171                  
  24365509.114   128041626.167    24365508.542    99772698.339                  
  20948499.157   110085121.136    20948499.122    85780619.742                  
  21606771.752   113544366.063    21606771.145    88476132.347                  
  23708500.895   124589027.997    23708499.019    97082363.688                  
  21961033.835   115406019.648    21961032.566    89926771.136                  
  24006003.938   126152423.079    24006001.615    98300595.296                  
  20997264.829   110341334.395    20997266.777    85980251.311                  
                 114324822.640                   114324822.640    21954870.755  
                 124726694.664                   124726694.664    23952448.082  
                 121444215.116                   121444215.116    23322083.953  
                 127112965.319                   127112965.319    24410707.985  
  23832213.734   125239088.794                                                  
  23754156.428   124828907.561                                                  
  24645603.458   129513501.126                                                  
  23550916.054   123760887.754                                                  
  26381555.344   138635975.211                                                  
 21  9  1  9 15 23.0000000  0 19G 1G 7G 8G13G14G17G19G21G22G30C23C25
                                C28C34E13E15E21E27E30
  20215299.766   106232079.745    20215302.464    82778233.617                  
  21991210.558   115564599.362    21991210.308    90050338.782                  
  24123505.362   126769834.507    24123507.792    98781678.859                  
  24365755.760   128042922.339    24365755.206    99773708.344                  
  20948170.582   110083394.454    20948170.546    85779274.273                  
  21606475.573   113542809.558    21606474.948    88474919.489                  
  23707937.485   124586067.212    23707935.626    97080056.583                  
  21961438.532   115408146.325    21961437.264    89928428.285                  
  24005603.422   126150318.367    24005601.099    98298955.262                  
  20997508.777   110342616.429    20997510.742    85981250.301                  
                 114325065.538                   114325065.538    21954917.393  
                 124729525.211                   124729525.211    23952991.640  
                 121441996.082                   121441996.082    23321657.794  
                 127115641.359                   127115641.359    24411221.898  
  23831881.263   125237341.605                                                  
  23754369.980   124830029.841                                                  
  24645269.557   129511746.414                                                  
  23551037.546   123761526.140                                                  
  26382014.721   138638389.232                                                  
 21  9  1  9 15 24.0000000  0 19G 1G 7G 8G13G14G17G19G21G22G30C23C25
                                C28C34E13E15E21E27E30
  20215293.940   106232049.110    20215296.621    82778209.745                  
  21991800.075   115567697.286    21991799.825    90052752.746                  
  24124077.725   126772842.226    24124080.137    98784022.538                  
  24366002.513   128044218.993    24366001.941    99774718.723                  
  20947842.060   110081668.053    20947842.024    85777929.028                  
  21606179.448   113541253.359    21606178.804    88473706.868                  
  23707374.075   124583106.603    23707372.216    97077749.617                  
  21961843.301   115410273.433    21961842.033    89930085.774                  
  24005202.977   126148213.965    24005200.636    98297315.469                  
  20997752.868   110343899.091    20997754.815    85982249.774                  
                 114325308.950                   114325308.950    21954964.139  
                 124732356.034                   124732356.034    23953535.287  
                 121439777.351                   121439777.351    23321231.725  
                 127118317.509                   127118317.509    24411735.811  
  23831548.864   125235594.808                                                  
  23754583.622   124831152.514                                                  
  24644935.674   129509991.866                                                  
  23551159.073   123762164.826                                                  
  26382474.116   138640803.414                                                  
 21  9  1  9 15 25.0000000  0 19G 1G 7G 8G13G14G17G19G21G22G30C23C25
                                C28C34E13E15E21E27E30
  20215288.258   106232019.234    20215290.938    82778186.466                  
  21992389.664   115570795.570    21992389.396    90055166.996                  
  24124650.087   126775849.953    24124652.500    98786366.222                  
  24366249.356   128045516.142    24366248.784    99775729.489                  
  20947513.574   110079941.937    20947513.556    85776584.000                  
  21605883.358   113539697.461    21605882.715    88472494.476                  
  23706810.736   124580146.191    23706808.877    97075442.804                  
  21962248.160   115412400.982    21962246.891    89931743.606                  
  24004802.586   126146109.848    24004800.245    98295675.897                  
  20997997.066   110345182.372    20997999.013    85983249.731                  
                 114325552.871                   114325552.871    21955010.973  
                 124735187.137                   124735187.137    23954078.952  
                 121437558.922                   121437558.922    23320805.692  
                 127120993.767                   127120993.767    24412249.760  
  23831216.518   125233848.385                                                  
  23754797.336   124832275.586                                                  
  24644601.827   129508237.491                                                  
  23551280.654   123762803.805                                                  
  26382933.564   138643217.744                                                  
 21  9  1  9 15 26.0000000  0 19G 1G 7G 8G13G14G17G19G21G22G30C23C25
                                C28C34E13E15E21E27E30
  20215282.701   106231990.110    20215285.399    82778163.769                  
  21992979.323   115573894.228    21992979.055    90057581.532                  
  24125222.414   126778857.684    24125224.844    98788709.906                  
  24366496.288   128046813.784    24366495.716    99776740.641                  
  20947185.177   110078216.106    20947185.141    85775239.199                  
  21605587.340   113538141.872    21605586.696    88471282.328                  
  23706247.415   124577185.960    23706245.556    97073136.133                  
  21962653.108   115414528.973    21962651.839    89933401.777                  
  24004402.213   126144006.031    24004399.907    98294036.564                  
  20998241.389   110346466.267    20998243.337    85984250.173                  
                 114325797.302                   114325797.302    21955057.915  
                 124738018.518                   124738018.518    23954622.706  
                 121435340.801                   121435340.801    23320379.748  
                 127123670.138                   127123670.138    24412763.745  
  23830884.261   125232102.359                                                  
  23755011.121   124833399.043                                                  
  24644267.998   129506483.266                                                  
  23551402.324   123763443.086                                                  
  26383392.995   138645632.199                                                  
 21  9  1  9 15 27.0000000  0 19G 1G 7G 8G13G14G17G19G21G22G30C23C25
                                C28C34E13E15E21E27E30
  20215277.304   106231961.728    20215280.003    82778141.653                  
  21993569.055   115576993.255    21993568.787    90059996.360                  
  24125794.777   126781865.411    24125797.207    98791053.590                  
  24366743.327   128048111.911    24366742.737    99777752.164                  
  20946856.815   110076490.551    20946856.780    85773894.610                  
  21605291.375   113536586.571    21605290.732    88470070.407                  
  23705684.147   124574225.914    23705682.271    97070829.602                  
  21963058.145   115416657.411    21963056.858    89935060.300                  
  24004001.946   126141902.527    24003999.623    98292397.470                  
  20998485.819   110347750.790    20998487.785    85985251.097                  
                 114326042.238                   114326042.238    21955104.964  
                 124740850.185                   124740850.185    23955166.496  
                 121433122.979                   121433122.979    23319953.822  
                 127126346.614                   127126346.614    24413277.712  
  23830552.076   125230356.714                                                  
  23755224.977   124834522.907                                                  
  24643934.223   129504729.194                                                  
  23551524.012   123764082.652                                                  
  26383852.497   138648046.839                                                  
 21  9  1  9 15 28.0000000  0 19G 1G 7G 8G13G14G17G19G21G22G30C23C25
                                C28C34E13E15E21E27E30
  20215272.033   106231934.079    20215274.731    82778120.109                  
  21994158.840   115580092.651    21994158.572    90062411.473                  
  24126367.122   126784873.133    24126369.552    98793397.269                  
  24366990.438   128049410.525    24366989.866    99778764.071                  
  20946528.508   110074765.280    20946528.454    85772550.246                  
  21604995.482   113535031.577    21604994.839    88468858.722                  
  23705120.898   124571266.060    23705119.040    97068523.219                  
  21963463.236   115418786.262    21963461.967    89936719.145                  
  24003601.716   126139799.317    24003599.393    98290758.602                  
  20998730.375   110349035.928    20998732.340    85986252.504                  
                 114326287.683                   114326287.683    21955152.103  
                 124743682.122                   124743682.122    23955710.340  
                 121430905.460                   121430905.460    23319527.985  
                 127129023.200                   127129023.200    24413791.732  
  23830219.962   125228611.454                                                  
  23755438.923   124835647.165                                                  
  24643600.465   129502975.292                                                  
  23551645.772   123764722.535                                                  
  26384312.016   138650461.617                                                  
 21  9  1  9 15 29.0000000  0 19G 1G 7G 8G13G14G17G19G21G22G30C23C25
                                C28C34E13E15E21E27E30
  20215266.940   106231907.203    20215269.621    82778099.169                  
  21994748.714   115583192.415    21994748.446    90064826.870                  
  24126939.484   126787880.849    24126941.897    98795740.941                  
  24367237.638   128050709.632    24367237.066    99779776.364                  
  20946200.254   110073040.297    20946200.218    85771206.098                  
  21604699.625   113533476.880    21604698.981    88467647.269                  
  23704557.702   124568306.375    23704555.844    97066216.976                  
  21963868.434   115420915.571    21963867.165    89938378.347                  
  24003201.539   126137696.403    24003199.216    98289119.968                  
  20998975.037   110350321.695    20998977.003    85987254.402                  
                 114326533.640                   114326533.640    21955199.349  
                 124746514.344                   124746514.344    23956254.237  
                 121428688.250                   121428688.250    23319102.184  
                 127131699.894                   127131699.894    24414305.752  
  23829887.920   125226866.567                                                  
  23755652.940   124836771.810                                                  
  24643266.743   129501221.548                                                  
  23551767.603   123765362.702                                                  
  26384771.554   138652876.539                                                  
 21  9  1  9 15 30.0000000  0 19G 1G 7G 8G13G14G17G19G21G22G30C23C25
                                C28C34E13E15E21E27E30
  20215261.955   106231881.071    20215264.653    82778078.804                  
  21995338.642   115586292.548    21995338.374    90067242.559                  
  24127511.811   126790888.559    24127514.241    98798084.613                  
  24367484.945   128052009.222    24367484.373    99780789.032                  
  20945872.054   110071315.595    20945872.018    85769862.175                  
  21604403.839   113531922.488    21604403.195    88466436.059                  
  23703994.524   124565346.878    23703992.666    97063910.870                  
  21964273.721   115423045.309    21964272.434    89940037.887                  
  24002801.416   126135593.786    24002799.093    98287481.567                  
  20999219.843   110351608.078    20999221.809    85988256.776                  
                 114326780.105                   114326780.105    21955246.666  
                 124749346.839                   124749346.839    23956798.188  
                 121426471.338                   121426471.338    23318676.437  
                 127134376.698                   127134376.698    24414819.826  
  23829555.967   125225122.069                                                  
  23755867.011   124837896.857                                                  
  24642933.039   129499467.968                                                  
  23551889.487   123766003.172                                                  
  26385231.145   138655291.623                                                  
 21  9  1  9 15 31.0000000  0 19G 1G 7G 8G13G14G17G19G21G22G30C23C25
                                C28C34E13E15E21E27E30
  20215257.112   106231855.677    20215259.828    82778059.019                  
  21995928.659   115589393.051    21995928.373    90069658.535                  
  24128084.174   126793896.265    24128086.604    98800428.281                  
  24367732.342   128053309.289    24367731.752    99781802.066                  
  20945543.907   110069591.169    20945543.853    85768518.465                  
  21604108.106   113530368.377    21604107.463    88465225.062                  
  23703431.382   124562387.569    23703429.523    97061604.917                  
  21964679.080   115425175.493    21964677.793    89941697.771                  
  24002401.382   126133491.465    24002399.041    98285843.395                  
  20999464.756   110352895.089    20999466.704    85989259.644                  
                 114327027.083                   114327027.083    21955294.108  
                 124752179.616                   124752179.616    23957342.193  
                 121424254.735                   121424254.735    23318250.761  
                 127137053.613                   127137053.613    24415333.882  
  23829224.068   125223377.942                                                  
  23756081.207   124839022.294                                                  
  24642599.371   129497714.548                                                  
  23552011.426   123766643.938                                                  
  26385690.737   138657706.853                                                  
 21  9  1  9 15 32.0000000  0 19G 1G 7G 8G13G14G17G19G21G22G30C23C25
                                C28C34E13E15E21E27E30
  20215252.449   106231831.051    20215255.147    82778039.827                  
  21996518.748   115592493.927    21996518.462    90072074.802                  
  24128656.519   126796903.961    24128658.949    98802771.937                  
  24367979.846   128054609.860    24367979.256    99782815.500                  
  20945215.814   110067867.031    20945215.778    85767174.985                  
  21603812.428   113528814.587    21603811.784    88464014.316                  
  23702868.275   124559428.451    23702866.417    97059299.113                  
  21965084.528   115427306.110    21965083.241    89943357.988                  
  24002001.366   126131389.446    24001999.043    98284205.456                  
  20999709.776   110354182.728    20999711.741    85990262.997                  
                 114327274.566                   114327274.566    21955341.622  
                 124755012.673                   124755012.673    23957886.233  
                 121422038.435                   121422038.435    23317825.139  
                 127139730.636                   127139730.636    24415847.974  
  23828892.240   125221634.210                                                  
  23756295.439   124840148.125                                                  
  24642265.739   129495961.288                                                  
  23552133.417   123767285.007                                                  
  26386150.382   138660122.235                                                  
 21  9  1  9 15 33.0000000  0 19G 1G 7G 8G13G14G17G19G21G22G30C23C25
                                C28C34E13E15E21E27E30
  20215247.892   106231807.153    20215250.572    82778021.208                  
  21997108.873   115595595.163    21997108.605    90074491.352                  
  24129228.863   126799911.665    24129231.276    98805115.605                  
  24368227.421   128055910.909    24368226.831    99783829.305                  
  20944887.774   110066143.172    20944887.738    85765831.716                  
  21603516.802   113527261.081    21603516.159    88462803.792                  
  23702305.222   124556469.514    23702303.364    97056993.448                  
  21965490.047   115429437.169    21965488.761    89945018.555                  
  24001601.422   126129287.724    24001599.099    98282567.753                  
  20999954.921   110355470.980    20999956.887    85991266.828                  
                 114327522.561                   114327522.561    21955389.243  
                 124757846.005                   124757846.005    23958430.363  
                 121419822.437                   121419822.437    23317399.606  
                 127142407.766                   127142407.766    24416362.102  
  23828560.502   125219890.866                                                  
  23756509.742   124841274.342                                                  
  24641932.142   129494208.196                                                  
  23552255.463   123767926.363                                                  
  26386610.044   138662537.765                                                  
 21  9  1  9 15 34.0000000  0 19G 1G 7G 8G13G14G17G19G21G22G30C23C25
                                C28C34E13E15E21E27E30
  20215243.478   106231784.014    20215246.177    82778003.176                  
  21997699.104   115598696.778    21997698.818    90076908.190                  
  24129801.226   126802919.377    24129803.638    98807459.277                  
  24368475.086   128057212.448    24368474.514    99784843.492                  
  20944559.788   110064419.594    20944559.735    85764488.668                  
  21603221.249   113525707.884    21603220.606    88461593.508                  
  23701742.187   124553510.754    23701740.311    97054687.921                  
  21965895.656   115431568.640    21965894.388    89946679.442                  
  24001201.549   126127186.301    24001199.226    98280930.280                  
  21000200.191   110356759.851    21000202.139    85992271.145                  
                 114327771.065                   114327771.065    21955436.953  
                 124760679.617                   124760679.617    23958974.528  
                 121417606.741                   121417606.741    23316974.073  
                 127145085.009                   127145085.009    24416876.247  
  23828228.817   125218147.898                                                  
  23756724.135   124842400.956                                                  
  24641598.563   129492455.238                                                  
  23552377.562   123768568.015                                                  
  26387069.725   138664953.435                                                  
 21  9  1  9 15 35.0000000  0 19G 1G 7G 8G13G14G17G19G21G22G30C23C25
                                C28C34E13E15E21E27E30
  20215239.226   106231761.625    20215241.924    82777985.731                  
  21998289.372   115601798.766    21998289.122    90079325.324                  
  24130373.553   126805927.067    24130375.983    98809802.929                  
  24368722.857   128058514.472    24368722.286    99785858.055                  
  20944231.856   110062696.304    20944231.820    85763145.847                  
  21602925.713   113524154.991    21602925.088    88460383.465                  
  23701179.188   124550552.184    23701177.312    97052382.542                  
  21966301.337   115433700.570    21966300.068    89948340.688                  
  24000801.694   126125085.183    24000799.389    98279293.048                  
  21000445.586   110358049.351    21000447.534    85993275.950                  
                 114328020.078                   114328020.078    21955484.788  
                 124763513.505                   124763513.505    23959518.747  
                 121415391.350                   121415391.350    23316548.647  
                 127147762.354                   127147762.354    24417390.392  
  23827897.221   125216405.320                                                  
  23756938.599   124843527.972                                                  
  24641265.020   129490702.472                                                  
  23552499.714   123769209.975                                                  
  26387529.441   138667369.269                                                  
