     2.11           OBSERVATION DATA    M (MIXED)           RINEX VERSION / TYPE
CONVBIN 2.4.3                           20210901 005132 UTC PGM / RUN BY / DATE 
log: logs/21_08_31_21_54_03_garf_SW.rtcm                    COMMENT             
format: RTCM 3, station ID: 205                             COMMENT             
0205                                                        MARKER NAME         
                                                            MARKER NUMBER       
                                                            OBSERVER / AGENCY   
                    SWFT                                    REC # / TYPE / VERS 
                    NULL                                    ANT # / TYPE        
   708072.7232 -4803697.1753  4121856.3428                  APPROX POSITION XYZ 
        0.0000        0.0000        0.0000                  ANTENNA: DELTA H/E/N
     1     1                                                WAVELENGTH FACT L1/2
     5    C1    L1    P2    L2    C2                        # / TYPES OF OBSERV 
  2021     8    31    21    54    8.0000000     GPS         TIME OF FIRST OBS   
  2021     8    31    22    24    6.0000000     GPS         TIME OF LAST OBS    
                                                            END OF HEADER       
 21  8 31 21 54  8.0000000  0 13G10G12G18G23G24G32E 3E 5E 9E13E15E25
                                E31
  20440017.275   107412968.915    20440020.277    83698405.293                  
  24421307.765   128334803.009    24421310.248   100001136.382                  
  23407655.416   123008027.914    23407658.364    95850405.399                  
  20764555.221   109118470.511    20764556.436    85027380.547                  
  21699761.397   114032965.790    21699764.882    88856843.884                  
  21445458.576   112696604.774    21445461.774    87815525.914                  
  24257201.588   127472429.933                                                  
  24062206.894   126447735.777                                                  
  25991337.875   136585360.661                                                  
  27635044.648   145223068.476                                                  
  24579986.136   129168654.455                                                  
  27486133.127   144440537.663                                                  
  27715898.135   145647976.062                                                  
 21  8 31 21 54  9.0000000  0 13G10G12G18G23G24G32E 3E 5E 9E13E15E25
                                E31
  20439847.644   107412077.453    20439850.646    83697710.645                  
  24420802.661   128332148.724    24420805.145    99999068.111                  
  23408365.584   123011759.870    23408368.515    95853313.413                  
  20764821.951   109119872.235    20764823.184    85028472.800                  
  21700229.047   114035423.276    21700232.532    88858758.808                  
  21445152.140   112694994.434    21445155.338    87814271.101                  
  24257009.532   127471420.747                                                  
  24062412.816   126448817.814                                                  
  25991751.722   136587535.345                                                  
  27634612.664   145220798.390                                                  
  24580003.665   129168746.488                                                  
  27485584.637   144437655.395                                                  
  27716047.055   145648758.588                                                  
 21  8 31 21 54 10.0000000  0 13G10G12G18G23G24G32E 3E 5E 9E13E15E25
                                E31
  20439678.067   107411186.391    20439681.087    83697016.313                  
  24420297.593   128329494.659    24420300.095    99997000.013                  
  23409075.789   123015491.977    23409078.719    95856221.547                  
  20765088.772   109121274.388    20765090.005    85029565.382                  
  21700696.787   114037881.258    21700700.271    88860674.114                  
  21444845.757   112693384.376    21444848.956    87813016.513                  
  24256817.511   127470411.704                                                  
  24062618.739   126449899.977                                                  
  25992165.532   136589710.015                                                  
  27634180.734   145218528.615                                                  
  24580021.266   129168839.028                                                  
  27485036.165   144434773.165                                                  
  27716196.065   145649541.581                                                  
 21  8 31 21 54 11.0000000  0 13G10G12G18G23G24G32E 3E 5E 9E13E15E25
                                E31
  20439508.580   107410295.730    20439511.582    83696322.294                  
  24419792.597   128326840.820    24419795.080    99994932.082                  
  23409785.993   123019224.226    23409788.959    95859129.793                  
  20765355.681   109122676.963    20765356.896    85030658.300                  
  21701164.598   114040339.742    21701168.100    88862589.816                  
  21444539.447   112691774.599    21444542.627    87811762.141                  
  24256625.545   127469402.821                                                  
  24062824.697   126450982.257                                                  
  25992579.361   136591884.673                                                  
  27633748.857   145216259.142                                                  
  24580038.957   129168932.074                                                  
  27484487.676   144431890.909                                                  
  27716345.146   145650325.020                                                  
 21  8 31 21 54 12.0000000  0 17G10G12G18G23G24G32C19C21C22C34E 3E 5
                                E 9E13E15E25E31
  20439339.163   107409405.468    20439342.183    83695628.581                  
  24419287.618   128324187.207    24419290.120    99992864.336                  
  23410496.269   123022956.630    23410499.199    95862038.157                  
  20765622.662   109124079.970    20765623.877    85031751.550                  
  21701632.534   114042798.716    21701636.036    88864505.899                  
  21444233.154   112690165.095    21444236.334    87810507.984                  
                 131698280.937                   131698280.937    25291276.533  
                 119770944.307                   119770944.307    23000749.798  
                 116490719.271                   116490719.271    22370813.864  
                 130728522.929                   130728522.929    25105043.556  
  24256433.578   127468394.077                                                  
  24063030.656   126452064.655                                                  
  25992993.172   136594059.319                                                  
  27633317.052   145213989.980                                                  
  24580056.754   129169025.618                                                  
  27483939.222   144429008.682                                                  
  27716494.299   145651108.926                                                  
 21  8 31 21 54 13.0000000  0 17G10G12G18G23G24G32C19C21C22C34E 3E 5
                                E 9E13E15E25E31
  20439169.837   107408515.605    20439172.839    83694935.179                  
  24418782.693   128321533.820    24418785.195    99990796.762                  
  23411206.544   123026689.175    23411209.475    95864946.629                  
  20765889.715   109125483.405    20765890.948    85032845.136                  
  21702100.560   114045258.183    21702104.062    88866422.367                  
  21443926.914   112688555.870    21443930.113    87809254.043                  
                 131700677.449                   131700677.449    25291736.785  
                 119769337.746                   119769337.746    23000441.271  
                 116491515.067                   116491515.067    22370966.697  
                 130729733.449                   130729733.449    25105276.014  
  24256241.646   127467385.499                                                  
  24063236.668   126453147.185                                                  
  25993407.001   136596233.945                                                  
  27632885.301   145211721.132                                                  
  24580074.659   129169119.667                                                  
  27483390.732   144426126.452                                                  
  27716643.559   145651893.289                                                  
 21  8 31 21 54 14.0000000  0 17G10G12G18G23G24G32C19C21C22C34E 3E 5
                                E 9E13E15E25E31
  20439000.581   107407626.142    20439003.583    83694242.091                  
  24418277.822   128318880.665    24418280.323    99988729.370                  
  23411916.856   123030421.876    23411919.804    95867855.227                  
  20766156.875   109126887.269    20766158.072    85033939.058                  
  21702568.674   114047718.146    21702572.177    88868339.219                  
  21443620.764   112686946.929    21443623.945    87808000.325                  
                 131703074.058                   131703074.058    25292197.020  
                 119767731.333                   119767731.333    23000132.780  
                 116492311.098                   116492311.098    22371119.567  
                 130730944.425                   130730944.425    25105508.580  
  24256049.769   127466377.076                                                  
  24063442.680   126454229.817                                                  
  25993820.812   136598408.565                                                  
  27632453.621   145209452.589                                                  
  24580092.653   129169214.224                                                  
  27482842.278   144423244.246                                                  
  27716792.926   145652678.099                                                  
 21  8 31 21 54 15.0000000  0 17G10G12G18G23G24G32C19C21C22C34E 3E 5
                                E 9E13E15E25E31
  20438831.379   107406737.112    20438834.399    83693549.363                  
  24417772.986   128316227.762    24417775.488    99986662.192                  
  23412627.203   123034154.656    23412630.134    95870763.855                  
  20766424.106   109128291.517    20766425.321    85035033.249                  
  21703036.878   114050178.590    21703040.381    88870256.436                  
  21443314.632   112685338.276    21443317.813    87806746.827                  
                 131705470.762                   131705470.762    25292657.272  
                 119766125.065                   119766125.065    22999824.307  
                 116493107.363                   116493107.363    22371272.472  
                 130732155.855                   130732155.855    25105741.217  
  24255857.873   127465368.779                                                  
  24063648.727   126455312.573                                                  
  25994234.640   136600583.229                                                  
  27632021.977   145207184.424                                                  
  24580110.737   129169309.359                                                  
  27482293.824   144420361.852                                                  
  27716942.347   145653463.331                                                  
 21  8 31 21 54 16.0000000  0 17G10G12G18G23G24G32C19C21C22C34E 3E 5
                                E 9E13E15E25E31
  20438662.285   107405848.453    20438665.287    83692856.901                  
  24417268.204   128313575.059    24417270.688    99984595.148                  
  23413337.568   123037887.644    23413340.499    95873672.677                  
  20766691.426   109129696.246    20766692.624    85036127.844                  
  21703505.172   114052639.538    21703508.674    88872174.059                  
  21443008.572   112683729.899    21443011.752    87805493.546                  
                 131707867.566                   131707867.566    25293117.560  
                 119764518.952                   119764518.952    22999515.888  
                 116493903.862                   116493903.862    22371425.449  
                 130733367.742                   130733367.742    25105973.943  
  24255666.032   127464360.649                                                  
  24063854.793   126456395.463                                                  
  25994648.469   136602757.817                                                  
  27631590.422   145204916.492                                                  
  24580128.945   129169404.934                                                  
  27481745.352   144417479.657                                                  
  27717091.857   145654249.071                                                  
 21  8 31 21 54 17.0000000  0 17G10G12G18G23G24G32C19C21C22C34E 3E 5
                                E 9E13E15E25E31
  20438493.244   107404960.184    20438496.264    83692164.741                  
  24416763.440   128310922.579    24416765.924    99982528.285                  
  23414047.933   123041620.782    23414050.900    95876581.613                  
  20766958.801   109131101.407    20766960.016    85037222.774                  
  21703973.573   114055100.992    21703977.075    88874092.075                  
  21442702.565   112682121.801    21442705.745    87804240.480                  
                 131710264.465                   131710264.465    25293577.867  
                 119762912.984                   119762912.984    22999207.469  
                 116494700.598                   116494700.598    22371578.443  
                 130734580.082                   130734580.082    25106206.758  
  24255474.243   127463352.669                                                  
  24064060.876   126457478.460                                                  
  25995062.262   136604932.390                                                  
  27631158.903   145202648.882                                                  
  24580147.225   129169500.999                                                  
  27481196.881   144414597.465                                                  
  27717241.474   145655035.250                                                  
 21  8 31 21 54 18.0000000  0 17G10G12G18G23G24G32C19C21C22C34E 3E 5
                                E 9E13E15E25E31
  20438324.292   107404072.325    20438327.294    83691472.901                  
  24416258.711   128308270.322    24416261.213    99980461.591                  
  23414758.352   123045354.063    23414761.319    95879490.661                  
  20767226.282   109132506.996    20767227.497    85038318.036                  
  21704442.081   114057562.944    21704445.583    88876010.477                  
  21442396.593   112680513.982    21442399.792    87802987.636                  
                 131712661.461                   131712661.461    25294038.173  
                 119761307.167                   119761307.167    22998899.085  
                 116495497.565                   116495497.565    22371731.474  
                 130735792.879                   130735792.879    25106439.681  
  24255282.455   127462344.853                                                  
  24064266.995   126458561.579                                                  
  25995476.055   136607106.948                                                  
  27630727.456   145200381.581                                                  
  24580165.595   129169597.575                                                  
  27480648.427   144411715.294                                                  
  27717391.163   145655821.891                                                  
 21  8 31 21 54 19.0000000  0 17G10G12G18G23G24G32C19C21C22C34E 3E 5
                                E 9E13E15E25E31
  20438155.412   107403184.863    20438158.414    83690781.374                  
  24415754.054   128305618.290    24415756.538    99978395.075                  
  23415468.825   123049087.497    23415471.755    95882399.824                  
  20767493.835   109133913.010    20767495.068    85039413.632                  
  21704910.660   114060025.384    21704914.162    88877929.258                  
  21442090.694   112678906.438    21442093.874    87801735.007                  
                 131715058.555                   131715058.555    25294498.514  
                 119759701.501                   119759701.501    22998590.719  
                 116496294.769                   116496294.769    22371884.576  
                 130737006.126                   130737006.126    25106672.657  
  24255090.703   127461337.169                                                  
  24064473.115   126459644.808                                                  
  25995889.884   136609281.501                                                  
  27630296.062   145198114.590                                                  
  24580184.053   129169694.643                                                  
  27480099.955   144408833.120                                                  
  27717540.941   145656608.977                                                  
 21  8 31 21 54 20.0000000  0 17G10G12G18G23G24G32C19C21C22C34E 3E 5
                                E 9E13E15E25E31
  20437986.621   107402297.797    20437989.623    83690090.156                  
  24415249.433   128302966.485    24415251.917    99976328.734                  
  23416179.297   123052821.069    23416182.245    95885309.105                  
  20767761.459   109135319.465    20767762.674    85040509.570                  
  21705379.347   114062488.316    21705382.849    88879848.429                  
  21441784.847   112677299.173    21441788.028    87800482.591                  
                 131717455.745                   131717455.745    25294958.874  
                 119758095.981                   119758095.981    22998282.407  
                 116497092.208                   116497092.208    22372037.713  
                 130738219.833                   130738219.833    25106905.741  
  24254898.986   127460329.653                                                  
  24064679.287   126460728.168                                                  
  25996303.677   136611456.044                                                  
  27629864.722   145195847.905                                                  
  24580202.637   129169792.231                                                  
  27479551.519   144405950.969                                                  
  27717690.826   145657396.539                                                  
 21  8 31 21 54 21.0000000  0 17G10G12G18G23G24G32C19C21C22C34E 3E 5
                                E 9E13E15E25E31
  20437817.884   107401411.130    20437820.886    83689399.249                  
  24414744.866   128300314.903    24414747.332    99974262.570                  
  23416889.805   123056554.785    23416892.736    95888218.492                  
  20768029.173   109136726.337    20768030.406    85041605.841                  
  21705848.123   114064951.747    21705851.625    88881767.988                  
  21441479.037   112675692.184    21441482.236    87799230.398                  
                 131719853.034                   131719853.034    25295419.251  
                 119756490.612                   119756490.612    22997974.113  
                 116497889.879                   116497889.879    22372190.904  
                 130739433.987                   130739433.987    25107138.914  
  24254707.287   127459322.286                                                  
  24064885.460   126461811.645                                                  
  25996717.487   136613630.561                                                  
  27629433.435   145193581.536                                                  
  24580221.292   129169890.324                                                  
  27479003.065   144403068.827                                                  
  27717840.783   145658184.550                                                  
 21  8 31 21 54 22.0000000  0 17G10G12G18G23G24G32C19C21C22C34E 3E 5
                                E 9E13E15E25E31
  20437649.236   107400524.867    20437652.238    83688708.660                  
  24414240.316   128297663.538    24414242.800    99972196.583                  
  23417600.313   123060288.642    23417603.279    95891127.993                  
  20768296.994   109138133.639    20768298.191    85042702.440                  
  21706317.006   114067415.669    21706320.508    88883687.929                  
  21441173.298   112674085.480    21441176.479    87797978.425                  
                 131722250.419                   131722250.419    25295879.647  
                 119754885.391                   119754885.391    22997665.837  
                 116498687.781                   116498687.781    22372344.131  
                 130740648.601                   130740648.601    25107372.158  
  24254515.624   127458315.083                                                  
  24065091.669   126462895.249                                                  
  25997131.280   136615805.090                                                  
  27629002.237   145191315.488                                                  
  24580240.055   129169988.921                                                  
  27478454.593   144400186.694                                                  
  27717990.812   145658973.031                                                  
 21  8 31 21 54 23.0000000  0 17G10G12G18G23G24G32C19C21C22C34E 3E 5
                                E 9E13E15E25E31
  20437480.660   107399638.996    20437483.662    83688018.379                  
  24413735.820   128295012.407    24413738.304    99970130.769                  
  23418310.875   123064022.651    23418313.841    95894037.613                  
  20768564.886   109139541.365    20768566.101    85043799.376                  
  21706785.960   114069880.083    21706789.463    88885608.259                  
  21440867.595   112672479.051    21440870.793    87796726.668                  
                 131724647.903                   131724647.903    25296340.060  
                 119753280.322                   119753280.322    22997357.596  
                 116499485.923                   116499485.923    22372497.412  
                 130741863.669                   130741863.669    25107605.492  
  24254323.979   127457308.019                                                  
  24065297.895   126463978.976                                                  
  25997545.073   136617979.590                                                  
  27628571.076   145189049.739                                                  
  24580258.924   129170088.024                                                  
  27477906.157   144397304.570                                                  
  27718140.947   145659761.969                                                  
 21  8 31 21 54 24.0000000  0 17G10G12G18G23G24G32C19C21C22C34E 3E 5
                                E 9E13E15E25E31
  20437312.155   107398753.532    20437315.157    83687328.405                  
  24413231.377   128292361.500    24413233.861    99968065.132                  
  23419021.472   123067756.802    23419024.421    95896947.343                  
  20768832.832   109140949.527    20768834.065    85044896.648                  
  21707255.022   114072344.988    21707258.525    88887528.966                  
  21440561.963   112670872.898    21440565.144    87795475.125                  
                 131727045.480                   131727045.480    25296800.491  
                 119751675.403                   119751675.403    22997049.409  
                 116500284.293                   116500284.293    22372650.746  
                 130743079.187                   130743079.187    25107838.933  
  24254132.351   127456301.116                                                  
  24065504.139   126465062.821                                                  
  25997958.866   136620154.087                                                  
  27628139.986   145186784.303                                                  
  24580277.883   129170187.628                                                  
  27477357.703   144394422.449                                                  
  27718291.154   145660551.350                                                  
 21  8 31 21 54 25.0000000  0 17G10G12G18G23G24G32C19C21C22C34E 3E 5
                                E 9E13E15E25E31
  20437143.739   107397868.473    20437146.741    83686638.751                  
  24412726.953   128289710.816    24412729.436    99965999.663                  
  23419732.088   123071491.093    23419735.036    95899857.180                  
  20769100.886   109142358.121    20769102.101    85045994.249                  
  21707724.156   114074810.400    21707727.658    88889450.061                  
  21440256.385   112669267.036    21440259.565    87794223.806                  
                 131729443.156                   131729443.156    25297260.940  
                 119750070.630                   119750070.630    22996741.222  
                 116501082.903                   116501082.903    22372804.098  
                 130744295.165                   130744295.165    25108072.463  
  24253940.795   127455294.374                                                  
  24065710.419   126466146.788                                                  
  25998372.659   136622328.569                                                  
  27627708.931   145184519.191                                                  
  24580296.932   129170287.739                                                  
  27476809.267   144391540.362                                                  
  27718441.468   145661341.198                                                  
 21  8 31 21 54 26.0000000  0 17G10G12G18G23G24G32C19C21C22C34E 3E 5
                                E 9E13E15E25E31
  20436975.395   107396983.798    20436978.397    83685949.394                  
  24412222.599   128287060.363    24412225.083    99963934.378                  
  23420442.721   123075225.536    23420445.687    95902767.134                  
  20769369.028   109143767.141    20769370.243    85047092.188                  
  21708193.396   114077276.296    21708196.898    88891371.544                  
  21439950.842   112667661.450    21439954.023    87792972.695                  
                 131731840.930                   131731840.930    25297721.425  
                 119748466.008                   119748466.008    22996433.053  
                 116501881.741                   116501881.741    22372957.503  
                 130745511.594                   130745511.594    25108306.065  
  24253749.239   127454287.770                                                  
  24065916.699   126467230.867                                                  
  25998786.434   136624503.039                                                  
  27627277.966   145182254.384                                                  
  24580316.087   129170388.359                                                  
  27476260.813   144388658.282                                                  
  27718591.854   145662131.507                                                  
 21  8 31 21 54 27.0000000  0 17G10G12G18G23G24G32C19C21C22C34E 3E 5
                                E 9E13E15E25E31
  20436807.123   107396099.529    20436810.125    83685260.351                  
  24411718.282   128284410.137    24411720.766    99961869.269                  
  23421153.408   123078960.124    23421156.356    95905677.199                  
  20769637.224   109145176.585    20769638.439    85048190.457                  
  21708662.744   114079742.688    21708666.246    88893293.403                  
  21439645.354   112666056.136    21439648.534    87791721.806                  
                 131734238.801                   131734238.801    25298181.892  
                 119746861.535                   119746861.535    22996124.937  
                 116502680.817                   116502680.817    22373110.962  
                 130746728.476                   130746728.476    25108539.738  
  24253557.719   127453281.328                                                  
  24066123.015   126468315.076                                                  
  25999200.245   136626677.495                                                  
  27626847.037   145179989.882                                                  
  24580335.315   129170489.480                                                  
  27475712.377   144385776.196                                                  
  27718742.347   145662922.264                                                  
 21  8 31 21 54 28.0000000  0 17G10G12G18G23G24G32C19C21C22C34E 3E 5
                                E 9E13E15E25E31
  20436638.922   107395215.661    20436641.924    83684571.625                  
  24411214.000   128281760.145    24411216.484    99959804.340                  
  23421864.094   123082694.855    23421867.043    95908587.380                  
  20769905.528   109146586.465    20769906.743    85049289.062                  
  21709132.181   114082209.579    21709135.683    88895215.656                  
  21439339.936   112664451.101    21439343.117    87790471.129                  
                 131736636.765                   131736636.765    25298642.394  
                 119745257.210                   119745257.210    22995816.857  
                 116503480.126                   116503480.126    22373264.457  
                 130747945.811                   130747945.811    25108773.518  
  24253366.217   127452275.035                                                  
  24066329.367   126469399.395                                                  
  25999614.020   136628851.945                                                  
  27626416.179   145177725.690                                                  
  24580354.667   129170591.102                                                  
  27475163.941   144382894.127                                                  
  27718892.893   145663713.485                                                  
 21  8 31 21 54 29.0000000  0 17G10G12G18G23G24G32C19C21C22C34E 3E 5
                                E 9E13E15E25E31
  20436470.792   107394332.192    20436473.794    83683883.208                  
  24410709.754   128279110.370    24410712.238    99957739.585                  
  23422574.817   123086429.730    23422577.783    95911497.667                  
  20770173.885   109147996.778    20770175.100    85050388.008                  
  21709601.725   114084676.972    21709605.228    88897138.297                  
  21439034.555   112662846.343    21439037.735    87789220.668                  
                 131739034.833                   131739034.833    25299102.933  
                 119743653.036                   119743653.036    22995508.777  
                 116504279.673                   116504279.673    22373418.006  
                 130749163.601                   130749163.601    25109007.388  
  24253174.768   127451268.883                                                  
  24066535.736   126470483.838                                                  
  26000027.795   136631026.374                                                  
  27625985.375   145175461.828                                                  
  24580374.108   129170693.239                                                  
  27474615.505   144380012.074                                                  
  27719043.547   145664505.153                                                  
 21  8 31 21 54 30.0000000  0 17G10G12G18G23G24G32C19C21C22C34E 3E 5
                                E 9E13E15E25E31
  20436302.752   107393449.129    20436305.754    83683195.107                  
  24410205.562   128276460.833    24410208.064    99955675.009                  
  23423285.575   123090164.749    23423288.523    95914408.069                  
  20770442.349   109149407.523    20770443.564    85051487.289                  
  21710071.341   114087144.843    21710074.843    88899061.316                  
  21438729.244   112661241.883    21438732.425    87787970.437                  
                 131741432.991                   131741432.991    25299563.489  
                 119742049.013                   119742049.013    22995200.751  
                 116505079.449                   116505079.449    22373571.572  
                 130750381.846                   130750381.846    25109241.347  
  24252983.337   127450262.907                                                  
  24066742.123   126471568.408                                                  
  26000441.588   136633200.800                                                  
  27625554.642   145173198.253                                                  
  24580393.621   129170795.871                                                  
  27474067.051   144377130.029                                                  
  27719194.272   145665297.289                                                  
 21  8 31 21 54 31.0000000  0 17G10G12G18G23G24G32C19C21C22C34E 3E 5
                                E 9E13E15E25E31
  20436134.801   107392566.458    20436137.803    83682507.311                  
  24409701.423   128273811.508    24409703.907    99953610.606                  
  23423996.351   123093899.914    23423999.300    95917318.585                  
  20770710.885   109150818.679    20770712.100    85052586.894                  
  21710541.046   114089613.216    21710544.548    88900984.723                  
  21438423.952   112659637.685    21438427.169    87786720.415                  
                 131743831.249                   131743831.249    25300024.045  
                 119740445.136                   119740445.136    22994892.743  
                 116505879.462                   116505879.462    22373725.228  
                 130751600.546                   130751600.546    25109475.378  
  24252791.924   127449257.069                                                  
  24066948.528   126472653.085                                                  
  26000855.363   136635375.206                                                  
  27625123.963   145170935.001                                                  
  24580413.259   129170899.011                                                  
  27473518.615   144374247.995                                                  
  27719345.123   145666089.890                                                  
 21  8 31 21 54 32.0000000  0 17G10G12G18G23G24G32C19C21C22C34E 3E 5
                                E 9E13E15E25E31
  20435966.904   107391684.184    20435969.905    83681819.825                  
  24409197.320   128271162.426    24409199.804    99951546.384                  
  23424707.163   123097635.226    23424710.111    95920229.218                  
  20770979.492   109152230.275    20770980.725    85053686.836                  
  21711010.859   114092082.079    21711014.361    88902908.508                  
  21438118.767   112658033.765    21438121.948    87785470.605                  
                 131746229.605                   131746229.605    25300484.619  
                 119738841.415                   119738841.415    22994584.752  
                 116506679.707                   116506679.707    22373878.901  
                 130752819.699                   130752819.699    25109709.498  
  24252600.565   127448251.387                                                  
  24067154.951   126473737.886                                                  
  26001269.138   136637549.606                                                  
  27624693.319   145168672.054                                                  
  24580432.987   129171002.656                                                  
  27472970.197   144371365.968                                                  
  27719496.027   145666882.933                                                  
 21  8 31 21 54 33.0000000  0 17G10G12G18G23G24G32C19C21C22C34E 3E 5
                                E 9E13E15E25E31
  20435799.096   107390802.321    20435802.098    83681132.657                  
  24408693.253   128268513.563    24408695.737    99949482.335                  
  23425417.993   123101370.679    23425420.941    95923139.956                  
  20771248.206   109153642.308    20771249.421    85054787.124                  
  21711480.760   114094551.447    21711484.263    88904832.691                  
  21437813.600   112656430.133    21437816.781    87784221.024                  
                 131748628.060                   131748628.060    25300945.211  
                 119737237.837                   119737237.837    22994276.816  
                 116507480.187                   116507480.187    22374032.629  
                 130754039.306                   130754039.306    25109943.725  
  24252409.206   127447245.851                                                  
  24067361.392   126474822.808                                                  
  26001682.896   136639723.991                                                  
  27624262.765   145166409.424                                                  
  24580452.803   129171106.805                                                  
  27472421.761   144368483.958                                                  
  27719647.020   145667676.440                                                  
 21  8 31 21 54 34.0000000  0 17G10G12G18G23G24G32C19C21C22C34E 3E 5
                                E 9E13E15E25E31
  20435631.359   107389920.851    20435634.361    83680445.801                  
  24408189.239   128265864.936    24408191.723    99947418.477                  
  23426128.858   123105106.273    23426131.825    95926050.809                  
  20771516.974   109155054.758    20771518.207    85055887.730                  
  21711950.751   114097021.295    21711954.254    88906757.251                  
  21437508.486   112654826.783    21437511.685    87782971.660                  
                 131751026.608                   131751026.608    25301405.839  
                 119735634.411                   119735634.411    22993968.897  
                 116508280.897                   116508280.897    22374186.392  
                 130755259.363                   130755259.363    25110178.024  
  24252217.900   127446240.477                                                  
  24067567.886   126475907.858                                                  
  26002096.689   136641898.355                                                  
  27623832.264   145164147.106                                                  
  24580472.727   129171211.465                                                  
  27471873.343   144365601.954                                                  
  27719798.120   145668470.402                                                  
 21  8 31 21 54 35.0000000  0 17G10G12G18G23G24G32C19C21C22C34E 3E 5
                                E 9E13E15E25E31
  20435463.694   107389039.788    20435466.696    83679759.257                  
  24407685.261   128263216.535    24407687.745    99945354.785                  
  23426839.742   123108842.017    23426842.708    95928961.773                  
  20771785.831   109156467.653    20771787.064    85056988.687                  
  21712420.867   114099491.637    21712424.352    88908682.192                  
  21437203.426   112653223.699    21437206.625    87781722.504                  
                 131753425.255                   131753425.255    25301866.466  
                 119734031.138                   119734031.138    22993660.995  
                 116509081.849                   116509081.849    22374340.208  
                 130756479.874                   130756479.874    25110412.394  
  24252026.594   127445235.255                                                  
  24067774.381   126476993.020                                                  
  26002510.446   136644072.711                                                  
  27623401.818   145161885.098                                                  
  24580492.723   129171316.630                                                  
  27471324.924   144362719.968                                                  
  27719949.274   145669264.819                                                  
 21  8 31 21 54 36.0000000  0 17G10G12G18G23G24G32C19C21C22C34E 3E 5
                                E 9E13E15E25E31
  20435296.100   107388159.122    20435299.120    83679073.024                  
  24407181.319   128260568.360    24407183.803    99943291.274                  
  23427550.661   123112577.907    23427553.627    95931872.854                  
  20772054.778   109157880.960    20772055.993    85058089.965                  
  21712891.037   114101962.464    21712894.539    88910607.507                  
  21436898.420   112651620.909    21436901.619    87780473.577                  
                 131755824.001                   131755824.001    25302327.112  
                 119732428.008                   119732428.008    22993353.148  
                 116509883.030                   116509883.030    22374494.060  
                 130757700.844                   130757700.844    25110646.889  
  24251835.342   127444230.177                                                  
  24067980.893   126478078.297                                                  
  26002924.203   136646247.061                                                  
  27622971.424   145159623.395                                                  
  24580512.843   129171422.288                                                  
  27470776.488   144359837.984                                                  
  27720100.536   145670059.685                                                  
 21  8 31 21 54 37.0000000  0 17G10G12G18G23G24G32C19C21C22C34E 3E 5
                                E 9E13E15E25E31
  20435128.596   107387278.867    20435131.598    83678387.113                  
  24406677.448   128257920.419    24406679.914    99941227.942                  
  23428261.598   123116313.938    23428264.564    95934784.047                  
  20772323.814   109159294.716    20772325.047    85059191.593                  
  21713361.314   114104433.809    21713364.816    88912533.231                  
  21436593.485   112650018.390    21436596.666    87779224.863                  
                 131758222.840                   131758222.840    25302787.793  
                 119730825.032                   119730825.032    22993045.300  
                 116510684.450                   116510684.450    22374647.984  
                 130758922.263                   130758922.263    25110881.438  
  24251644.126   127443225.258                                                  
  24068187.459   126479163.708                                                  
  26003337.960   136648421.394                                                  
  27622541.102   145157362.015                                                  
  24580533.035   129171528.465                                                  
  27470228.052   144356956.024                                                  
  27720251.886   145670855.011                                                  
 21  8 31 21 54 38.0000000  0 17G10G12G18G23G24G32C19C21C22C34E 3E 5
                                E 9E13E15E25E31
  20434961.163   107386399.005    20434964.183    83677701.504                  
  24406173.596   128255272.695    24406176.079    99939164.785                  
  23428972.588   123120050.104    23428975.537    95937695.348                  
  20772592.921   109160708.888    20772594.137    85060293.543                  
  21713831.680   114106905.624    21713835.201    88914459.325                  
  21436288.586   112648416.148    21436291.767    87777976.363                  
                 131760621.778                   131760621.778    25303248.492  
                 119729222.207                   119729222.207    22992737.506  
                 116511486.102                   116511486.102    22374801.926  
                 130760144.137                   130760144.137    25111116.076  
  24251452.927   127442220.488                                                  
  24068394.025   126480249.222                                                  
  26003751.718   136650595.711                                                  
  27622110.816   145155100.941                                                  
  24580553.334   129171635.138                                                  
  27469679.634   144354074.061                                                  
  27720403.326   145671650.802                                                  
 21  8 31 21 54 39.0000000  0 17G10G12G18G23G24G32C19C21C22C34E 3E 5
                                E 9E13E15E25E31
  20434793.820   107385519.539    20434796.822    83677016.208                  
  24405669.796   128252625.207    24405672.280    99937101.809                  
  23429683.579   123123786.426    23429686.545    95940606.761                  
  20772862.118   109162123.492    20772863.333    85061395.832                  
  21714302.154   114109377.947    21714305.656    88916385.806                  
  21435983.741   112646814.186    21435986.921    87776728.083                  
                 131763020.811                   131763020.811    25303709.192  
                 119727619.528                   119727619.528    22992429.713  
                 116512287.984                   116512287.984    22374955.921  
                 130761366.460                   130761366.460    25111350.821  
  24251261.746   127441215.871                                                  
  24068600.627   126481334.874                                                  
  26004165.475   136652770.020                                                  
  27621680.620   145152840.171                                                  
  24580573.741   129171742.316                                                  
  27469131.234   144351192.122                                                  
  27720554.838   145672447.044                                                  
 21  8 31 21 54 40.0000000  0 17G10G12G18G23G24G32C19C21C22C34E 3E 5
                                E 9E13E15E25E31
  20434626.548   107384640.475    20434629.532    83676331.223                  
  24405166.033   128249977.956    24405168.517    99935039.016                  
  23430394.605   123127522.886    23430397.553    95943518.290                  
  20773131.387   109163538.524    20773132.602    85062498.457                  
  21714772.717   114111850.762    21714776.219    88918312.673                  
  21435678.949   112645212.511    21435682.147    87775480.022                  
                 131765419.941                   131765419.941    25304169.944  
                 119726017.000                   119726017.000    22992121.972  
                 116513090.104                   116513090.104    22375109.952  
                 130762589.242                   130762589.242    25111585.638  
  24251070.601   127440211.406                                                  
  24068807.228   126482420.620                                                  
  26004579.232   136654944.317                                                  
  27621250.459   145150579.721                                                  
  24580594.219   129171850.007                                                  
  27468582.816   144348310.189                                                  
  27720706.439   145673243.746                                                  
 21  8 31 21 54 41.0000000  0 17G10G12G18G23G24G32C19C21C22C34E 3E 5
                                E 9E13E15E25E31
  20434459.312   107383761.819    20434462.332    83675646.556                  
  24404662.323   128247330.925    24404664.807    99932976.399                  
  23431105.667   123131259.495    23431108.615    95946429.929                  
  20773400.744   109164953.987    20773401.959    85063601.415                  
  21715243.387   114114324.059    21715246.871    88920239.917                  
  21435374.228   112643611.112    21435377.409    87774232.179                  
                 131767819.172                   131767819.172    25304630.679  
                 119724414.626                   119724414.626    22991814.268  
                 116513892.460                   116513892.460    22375264.037  
                 130763812.471                   130763812.471    25111820.562  
  24250879.474   127439207.094                                                  
  24069013.866   126483506.507                                                  
  26004993.007   136657118.606                                                  
  27620820.387   145148319.595                                                  
  24580614.822   129171958.203                                                  
  27468034.398   144345428.273                                                  
  27720858.147   145674040.910                                                  
 21  8 31 21 54 42.0000000  0 17G10G12G18G23G24G32C19C21C22C34E 3E 5
                                E 9E13E15E25E31
  20434292.201   107382883.565    20434295.203    83674962.202                  
  24404158.667   128244684.132    24404161.133    99930913.961                  
  23431816.747   123134996.254    23431819.695    95949341.687                  
  20773670.173   109166369.882    20773671.406    85064704.712                  
  21715714.128   114116797.855    21715717.613    88922167.550                  
  21435069.526   112642009.992    21435072.724    87772984.555                  
                 131770218.497                   131770218.497    25305091.432  
                 119722812.394                   119722812.394    22991506.563  
                 116514695.052                   116514695.052    22375418.157  
                 130765036.161                   130765036.161    25112055.540  
  24250688.401   127438202.934                                                  
  24069220.521   126484592.511                                                  
  26005406.747   136659292.874                                                  
  27620390.333   145146059.770                                                  
  24580635.496   129172066.898                                                  
  27467485.997   144342546.363                                                  
  27721009.926   145674838.516                                                  
 21  8 31 21 54 43.0000000  0 17G10G12G18G23G24G32C19C21C22C34E 3E 5
                                E 9E13E15E25E31
  20434125.161   107382005.707    20434128.163    83674278.157                  
  24403655.028   128242037.561    24403657.494    99928851.700                  
  23432527.845   123138733.142    23432530.793    95952253.548                  
  20773939.692   109167786.208    20773940.925    85065808.341                  
  21716184.959   114119272.144    21716188.462    88924095.567                  
  21434764.895   112640409.148    21434768.075    87771737.144                  
                 131772617.923                   131772617.923    25305552.238  
                 119721210.316                   119721210.316    22991198.894  
                 116515497.870                   116515497.870    22375572.349  
                 130766260.298                   130766260.298    25112290.642  
  24250497.345   127437198.925                                                  
  24069427.194   126485678.635                                                  
  26005820.504   136661467.133                                                  
  27619960.387   145143800.251                                                  
  24580656.278   129172176.098                                                  
  27466937.579   144339664.473                                                  
  27721161.795   145675636.587                                                  
 21  8 31 21 54 44.0000000  0 17G10G12G18G23G24G32C19C21C22C34E 3E 5
                                E 9E13E15E25E31
  20433958.175   107381128.251    20433961.177    83673594.423                  
  24403151.444   128239391.223    24403153.927    99926789.621                  
  23433238.978   123142470.177    23433241.945    95955165.520                  
  20774209.300   109169202.957    20774210.515    85066912.301                  
  21716655.897   114121746.914    21716659.400    88926023.962                  
  21434460.317   112638808.585    21434463.498    87770489.952                  
                 131775017.442                   131775017.442    25306013.045  
                 119719608.390                   119719608.390    22990891.261  
                 116516300.930                   116516300.930    22375726.558  
                 130767484.891                   130767484.891    25112525.799  
  24250306.325   127436195.070                                                  
  24069633.921   126486764.874                                                  
  26006234.243   136663641.386                                                  
  27619530.458   145141541.063                                                  
  24580677.167   129172285.805                                                  
  27466389.179   144336782.589                                                  
  27721313.735   145676435.120                                                  
 21  8 31 21 54 45.0000000  0 17G10G12G18G23G24G32C19C21C22C34E 3E 5
                                E 9E13E15E25E31
  20433791.278   107380251.192    20433794.280    83672911.000                  
  24402647.894   128236745.105    24402650.378    99924727.710                  
  23433950.148   123146207.352    23433953.096    95958077.601                  
  20774478.979   109170620.143    20774480.194    85068016.601                  
  21717126.925   114124222.189    21717130.427    88927952.743                  
  21434155.793   112637208.304    21434158.974    87769242.980                  
                 131777417.058                   131777417.058    25306473.869  
                 119718006.609                   119718006.609    22990583.664  
                 116517104.219                   116517104.219    22375880.822  
                 130768709.932                   130768709.932    25112761.062  
  24250115.323   127435191.378                                                  
  24069840.647   126487851.239                                                  
  26006647.982   136665815.618                                                  
  27619100.619   145139282.168                                                  
  24580698.127   129172396.014                                                  
  27465840.778   144333900.715                                                  
  27721465.801   145677234.100                                                  
 21  8 31 21 54 46.0000000  0 17G10G12G18G23G24G32C19C21C22C34E 3E 5
                                E 9E13E15E25E31
  20433624.453   107379374.540    20433627.455    83672227.894                  
  24402144.399   128234099.215    24402146.883    99922665.981                  
  23434661.335   123149944.674    23434664.301    95960989.800                  
  20774748.748   109172037.758    20774749.963    85069121.234                  
  21717598.042   114126697.953    21717601.562    88929881.910                  
  21433851.323   112635608.299    21433854.521    87767996.223                  
                 131779816.769                   131779816.769    25306934.693  
                 119716404.985                   119716404.985    22990276.084  
                 116517907.747                   116517907.747    22376035.139  
                 130769935.430                   130769935.430    25112996.397  
  24249924.339   127434187.828                                                  
  24070047.374   126488937.719                                                  
  26007061.740   136667989.839                                                  
  27618670.815   145137023.594                                                  
  24580719.195   129172506.731                                                  
  27465292.378   144331018.854                                                  
  27721617.919   145678033.547                                                  
 21  8 31 21 54 47.0000000  0 17G10G12G18G23G24G32C19C21C22C34E 3E 5
                                E 9E13E15E25E31
  20433457.717   107378498.284    20433460.719    83671545.102                  
  24401640.939   128231453.540    24401643.423    99920604.418                  
  23435372.557   123153682.141    23435375.524    95963902.109                  
  20775018.588   109173455.792    20775019.803    85070226.195                  
  21718069.266   114129174.214    21718072.768    88931811.462                  
  21433546.906   112634008.579    21433550.105    87766749.688                  
                 131782216.582                   131782216.582    25307395.553  
                 119714803.504                   119714803.504    22989968.541  
                 116518711.507                   116518711.507    22376189.473  
                 130771161.379                   130771161.379    25113231.840  
  24249733.409   127433184.426                                                  
  24070254.155   126490024.322                                                  
  26007475.479   136670164.054                                                  
  27618241.083   145134765.327                                                  
  24580740.352   129172617.958                                                  
  27464743.978   144328137.015                                                  
  27721770.146   145678833.445                                                  
 21  8 31 21 54 48.0000000  0 17G10G12G18G23G24G32C19C21C22C34E 3E 5
                                E 9E13E15E25E31
  20433291.035   107377622.437    20433294.037    83670862.621                  
  24401137.533   128228808.102    24401140.017    99918543.040                  
  23436083.798   123157419.753    23436086.764    95966814.534                  
  20775288.499   109174874.266    20775289.714    85071331.500                  
  21718540.579   114131650.968    21718544.081    88933741.402                  
  21433242.543   112632409.140    21433245.724    87765503.374                  
                 131784616.488                   131784616.488    25307856.449  
                 119713202.177                   119713202.177    22989661.015  
                 116519515.500                   116519515.500    22376343.880  
                 130772387.786                   130772387.786    25113467.353  
  24249542.496   127432181.188                                                  
  24070460.953   126491111.051                                                  
  26007889.201   136672338.255                                                  
  27617811.404   145132507.375                                                  
  24580761.616   129172729.687                                                  
  27464195.577   144325255.184                                                  
  27721922.443   145679633.801                                                  
 21  8 31 21 54 49.0000000  0 17G10G12G18G23G24G32C19C21C22C34E 3E 5
                                E 9E13E15E25E31
  20433124.460   107376746.979    20433127.462    83670180.449                  
  24400634.181   128226162.891    24400636.647    99916481.836                  
  23436795.075   123161157.513    23436798.041    95969727.070                  
  20775558.518   109176293.180    20775559.733    85072437.145                  
  21719011.982   114134128.217    21719015.484    88935671.726                  
  21432938.234   112630809.977    21432941.414    87764257.269                  
                 131787016.496                   131787016.496    25308317.345  
                 119711601.001                   119711601.001    22989353.525  
                 116520319.732                   116520319.732    22376498.322  
                 130773614.639                   130773614.639    25113702.956  
  24249351.619   127431178.094                                                  
  24070667.787   126492197.891                                                  
  26008302.940   136674512.446                                                  
  27617381.797   145130249.740                                                  
  24580782.987   129172841.927                                                  
  27463647.177   144322373.356                                                  
  27722074.848   145680434.630                                                  
 21  8 31 21 54 50.0000000  0 17G10G12G18G23G24G32C19C21C22C34E 3E 5
                                E 9E13E15E25E31
  20432957.939   107375871.938    20432960.941    83669498.597                  
  24400130.846   128223517.905    24400133.312    99914420.813                  
  23437506.387   123164895.399    23437509.335    95972639.708                  
  20775828.608   109177712.502    20775829.824    85073543.113                  
  21719483.474   114136605.948    21719486.976    88937602.421                  
  21432633.978   112629211.093    21432637.158    87763011.392                  
                 131789416.597                   131789416.597    25308778.258  
                 119709999.970                   119709999.970    22989046.052  
                 116521124.190                   116521124.190    22376652.817  
                 130774841.946                   130774841.946    25113938.667  
  24249160.760   127430175.161                                                  
  24070874.621   126493284.855                                                  
  26008716.679   136676686.617                                                  
  27616952.244   145127992.415                                                  
  24580804.448   129172954.657                                                  
  27463098.795   144319491.546                                                  
  27722227.307   145681235.884                                                  
 21  8 31 21 54 51.0000000  0 17G10G12G18G23G24G32C19C21C22C34E 3E 5
                                E 9E13E15E25E31
  20432791.507   107374997.297    20432794.509    83668817.055                  
  24399627.565   128220873.151    24399630.049    99912359.964                  
  23438217.699   123168633.446    23438220.665    95975552.470                  
  20776098.788   109179132.271    20776100.003    85074649.426                  
  21719955.055   114139084.172    21719958.575    88939533.507                  
  21432329.776   112627612.488    21432332.956    87761765.723                  
                 131791816.814                   131791816.814    25309239.172  
                 119708399.085                   119708399.085    22988738.634  
                 116521928.887                   116521928.887    22376807.366  
                 130776069.717                   130776069.717    25114174.448  
  24248969.937   127429172.372                                                  
  24071081.472   126494371.933                                                  
  26009130.401   136678860.776                                                  
  27616522.744   145125735.408                                                  
  24580825.980   129173067.897                                                  
  27462550.394   144316609.753                                                  
  27722379.855   145682037.610                                                  
 21  8 31 21 54 52.0000000  0 17G10G12G18G23G24G32C19C21C22C34E 3E 5
                                E 9E13E15E25E31
  20432625.146   107374123.051    20432628.148    83668135.827                  
  24399124.320   128218228.632    24399126.803    99910299.302                  
  23438929.065   123172371.625    23438932.013    95978465.337                  
  20776369.039   109180552.462    20776370.254    85075756.064                  
  21720426.761   114141562.898    21720430.264    88941464.981                  
  21432025.627   112626014.161    21432028.808    87760520.274                  
                 131794217.110                   131794217.110    25309700.139  
                 119706798.359                   119706798.359    22988431.215  
                 116522733.819                   116522733.819    22376961.915  
                 130777297.931                   130777297.931    25114410.302  
  24248779.131   127428169.735                                                  
  24071288.378   126495459.137                                                  
  26009544.140   136681034.930                                                  
  27616093.298   145123478.711                                                  
  24580847.619   129173181.648                                                  
  27462002.012   144313727.978                                                  
  27722532.528   145682839.801                                                  
 21  8 31 21 54 53.0000000  0 17G10G12G18G23G24G32C19C21C22C34E 3E 5
                                E 9E13E15E25E31
  20432458.839   107373249.202    20432461.841    83667454.906                  
  24398621.146   128215584.336    24398623.594    99908238.809                  
  23439640.449   123176109.945    23439643.397    95981378.313                  
  20776639.362   109181973.075    20776640.577    85076863.035                  
  21720898.539   114144042.111    21720902.042    88943396.833                  
  21431721.514   112624416.116    21431724.695    87759275.044                  
                 131796617.501                   131796617.501    25310161.124  
                 119705197.782                   119705197.782    22988123.868  
                 116523538.984                   116523538.984    22377116.554  
                 130778526.598                   130778526.598    25114646.262  
  24248588.380   127427167.249                                                  
  24071495.283   126496546.450                                                  
  26009957.862   136683209.060                                                  
  27615663.941   145121222.326                                                  
  24580869.366   129173295.898                                                  
  27461453.647   144310846.200                                                  
  27722685.254   145683642.434                                                  
 21  8 31 21 54 54.0000000  0 17G10G12G18G23G24G32C19C21C22C34E 3E 5
                                E 9E13E15E25E31
  20432292.639   107372375.766    20432295.641    83666774.309                  
  24398117.972   128212940.269    24398120.456    99906178.499                  
  23440351.832   123179848.415    23440354.798    95984291.397                  
  20776909.774   109183394.129    20776911.007    85077970.352                  
  21721370.407   114146521.813    21721373.927    88945329.067                  
  21431417.473   112622818.339    21431420.653    87758030.025                  
                 131799017.992                   131799017.992    25310622.091  
                 119703597.351                   119703597.351    22987816.503  
                 116524344.387                   116524344.387    22377271.228  
                 130779755.713                   130779755.713    25114882.294  
  24248397.646   127426164.923                                                  
  24071702.224   126497633.895                                                  
  26010371.583   136685383.198                                                  
  27615234.620   145118966.245                                                  
  24580891.202   129173410.656                                                  
  27460905.265   144307964.445                                                  
  27722838.088   145684445.531                                                  
 21  8 31 21 54 55.0000000  0 17G10G12G18G23G24G32C19C21C22C34E 3E 5
                                E 9E13E15E25E31
  20432126.493   107371502.724    20432129.495    83666094.012                  
  24397614.888   128210296.434    24397617.336    99904118.370                  
  23441063.287   123183587.028    23441066.236    95987204.603                  
  20777180.275   109184815.611    20777181.508    85079077.996                  
  21721842.381   114149002.003    21721845.884    88947261.685                  
  21431113.485   112621220.860    21431116.665    87756785.234                  
                 131801418.578                   131801418.578    25311083.112  
                 119701997.073                   119701997.073    22987509.191  
                 116525150.023                   116525150.023    22377425.938  
                 130780985.285                   130780985.285    25115118.415  
  24248206.912   127425162.747                                                  
  24071909.183   126498721.446                                                  
  26010785.305   136687557.296                                                  
  27614805.352   145116710.485                                                  
  24580913.145   129173525.918                                                  
  27460356.882   144305082.700                                                  
  27722990.993   145685249.091                                                  
 21  8 31 21 54 56.0000000  0 17G10G12G18G23G24G32C19C21C22C34E 3E 5
                                E 9E13E15E25E31
  20431960.436   107370630.086    20431963.438    83665414.034                  
  24397111.821   128207652.839    24397114.287    99902058.429                  
  23441774.742   123187325.774    23441777.709    95990117.911                  
  20777450.866   109186237.515    20777452.081    85080185.975                  
  21722314.445   114151482.686    21722317.947    88949194.684                  
  21430809.533   112619623.649    21430812.713    87755540.656                  
                 131803819.261                   131803819.261    25311544.133  
                 119700396.947                   119700396.947    22987201.898  
                 116525955.892                   116525955.892    22377580.702  
                 130782215.304                   130782215.304    25115354.644  
  24248016.231   127424160.721                                                  
  24072116.160   126499809.134                                                  
  26011199.026   136689731.411                                                  
  27614376.156   145114455.047                                                  
  24580935.160   129173641.685                                                  
  27459808.500   144302200.957                                                  
  27723144.006   145686053.098                                                  
 21  8 31 21 54 57.0000000  0 17G10G12G18G23G24G32C19C21C22C34E 3E 5
                                E 9E13E15E25E31
  20431794.469   107369757.857    20431797.453    83664734.379                  
  24396608.808   128205009.465    24396611.274    99899998.661                  
  23442486.233   123191064.675    23442489.200    95993031.340                  
  20777721.528   109187659.860    20777722.743    85081294.296                  
  21722786.580   114153963.856    21722790.083    88951128.059                  
  21430505.652   112618026.728    21430508.833    87754296.302                  
                 131806220.042                   131806220.042    25312005.171  
                 119698796.969                   119698796.969    22986894.640  
                 116526761.996                   116526761.996    22377735.501  
                 130783445.780                   130783445.780    25115590.944  
  24247825.605   127423158.857                                                  
  24072323.155   126500896.934                                                  
  26011612.748   136691905.500                                                  
  27613947.014   145112199.897                                                  
  24580957.299   129173757.953                                                  
  27459260.118   144299319.238                                                  
  27723297.072   145686857.562                                                  
 21  8 31 21 54 58.0000000  0 17G10G12G18G23G24G32C19C21C22C34E 3E 5
                                E 9E13E15E25E31
  20431628.555   107368886.023    20431631.557    83664055.026                  
  24396105.813   128202366.328    24396108.297    99897939.071                  
  23443197.742   123194803.696    23443200.708    95995944.857                  
  20777992.279   109189082.624    20777993.494    85082402.946                  
  21723258.823   114156445.516    21723262.343    88953061.820                  
  21430201.825   112616430.074    21430205.024    87753052.156                  
                 131808620.922                   131808620.922    25312466.264  
                 119697197.142                   119697197.142    22986587.418  
                 116527568.335                   116527568.335    22377890.336  
                 130784676.707                   130784676.707    25115827.315  
  24247634.978   127422157.130                                                  
  24072530.186   126501984.852                                                  
  26012026.451   136694079.565                                                  
  27613517.943   145109945.073                                                  
  24580979.529   129173874.730                                                  
  27458711.753   144296437.536                                                  
  27723450.245   145687662.476                                                  
 21  8 31 21 54 59.0000000  0 17G10G12G18G23G24G32C19C21C22C34E 3E 5
                                E 9E13E15E25E31
  20431462.712   107368014.586    20431465.732    83663375.984                  
  24395602.907   128199723.417    24395605.355    99895879.665                  
  23443909.287   123198542.870    23443912.253    95998858.501                  
  20778263.102   109190505.829    20778264.317    85083511.930                  
  21723731.155   114158927.672    21723734.675    88954995.968                  
  21429898.034   112614833.710    21429901.232    87751808.239                  
                 131811021.895                   131811021.895    25312927.338  
                 119695597.466                   119695597.466    22986280.213  
                 116528374.908                   116528374.908    22378045.243  
                 130785908.081                   130785908.081    25116063.794  
  24247444.387   127421155.567                                                  
  24072737.216   126503072.889                                                  
  26012440.155   136696253.628                                                  
  27613088.925   145107690.563                                                  
  24581001.847   129173992.011                                                  
  27458163.388   144293555.840                                                  
  27723603.507   145688467.858                                                  
 21  8 31 21 55  0.0000000  0 17G10G12G18G23G24G32C19C21C22C34E 3E 5
                                E 9E13E15E25E31
  20431296.977   107367143.559    20431299.979    83662697.263                  
  24395100.001   128197080.746    24395102.485    99893820.441                  
  23444620.867   123202282.188    23444623.815    96001772.250                  
  20778533.996   109191929.453    20778535.211    85084621.249                  
  21724203.594   114161410.324    21724207.096    88956930.499                  
  21429594.314   112613237.617    21429597.495    87750564.527                  
                 131813422.970                   131813422.970    25313388.448  
                 119693997.939                   119693997.939    22985973.045  
                 116529181.715                   116529181.715    22378200.185  
                 130787139.915                   130787139.915    25116300.362  
  24247253.814   127420154.146                                                  
  24072944.300   126504161.042                                                  
  26012853.876   136698427.684                                                  
  27612659.962   145105436.361                                                  
  24581024.237   129174109.797                                                  
  27457615.024   144290674.168                                                  
  27723756.859   145689273.690                                                  
 21  8 31 21 55  1.0000000  0 17G10G12G18G23G24G32C19C21C22C34E 3E 5
                                E 9E13E15E25E31
  20431131.296   107366272.923    20431134.298    83662018.845                  
  24394597.167   128194438.293    24394599.633    99891761.391                  
  23445332.465   123206021.652    23445335.413    96004686.116                  
  20778804.998   109193353.515    20778806.213    85085730.910                  
  21724676.122   114163893.466    21724679.643    88958865.415                  
  21429290.648   112611641.802    21429293.846    87749321.035                  
                 131815824.138                   131815824.138    25313849.558  
                 119692398.563                   119692398.563    22985665.894  
                 116529988.759                   116529988.759    22378355.163  
                 130788372.197                   130788372.197    25116537.001  
  24247063.276   127419152.886                                                  
  24073151.384   126505249.323                                                  
  26013267.580   136700601.723                                                  
  27612231.051   145103182.487                                                  
  24581046.752   129174228.093                                                  
  27457066.659   144287792.504                                                  
  27723910.283   145690079.992                                                  
 21  8 31 21 55  2.0000000  0 17G10G12G18G23G24G32C19C21C22C34E 3E 5
                                E 9E13E15E25E31
  20430965.703   107365402.698    20430968.705    83661340.749                  
  24394094.386   128191796.089    24394096.834    99889702.527                  
  23446044.081   123209761.249    23446047.047    96007600.090                  
  20779076.053   109194778.001    20779077.286    85086840.895                  
  21725148.740   114166377.098    21725152.260    88960800.715                  
  21428987.017   112610046.260    21428990.216    87748077.763                  
                 131818225.402                   131818225.402    25314310.704  
                 119690799.335                   119690799.335    22985358.779  
                 116530796.034                   116530796.034    22378510.195  
                 130789604.929                   130789604.929    25116773.748  
  24246872.775   127418151.769                                                  
  24073358.504   126506337.727                                                  
  26013681.283   136702775.750                                                  
  27611802.213   145100928.919                                                  
  24581069.356   129174346.891                                                  
  27456518.295   144284910.844                                                  
  27724063.796   145690886.745                                                  
 21  8 31 21 55  3.0000000  0 17G10G12G18G23G24G32C19C21C22C34E 3E 5
                                E 9E13E15E25E31
  20430800.183   107364532.872    20430803.185    83660662.960                  
  24393591.623   128189154.106    24393594.071    99887643.845                  
  23446755.715   123213500.989    23446758.699    96010514.169                  
  20779347.216   109196202.914    20779348.449    85087951.219                  
  21725621.465   114168861.218    21725624.967    88962736.390                  
  21428683.458   112608451.012    21428686.639    87746834.707                  
                 131820626.765                   131820626.765    25314771.868  
                 119689200.258                   119689200.258    22985051.700  
                 116531603.546                   116531603.546    22378665.262  
                 130790838.112                   130790838.112    25117010.566  
  24246682.309   127417150.808                                                  
  24073565.642   126507426.235                                                  
  26014094.987   136704949.757                                                  
  27611373.446   145098675.661                                                  
  24581092.068   129174466.188                                                  
  27455969.948   144282029.203                                                  
  27724217.416   145691693.938                                                  
 21  8 31 21 55  4.0000000  0 17G10G12G18G23G24G32C19C21C22C34E 3E 5
                                E 9E13E15E25E31
  20430634.733   107363663.444    20430637.735    83659985.485                  
  24393088.878   128186512.500    24393091.344    99885585.520                  
  23447467.420   123217240.797    23447470.404    96013428.266                  
  20779618.467   109197628.255    20779619.682    85089061.872                  
  21726094.262   114171345.836    21726097.764    88964672.461                  
  21428379.935   112606856.040    21428383.116    87745591.874                  
                 131823028.230                   131823028.230    25315233.032  
                 119687601.333                   119687601.333    22984744.639  
                 116532411.284                   116532411.284    22378820.383  
                 130792071.755                   130792071.755    25117247.456  
  24246491.861   127416150.003                                                  
  24073772.797   126508514.871                                                  
  26014508.673   136707123.793                                                  
  27610944.714   145096422.712                                                  
  24581114.869   129174585.996                                                  
  27455421.566   144279147.646                                                  
  27724371.107   145692501.651                                                  
 21  8 31 21 55  5.0000000  0 17G10G12G18G23G24G32C19C21C22C34E 3E 5
                                E 9E13E15E25E31
  20430469.356   107362794.419    20430472.358    83659308.320                  
  24392586.223   128183870.983    24392588.689    99883527.199                  
  23448179.125   123220980.816    23448182.092    96016342.562                  
  20779889.755   109199054.027    20779891.006    85090172.863                  
  21726567.165   114173830.941    21726570.668    88966608.902                  
  21428076.484   112605261.340    21428079.664    87744349.251                  
                 131825429.790                   131825429.790    25315694.213  
                 119686002.558                   119686002.558    22984437.613  
                 116533219.267                   116533219.267    22378975.558  
                 130793305.845                   130793305.845    25117484.453  
  24246301.448   127415149.344                                                  
  24073979.989   126509603.628                                                  
  26014922.376   136709297.782                                                  
  27610516.054   145094170.083                                                  
  24581137.759   129174706.308                                                  
  27454873.219   144276266.035                                                  
  27724524.888   145693309.769                                                  
 21  8 31 21 55  6.0000000  0 17G10G12G18G23G24G32C19C21C22C34E 3E 5
                                E 9E13E15E25E31
  20430304.085   107361925.805    20430307.087    83658631.480                  
  24392083.603   128181229.704    24392086.033    99881469.055                  
  23448890.866   123224720.973    23448893.833    96019256.968                  
  20780161.167   109200480.239    20780162.400    85091284.195                  
  21727040.158   114176316.530    21727043.661    88968545.727                  
  21427773.085   112603666.934    21427776.266    87743106.859                  
                 131827831.441                   131827831.441    25316155.449  
                 119684403.932                   119684403.932    22984130.624  
                 116534027.482                   116534027.482    22379130.768  
                 130794540.383                   130794540.383    25117721.539  
  24246111.054   127414148.853                                                  
  24074187.198   126510692.510                                                  
  26015336.080   136711471.754                                                  
  27610087.466   145091917.773                                                  
  24581160.756   129174827.140                                                  
  27454324.854   144273384.439                                                  
  27724678.740   145694118.335                                                  
 21  8 31 21 55  7.0000000  0 17G10G12G18G23G24G32C19C21C22C34E 3E 5
                                E 9E13E15E25E31
  20430138.868   107361057.604    20430141.852    83657954.958                  
  24391581.019   128178588.645    24391583.485    99879411.089                  
  23449602.608   123228461.271    23449605.574    96022171.485                  
  20780432.634   109201906.874    20780433.885    85092395.863                  
  21727513.241   114178802.618    21727516.743    88970482.938                  
  21427469.723   112602072.801    21427472.904    87741864.675                  
                 131830233.190                   131830233.190    25316616.684  
                 119682805.460                   119682805.460    22983823.634  
                 116534835.930                   116534835.930    22379286.014  
                 130795775.375                   130795775.375    25117958.696  
  24245920.695   127413148.505                                                  
  24074394.425   126511781.522                                                  
  26015749.766   136713645.728                                                  
  27609658.913   145089665.793                                                  
  24581183.843   129174948.480                                                  
  27453776.525   144270502.843                                                  
  27724832.700   145694927.383                                                  
 21  8 31 21 55  8.0000000  0 17G10G12G18G23G24G32C19C21C22C34E 3E 5
                                E 9E13E15E25E31
  20429973.723   107360189.776    20429976.725    83657278.730                  
  24391078.488   128175947.832    24391080.936    99877353.317                  
  23450314.402   123232201.736    23450317.386    96025086.134                  
  20780704.207   109203333.929    20780705.440    85093507.851                  
  21727986.412   114181289.191    21727989.915    88972420.523                  
  21427166.414   112600478.935    21427169.595    87740622.699                  
                 131832635.042                   131832635.042    25317077.919  
                 119681207.137                   119681207.137    22983516.697  
                 116535644.613                   116535644.613    22379441.314  
                 130797010.817                   130797010.817    25118195.961  
  24245730.355   127412148.293                                                  
  24074601.688   126512870.617                                                  
  26016163.452   136715819.667                                                  
  27609230.432   145087414.073                                                  
  24581207.019   129175070.271                                                  
  27453228.161   144267621.276                                                  
  27724986.749   145695736.857                                                  
 21  8 31 21 55  9.0000000  0 17G10G12G18G23G24G32C19C21C22C34E 3E 5
                                E 9E13E15E25E31
  20429808.666   107359322.368    20429811.668    83656602.828                  
  24390575.994   128173307.245    24390578.459    99875295.719                  
  23451026.197   123235942.312    23451029.181    96028000.864                  
  20780975.852   109204761.420    20780977.085    85094620.183                  
  21728459.691   114183776.247    21728463.194    88974358.489                  
  21426863.177   112598885.356    21426866.358    87739380.954                  
                 131835036.983                   131835036.983    25317539.208  
                 119679608.962                   119679608.962    22983209.779  
                 116536453.532                   116536453.532    22379596.667  
                 130798246.716                   130798246.716    25118433.298  
  24245540.067   127411148.250                                                  
  24074808.933   126513959.851                                                  
  26016577.137   136717993.609                                                  
  27608802.004   145085162.702                                                  
  24581230.302   129175192.605                                                  
  27452679.814   144264739.718                                                  
  27725140.869   145696546.809                                                  
 21  8 31 21 55 10.0000000  0 17G10G12G18G23G24G32C19C21C22C34E 3E 5
                                E 9E13E15E25E31
  20429643.664   107358455.350    20429646.684    83655927.232                  
  24390073.552   128170666.890    24390076.000    99873238.300                  
  23451738.045   123239683.036    23451741.011    96030915.711                  
  20781247.586   109206189.344    20781248.801    85095732.848                  
  21728933.060   114186263.800    21728936.562    88976296.844                  
  21426559.975   112597292.056    21426563.156    87738139.417                  
                 131837439.026                   131837439.026    25318000.479  
                 119678010.938                   119678010.938    22982902.897  
                 116537262.683                   116537262.683    22379752.038  
                 130799483.060                   130799483.060    25118670.723  
  24245349.780   127410148.352                                                  
  24075016.231   126515049.207                                                  
  26016990.841   136720167.534                                                  
  27608373.648   145082911.649                                                  
  24581253.675   129175315.432                                                  
  27452131.485   144261858.181                                                  
  27725295.079   145697357.206                                                  
 21  8 31 21 55 11.0000000  0 17G10G12G18G23G24G32C19C21C22C34E 3E 5
                                E 9E13E15E25E31
  20429478.768   107357588.755    20429481.753    83655251.960                  
  24389571.165   128168026.772    24389573.595    99871181.066                  
  23452449.893   123243423.906    23452452.895    96033830.675                  
  20781519.374   109207617.698    20781520.607    85096845.851                  
  21729406.517   114188751.848    21729410.020    88978235.578                  
  21426256.845   112595699.038    21426260.026    87736898.109                  
                 131839841.169                   131839841.169    25318461.803  
                 119676413.068                   119676413.068    22982596.032  
                 116538072.073                   116538072.073    22379907.481  
                 130800719.854                   130800719.854    25118908.239  
  24245159.546   127409148.609                                                  
  24075223.566   126516138.679                                                  
  26017404.527   136722341.446                                                  
  27607945.345   145080660.895                                                  
  24581277.137   129175438.773                                                  
  27451583.139   144258976.643                                                  
  27725449.378   145698168.053                                                  
 21  8 31 21 55 12.0000000  0 17G10G12G18G23G24G32C19C21C22C34E 3E 5
                                E 9E13E15E25E31
  20429313.927   107356722.547    20429316.929    83654576.993                  
  24389068.795   128165386.896    24389071.261    99869124.019                  
  23453161.795   123247164.905    23453164.779    96036745.739                  
  20781791.287   109209046.481    20781792.502    85097959.186                  
  21729880.082   114191240.366    21729883.584    88980174.688                  
  21425953.733   112594106.296    21425956.931    87735657.011                  
                 131842243.404                   131842243.404    25318923.128  
                 119674815.343                   119674815.343    22982289.221  
                 116538881.695                   116538881.695    22380062.959  
                 130801957.105                   130801957.105    25119145.843  
  24244969.313   127408149.015                                                  
  24075430.900   126517228.272                                                  
  26017818.195   136724515.347                                                  
  27607517.096   145078410.466                                                  
  24581300.724   129175562.622                                                  
  27451034.792   144256095.129                                                  
  27725603.766   145698979.367                                                  
 21  8 31 21 55 13.0000000  0 17G10G12G18G23G24G32C19C21C22C34E 3E 5
                                E 9E13E15E25E31
  20429149.174   107355856.749    20429152.176    83653902.348                  
  24388566.497   128162747.233    24388568.945    99867067.143                  
  23453873.715   123250906.054    23453876.699    96039660.913                  
  20782063.236   109210475.692    20782064.469    85099072.860                  
  21730353.718   114193729.394    21730357.221    88982114.188                  
  21425650.728   112592513.835    21425653.909    87734416.132                  
                 131844645.735                   131844645.735    25319384.452  
                 119673217.773                   119673217.773    22981982.427  
                 116539691.550                   116539691.550    22380218.473  
                 130803194.804                   130803194.804    25119383.537  
  24244779.133   127407149.586                                                  
  24075638.288   126518317.980                                                  
  26018231.880   136726689.234                                                  
  27607088.918   145076160.340                                                  
  24581324.383   129175686.966                                                  
  27450486.481   144253213.624                                                  
  27725758.244   145699791.141                                                  
 21  8 31 21 55 14.0000000  0 17G10G12G18G23G24G32C19C21C22C34E 3E 5
                                E 9E13E15E25E31
  20428984.493   107354991.348    20428987.495    83653228.007                  
  24388064.216   128160107.811    24388066.682    99865010.453                  
  23454585.653   123254647.346    23454588.637    96042576.206                  
  20782335.292   109211905.335    20782336.524    85100186.867                  
  21730827.462   114196218.913    21730830.964    88984054.070                  
  21425347.723   112590921.653    21425350.921    87733175.474                  
                 131847048.165                   131847048.165    25319845.813  
                 119671620.351                   119671620.351    22981675.652  
                 116540501.644                   116540501.644    22380374.059  
                 130804432.953                   130804432.953    25119621.302  
  24244588.989   127406150.298                                                  
  24075845.658   126519407.819                                                  
  26018645.548   136728863.108                                                  
  27606660.777   145073910.537                                                  
  24581348.149   129175811.824                                                  
  27449938.134   144250332.146                                                  
  27725912.793   145700603.361                                                  
 21  8 31 21 55 15.0000000  0 17G10G12G18G23G24G32C19C21C22C34E 3E 5
                                E 9E13E15E25E31
  20428819.884   107354126.355    20428822.886    83652553.989                  
  24387562.008   128157468.621    24387564.456    99862953.942                  
  23455297.644   123258388.774    23455300.628    96045491.602                  
  20782607.419   109213335.406    20782608.652    85101301.206                  
  21731301.277   114198708.910    21731304.797    88985994.328                  
  21425044.807   112589329.753    21425047.988    87731935.032                  
                 131849450.691                   131849450.691    25320307.209  
                 119670023.083                   119670023.083    22981368.912  
                 116541311.970                   116541311.970    22380529.680  
                 130805671.554                   130805671.554    25119859.156  
  24244398.844   127405151.168                                                  
  24076053.081   126520497.770                                                  
  26019059.216   136731036.971                                                  
  27606232.724   145071661.047                                                  
  24581372.004   129175937.186                                                  
  27449389.823   144247450.667                                                  
  27726067.467   145701416.039                                                  
 21  8 31 21 55 16.0000000  0 17G10G12G18G23G24G32C19C21C22C34E 3E 5
                                E 9E13E15E25E31
  20428655.364   107353261.767    20428658.366    83651880.277                  
  24387059.817   128154829.663    24387062.282    99860897.613                  
  23456009.635   123262130.331    23456012.619    96048407.101                  
  20782879.636   109214765.906    20782880.869    85102415.883                  
  21731775.217   114201199.400    21731778.719    88987934.969                  
  21424741.927   112587738.138    21424745.108    87730694.807                  
                 131851853.316                   131851853.316    25320768.605  
                 119668425.960                   119668425.960    22981062.209  
                 116542122.532                   116542122.532    22380685.337  
                 130806910.610                   130806910.610    25120097.118  
  24244208.736   127404152.179                                                  
  24076260.505   126521587.833                                                  
  26019472.902   136733210.819                                                  
  27605804.725   145069411.875                                                  
  24581395.948   129176063.051                                                  
  27448841.494   144244569.203                                                  
  27726222.177   145702229.160                                                  
 21  8 31 21 55 17.0000000  0 17G10G12G18G23G24G32C19C21C22C34E 3E 5
                                E 9E13E15E25E31
  20428490.915   107352397.572    20428493.917    83651206.882                  
  24386557.697   128152190.957    24386560.145    99858841.476                  
  23456721.662   123265872.046    23456724.646    96051322.718                  
  20783151.942   109216196.831    20783153.157    85103530.890                  
  21732249.247   114203690.379    21732252.749    88989875.988                  
  21424439.101   112586146.786    21424442.282    87729454.798                  
                 131854256.039                   131854256.039    25321230.019  
                 119666828.991                   119666828.991    22980755.522  
                 116542933.323                   116542933.323    22380841.048  
                 130808150.112                   130808150.112    25120335.134  
  24244018.681   127403153.354                                                  
  24076467.964   126522678.024                                                  
  26019886.552   136735384.668                                                  
  27605376.780   145067163.016                                                  
  24581419.982   129176189.423                                                  
  27448293.183   144241687.753                                                  
  27726376.994   145703042.753                                                  
 21  8 31 21 55 18.0000000  0 17G10G12G18G23G24G32C19C21C22C34E 3E 5
                                E 9E13E15E25E31
  20428326.538   107351533.802    20428329.540    83650533.824                  
  24386055.595   128149552.445    24386058.061    99856785.488                  
  23457433.707   123269613.881    23457436.709    96054238.434                  
  20783424.319   109217628.184    20783425.534    85104646.223                  
  21732723.347   114206181.811    21732726.832    88991817.347                  
  21424136.346   112584555.714    21424139.527    87728215.003                  
                 131856658.856                   131856658.856    25321691.468  
                 119665232.177                   119665232.177    22980448.872  
                 116543744.356                   116543744.356    22380996.777  
                 130809390.067                   130809390.067    25120573.256  
  24243828.644   127402154.741                                                  
  24076675.442   126523768.207                                                  
  26020300.220   136737558.413                                                  
  27604948.906   145064914.410                                                  
  24581444.141   129176316.332                                                  
  27447744.855   144238806.345                                                  
  27726531.919   145703856.816                                                  
 21  8 31 21 55 19.0000000  0 17G10G12G18G23G24G32C19C21C22C34E 3E 5
                                E 9E13E15E25E31
  20428162.232   107350670.423    20428165.234    83649861.064                  
  24385553.565   128146914.191    24385556.013    99854729.708                  
  23458145.787   123273355.867    23458148.772    96057154.265                  
  20783696.786   109219059.969    20783698.001    85105761.898                  
  21733197.538   114208673.757    21733201.058    88993759.125                  
  21423833.627   112582964.923    21423836.808    87726975.426                  
                 131859061.769                   131859061.769    25322152.918  
                 119663635.508                   119663635.508    22980142.258  
                 116544555.621                   116544555.621    22381152.577  
                 130810630.473                   130810630.473    25120811.486  
  24243638.625   127401156.204                                                  
  24076882.937   126524858.628                                                  
  26020713.906   136739732.226                                                  
  27604521.068   145062666.188                                                  
  24581468.371   129176443.716                                                  
  27447196.544   144235924.957                                                  
  27726686.915   145704671.316                                                  
 21  8 31 21 55 20.0000000  0 17G10G12G18G23G24G32C19C21C22C34E 3E 5
                                E 9E13E15E25E31
  20427998.016   107349807.431    20428001.018    83649188.602                  
  24385051.553   128144276.163    24385054.019    99852674.101                  
  23458857.886   123277097.984    23458860.888    96060070.196                  
  20783969.324   109220492.180    20783970.539    85106877.906                  
  21733671.835   114211166.198    21733675.355    88995701.285                  
  21423530.961   112581374.419    21423534.142    87725736.071                  
                 131861464.780                   131861464.780    25322614.403  
                 119662038.987                   119662038.987    22979835.661  
                 116545367.122                   116545367.122    22381308.412  
                 130811871.327                   130811871.327    25121049.787  
  24243448.641   127400157.837                                                  
  24077090.467   126525949.180                                                  
  26021127.556   136741906.030                                                  
  27604093.302   145060418.274                                                  
  24581492.691   129176571.605                                                  
  27446648.215   144233043.558                                                  
  27726842.000   145705486.277                                                  
 21  8 31 21 55 21.0000000  0 17G10G12G18G23G24G32C19C21C22C34E 3E 5
                                E 9E13E15E25E31
  20427833.871   107348944.844    20427836.873    83648516.457                  
  24384549.594   128141638.378    24384552.060    99850618.687                  
  23459570.020   123280840.242    23459573.004    96062986.243                  
  20784241.934   109221924.821    20784243.167    85107994.245                  
  21734146.240   114213659.126    21734149.742    88997643.824                  
  21423228.332   112579784.189    21423231.512    87724496.930                  
                 131863867.891                   131863867.891    25323075.889  
                 119660442.626                   119660442.626    22979529.100  
                 116546178.856                   116546178.856    22381464.302  
                 130813112.634                   130813112.634    25121288.160  
  24243258.676   127399159.617                                                  
  24077298.016   126527039.850                                                  
  26021541.223   136744079.832                                                  
  27603665.607   145058170.672                                                  
  24581517.136   129176699.996                                                  
  27446099.922   144230162.179                                                  
  27726997.157   145706301.699                                                  
 21  8 31 21 55 22.0000000  0 17G10G12G18G23G24G32C19C21C22C34E 3E 5
                                E 9E13E15E25E31
  20427669.816   107348082.668    20427672.818    83647844.629                  
  24384047.707   128139000.826    24384050.137    99848563.449                  
  23460282.172   123284582.644    23460285.156    96065902.398                  
  20784514.651   109223357.895    20784515.884    85109110.930                  
  21734620.716   114216152.542    21734624.218    88999586.745                  
  21422925.773   112578194.234    21422928.954    87723258.004                  
                 131866271.094                   131866271.094    25323537.392  
                 119658846.411                   119658846.411    22979222.557  
                 116546990.825                   116546990.825    22381620.245  
                 130814354.389                   130814354.389    25121526.622  
  24243068.764   127398161.549                                                  
  24077505.583   126528130.643                                                  
  26021954.856   136746253.618                                                  
  27603237.947   145055923.386                                                  
  24581541.652   129176828.895                                                  
  27445551.593   144227280.824                                                  
  27727152.421   145707117.578                                                  
 21  8 31 21 55 23.0000000  0 17G10G12G18G23G24G32C19C21C22C34E 3E 5
                                E 9E13E15E25E31
  20427505.814   107347220.899    20427508.816    83647173.116                  
  24383545.837   128136363.508    24383548.285    99846508.399                  
  23460994.360   123288325.186    23460997.344    96068818.661                  
  20784787.440   109224791.393    20784788.655    85110227.942                  
  21735095.299   114218646.456    21735098.802    89001530.051                  
  21422623.287   112576604.561    21422626.467    87722019.296                  
                 131868674.399                   131868674.399    25323998.913  
                 119657250.344                   119657250.344    22978916.032  
                 116547803.027                   116547803.027    22381776.223  
                 130815596.598                   130815596.598    25121765.174  
  24242878.852   127397163.626                                                  
  24077713.185   126529221.548                                                  
  26022368.523   136748427.384                                                  
  27602810.360   145053676.411                                                  
  24581566.276   129176958.289                                                  
  27445003.300   144224399.451                                                  
  27727307.756   145707933.906                                                  
 21  8 31 21 55 24.0000000  0 17G10G12G18G23G24G32C19C21C22C34E 3E 5
                                E 9E13E15E25E31
  20427341.919   107346359.536    20427344.921    83646501.922                  
  24383044.022   128133726.430    24383046.452    99844453.526                  
  23461706.583   123292067.879    23461709.567    96071735.035                  
  20785060.300   109226225.332    20785061.533    85111345.288                  
  21735569.954   114221140.861    21735573.475    89003473.738                  
  21422320.818   112575015.167    21422324.016    87720780.805                  
                 131871077.798                   131871077.798    25324460.488  
                 119655654.431                   119655654.431    22978609.560  
                 116548615.464                   116548615.464    22381932.238  
                 130816839.255                   130816839.255    25122003.814  
  24242688.975   127396165.863                                                  
  24077920.787   126530312.570                                                  
  26022782.173   136750601.130                                                  
  27602382.843   145051429.754                                                  
  24581591.007   129177088.194                                                  
  27444455.007   144221518.119                                                  
  27727463.181   145708750.693                                                  
 21  8 31 21 55 25.0000000  0 17G10G12G18G23G24G32C19C21C22C34E 3E 5
                                E 9E13E15E25E31
  20427178.078   107345498.569    20427181.080    83645831.036                  
  24382542.242   128131089.579    24382544.672    99842398.837                  
  23462418.807   123295810.691    23462421.809    96074651.508                  
  20785333.267   109227659.702    20785334.482    85112462.977                  
  21736044.716   114223635.746    21736048.237    89005417.800                  
  21422018.438   112573426.067    21422021.619    87719542.540                  
                 131873481.292                   131873481.292    25324922.045  
                 119654058.669                   119654058.669    22978303.124  
                 116549428.137                   116549428.137    22382088.306  
                 130818082.362                   130818082.362    25122242.545  
  24242499.135   127395168.251                                                  
  24078128.425   126531403.715                                                  
  26023195.823   136752774.872                                                  
  27601955.380   145049183.407                                                  
  24581615.827   129177218.601                                                  
  27443906.696   144218636.790                                                  
  27727618.695   145709567.933                                                  
 21  8 31 21 55 26.0000000  0 17G10G12G18G23G24G32C19C21C22C34E 3E 5
                                E 9E13E15E25E31
  20427014.326   107344638.004    20427017.328    83645160.466                  
  24382040.497   128128452.971    24382042.963    99840344.340                  
  23463131.084   123299553.660    23463134.068    96077568.102                  
  20785606.288   109229094.489    20785607.521    85113580.992                  
  21736519.586   114226131.113    21736523.088    89007362.242                  
  21421716.076   112571837.230    21421719.257    87718304.488                  
                 131875884.888                   131875884.888    25325383.637  
                 119652463.056                   119652463.056    22977996.706  
                 116550241.048                   116550241.048    22382244.392  
                 130819325.923                   130819325.923    25122481.346  
  24242309.348   127394170.785                                                  
  24078336.081   126532494.978                                                  
  26023609.473   136754948.594                                                  
  27601527.953   145046937.374                                                  
  24581640.736   129177349.513                                                  
  27443358.403   144215755.475                                                  
  27727774.298   145710385.620                                                  
 21  8 31 21 55 27.0000000  0 17G10G12G18G23G24G32C19C21C22C34E 3E 5
                                E 9E13E15E25E31
  20426850.646   107343777.844    20426853.648    83644490.211                  
  24381538.824   128125816.589    24381541.255    99838290.016                  
  23463843.361   123303296.754    23463846.363    96080484.801                  
  20785879.398   109230529.716    20785880.613    85114699.349                  
  21736994.526   114228626.988    21736998.047    89009307.081                  
  21421413.804   112570248.678    21421416.985    87717066.657                  
                 131878288.577                   131878288.577    25325845.248  
                 119650867.593                   119650867.593    22977690.306  
                 116551054.189                   116551054.189    22382400.567  
                 130820569.929                   130820569.929    25122720.237  
  24242119.561   127393173.477                                                  
  24078543.773   126533586.355                                                  
  26024023.123   136757122.307                                                  
  27601100.616   145044691.664                                                  
  24581665.735   129177480.929                                                  
  27442810.092   144212874.178                                                  
  27727930.009   145711203.777                                                  
 21  8 31 21 55 28.0000000  0 17G10G12G18G23G24G32C19C21C22C34E 3E 5
                                E 9E13E15E25E31
  20426687.020   107342918.088    20426690.022    83643820.274                  
  24381037.187   128123180.448    24381039.618    99836235.882                  
  23464555.674   123307039.989    23464558.658    96083401.605                  
  20786152.597   109231965.368    20786153.812    85115818.039                  
  21737469.557   114231123.335    21737473.077    89011252.284                  
  21421111.567   112568660.402    21421114.748    87715829.040                  
                 131880692.368                   131880692.368    25326306.858  
                 119649272.285                   119649272.285    22977383.942  
                 116551867.565                   116551867.565    22382556.760  
                 130821814.388                   130821814.388    25122959.235  
  24241929.792   127392176.308                                                  
  24078751.482   126534677.853                                                  
  26024436.756   136759296.003                                                  
  27600673.332   145042446.254                                                  
  24581690.841   129177612.850                                                  
  27442261.816   144209992.899                                                  
  27728085.773   145712022.380                                                  
 21  8 31 21 55 29.0000000  0 17G10G12G18G23G24G32C19C21C22C34E 3E 5
                                E 9E13E15E25E31
  20426523.500   107342058.741    20426526.502    83643150.653                  
  24380535.586   128120544.548    24380538.016    99834181.934                  
  23465268.023   123310783.371    23465271.025    96086318.524                  
  20786425.886   109233401.458    20786427.101    85116937.065                  
  21737944.694   114233620.183    21737948.214    89013197.883                  
  21420809.384   112567072.417    21420812.565    87714591.648                  
                 131883096.249                   131883096.249    25326768.505  
                 119647677.125                   119647677.125    22977077.595  
                 116552681.180                   116552681.180    22382713.025  
                 130823059.298                   130823059.298    25123198.305  
  24241740.077   127391179.308                                                  
  24078959.192   126535769.473                                                  
  26024850.406   136761469.693                                                  
  27600246.101   145040201.175                                                  
  24581716.036   129177745.276                                                  
  27441713.541   144207111.644                                                  
  27728241.645   145712841.434                                                  
 21  8 31 21 55 30.0000000  0 17G10G12G18G23G24G32C19C21C22C34E 3E 5
                                E 9E13E15E25E31
  20426360.034   107341199.793    20426363.036    83642481.343                  
  24380034.020   128117908.867    24380036.469    99832128.159                  
  23465980.407   123314526.891    23465983.373    96089235.550                  
  20786699.246   109234837.964    20786700.462    85118056.426                  
  21738419.921   114236117.516    21738423.441    89015143.852                  
  21420507.237   112565484.698    21420510.418    87713354.465                  
                 131885500.231                   131885500.231    25327230.169  
                 119646082.117                   119646082.117    22976771.302  
                 116553495.024                   116553495.024    22382869.307  
                 130824304.656                   130824304.656    25123437.464  
  24241550.379   127390182.450                                                  
  24079166.955   126536861.208                                                  
  26025264.038   136763643.371                                                  
  27599818.942   145037956.407                                                  
  24581741.339   129177878.207                                                  
  27441165.248   144204230.388                                                  
  27728397.588   145713660.958                                                  
 21  8 31 21 55 31.0000000  0 17G10G12G18G23G24G32C19C21C22C34E 3E 5
                                E 9E13E15E25E31
  20426196.676   107340341.258    20426199.678    83641812.353                  
  24379532.526   128115273.418    24379534.957    99830074.567                  
  23466692.773   123318270.540    23466695.775    96092152.675                  
  20786972.678   109236274.905    20786973.893    85119176.122                  
  21738895.237   114238615.337    21738898.757    89017090.208                  
  21420205.161   112563897.261    21420208.342    87712117.499                  
                 131887904.307                   131887904.307    25327691.833  
                 119644487.259                   119644487.259    22976465.027  
                 116554309.104                   116554309.104    22383025.643  
                 130825550.464                   130825550.464    25123676.712  
  24241360.717   127389185.753                                                  
  24079374.718   126537953.067                                                  
  26025677.688   136765817.040                                                  
  27599391.837   145035711.950                                                  
  24581766.748   129178011.645                                                  
  27440616.955   144201349.153                                                  
  27728553.620   145714480.925                                                  
 21  8 31 21 55 32.0000000  0 17G10G12G18G23G24G32C19C21C22C34E 3E 5
                                E 9E13E15E25E31
  20426033.389   107339483.108    20426036.373    83641143.664                  
  24379031.032   128112638.210    24379033.498    99828021.156                  
  23467405.193   123322014.327    23467408.195    96095069.914                  
  20787246.199   109237712.274    20787247.414    85120296.145                  
  21739370.660   114241113.641    21739374.162    89019036.934                  
  21419903.139   112562310.100    21419906.319    87710880.755                  
                 131890308.485                   131890308.485    25328153.533  
                 119642892.550                   119642892.550    22976158.788  
                 116555123.423                   116555123.423    22383182.015  
                 130826796.724                   130826796.724    25123916.032  
  24241171.073   127388189.199                                                  
  24079582.517   126539045.043                                                  
  26026091.302   136767990.692                                                  
  27598964.785   145033467.804                                                  
  24581792.212   129178145.591                                                  
  27440068.680   144198467.929                                                  
  27728709.742   145715301.359                                                  
 21  8 31 21 55 33.0000000  0 17G10G12G18G23G24G32C19C21C22C34E 3E 5
                                E 9E13E15E25E31
  20425870.137   107338625.372    20425873.139    83640475.296                  
  24378529.627   128110003.231    24378532.075    99825967.926                  
  23468117.667   123325758.261    23468120.633    96097987.262                  
  20787519.792   109239150.075    20787521.043    85121416.507                  
  21739846.154   114243612.426    21739849.675    89020984.040                  
  21419601.152   112560723.227    21419604.333    87709644.225                  
                 131892712.758                   131892712.758    25328615.268  
                 119641297.995                   119641297.995    22975852.566  
                 116555937.977                   116555937.977    22383338.441  
                 130828043.431                   130828043.431    25124155.459  
  24240981.465   127387192.801                                                  
  24079790.334   126540137.136                                                  
  26026504.934   136770164.320                                                  
  27598537.805   145031223.975                                                  
  24581817.800   129178280.032                                                  
  27439520.404   144195586.730                                                  
  27728865.953   145716122.238                                                  
 21  8 31 21 55 34.0000000  0 17G10G12G18G23G24G32C19C21C22C34E 3E 5
                                E 9E13E15E25E31
  20425706.993   107337768.043    20425709.995    83639807.250                  
  24378028.258   128107368.493    24378030.706    99823914.887                  
  23468830.123   123329502.332    23468833.125    96100904.718                  
  20787793.492   109240588.301    20787794.725    85122537.207                  
  21740321.756   114246111.702    21740325.277    89022931.527                  
  21419299.237   112559136.632    21419302.418    87708407.918                  
                 131895117.125                   131895117.125    25329077.004  
                 119639703.594                   119639703.594    22975546.381  
                 116556752.761                   116556752.761    22383494.920  
                 130829290.589                   130829290.589    25124394.958  
  24240791.875   127386196.556                                                  
  24079998.186   126541229.343                                                  
  26026918.566   136772337.945                                                  
  27598110.878   145028980.478                                                  
  24581843.478   129178414.985                                                  
  27438972.147   144192705.544                                                  
  27729022.235   145716943.573                                                  
 21  8 31 21 55 35.0000000  0 17G10G12G18G23G24G32C19C21C22C34E 3E 5
                                E 9E13E15E25E31
  20425543.938   107336911.117    20425546.940    83639139.515                  
  24377526.925   128104733.989    24377529.355    99821862.027                  
  23469542.615   123333246.536    23469545.616    96103822.273                  
  20788067.263   109242026.961    20788068.478    85123658.239                  
  21740797.466   114248611.473    21740800.968    89024879.399                  
  21418997.376   112557550.302    21419000.557    87707171.821                  
                 131897521.593                   131897521.593    25329538.739  
                 119638109.341                   119638109.341    22975240.213  
                 116557567.780                   116557567.780    22383651.434  
                 130830538.194                   130830538.194    25124634.563  
  24240602.338   127385200.458                                                  
  24080206.039   126542321.671                                                  
  26027332.199   136774511.558                                                  
  27597684.005   145026737.277                                                  
  24581869.263   129178550.442                                                  
  27438423.854   144189824.359                                                  
  27729178.625   145717765.371                                                  
 21  8 31 21 55 36.0000000  0 17G10G12G18G23G24G32C19C21C22C34E 3E 5
                                E 9E13E15E25E31
  20425380.937   107336054.590    20425383.939    83638472.089                  
  24377025.645   128102099.732    24377028.076    99819809.359                  
  23470255.160   123336990.880    23470258.144    96106739.946                  
  20788341.124   109243466.056    20788342.339    85124779.609                  
  21741273.246   114251111.726    21741276.748    89026827.648                  
  21418695.568   112555964.273    21418698.749    87705935.952                  
                 131899926.157                   131899926.157    25330000.528  
                 119636515.240                   119636515.240    22974934.081  
                 116558383.038                   116558383.038    22383808.003  
                 130831786.253                   130831786.253    25124874.241  
  24240412.819   127384204.515                                                  
  24080413.945   126543414.134                                                  
  26027745.813   136776685.172                                                  
  27597257.203   145024494.396                                                  
  24581895.137   129178686.398                                                  
  27437875.597   144186943.206                                                  
  27729335.104   145718587.624                                                  
 21  8 31 21 55 37.0000000  0 17G10G12G18G23G24G32C19C21C22C34E 3E 5
                                E 9E13E15E25E31
  20425218.043   107335198.473    20425221.045    83637804.987                  
  24376524.401   128099465.695    24376526.832    99817756.867                  
  23470967.705   123340735.362    23470970.707    96109657.722                  
  20788615.038   109244905.573    20788616.253    85125901.313                  
  21741749.098   114253612.466    21741752.618    89028776.278                  
  21418393.796   112554378.512    21418396.977    87704700.296                  
                 131902330.818                   131902330.818    25330462.300  
                 119634921.286                   119634921.286    22974627.984  
                 116559198.528                   116559198.528    22383964.607  
                 130833034.760                   130833034.760    25125114.007  
  24240223.318   127383208.727                                                  
  24080621.833   126544506.702                                                  
  26028159.445   136778858.753                                                  
  27596830.455   145022251.840                                                  
  24581921.101   129178822.867                                                  
  27437327.339   144184062.074                                                  
  27729491.654   145719410.332                                                  
 21  8 31 21 55 38.0000000  0 17G10G12G18G23G24G32C19C21C22C34E 3E 5
                                E 9E13E15E25E31
  20425055.202   107334342.759    20425058.204    83637138.199                  
  24376023.193   128096831.907    24376025.641    99815704.567                  
  23471680.286   123344479.977    23471683.288    96112575.601                  
  20788889.059   109246345.524    20788890.275    85127023.351                  
  21742225.075   114256113.702    21742228.596    89030725.293                  
  21418092.095   112552793.036    21418095.276    87703464.860                  
                 131904735.574                   131904735.574    25330924.125  
                 119633327.487                   119633327.487    22974321.906  
                 116560014.254                   116560014.254    22384121.265  
                 130834283.718                   130834283.718    25125353.845  
  24240033.853   127382213.086                                                  
  24080829.775   126545599.397                                                  
  26028573.059   136781032.337                                                  
  27596403.779   145020009.593                                                  
  24581947.172   129178959.841                                                  
  27436779.082   144181180.944                                                  
  27729648.294   145720233.497                                                  
 21  8 31 21 55 39.0000000  0 17G10G12G18G23G24G32C19C21C22C34E 3E 5
                                E 9E13E15E25E31
  20424892.434   107333487.446    20424895.436    83636471.720                  
  24375522.056   128094198.351    24375524.504    99813652.446                  
  23472392.902   123348224.741    23472395.886    96115493.597                  
  20789163.152   109247785.898    20789164.385    85128145.718                  
  21742701.142   114258615.410    21742704.662    89032674.676                  
  21417790.448   112551207.829    21417793.611    87702229.636                  
                 131907140.426                   131907140.426    25331385.932  
                 119631733.840                   119631733.840    22974015.863  
                 116560830.216                   116560830.216    22384277.940  
                 130835533.124                   130835533.124    25125593.773  
  24239844.423   127381217.592                                                  
  24081037.735   126546692.212                                                  
  26028986.673   136783205.895                                                  
  27595977.138   145017767.657                                                  
  24581973.332   129179097.317                                                  
  27436230.825   144178299.829                                                  
  27729805.023   145721057.109                                                  
 21  8 31 21 55 40.0000000  0 17G10G12G18G23G24G32C19C21C22C34E 3E 5
                                E 9E13E15E25E31
  20424729.754   107332632.547    20424732.756    83635805.567                  
  24375020.938   128091565.035    24375023.386    99811600.512                  
  23473105.519   123351969.634    23473108.521    96118411.691                  
  20789437.317   109249226.710    20789438.568    85129268.430                  
  21743177.298   114261117.620    21743180.800    89034624.446                  
  21417488.837   112549622.910    21417492.018    87700994.632                  
                 131909545.380                   131909545.380    25331847.792  
                 119630140.340                   119630140.340    22973709.856  
                 116561646.410                   116561646.410    22384434.705  
                 130836782.980                   130836782.980    25125833.807  
  24239655.012   127380222.263                                                  
  24081245.712   126547785.136                                                  
  26029400.288   136785379.446                                                  
  27595550.587   145015526.046                                                  
  24581999.582   129179235.289                                                  
  27435682.567   144175418.747                                                  
  27729961.842   145721881.178                                                  
 21  8 31 21 55 41.0000000  0 17G10G12G18G23G24G32C19C21C22C34E 3E 5
                                E 9E13E15E25E31
  20424567.146   107331778.042    20424570.148    83635139.719                  
  24374519.872   128088931.946    24374522.320    99809548.758                  
  23473818.171   123355714.659    23473821.173    96121329.895                  
  20789711.588   109250667.940    20789712.821    85130391.470                  
  21743653.543   114263620.311    21743657.063    89036574.597                  
  21417187.280   112548038.267    21417190.460    87699759.848                  
                 131911950.427                   131911950.427    25332309.653  
                 119628546.998                   119628546.998    22973403.867  
                 116562462.839                   116562462.839    22384591.488  
                 130838033.284                   130838033.284    25126073.913  
  24239465.636   127379227.074                                                  
  24081453.725   126548878.180                                                  
  26029813.902   136787552.981                                                  
  27595124.089   145013284.735                                                  
  24582025.939   129179373.775                                                  
  27435134.292   144172537.673                                                  
  27730118.732   145722705.714                                                  
 21  8 31 21 55 42.0000000  0 17G10G12G18G23G24G32C19C21C22C34E 3E 5
                                E 9E13E15E25E31
  20424404.627   107330923.944    20424407.611    83634474.188                  
  24374018.878   128086299.094    24374021.327    99807497.183                  
  23474530.859   123359459.831    23474533.861    96124248.206                  
  20789985.914   109252109.614    20789987.165    85131514.847                  
  21744129.877   114266123.487    21744133.398    89038525.121                  
  21416885.793   112546453.899    21416888.974    87698525.273                  
                 131914355.570                   131914355.570    25332771.531  
                 119626953.800                   119626953.800    22973097.896  
                 116563279.507                   116563279.507    22384748.324  
                 130839284.038                   130839284.038    25126314.109  
  24239276.296   127378232.049                                                  
  24081661.739   126549971.347                                                  
  26030227.498   136789726.509                                                  
  27594697.627   145011043.759                                                  
  24582052.403   129179512.765                                                  
  27434586.052   144169656.614                                                  
  27730275.747   145723530.696                                                  
 21  8 31 21 55 43.0000000  0 17G10G12G18G23G24G32C19C21C22C34E 3E 5
                                E 9E13E15E25E31
  20424242.162   107330070.257    20424245.164    83633808.978                  
  24373517.903   128083666.472    24373520.333    99805445.794                  
  23475243.583   123363205.132    23475246.567    96127166.620                  
  20790260.346   109253551.711    20790261.579    85132638.559                  
  21744606.319   114268627.150    21744609.822    89040476.023                  
  21416584.361   112544869.819    21416587.542    87697290.925                  
                 131916760.812                   131916760.812    25333233.446  
                 119625360.754                   119625360.754    22972791.978  
                 116564096.405                   116564096.405    22384905.179  
                 130840535.241                   130840535.241    25126554.376  
  24239086.973   127377237.163                                                  
  24081869.788   126551064.634                                                  
  26030641.113   136791900.020                                                  
  27594271.236   145008803.076                                                  
  24582078.938   129179652.263                                                  
  27434037.813   144166775.570                                                  
  27730432.816   145724356.130                                                  
 21  8 31 21 55 44.0000000  0 17G10G12G18G23G24G32C19C21C22C34E 3E 5
                                E 9E13E15E25E31
  20424079.786   107329216.961    20424082.788    83633144.071                  
  24373016.980   128081034.098    24373019.428    99803394.594                  
  23475956.307   123366950.577    23475959.291    96130085.149                  
  20790534.868   109254994.239    20790536.083    85133762.607                  
  21745082.832   114271131.296    21745086.335    89042427.308                  
  21416282.964   112543286.012    21416286.145    87696056.793                  
                 131919166.150                   131919166.150    25333695.360  
                 119623767.863                   119623767.863    22972486.078  
                 116564913.544                   116564913.544    22385062.104  
                 130841786.894                   130841786.894    25126794.768  
  24238897.687   127376242.429                                                  
  24082077.837   126552158.036                                                  
  26031054.727   136794073.525                                                  
  27593844.917   145006562.724                                                  
  24582105.581   129179792.259                                                  
  27433489.573   144163894.543                                                  
  27730589.974   145725182.028                                                  
 21  8 31 21 55 45.0000000  0 17G10G12G18G23G24G32C19C21C22C34E 3E 5
                                E 9E13E15E25E31
  20423917.482   107328364.075    20423920.484    83632479.485                  
  24372516.094   128078401.957    24372518.542    99801343.574                  
  23476669.067   123370696.163    23476672.069    96133003.785                  
  20790809.443   109256437.195    20790810.658    85134886.988                  
  21745559.453   114273635.942    21745562.955    89044378.980                  
  21415981.621   112541702.484    21415984.802    87694822.874                  
                 131921571.586                   131921571.586    25334157.292  
                 119622175.122                   119622175.122    22972180.214  
                 116565730.913                   116565730.913    22385219.084  
                 130843038.995                   130843038.995    25127035.195  
  24238708.418   127375247.862                                                  
  24082285.940   126553251.558                                                  
  26031468.323   136796247.012                                                  
  27593418.633   145004322.686                                                  
  24582132.313   129179932.758                                                  
  27432941.334   144161013.525                                                  
  27730747.221   145726008.383                                                  
 21  8 31 21 55 46.0000000  0 17G10G12G18G23G24G32C19C21C22C34E 3E 5
                                E 9E13E15E25E31
  20423755.267   107327511.597    20423758.269    83631815.214                  
  24372015.261   128075770.047    24372017.709    99799292.738                  
  23477381.862   123374441.884    23477384.864    96135922.523                  
  20791084.108   109257880.583    20791085.341    85136011.703                  
  21746036.163   114276141.066    21746039.683    89046331.022                  
  21415680.331   112540119.238    21415683.512    87693589.181                  
                 131923977.116                   131923977.116    25334619.260  
                 119620582.533                   119620582.533    22971874.386  
                 116566548.514                   116566548.514    22385376.099  
                 130844291.547                   130844291.547    25127275.748  
  24238519.185   127374253.436                                                  
  24082494.060   126554345.204                                                  
  26031881.920   136798420.487                                                  
  27592992.439   145002082.966                                                  
  24582159.134   129180073.767                                                  
  27432393.094   144158132.530                                                  
  27730904.558   145726835.191                                                  
 21  8 31 21 55 47.0000000  0 17G10G12G18G23G24G32C19C21C22C34E 3E 5
                                E 9E13E15E25E31
  20423593.123   107326659.519    20423596.125    83631151.257                  
  24371514.463   128073138.363    24371516.894    99797242.077                  
  23478094.675   123378187.734    23478097.659    96138841.367                  
  20791358.862   109259324.387    20791360.077    85137136.750                  
  21746512.962   114278646.689    21746516.482    89048283.458                  
  21415379.113   112538536.270    21415382.294    87692355.695                  
                 131926382.747                   131926382.747    25335081.245  
                 119618990.094                   119618990.094    22971568.557  
                 116567366.354                   116567366.354    22385533.132  
                 130845544.543                   130845544.543    25127516.372  
  24238329.988   127373259.160                                                  
  24082702.181   126555438.964                                                  
  26032295.516   136800593.954                                                  
  27592566.299   144999843.562                                                  
  24582186.081   129180215.280                                                  
  27431844.855   144155251.553                                                  
  27731061.984   145727662.438                                                  
 21  8 31 21 55 48.0000000  0 17G10G12G18G23G24G32C19C21C22C34E 3E 5
                                E 9E13E15E25E31
  20423431.051   107325807.848    20423434.053    83630487.617                  
  24371013.720   128070506.923    24371016.168    99795191.604                  
  23478807.524   123381933.721    23478810.508    96141760.321                  
  20791633.688   109260768.638    20791634.921    85138262.136                  
  21746989.868   114281152.766    21746993.388    89050236.241                  
  21415077.949   112536953.581    21415081.111    87691122.433                  
                 131928788.472                   131928788.472    25335543.231  
                 119617397.807                   119617397.807    22971262.783  
                 116568184.432                   116568184.432    22385690.254  
                 130846797.991                   130846797.991    25127757.086  
  24238140.809   127372265.036                                                  
  24082910.337   126556532.841                                                  
  26032709.113   136802767.406                                                  
  27592140.212   144997604.466                                                  
  24582213.099   129180357.305                                                  
  27431296.633   144152370.606                                                  
  27731219.499   145728490.155                                                  
 21  8 31 21 55 49.0000000  0 17G10G12G18G23G24G32C19C21C22C34E 3E 5
                                E 9E13E15E25E31
  20423269.069   107324956.582    20423272.053    83629824.293                  
  24370513.012   128067875.718    24370515.442    99793141.317                  
  23479520.373   123385679.844    23479523.375    96144679.371                  
  20791908.603   109262213.308    20791909.818    85139387.855                  
  21747466.846   114283659.352    21747470.366    89052189.427                  
  21414776.820   112535371.177    21414780.001    87689889.391                  
                 131931194.298                   131931194.298    25336005.253  
                 119615805.671                   119615805.671    22970957.026  
                 116569002.743                   116569002.743    22385847.394  
                 130848051.892                   130848051.892    25127997.889  
  24237951.665   127371271.071                                                  
  24083118.529   126557626.847                                                  
  26033122.691   136804940.846                                                  
  27591714.179   144995365.687                                                  
  24582240.224   129180499.819                                                  
  27430748.394   144149489.661                                                  
  27731377.104   145729318.335                                                  
 21  8 31 21 55 50.0000000  0 17G10G12G18G23G24G32C19C21C22C34E 3E 5
                                E 9E13E15E25E31
  20423107.157   107324105.727    20423110.159    83629161.294                  
  24370012.358   128065244.750    24370014.806    99791091.214                  
  23480233.258   123389426.113    23480236.260    96147598.542                  
  20792183.607   109263658.421    20792184.822    85140513.915                  
  21747943.913   114286166.430    21747947.433    89054142.992                  
  21414475.763   112533789.046    21414478.943    87688656.563                  
                 131933600.214                   131933600.214    25336467.274  
                 119614213.687                   119614213.687    22970651.305  
                 116569821.290                   116569821.290    22386004.606  
                 130849306.235                   130849306.235    25128238.763  
  24237762.539   127370277.253                                                  
  24083326.739   126558720.974                                                  
  26033536.305   136807114.269                                                  
  27591288.217   144993127.231                                                  
  24582267.438   129180642.850                                                  
  27430200.172   144146608.734                                                  
  27731534.781   145730146.965                                                  
 21  8 31 21 55 51.0000000  0 17G10G12G18G23G24G32C19C21C22C34E 3E 5
                                E 9E13E15E25E31
  20422945.318   107323255.274    20422948.320    83628498.598                  
  24369511.739   128062614.020    24369514.187    99789041.297                  
  23480946.178   123393172.515    23480949.180    96150517.814                  
  20792458.665   109265103.951    20792459.898    85141640.302                  
  21748421.105   114288673.984    21748424.626    89056096.930                  
  21414174.741   112532207.199    21414177.922    87687423.953                  
                 131936006.250                   131936006.250    25336929.331  
                 119612621.845                   119612621.845    22970345.601  
                 116570640.054                   116570640.054    22386161.818  
                 130850561.051                   130850561.051    25128479.745  
  24237573.467   127369283.587                                                  
  24083534.966   126559815.206                                                  
  26033949.884   136809287.680                                                  
  27590862.327   144990889.098                                                  
  24582294.760   129180786.386                                                  
  27429651.968   144143727.828                                                  
  27731692.546   145730976.046                                                  
 21  8 31 21 55 52.0000000  0 17G10G12G18G23G24G32C19C21C22C34E 3E 5
                                E 9E13E15E25E31
  20422783.567   107322405.223    20422786.551    83627836.223                  
  24369011.174   128059983.527    24369013.622    99786991.563                  
  23481659.117   123396919.054    23481662.136    96153437.190                  
  20792733.812   109266549.918    20792735.063    85142767.027                  
  21748898.351   114291182.016    21748901.872    89058051.243                  
  21413873.773   112530625.634    21413876.954    87686191.563                  
                 131938412.364                   131938412.364    25337391.424  
                 119611030.160                   119611030.160    22970039.934  
                 116571459.072                   116571459.072    22386319.119  
                 130851816.293                   130851816.293    25128720.798  
  24237384.395   127368290.082                                                  
  24083743.194   126560909.562                                                  
  26034363.480   136811461.091                                                  
  27590436.472   144988651.265                                                  
  24582322.153   129180930.426                                                  
  27429103.747   144140846.945                                                  
  27731850.401   145731805.594                                                  
 21  8 31 21 55 53.0000000  0 17G10G12G18G23G24G32C19C21C22C34E 3E 5
                                E 9E13E15E25E31
  20422621.888   107321555.583    20422624.872    83627174.164                  
  24368510.663   128057353.273    24368513.075    99784942.016                  
  23482372.108   123400665.723    23482375.093    96156356.672                  
  20793009.066   109267996.304    20793010.299    85143894.086                  
  21749375.722   114293690.535    21749379.242    89060005.931                  
  21413572.859   112529044.339    21413576.039    87684959.387                  
                 131940818.574                   131940818.574    25337853.499  
                 119609438.632                   119609438.632    22969734.302  
                 116572278.319                   116572278.319    22386476.438  
                 130853071.985                   130853071.985    25128961.941  
  24237195.359   127367296.716                                                  
  24083951.475   126562004.038                                                  
  26034777.059   136813634.476                                                  
  27590010.671   144986413.765                                                  
  24582349.654   129181074.965                                                  
  27428555.543   144137966.062                                                  
  27732008.345   145732635.571                                                  
 21  8 31 21 55 54.0000000  0 17G10G12G18G23G24G32C19C21C22C34E 3E 5
                                E 9E13E15E25E31
  20422460.263   107320706.336    20422463.265    83626512.417                  
  24368010.187   128054723.247    24368012.600    99782892.645                  
  23483085.100   123404412.526    23483088.102    96159276.257                  
  20793284.375   109269443.128    20793285.625    85145021.477                  
  21749853.183   114296199.550    21749856.685    89061961.007                  
  21413271.998   112527463.323    21413275.179    87683727.426                  
                 131943224.883                   131943224.883    25338315.628  
                 119607847.255                   119607847.255    22969428.706  
                 116573097.805                   116573097.805    22386633.828  
                 130854328.125                   130854328.125    25129203.172  
  24237006.358   127366303.505                                                  
  24084159.775   126563098.625                                                  
  26035190.637   136815807.848                                                  
  27589584.960   144984176.571                                                  
  24582377.279   129181220.015                                                  
  27428007.321   144135085.202                                                  
  27732166.379   145733466.029                                                  
 21  8 31 21 55 55.0000000  0 17G10G12G18G23G24G32C19C21C22C34E 3E 5
                                E 9E13E15E25E31
  20422298.745   107319857.502    20422301.747    83625850.989                  
  24367509.747   128052093.473    24367512.178    99780843.473                  
  23483798.128   123408159.477    23483801.112    96162195.956                  
  20793559.808   109270890.378    20793561.023    85146149.206                  
  21750330.714   114298709.046    21750334.217    89063916.457                  
  21412971.209   112525882.594    21412974.372    87682495.692                  
                 131945631.285                   131945631.285    25338777.739  
                 119606256.026                   119606256.026    22969123.128  
                 116573917.523                   116573917.523    22386791.236  
                 130855584.715                   130855584.715    25129444.476  
  24236817.375   127365310.440                                                  
  24084368.092   126564193.345                                                  
  26035604.216   136817981.209                                                  
  27589159.302   144981939.700                                                  
  24582404.958   129181365.570                                                  
  27427459.118   144132204.375                                                  
  27732324.484   145734296.932                                                  
 21  8 31 21 55 56.0000000  0 17G10G12G18G23G24G32C19C21C22C34E 3E 5
                                E 9E13E15E25E31
  20422137.280   107319009.071    20422140.282    83625189.871                  
  24367009.361   128049463.929    24367011.791    99778794.480                  
  23484511.156   123411906.556    23484514.158    96165115.758                  
  20793835.276   109272338.058    20793836.492    85147277.269                  
  21750808.335   114301219.038    21750811.856    89065872.293                  
  21412670.455   112524302.141    21412673.618    87681264.172                  
                 131948037.789                   131948037.789    25339239.885  
                 119604664.955                   119604664.955    22968817.568  
                 116574737.480                   116574737.480    22386948.698  
                 130856841.751                   130856841.751    25129685.886  
  24236628.446   127364317.546                                                  
  24084576.444   126565288.184                                                  
  26036017.794   136820154.571                                                  
  27588733.697   144979703.148                                                  
  24582432.763   129181511.632                                                  
  27426910.914   144129323.551                                                  
  27732482.696   145735128.294                                                  
 21  8 31 21 55 57.0000000  0 17G10G12G18G23G24G32C19C21C22C34E 3E 5
                                E 9E13E15E25E31
  20421975.923   107318161.051    20421978.925    83624529.079                  
  24366509.028   128046834.628    24366511.459    99776745.676                  
  23485224.237   123415653.764    23485227.239    96168035.661                  
  20794110.835   109273786.171    20794112.086    85148405.663                  
  21751286.082   114303729.491    21751289.584    89067828.492                  
  21412369.755   112522721.970    21412372.936    87680032.868                  
                 131950444.386                   131950444.386    25339702.032  
                 119603074.028                   119603074.028    22968512.043  
                 116575557.669                   116575557.669    22387106.196  
                 130858099.237                   130858099.237    25129927.386  
  24236439.535   127363324.790                                                  
  24084784.797   126566383.130                                                  
  26036431.355   136822327.911                                                  
  27588308.164   144977466.902                                                  
  24582460.656   129181658.187                                                  
  27426362.728   144126442.741                                                  
  27732640.980   145735960.116                                                  
 21  8 31 21 55 58.0000000  0 17G10G12G18G23G24G32C19C21C22C34E 3E 5
                                E 9E13E15E25E31
  20421814.619   107317313.433    20421817.621    83623868.595                  
  24366008.714   128044205.562    24366011.162    99774697.055                  
  23485937.336   123419401.120    23485940.338    96170955.676                  
  20794386.500   109275234.708    20794387.715    85149534.399                  
  21751763.899   114306240.437    21751767.402    89069785.071                  
  21412069.091   112521142.066    21412072.272    87678801.778                  
                 131952851.082                   131952851.082    25340164.214  
                 119601483.259                   119601483.259    22968206.554  
                 116576378.094                   116576378.094    22387263.765  
                 130859357.171                   130859357.171    25130168.939  
  24236250.641   127362332.187                                                  
  24084993.186   126567478.204                                                  
  26036844.934   136824501.237                                                  
  27587882.685   144975230.984                                                  
  24582488.639   129181805.253                                                  
  27425814.524   144123561.972                                                  
  27732799.353   145736792.378                                                  
 21  8 31 21 55 59.0000000  0 17G10G12G18G23G24G32C19C21C22C34E 3E 5
                                E 9E13E15E25E31
  20421653.405   107316466.210    20421656.407    83623208.421                  
  24365508.453   128041576.727    24365510.901    99772648.608                  
  23486650.453   123423148.613    23486653.455    96173875.796                  
  20794662.219   109276683.680    20794663.434    85150663.465                  
  21752241.806   114308751.882    21752245.327    89071742.043                  
  21411768.516   112519562.452    21411771.697    87677570.911                  
                 131955257.876                   131955257.876    25340626.414  
                 119599892.635                   119599892.635    22967901.101  
                 116577198.757                   116577198.757    22387421.352  
                 130860615.550                   130860615.550    25130410.600  
  24236061.784   127361339.739                                                  
  24085201.574   126568573.390                                                  
  26037258.494   136826674.554                                                  
  27587457.259   144972995.375                                                  
  24582516.711   129181952.823                                                  
  27425266.321   144120681.195                                                  
  27732957.816   145737625.090                                                  
 21  8 31 21 56  0.0000000  0 17G10G12G18G23G24G32C19C21C22C34E 3E 5
                                E 9E13E15E25E31
  20421492.280   107315619.355    20421495.282    83622548.500                  
  24365008.263   128038948.324    24365010.657    99770600.575                  
  23487363.623   123426896.288    23487366.625    96176796.067                  
  20794938.045   109278133.066    20794939.278    85151792.841                  
  21752719.785   114311263.922    21752723.305    89073699.523                  
  21411467.977   112517983.138    21411471.158    87676340.274                  
                 131957664.767                   131957664.767    25341088.668  
                 119598302.218                   119598302.218    22967595.666  
                 116578019.676                   116578019.676    22387578.992  
                 130861874.458                   130861874.458    25130652.368  
  24235872.944   127360347.540                                                  
  24085410.017   126569668.717                                                  
  26037672.180   136828847.410                                                  
  27587031.923   144970760.021                                                  
  24582544.909   129182100.907                                                  
  27424717.920   144117801.641                                                  
  27733116.386   145738458.344                                                  
 21  8 31 21 56  1.0000000  0 17G10G12G18G23G24G32C19C21C22C34E 3E 5
                                E 9E13E15E25E31
  20421331.209   107314772.954    20421334.229    83621888.965                  
  24364508.073   128036319.974    24364510.503    99768552.508                  
  23488076.776   123430644.054    23488079.778    96179716.402                  
  20795213.943   109279582.898    20795215.158    85152922.582                  
  21753197.888   114313776.335    21753201.373    89075657.245                  
  21411167.492   112516404.085    21411170.672    87675109.843                  
                 131960071.759                   131960071.759    25341550.904  
                 119596711.905                   119596711.905    22967290.267  
                 116578840.813                   116578840.813    22387736.704  
                 130863133.738                   130863133.738    25130894.172  
  24235684.140   127359355.406                                                  
  24085618.477   126570764.153                                                  
  26038085.741   136831020.704                                                  
  27586606.622   144968525.048                                                  
  24582573.177   129182249.493                                                  
  27424169.734   144114920.926                                                  
  27733275.027   145739291.989                                                  
 21  8 31 21 56  2.0000000  0 17G10G12G18G23G24G32C19C21C22C34E 3E 5
                                E 9E13E15E25E31
  20421170.227   107313926.962    20421173.229    83621229.749                  
  24364007.973   128033691.864    24364010.385    99766504.633                  
  23488789.982   123434391.949    23488793.002    96182636.839                  
  20795489.894   109281033.161    20795491.145    85154052.653                  
  21753676.081   114316289.230    21753679.584    89077615.345                  
  21410867.060   112514825.317    21410870.240    87673879.634                  
                 131962478.844                   131962478.844    25342013.158  
                 119595121.750                   119595121.750    22966984.885  
                 116579662.183                   116579662.183    22387894.416  
                 130864393.472                   130864393.472    25131136.100  
  24235495.371   127358363.407                                                  
  24085826.937   126571859.706                                                  
  26038499.301   136833193.989                                                  
  27586181.375   144966290.407                                                  
  24582601.535   129182398.586                                                  
  27423621.566   144112040.216                                                  
  27733433.739   145740126.079                                                  
 21  8 31 21 56  3.0000000  0 17G10G12G18G23G24G32C19C21C22C34E 3E 5
                                E 9E13E15E25E31
  20421009.298   107313081.374    20421012.318    83620570.852                  
  24363507.908   128031064.007    24363510.320    99764456.954                  
  23489503.224   123438139.979    23489506.226    96185557.382                  
  20795765.953   109282483.855    20795767.204    85155183.066                  
  21754154.346   114318802.605    21754157.866    89079573.821                  
  21410566.682   112513246.821    21410569.862    87672649.637                  
                 131964886.031                   131964886.031    25342475.447  
                 119593531.740                   119593531.740    22966679.521  
                 116580483.789                   116580483.789    22388052.200  
                 130865653.648                   130865653.648    25131378.100  
  24235306.639   127357371.575                                                  
  24086035.432   126572955.376                                                  
  26038912.862   136835367.262                                                  
  27585756.200   144964056.079                                                  
  24582630.019   129182548.179                                                  
  27423073.380   144109159.532                                                  
  27733592.541   145740960.633                                                  
 21  8 31 21 56  4.0000000  0 17G10G12G18G23G24G32C19C21C22C34E 3E 5
                                E 9E13E15E25E31
  20420848.459   107312236.191    20420851.479    83619912.271                  
  24363007.879   128028436.382    24363010.292    99762409.454                  
  23490216.467   123441888.153    23490219.486    96188478.030                  
  20796042.101   109283934.984    20796043.334    85156313.816                  
  21754632.717   114321316.474    21754636.220    89081532.675                  
  21410266.357   112511668.613    21410269.538    87671419.867                  
                 131967293.311                   131967293.311    25342937.719  
                 119591941.884                   119591941.884    22966374.211  
                 116581305.630                   116581305.630    22388210.019  
                 130866914.278                   130866914.278    25131620.172  
  24235117.924   127356379.884                                                  
  24086243.964   126574051.169                                                  
  26039326.423   136837540.520                                                  
  27585331.078   144961822.063                                                  
  24582658.573   129182698.285                                                  
  27422525.195   144106278.855                                                  
  27733751.433   145741795.639                                                  
 21  8 31 21 56  5.0000000  0 17G10G12G18G23G24G32C19C21C22C34E 3E 5
                                E 9E13E15E25E31
  20420687.727   107311391.422    20420690.712    83619254.004                  
  24362507.904   128025808.988    24362510.316    99760362.136                  
  23490929.744   123445636.465    23490932.764    96191398.793                  
  20796318.320   109285386.532    20796319.553    85157444.890                  
  21755111.178   114323830.824    21755114.681    89083491.909                  
  21409966.086   112510090.672    21409969.266    87670190.300                  
                 131969700.690                   131969700.690    25343400.044  
                 119590352.179                   119590352.179    22966068.919  
                 116582127.706                   116582127.706    22388367.892  
                 130868175.352                   130868175.352    25131862.369  
  24234929.245   127355388.348                                                  
  24086452.495   126575147.071                                                  
  26039739.983   136839713.755                                                  
  27584906.027   144959588.370                                                  
  24582687.235   129182848.889                                                  
  27421977.027   144103398.204                                                  
  27733910.414   145742631.097                                                  
 21  8 31 21 56  6.0000000  0 17G10G12G18G23G24G32C19C21C22C34E 3E 5
                                E 9E13E15E25E31
  20420527.031   107310547.055    20420530.033    83618596.058                  
  24362007.965   128023181.847    24362010.377    99758315.015                  
  23491643.040   123449384.894    23491646.060    96194319.649                  
  20796594.629   109286838.512    20796595.862    85158576.305                  
  21755589.747   114326345.658    21755593.249    89085451.520                  
  21409665.868   112508513.025    21409669.031    87668960.965                  
                 131972108.168                   131972108.168    25343862.351  
                 119588762.625                   119588762.625    22965763.662  
                 116582950.018                   116582950.018    22388525.818  
                 130869436.874                   130869436.874    25132104.619  
  24234740.584   127354396.954                                                  
  24086661.080   126576243.097                                                  
  26040153.526   136841886.984                                                  
  27584481.013   144957354.985                                                  
  24582715.987   129183000.010                                                  
  27421428.859   144100517.570                                                  
  27734069.484   145743467.019                                                  
 21  8 31 21 56  7.0000000  0 17G10G12G18G23G24G32C19C21C22C34E 3E 5
                                E 9E13E15E25E31
  20420366.442   107309703.099    20420369.444    83617938.430                  
  24361508.079   128020554.940    24361510.509    99756268.078                  
  23492356.371   123453133.470    23492359.373    96197240.610                  
  20796870.991   109288290.926    20796872.242    85159708.054                  
  21756068.386   114328860.982    21756071.906    89087411.511                  
  21409365.704   112506935.656    21409368.885    87667731.848                  
                 131974515.739                   131974515.739    25344324.712  
                 119587173.225                   119587173.225    22965458.442  
                 116583772.566                   116583772.566    22388683.780  
                 130870698.844                   130870698.844    25132346.977  
  24234551.940   127353405.712                                                  
  24086869.666   126577339.231                                                  
  26040567.087   136844060.198                                                  
  27584056.087   144955121.934                                                  
  24582744.845   129183151.645                                                  
  27420880.673   144097636.954                                                  
  27734228.643   145744303.401                                                  
 21  8 31 21 56  8.0000000  0 17G10G12G18G23G24G32C19C21C22C34E 3E 5
                                E 9E13E15E25E31
  20420205.907   107308859.527    20420208.927    83617281.102                  
  24361008.246   128017928.266    24361010.659    99754221.320                  
  23493069.739   123456882.198    23493072.741    96200161.700                  
  20797147.461   109289743.766    20797148.694    85160840.137                  
  21756547.115   114331376.790    21756550.635    89089371.883                  
  21409065.576   112505358.531    21409068.757    87666502.922                  
                 131976923.409                   131976923.409    25344787.073  
                 119585583.977                   119585583.977    22965153.239  
                 116584595.349                   116584595.349    22388841.778  
                 130871961.262                   130871961.262    25132589.406  
  24234363.369   127352414.646                                                  
  24087078.286   126578435.505                                                  
  26040980.612   136846233.419                                                  
  27583631.198   144952889.171                                                  
  24582773.775   129183303.714                                                  
  27420332.522   144094756.356                                                  
  27734387.874   145745140.201                                                  
 21  8 31 21 56  9.0000000  0 17G10G12G18G23G24G32C19C21C22C34E 3E 5
                                E 9E13E15E25E31
  20420045.461   107308016.384    20420048.463    83616624.104                  
  24360508.432   128015301.843    24360510.862    99752174.758                  
  23493783.124   123460631.038    23493786.126    96203082.867                  
  20797424.020   109291197.040    20797425.235    85161972.558                  
  21757025.951   114333893.083    21757029.454    89091332.628                  
  21408765.520   112503781.722    21408768.700    87665274.238                  
                 131979331.175                   131979331.175    25345249.452  
                 119583994.880                   119583994.880    22964848.054  
                 116585418.367                   116585418.367    22388999.812  
                 130873224.125                   130873224.125    25132831.924  
  24234174.779   127351423.706                                                  
  24087286.907   126579531.880                                                  
  26041394.155   136848406.601                                                  
  27583206.380   144950656.742                                                  
  24582802.812   129183456.341                                                  
  27419784.354   144091875.763                                                  
  27734547.212   145745977.484                                                  
 21  8 31 21 56 10.0000000  0 19G10G12G18G21G23G24G32C19C21C22C34E 3
                                E 5E 9E13E15E24E25E31
  20419885.087   107307173.640    20419888.106    83615967.423                  
  24360008.707   128012675.653    24360011.101    99750128.380                  
  23494496.526   123464380.016    23494499.528    96206004.144                  
  25238901.480   132631292.461    25238902.534   103349052.164                  
  20797700.632   109292650.739    20797701.883    85163105.309                  
  21757504.877   114336409.856    21757508.397    89093293.750                  
  21408465.517   112502205.184    21408468.697    87664045.767                  
                 131981739.039                   131981739.039    25345711.885  
                 119582405.934                   119582405.934    22964542.922  
                 116586241.619                   116586241.619    22389157.917  
                 130874487.438                   130874487.438    25133074.514  
  24233986.243   127350432.931                                                  
  24087495.564   126580628.375                                                  
  26041807.715   136850579.786                                                  
  27582781.615   144948424.625                                                  
  24582831.957   129183609.460                                                  
  26505964.396   139289803.003                                                  
  27419236.204   144088995.200                                                  
  27734706.621   145746815.207                                                  
 21  8 31 21 56 11.0000000  0 19G10G12G18G21G23G24G32C19C21C22C34E 3
                                E 5E 9E13E15E24E25E31
  20419724.784   107306331.292    20419727.803    83615311.050                  
  24359508.982   128010049.700    24359511.394    99748082.183                  
  23495209.965   123468129.129    23495212.967    96208925.535                  
  25238424.234   132628784.567    25238425.306   103347097.961                  
  20797977.352   109294104.873    20797978.585    85164238.398                  
  21757983.892   114338927.120    21757987.394    89095255.255                  
  21408165.567   112500628.919    21408168.748    87662817.508                  
                 131984147.000                   131984147.000    25346174.299  
                 119580817.142                   119580817.142    22964237.809  
                 116587065.105                   116587065.105    22389316.058  
                 130875751.199                   130875751.199    25133317.211  
  24233797.743   127349442.290                                                  
  24087704.238   126581724.990                                                  
  26042221.258   136852752.953                                                  
  27582356.922   144946192.833                                                  
  24582861.208   129183763.093                                                  
  26505699.953   139288413.351                                                  
  27418688.054   144086114.646                                                  
  27734866.120   145747653.403                                                  
 21  8 31 21 56 12.0000000  0 19G10G12G18G21G23G24G32C19C21C22C34E 3
                                E 5E 9E13E15E24E25E31
  20419564.588   107305489.360    20419567.572    83614654.995                  
  24359009.328   128007423.988    24359011.740    99746036.176                  
  23495923.404   123471878.368    23495926.423    96211847.016                  
  25237947.059   132626276.960    25237948.096   103345143.984                  
  20798254.143   109295559.429    20798255.376    85165371.820                  
  21758463.014   114341444.859    21758466.516    89097217.129                  
  21407865.654   112499052.938    21407868.834    87661589.469                  
                 131986555.054                   131986555.054    25346636.732  
                 119579228.501                   119579228.501    22963932.713  
                 116587888.828                   116587888.828    22389474.234  
                 130877015.405                   130877015.405    25133559.997  
  24233609.242   127348451.817                                                  
  24087912.948   126582821.716                                                  
  26042634.801   136854926.106                                                  
  27581932.283   144943961.343                                                  
  24582890.513   129183917.228                                                  
  26505435.598   139287024.098                                                  
  27418139.904   144083234.112                                                  
  27735025.726   145748492.036                                                  
 21  8 31 21 56 13.0000000  0 19G10G12G18G21G23G24G32C19C21C22C34E 3
                                E 5E 9E13E15E24E25E31
  20419404.446   107304647.840    20419407.448    83613999.265                  
  24358509.728   128004798.516    24358512.122    99743990.356                  
  23496636.896   123475627.751    23496639.898    96214768.610                  
  25237469.939   132623769.656    25237470.975   103343190.238                  
  20798531.023   109297014.413    20798532.256    85166505.579                  
  21758942.225   114343963.080    21758945.728    89099179.374                  
  21407565.794   112497477.233    21407568.974    87660361.651                  
                 131988963.212                   131988963.212    25347099.200  
                 119577640.012                   119577640.012    22963627.653  
                 116588712.788                   116588712.788    22389632.482  
                 130878280.059                   130878280.059    25133802.855  
  24233420.796   127347461.485                                                  
  24088121.659   126583918.566                                                  
  26043048.326   136857099.241                                                  
  27581507.715   144941730.183                                                  
  24582919.961   129184071.868                                                  
  26505171.298   139285635.238                                                  
  27417591.754   144080353.605                                                  
  27735185.404   145749331.133                                                  
 21  8 31 21 56 14.0000000  0 19G10G12G18G21G23G24G32C19C21C22C34E 3
                                E 5E 9E13E15E24E25E31
  20419244.375   107303806.706    20419247.377    83613343.841                  
  24358010.146   128002173.288    24358012.558    99741944.722                  
  23497350.406   123479377.266    23497353.426    96217690.308                  
  25236992.853   132621262.634    25236993.908   103341236.719                  
  20798807.975   109298469.832    20798809.208    85167639.667                  
  21759421.508   114346481.793    21759425.029    89101142.013                  
  21407266.023   112495901.813    21407269.203    87659134.051                  
                 131991371.460                   131991371.460    25347561.686  
                 119576051.671                   119576051.671    22963322.647  
                 116589536.982                   116589536.982    22389790.766  
                 130879545.164                   130879545.164    25134045.803  
  24233232.385   127346471.308                                                  
  24088330.422   126585015.539                                                  
  26043461.869   136859272.367                                                  
  27581083.200   144939499.339                                                  
  24582949.481   129184227.012                                                  
  26504907.086   139284246.766                                                  
  27417043.622   144077473.109                                                  
  27735345.153   145750170.676                                                  
 21  8 31 21 56 15.0000000  0 19G10G12G18G21G23G24G32C19C21C22C34E 3
                                E 5E 9E13E15E24E25E31
  20419084.376   107302965.996    20419087.396    83612688.742                  
  24357510.617   127999548.304    24357513.048    99739899.286                  
  23498063.934   123483126.913    23498066.936    96220612.109                  
  25236515.840   132618755.899    25236516.876   103339283.419                  
  20799085.017   109299925.680    20799086.232    85168774.094                  
  21759900.881   114349000.970    21759904.401    89103105.003                  
  21406966.288   112494326.668    21406969.433    87657906.663                  
                 131993779.808                   131993779.808    25348024.172  
                 119574463.489                   119574463.489    22963017.640  
                 116590361.410                   116590361.410    22389949.086  
                 130880810.710                   130880810.710    25134288.839  
  24233043.974   127345481.284                                                  
  24088539.186   126586112.624                                                  
  26043875.376   136861445.485                                                  
  27580658.739   144937268.806                                                  
  24582979.108   129184382.655                                                  
  26504642.946   139282858.695                                                  
  27416495.471   144074592.640                                                  
  27735504.992   145751010.685                                                  
 21  8 31 21 56 16.0000000  0 19G10G12G18G21G23G24G32C19C21C22C34E 3
                                E 5E 9E13E15E24E25E31
  20418924.484   107302125.734    20418927.486    83612034.020                  
  24357011.160   127996923.560    24357013.555    99737854.031                  
  23498777.498   123486876.657    23498780.500    96223533.969                  
  25236038.880   132616249.431    25236039.916   103337330.316                  
  20799362.112   109301381.938    20799363.363    85169908.829                  
  21760380.360   114351520.693    21760383.880    89105068.449                  
  21406666.589   112492751.841    21406669.751    87656679.546                  
                 131996188.254                   131996188.254    25348486.676  
                 119572875.453                   119572875.453    22962712.688  
                 116591186.075                   116591186.075    22390107.441  
                 130882076.707                   130882076.707    25134531.965  
  24232855.598   127344491.409                                                  
  24088747.986   126587209.794                                                  
  26044288.918   136863618.731                                                  
  27580234.332   144935038.551                                                  
  24583008.824   129184538.823                                                  
  26504378.878   139281471.065                                                  
  27415947.339   144071712.050                                                  
  27735664.937   145751851.161                                                  
 21  8 31 21 56 17.0000000  0 19G10G12G18G21G23G24G32C19C21C22C34E 3
                                E 5E 9E13E15E24E25E31
  20418764.645   107301285.822    20418767.665    83611379.540                  
  24356511.721   127994299.060    24356514.133    99735808.968                  
  23499491.079   123490626.562    23499494.081    96226455.973                  
  25235561.956   132613743.274    25235563.028   103335377.473                  
  20799639.314   109302838.633    20799640.565    85171043.914                  
  21760859.947   114354040.844    21760863.431    89107032.203                  
  21406366.943   112491177.254    21406370.124    87655452.597                  
                 131998596.796                   131998596.796    25348949.216  
                 119571287.575                   119571287.575    22962407.735  
                 116592010.972                   116592010.972    22390265.868  
                 130883343.149                   130883343.149    25134775.163  
  24232667.277   127343501.696                                                  
  24088956.785   126588307.122                                                  
  26044702.443   136865791.817                                                  
  27579809.997   144932808.649                                                  
  24583038.612   129184695.482                                                  
  26504114.881   139280083.781                                                  
  27415399.225   144068831.613                                                  
  27735824.954   145752692.062                                                  
 21  8 31 21 56 18.0000000  0 19G10G12G18G21G23G24G32C19C21C22C34E 3
                                E 5E 9E13E15E24E25E31
  20418604.896   107300446.320    20418607.898    83610725.383                  
  24356012.336   127991674.794    24356014.748    99733764.086                  
  23500204.679   123494376.603    23500207.698    96229378.078                  
  25235085.121   132611237.410    25235086.157   103333424.852                  
  20799916.623   109304295.766    20799917.838    85172179.347                  
  21761339.605   114356561.479    21761343.107    89108996.337                  
  21406067.369   112489602.940    21406070.532    87654225.864                  
                 132001005.434                   132001005.434    25349411.773  
                 119569699.844                   119569699.844    22962102.836  
                 116592836.110                   116592836.110    22390424.294  
                 130884610.039                   130884610.039    25135018.467  
  24232478.955   127342512.121                                                  
  24089165.621   126589404.547                                                  
  26045115.968   136867964.890                                                  
  27579385.732   144930579.082                                                  
  24583068.525   129184852.627                                                  
  26503850.955   139278696.893                                                  
  27414851.075   144065951.203                                                  
  27735985.061   145753533.445                                                  
 21  8 31 21 56 19.0000000  0 19G10G12G18G21G23G24G32C19C21C22C34E 3
                                E 5E 9E13E15E24E25E31
  20418445.219   107299607.226    20418448.221    83610071.544                  
  24355513.004   127989050.769    24355515.398    99731719.394                  
  23500918.314   123498126.778    23500921.334    96232300.292                  
  25234608.322   132608731.829    25234609.358   103331472.448                  
  20800193.986   109305753.324    20800195.201    85173315.106                  
  21761819.335   114359082.599    21761822.855    89110960.843                  
  21405767.848   112488028.911    21405771.029    87652999.347                  
                 132003414.168                   132003414.168    25349874.348  
                 119568112.271                   119568112.271    22961797.954  
                 116593661.475                   116593661.475    22390582.828  
                 130885877.374                   130885877.374    25135261.843  
  24232290.687   127341522.707                                                  
  24089374.474   126590502.110                                                  
  26045529.493   136870137.958                                                  
  27578961.522   144928349.825                                                  
  24583098.544   129185010.301                                                  
  26503587.119   139277310.399                                                  
  27414302.960   144063070.810                                                  
  27736145.256   145754375.265                                                  
 21  8 31 21 56 20.0000000  0 19G10G12G18G21G23G24G32C19C21C22C34E 3
                                E 5E 9E13E15E24E25E31
  20418285.612   107298768.543    20418288.632    83609418.024                  
  24355013.707   127986426.973    24355016.120    99729674.882                  
  23501631.985   123501877.091    23501635.005    96235222.614                  
  25234131.576   132606226.540    25234132.613   103329520.278                  
  20800471.421   109307211.316    20800472.654    85174451.204                  
  21762299.207   114361604.191    21762302.692    89112925.718                  
  21405468.363   112486455.157    21405471.544    87651773.046                  
                 132005823.001                   132005823.001    25350336.942  
                 119566524.842                   119566524.842    22961493.109  
                 116594487.082                   116594487.082    22390741.362  
                 130887145.160                   130887145.160    25135505.309  
  24232102.419   127340533.434                                                  
  24089583.363   126591599.790                                                  
  26045943.018   136872311.011                                                  
  27578537.365   144926120.892                                                  
  24583128.618   129185168.465                                                  
  26503323.355   139275924.312                                                  
  27413754.846   144060190.434                                                  
  27736305.542   145755217.537                                                  
 21  8 31 21 56 21.0000000  0 19G10G12G18G21G23G24G32C19C21C22C34E 3
                                E 5E 9E13E15E24E25E31
  20418126.096   107297930.265    20418129.116    83608764.823                  
  24354514.465   127983803.442    24354516.859    99727630.571                  
  23502345.656   123505627.527    23502348.675    96238145.027                  
  25233654.884   132603721.540    25233655.939   103327568.332                  
  20800748.944   109308669.737    20800750.177    85175587.634                  
  21762779.116   114364126.282    21762782.636    89114890.984                  
  21405168.932   112484881.688    21405172.113    87650546.964                  
                 132008231.930                   132008231.930    25350799.535  
                 119564937.571                   119564937.571    22961188.281  
                 116595312.927                   116595312.927    22390899.968  
                 130888413.390                   130888413.390    25135748.846  
  24231914.205   127339544.325                                                  
  24089792.251   126592697.585                                                  
  26046356.525   136874484.046                                                  
  27578113.279   144923892.272                                                  
  24583158.817   129185327.140                                                  
  26503059.679   139274538.613                                                  
  27413206.714   144057310.071                                                  
  27736465.898   145756060.272                                                  
 21  8 31 21 56 22.0000000  0 19G10G12G18G21G23G24G32C19C21C22C34E 3
                                E 5E 9E13E15E24E25E31
  20417966.668   107297092.380    20417969.652    83608111.921                  
  24354015.258   127981180.133    24354017.652    99725586.437                  
  23503059.380   123509378.101    23503062.400    96241067.550                  
  25233178.264   132601216.827    25233179.300   103325616.610                  
  20801026.558   109310128.581    20801027.808    85176724.395                  
  21763259.167   114366648.854    21763262.651    89116856.624                  
  21404869.555   112483308.501    21404872.735    87649321.106                  
                 132010640.958                   132010640.958    25351262.182  
                 119563350.449                   119563350.449    22960883.471  
                 116596139.001                   116596139.001    22391058.573  
                 130889682.065                   130889682.065    25135992.472  
  24231726.026   127338555.352                                                  
  24090001.194   126593795.503                                                  
  26046770.032   136876657.076                                                  
  27577689.247   144921663.975                                                  
  24583189.123   129185486.313                                                  
  26502796.058   139273153.315                                                  
  27412658.617   144054429.733                                                  
  27736626.362   145756903.456                                                  
 21  8 31 21 56 23.0000000  0 19G10G12G18G21G23G24G32C19C21C22C34E 3
                                E 5E 9E13E15E24E25E31
  20417807.294   107296254.927    20417810.296    83607459.360                  
  24353516.104   127978557.073    24353518.517    99723542.499                  
  23503773.122   123513128.817    23503776.142    96243990.183                  
  25232701.679   132598712.413    25232702.715   103323665.118                  
  20801304.242   109311587.858    20801305.475    85177861.497                  
  21763739.272   114369171.902    21763742.774    89118822.633                  
  21404570.248   112481735.581    21404573.411    87648095.456                  
                 132013050.078                   132013050.078    25351724.829  
                 119561763.480                   119561763.480    22960578.715  
                 116596965.312                   116596965.312    22391217.286  
                 130890951.191                   130890951.191    25136236.205  
  24231537.847   127337566.542                                                  
  24090210.136   126594893.538                                                  
  26047183.557   136878830.093                                                  
  27577265.287   144919436.001                                                  
  24583219.500   129185646.000                                                  
  26502532.525   139271768.411                                                  
  27412110.503   144051549.414                                                  
  27736786.897   145757747.102                                                  
 21  8 31 21 56 24.0000000  0 19G10G12G18G21G23G24G32C19C21C22C34E 3
                                E 5E 9E13E15E24E25E31
  20417647.992   107295417.852    20417651.012    83606807.094                  
  24353017.005   127975934.243    24353019.399    99721498.735                  
  23504486.883   123516879.655    23504489.903    96246912.914                  
  25232225.166   132596208.290    25232226.202   103321713.851                  
  20801582.016   109313047.573    20801583.267    85178998.930                  
  21764219.484   114371695.436    21764223.004    89120789.024                  
  21404270.978   112480162.949    21404274.159    87646870.028                  
                 132015459.298                   132015459.298    25352187.476  
                 119560176.668                   119560176.668    22960273.995  
                 116597791.860                   116597791.860    22391375.999  
                 130892220.762                   130892220.762    25136479.992  
  24231349.722   127336577.880                                                  
  24090419.115   126595991.691                                                  
  26047597.064   136881003.093                                                  
  27576841.362   144917208.341                                                  
  24583249.984   129185806.188                                                  
  26502269.064   139270383.903                                                  
  27411562.406   144048669.112                                                  
  27736947.522   145758591.196                                                  
 21  8 31 21 56 25.0000000  0 19G10G12G18G21G23G24G32C19C21C22C34E 3
                                E 5E 9E13E15E24E25E31
  20417488.797   107294581.211    20417491.799    83606155.159                  
  24352517.941   127973311.676    24352520.335    99719455.172                  
  23505200.661   123520630.637    23505203.681    96249835.746                  
  25231748.706   132593704.466    25231749.743   103319762.817                  
  20801859.879   109314507.708    20801861.095    85180136.690                  
  21764699.803   114374219.458    21764703.306    89122755.785                  
  21403971.779   112478590.598    21403974.942    87645644.813                  
                 132017868.614                   132017868.614    25352650.158  
                 119558590.005                   119558590.005    22959969.274  
                 116598618.641                   116598618.641    22391534.783  
                 130893490.778                   130893490.778    25136723.905  
  24231161.597   127335589.370                                                  
  24090628.129   126597089.970                                                  
  26048010.571   136883176.085                                                  
  27576417.527   144914981.004                                                  
  24583280.558   129185966.882                                                  
  26502005.657   139268999.794                                                  
  27411014.292   144045788.825                                                  
  27737108.236   145759435.753                                                  
 21  8 31 21 56 26.0000000  0 19G10G12G18G21G23G24G32C19C21C22C34E 3
                                E 5E 9E13E15E24E25E31
  20417329.656   107293744.964    20417332.657    83605503.538                  
  24352018.913   127970689.348    24352021.325    99717411.797                  
  23505914.475   123524381.746    23505917.495    96252758.688                  
  25231272.282   132591200.923    25231273.319   103317812.000                  
  20802137.796   109315968.286    20802139.047    85181274.801                  
  21765180.176   114376743.964    21765183.696    89124722.930                  
  21403672.616   112477018.529    21403675.797    87644419.820                  
                 132020278.028                   132020278.028    25353112.877  
                 119557003.493                   119557003.493    22959664.625  
                 116599445.661                   116599445.661    22391693.585  
                 130894761.242                   130894761.242    25136967.888  
  24230973.526   127334601.015                                                  
  24090837.125   126598188.360                                                  
  26048424.078   136885349.067                                                  
  27575993.727   144912753.977                                                  
  24583311.239   129186128.083                                                  
  26501742.357   139267616.079                                                  
  27410466.195   144042908.567                                                  
  27737269.039   145760280.754                                                  
 21  8 31 21 56 27.0000000  0 19G10G12G18G21G23G24G32C19C21C22C34E 3
                                E 5E 9E13E15E24E25E31
  20417170.603   107292909.127    20417173.623    83604852.235                  
  24351519.938   127968067.239    24351522.368    99715368.593                  
  23506628.324   123528132.992    23506631.344    96255681.725                  
  25230795.912   132588697.672    25230796.984   103315861.415                  
  20802415.820   109317429.289    20802417.053    85182413.238                  
  21765660.674   114379268.949    21765664.177    89126690.446                  
  21403373.524   112475446.735    21403376.687    87643195.043                  
                 132022687.538                   132022687.538    25353575.595  
                 119555417.132                   119555417.132    22959359.958  
                 116600272.911                   116600272.911    22391852.458  
                 130896032.153                   130896032.153    25137211.943  
  24230785.472   127333612.804                                                  
  24091046.157   126599286.871                                                  
  26048837.586   136887522.026                                                  
  27575569.999   144910527.268                                                  
  24583342.028   129186289.788                                                  
  26501479.129   139266232.753                                                  
  27409918.116   144040028.344                                                  
  27737429.914   145761126.210                                                  
 21  8 31 21 56 28.0000000  0 19G10G12G18G21G23G24G32C19C21C22C34E 3
                                E 5E 9E13E15E24E25E31
  20417011.623   107292073.696    20417014.642    83604201.242                  
  24351021.017   127965445.383    24351023.412    99713325.586                  
  23507342.174   123531884.355    23507345.194    96258604.864                  
  25230319.613   132586194.704    25230320.668   103313911.044                  
  20802693.916   109318890.712    20802695.167    85183552.009                  
  21766141.262   114381794.417    21766144.764    89128658.341                  
  21403074.468   112473875.218    21403077.649    87641970.480                  
                 132025097.145                   132025097.145    25354038.313  
                 119553830.925                   119553830.925    22959055.345  
                 116601100.398                   116601100.398    22392011.367  
                 130897303.509                   130897303.509    25137456.088  
  24230597.454   127332624.749                                                  
  24091255.224   126600385.493                                                  
  26049251.075   136889694.985                                                  
  27575146.324   144908300.890                                                  
  24583372.888   129186451.987                                                  
  26501215.954   139264849.827                                                  
  27409370.020   144037148.101                                                  
  27737590.896   145761972.138                                                  
 21  8 31 21 56 29.0000000  0 19G10G12G18G21G23G24G32C19C21C22C34E 3
                                E 5E 9E13E15E24E25E31
  20416852.713   107291238.681    20416855.733    83603550.574                  
  24350522.132   127962823.785    24350524.544    99711282.777                  
  23508056.059   123535635.875    23508059.079    96261528.116                  
  25229843.386   132583692.031    25229844.422   103311960.906                  
  20802972.101   109320352.575    20802973.334    85184691.118                  
  21766621.920   114384320.364    21766625.441    89130626.607                  
  21402775.466   112472303.985    21402778.647    87640746.136                  
                 132027506.847                   132027506.847    25354501.085  
                 119552244.872                   119552244.872    22958750.768  
                 116601928.125                   116601928.125    22392170.312  
                 130898575.307                   130898575.307    25137700.322  
  24230409.454   127331636.835                                                  
  24091464.327   126601484.245                                                  
  26049664.582   136891867.918                                                  
  27574722.721   144906074.812                                                  
  24583403.837   129186614.699                                                  
  26500952.868   139263467.306                                                  
  27408821.941   144034267.907                                                  
  27737751.968   145762818.503                                                  
 21  8 31 21 56 30.0000000  0 19G10G12G18G21G23G24G32C19C21C22C34E 3
                                E 5E 9E13E15E24E25E31
  20416693.894   107290404.059    20416696.896    83602900.222                  
  24350023.300   127960202.427    24350025.712    99709240.164                  
  23508769.980   123539387.517    23508773.000    96264451.472                  
  25229367.176   132581189.645    25229368.249   103310010.997                  
  20803250.357   109321814.860    20803251.608    85185830.559                  
  21767102.687   114386846.804    21767106.207    89132595.259                  
  21402476.517   112470733.022    21402479.698    87639522.011                  
                 132029916.648                   132029916.648    25354963.857  
                 119550658.968                   119550658.968    22958446.208  
                 116602756.081                   116602756.081    22392329.329  
                 130899847.559                   130899847.559    25137944.645  
  24230221.508   127330649.085                                                  
  24091673.413   126602583.111                                                  
  26050078.089   136894040.857                                                  
  27574299.172   144903849.074                                                  
  24583434.893   129186777.919                                                  
  26500689.854   139262085.180                                                  
  27408273.863   144031387.726                                                  
  27737913.093   145763665.332                                                  
 21  8 31 21 56 31.0000000  0 19G10G12G18G21G23G24G32C19C21C22C34E 3
                                E 5E 9E13E15E24E25E31
  20416535.163   107289569.851    20416538.165    83602250.192                  
  24349524.522   127957581.302    24349526.917    99707197.730                  
  23509483.919   123543139.289    23509486.939    96267374.930                  
  25228891.056   132578687.555    25228892.093   103308061.317                  
  20803528.721   109323277.577    20803529.936    85186970.341                  
  21767583.542   114389373.719    21767587.062    89134564.281                  
  21402177.622   112469162.347    21402180.803    87638298.108                  
                 132032326.545                   132032326.545    25355426.665  
                 119549073.220                   119549073.220    22958141.684  
                 116603584.278                   116603584.278    22392488.363  
                 130901120.250                   130901120.250    25138189.039  
  24230033.561   127329661.487                                                  
  24091882.552   126603682.091                                                  
  26050491.560   136896213.766                                                  
  27573875.676   144901623.641                                                  
  24583466.057   129186941.638                                                  
  26500426.911   139260703.442                                                  
  27407725.784   144028507.559                                                  
  27738074.343   145764512.604                                                  
 21  8 31 21 56 32.0000000  0 19G10G12G18G21G23G24G32C19C21C22C34E 3
                                E 5E 9E13E15E24E25E31
  20416376.486   107288736.054    20416379.506    83601600.480                  
  24349025.780   127954960.417    24349028.174    99705155.489                  
  23510197.876   123546891.195    23510200.896    96270298.491                  
  25228414.972   132576185.753    25228416.026   103306111.863                  
  20803807.138   109324740.725    20803808.371    85188110.456                  
  21768064.487   114391901.112    21768068.007    89136533.676                  
  21401878.780   112467591.954    21401881.961    87637074.425                  
                 132034736.544                   132034736.544    25355889.473  
                 119547487.624                   119547487.624    22957837.178  
                 116604412.708                   116604412.708    22392647.433  
                 130902393.392                   130902393.392    25138433.541  
  24229845.669   127328674.040                                                  
  24092091.709   126604781.200                                                  
  26050905.067   136898386.669                                                  
  27573452.252   144899398.531                                                  
  24583497.292   129187105.864                                                  
  26500164.058   139259322.101                                                  
  27407177.705   144025627.418                                                  
  27738235.664   145765360.331                                                  
 21  8 31 21 56 33.0000000  0 19G10G12G18G21G23G24G32C19C21C22C34E 3
                                E 5E 9E13E15E24E25E31
  20416217.898   107287902.659    20416220.900    83600951.081                  
  24348527.073   127952339.784    24348529.503    99703113.433                  
  23510911.869   123550643.234    23510914.888    96273222.155                  
  25227938.959   132573684.241    25227939.995   103304162.633                  
  20804085.645   109326204.302    20804086.878    85189250.903                  
  21768545.521   114394428.984    21768549.041    89138503.444                  
  21401579.992   112466021.836    21401583.173    87635850.957                  
                 132037146.633                   132037146.633    25356352.298  
                 119545902.179                   119545902.179    22957532.708  
                 116605241.370                   116605241.370    22392806.575  
                 130903666.976                   130903666.976    25138678.115  
  24229657.776   127327686.747                                                  
  24092300.884   126605880.415                                                  
  26051318.539   136900559.558                                                  
  27573028.899   144897173.738                                                  
  24583528.652   129187270.589                                                  
  26499901.276   139257941.155                                                  
  27406629.626   144022747.301                                                  
  27738397.057   145766208.513                                                  
 21  8 31 21 56 34.0000000  0 19G10G12G18G21G23G24G32C19C21C22C34E 3
                                E 5E 9E13E15E24E25E31
  20416059.382   107287069.681    20416062.384    83600302.007                  
  24348028.438   127949719.392    24348030.833    99701071.574                  
  23511625.879   123554395.401    23511628.899    96276145.922                  
  25227462.982   132571183.020    25227464.018   103302213.630                  
  20804364.241   109327668.310    20804365.474    85190391.687                  
  21769026.662   114396957.349    21769030.164    89140473.601                  
  21401281.258   112464452.000    21401284.439    87634627.710                  
                 132039556.821                   132039556.821    25356815.159  
                 119544316.888                   119544316.888    22957228.256  
                 116606070.274                   116606070.274    22392965.752  
                 130904941.013                   130904941.013    25138922.777  
  24229469.937   127326699.593                                                  
  24092510.076   126606979.751                                                  
  26051732.046   136902732.440                                                  
  27572605.600   144894949.264                                                  
  24583560.101   129187435.828                                                  
  26499638.566   139256560.609                                                  
  27406081.566   144019867.207                                                  
  27738558.557   145767057.176                                                  
 21  8 31 21 56 35.0000000  0 19G10G12G18G21G23G24G32C19C21C22C34E 3
                                E 5E 9E13E15E24E25E31
  20415900.938   107286237.098    20415903.940    83599653.242                  
  24347529.839   127947099.243    24347532.233    99699029.902                  
  23512339.925   123558147.698    23512342.945    96279069.785                  
  25226987.058   132568682.089    25226988.095   103300264.855                  
  20804642.908   109329132.749    20804644.141    85191532.808                  
  21769507.875   114399486.189    21769511.377    89142444.126                  
  21400982.577   112462882.443    21400985.758    87633404.676                  
                 132041967.105                   132041967.105    25357278.021  
                 119542731.745                   119542731.745    22956923.857  
                 116606899.411                   116606899.411    22393124.983  
                 130906215.489                   130906215.489    25139167.511  
  24229282.115   127325712.597                                                  
  24092719.305   126608079.206                                                  
  26052145.517   136904905.309                                                  
  27572182.354   144892725.114                                                  
  24583591.640   129187601.563                                                  
  26499375.945   139255180.470                                                  
  27405533.505   144016987.116                                                  
  27738720.111   145767906.265                                                  
 21  8 31 21 56 36.0000000  0 19G10G12G18G21G23G24G32C19C21C22C34E 3
                                E 5E 9E13E15E24E25E31
  20415742.582   107285404.927    20415745.584    83599004.797                  
  24347031.275   127944479.336    24347033.688    99696988.418                  
  23513053.971   123561900.142    23513056.991    96281993.765                  
  25226511.206   132566181.449    25226512.261   103298316.304                  
  20804921.665   109330597.609    20804922.898    85192674.257                  
  21769989.195   114402015.519    21769992.697    89144415.035                  
  21400683.968   112461313.164    21400687.149    87632181.864                  
                 132044377.488                   132044377.488    25357740.918  
                 119541146.763                   119541146.763    22956619.476  
                 116607728.780                   116607728.780    22393284.267  
                 130907490.413                   130907490.413    25139412.353  
  24229094.312   127324725.754                                                  
  24092928.533   126609178.785                                                  
  26052559.006   136907078.159                                                  
  27571759.180   144890501.280                                                  
  24583623.268   129187767.808                                                  
  26499113.377   139253800.716                                                  
  27404985.444   144014107.058                                                  
  27738881.808   145768755.820                                                  
 21  8 31 21 56 37.0000000  0 19G10G12G18G21G23G24G32C19C21C22C34E 3
                                E 5E 9E13E15E24E25E31
  20415584.299   107284573.169    20415587.301    83598356.671                  
  24346532.783   127941859.665    24346535.178    99694947.116                  
  23513768.071   123565652.703    23513771.109    96284917.836                  
  25226035.408   132563681.106    25226036.444   103296367.984                  
  20805200.493   109332062.911    20805201.744    85193816.051                  
  21770470.604   114404545.319    21770474.107    89146386.305                  
  21400385.377   112459744.164    21400388.557    87630959.269                  
                 132046787.964                   132046787.964    25358203.815  
                 119539561.925                   119539561.925    22956315.113  
                 116608558.391                   116608558.391    22393443.588  
                 130908765.782                   130908765.782    25139657.283  
  24228906.562   127323739.066                                                  
  24093137.797   126610278.476                                                  
  26052972.477   136909251.001                                                  
  27571336.059   144888277.778                                                  
  24583655.004   129187934.567                                                  
  26498850.881   139252421.352                                                  
  27404437.383   144011227.020                                                  
  27739043.541   145769605.824                                                  
 21  8 31 21 56 38.0000000  0 19G10G12G18G21G23G24G32C19C21C22C34E 3
                                E 5E 9E13E15E24E25E31
  20415426.104   107283741.817    20415429.106    83597708.866                  
  24346034.327   127939240.242    24346036.721    99692906.007                  
  23514482.189   123569405.407    23514485.226    96287842.024                  
  25225559.663   132561181.038    25225560.699   103294419.882                  
  20805479.429   109333528.632    20805480.644    85194958.172                  
  21770952.085   114407075.603    21770955.605    89148357.952                  
  21400086.857   112458175.441    21400090.038    87629736.887                  
                 132049198.544                   132049198.544    25358666.748  
                 119537977.245                   119537977.245    22956010.803  
                 116609388.231                   116609388.231    22393602.943  
                 130910041.599                   130910041.599    25139902.286  
  24228718.848   127322752.519                                                  
  24093347.097   126611378.298                                                  
  26053385.967   136911423.831                                                  
  27570912.974   144886054.570                                                  
  24583686.828   129188101.813                                                  
  26498588.475   139251042.390                                                  
  27403889.340   144008347.000                                                  
  27739205.380   145770456.286                                                  
 21  8 31 21 56 39.0000000  0 19G10G12G18G21G23G24G32C19C21C22C34E 3
                                E 5E 9E13E15E24E25E31
  20415267.981   107282910.863    20415270.983    83597061.370                  
  24345535.888   127936621.032    24345538.300    99690865.067                  
  23515196.324   123573158.229    23515199.344    96290766.296                  
  25225083.954   132558681.284    25225085.008   103292472.024                  
  20805758.418   109334994.788    20805759.633    85196100.629                  
  21771433.673   114409606.371    21771437.175    89150329.980                  
  21399788.408   112456606.996    21399791.571    87628514.722                  
                 132051609.215                   132051609.215    25359129.680  
                 119536392.716                   119536392.716    22955706.494  
                 116610218.309                   116610218.309    22393762.335  
                 130911317.861                   130911317.861    25140147.377  
  24228531.116   127321766.134                                                  
  24093556.397   126612478.223                                                  
  26053799.420   136913596.649                                                  
  27570489.997   144883831.699                                                  
  24583718.760   129188269.578                                                  
  26498326.139   139249663.833                                                  
  27403341.280   144005466.991                                                  
  27739367.291   145771307.202                                                  
 21  8 31 21 56 40.0000000  0 19G10G12G18G21G23G24G32C19C21C22C34E 3
                                E 5E 9E13E15E24E25E31
  20415109.912   107282080.320    20415112.914    83596414.192                  
  24345037.521   127934002.064    24345039.916    99688824.312                  
  23515910.495   123576911.192    23515913.515    96293690.681                  
  25224608.316   132556181.812    25224609.388   103290524.383                  
  20806037.496   109336461.367    20806038.711    85197243.417                  
  21771915.368   114412137.614    21771918.853    89152302.375                  
  21399489.978   112455038.832    21399493.159    87627292.777                  
                 132054019.984                   132054019.984    25359592.667  
                 119534808.341                   119534808.341    22955402.238  
                 116611048.624                   116611048.624    22393921.798  
                 130912594.567                   130912594.567    25140392.558  
  24228343.456   127320779.889                                                  
  24093765.732   126613578.278                                                  
  26054212.891   136915769.449                                                  
  27570067.055   144881609.136                                                  
  24583750.782   129188437.840                                                  
  26498063.894   139248285.664                                                  
  27402793.237   144002587.027                                                  
  27739529.328   145772158.565                                                  
 21  8 31 21 56 41.0000000  0 19G10G12G18G21G23G24G32C19C21C22C34E 3
                                E 5E 9E13E15E24E25E31
  20414951.968   107281250.188    20414954.952    83595767.335                  
  24344539.172   127931383.335    24344541.584    99686783.749                  
  23516624.685   123580664.284    23516627.704    96296615.168                  
  25224132.732   132553682.636    25224133.804   103288576.976                  
  20806316.664   109337928.383    20806317.879    85198386.546                  
  21772397.117   114414669.339    21772400.637    89154275.150                  
  21399191.619   112453470.951    21399194.800    87626071.051                  
                 132056430.853                   132056430.853    25360055.635  
                 119533224.117                   119533224.117    22955098.000  
                 116611879.170                   116611879.170    22394081.279  
                 130913871.719                   130913871.719    25140637.828  
  24228155.795   127319793.809                                                  
  24093975.086   126614678.440                                                  
  26054626.363   136917942.238                                                  
  27569644.184   144879386.907                                                  
  24583782.874   129188606.609                                                  
  26497801.719   139246907.902                                                  
  27402245.194   143999707.065                                                  
  27739691.418   145773010.383                                                  
 21  8 31 21 56 42.0000000  0 19G10G12G18G21G23G24G32C19C21C22C34E 3
                                E 5E 9E13E15E24E25E31
  20414794.059   107280420.461    20414797.061    83595120.797                  
  24344040.894   127928764.857    24344043.307    99684743.378                  
  23517338.892   123584417.514    23517341.911    96299539.761                  
  25223657.219   132551183.747    25223658.256   103286629.790                  
  20806595.903   109339395.827    20806597.136    85199530.012                  
  21772878.973   114417201.542    21772882.493    89156248.292                  
  21398893.313   112451903.345    21398896.494    87624849.540                  
                 132058841.811                   132058841.811    25360518.640  
                 119531640.042                   119531640.042    22954793.798  
                 116612709.956                   116612709.956    22394240.814  
                 130915149.312                   130915149.312    25140883.152  
  24227968.188   127318807.878                                                  
  24094184.457   126615778.730                                                  
  26055039.834   136920115.015                                                  
  27569221.367   144877164.996                                                  
  24583815.092   129188775.882                                                  
  26497539.599   139245530.531                                                  
  27401697.169   143996827.142                                                  
  27739853.597   145773862.664                                                  
 21  8 31 21 56 43.0000000  0 19G10G12G18G21G23G24G32C19C21C22C34E 3
                                E 5E 9E13E15E24E25E31
  20414636.240   107279591.139    20414639.242    83594474.575                  
  24343542.652   127926146.618    24343545.065    99682703.195                  
  23518053.134   123588170.865    23518056.154    96302464.445                  
  25223181.761   132548685.144    25223182.797   103284682.828                  
  20806875.214   109340863.700    20806876.465    85200673.804                  
  21773360.937   114419734.229    21773364.439    89158221.813                  
  21398595.062   112450336.015    21398598.242    87623628.241                  
                 132061252.871                   132061252.871    25360981.644  
                 119530056.126                   119530056.126    22954489.613  
                 116613540.979                   116613540.979    22394400.420  
                 130916427.356                   130916427.356    25141128.601  
  24227780.599   127317822.089                                                  
  24094393.864   126616879.130                                                  
  26055453.305   136922287.784                                                  
  27568798.604   144874943.387                                                  
  24583847.400   129188945.655                                                  
  26497277.585   139244153.544                                                  
  27401149.144   143993947.218                                                  
  27740015.866   145774715.400                                                  
 21  8 31 21 56 44.0000000  0 19G10G12G18G21G23G24G32C19C21C22C34E 3
                                E 5E 9E13E15E24E25E31
  20414478.492   107278762.234    20414481.512    83593828.672                  
  24343044.482   127923528.624    24343046.858    99680663.199                  
  23518767.395   123591924.356    23518770.415    96305389.243                  
  25222706.337   132546186.837    25222707.374   103282736.093                  
  20807154.614   109342332.001    20807155.865    85201817.937                  
  21773842.971   114422267.395    21773846.492    89160195.708                  
  21398296.863   112448768.972    21398300.044    87622407.176                  
                 132063664.028                   132063664.028    25361444.684  
                 119528472.359                   119528472.359    22954185.465  
                 116614372.236                   116614372.236    22394560.044  
                 130917705.845                   130917705.845    25141374.121  
  24227593.046   127316836.460                                                  
  24094603.271   126617979.648                                                  
  26055866.759   136924460.540                                                  
  27568375.895   144872722.106                                                  
  24583879.814   129189115.941                                                  
  26497015.625   139242776.967                                                  
  27400601.101   143991067.321                                                  
  27740178.223   145775568.585                                                  
 21  8 31 21 56 45.0000000  0 19G10G12G18G21G23G24G32C19C21C22C34E 3
                                E 5E 9E13E15E24E25E31
  20414320.834   107277933.733    20414323.854    83593183.089                  
  24342546.311   127920910.879    24342548.724    99678623.398                  
  23519481.673   123595677.970    23519484.729    96308314.133                  
  25222230.986   132543688.823    25222232.022   103280789.594                  
  20807434.121   109343800.734    20807435.354    85202962.402                  
  21774325.113   114424801.053    21774328.634    89162169.987                  
  21397998.719   112447202.200    21398001.881    87621186.308                  
                 132066075.283                   132066075.283    25361907.742  
                 119526888.746                   119526888.746    22953881.334  
                 116615203.727                   116615203.727    22394719.722  
                 130918984.776                   130918984.776    25141619.713  
  24227405.493   127315850.970                                                  
  24094812.732   126619080.286                                                  
  26056280.212   136926633.273                                                  
  27567953.257   144870501.148                                                  
  24583912.300   129189286.726                                                  
  26496753.737   139241400.790                                                  
  27400053.076   143988187.445                                                  
  27740340.653   145776422.228                                                  
 21  8 31 21 56 46.0000000  0 19G10G12G18G21G23G24G32C19C21C22C34E 3
                                E 5E 9E13E15E24E25E31
  20414163.265   107277105.644    20414166.267    83592537.825                  
  24342048.248   127918293.395    24342050.642    99676583.804                  
  23520196.005   123599431.714    23520199.025    96311239.130                  
  25221755.687   132541191.108    25221756.724   103278843.320                  
  20807713.682   109345269.895    20807714.915    85204107.203                  
  21774807.345   114427335.187    21774810.865    89164144.637                  
  21397700.628   112445635.712    21397703.808    87619965.672                  
                 132068486.634                   132068486.634    25362370.817  
                 119525305.284                   119525305.284    22953577.257  
                 116616035.452                   116616035.452    22394879.435  
                 130920264.155                   130920264.155    25141865.412  
  24227217.993   127314865.638                                                  
  24095022.193   126620181.042                                                  
  26056693.684   136928806.004                                                  
  27567530.708   144868280.513                                                  
  24583944.893   129189458.015                                                  
  26496491.938   139240025.007                                                  
  27399505.068   143985307.595                                                  
  27740503.207   145777276.319                                                  
 21  8 31 21 56 47.0000000  0 19G10G12G18G21G23G24G32C19C21C22C34E 3
                                E 5E 9E13E15E24E25E31
  20414005.767   107276277.962    20414008.751    83591892.876                  
  24341550.185   127915676.116    24341552.579    99674544.367                  
  23520910.337   123603185.583    23520913.357    96314164.218                  
  25221280.425   132538693.667    25221281.461   103276897.267                  
  20807993.332   109346739.481    20807994.583    85205252.335                  
  21775289.665   114429869.805    21775293.185    89166119.660                  
  21397402.572   112444069.503    21397405.753    87618745.250                  
                 132070898.078                   132070898.078    25362833.893  
                 119523721.982                   119523721.982    22953273.197  
                 116616867.418                   116616867.418    22395039.220  
                 130921543.982                   130921543.982    25142111.183  
  24227030.547   127313880.461                                                  
  24095231.671   126621281.918                                                  
  26057107.137   136930978.716                                                  
  27567108.177   144866060.192                                                  
  24583977.593   129189629.813                                                  
  26496230.192   139238649.622                                                  
  27398957.043   143982427.765                                                  
  27740665.798   145778130.860                                                  
 21  8 31 21 56 48.0000000  0 19G10G12G18G21G23G24G32C19C21C22C34E 3
                                E 5E 9E13E15E24E25E31
  20413848.323   107275450.679    20413851.343    83591248.238                  
  24341052.175   127913059.105    24341054.587    99672505.141                  
  23521624.705   123606939.591    23521627.725    96317089.417                  
  25220805.234   132536196.525    25220806.288   103274951.441                  
  20808273.072   109348209.499    20808274.305    85206397.806                  
  21775772.075   114432404.890    21775775.578    89168095.055                  
  21397104.588   112442503.573    21397107.751    87617525.042                  
                 132073309.621                   132073309.621    25363297.022  
                 119522138.825                   119522138.825    22952969.156  
                 116617699.616                   116617699.616    22395199.022  
                 130922824.247                   130922824.247    25142357.043  
  24226843.083   127312895.434                                                  
  24095441.204   126622382.917                                                  
  26057520.573   136933151.417                                                  
  27566685.735   144863840.200                                                  
  24584010.383   129189802.106                                                  
  26495968.554   139237274.633                                                  
  27398409.036   143979547.953                                                  
  27740828.513   145778985.870                                                  
 21  8 31 21 56 49.0000000  0 19G10G12G18G21G23G24G32C19C21C22C34E 3
                                E 5E 9E13E15E24E25E31
  20413690.986   107274623.816    20413693.988    83590603.933                  
  24340554.219   127910442.328    24340556.613    99670466.095                  
  23522339.109   123610693.730    23522342.129    96320014.718                  
  25220330.097   132533699.688    25220331.133   103273005.856                  
  20808552.883   109349679.948    20808554.116    85207543.610                  
  21776254.575   114434940.462    21776258.095    89170070.820                  
  21396806.658   112440937.921    21396809.821    87616305.058                  
                 132075721.263                   132075721.263    25363760.134  
                 119520555.823                   119520555.823    22952665.168  
                 116618532.050                   116618532.050    22395358.879  
                 130924104.961                   130924104.961    25142602.992  
  24226655.673   127311910.566                                                  
  24095650.736   126623484.025                                                  
  26057934.044   136935324.109                                                  
  27566263.347   144861620.518                                                  
  24584043.262   129189974.916                                                  
  26495706.987   139235900.035                                                  
  27397861.029   143976668.168                                                  
  27740991.300   145779841.324                                                  
 21  8 31 21 56 50.0000000  0 19G10G12G18G21G23G24G32C19C21C22C34E 3
                                E 5E 9E13E15E24E25E31
  20413533.703   107273797.355    20413536.723    83589959.938                  
  24340056.299   127907825.804    24340058.693    99668427.247                  
  23523053.494   123614447.999    23523056.514    96322940.120                  
  25219855.013   132531203.132    25219856.067   103271060.484                  
  20808832.783   109351150.829    20808834.016    85208689.751                  
  21776737.181   114437476.512    21776740.684    89172046.961                  
  21396508.764   112439372.540    21396511.944    87615085.278                  
                 132078133.000                   132078133.000    25364223.299  
                 119518972.972                   119518972.972    22952361.198  
                 116619364.720                   116619364.720    22395518.806  
                 130925386.116                   130925386.116    25142849.013  
  24226468.280   127310925.832                                                  
  24095860.304   126624585.259                                                  
  26058347.480   136937496.789                                                  
  27565840.995   144859401.160                                                  
  24584076.248   129190148.224                                                  
  26495445.474   139234525.844                                                  
  27397313.022   143973788.406                                                  
  27741154.176   145780697.235                                                  
 21  8 31 21 56 51.0000000  0 19G10G12G18G21G23G24G32C19C21C22C34E 3
                                E 5E 9E13E15E24E25E31
  20413376.527   107272971.305    20413379.511    83589316.262                  
  24339558.432   127905209.520    24339560.844    99666388.586                  
  23523767.934   123618202.394    23523770.954    96325865.620                  
  25219380.001   132528706.879    25219381.037   103269115.356                  
  20809112.755   109352622.138    20809114.006    85209836.223                  
  21777219.859   114440013.043    21777223.362    89174023.481                  
  21396210.941   112437807.461    21396214.121    87613865.738                  
                 132080544.875                   132080544.875    25364686.482  
                 119517390.266                   119517390.266    22952057.264  
                 116620197.616                   116620197.616    22395678.734  
                 130926667.714                   130926667.714    25143095.140  
  24226280.924   127309941.266                                                  
  24096069.872   126625686.610                                                  
  26058760.915   136939669.446                                                  
  27565418.732   144857182.130                                                  
  24584109.324   129190322.040                                                  
  26495184.068   139233152.047                                                  
  27396765.014   143970908.661                                                  
  27741317.141   145781553.598                                                  
 21  8 31 21 56 52.0000000  0 19G10G12G18G21G23G24G32C19C21C22C34E 3
                                E 5E 9E13E15E24E25E31
  20413219.405   107272145.663    20413222.407    83588672.907                  
  24339060.619   127902593.491    24339063.013    99664350.120                  
  23524482.409   123621956.921    23524485.429    96328791.226                  
  25218905.024   132526210.917    25218906.061   103267170.450                  
  20809392.816   109354093.875    20809394.067    85210983.031                  
  21777702.645   114442550.056    21777706.147    89176000.372                  
  21395913.153   112436242.645    21395916.334    87612646.402                  
                 132082956.801                   132082956.801    25365149.665  
                 119515807.720                   119515807.720    22951753.348  
                 116621030.754                   116621030.754    22395838.733  
                 130927949.759                   130927949.759    25143341.340  
  24226093.603   127308956.847                                                  
  24096279.475   126626788.073                                                  
  26059174.386   136941842.106                                                  
  27564996.541   144854963.411                                                  
  24584142.506   129190496.355                                                  
  26494922.698   139231778.649                                                  
  27396217.043   143968028.937                                                  
  27741480.178   145782410.430                                                  
 21  8 31 21 56 53.0000000  0 19G10G12G18G21G23G24G32C19C21C22C34E 3
                                E 5E 9E13E15E24E25E31
  20413062.354   107271320.429    20413065.356    83588029.867                  
  24338562.859   127899977.703    24338565.236    99662311.851                  
  23525196.902   123625711.589    23525199.921    96331716.936                  
  25218430.119   132523715.239    25218431.138   103265225.769                  
  20809672.967   109355566.044    20809674.200    85212130.176                  
  21778185.501   114445087.544    21778189.021    89177977.638                  
  21395615.438   112434678.121    21395618.618    87611427.289                  
                 132085368.821                   132085368.821    25365612.866  
                 119514225.325                   119514225.325    22951449.467  
                 116621864.124                   116621864.124    22395998.786  
                 130929232.243                   130929232.243    25143587.646  
  24225906.300   127307972.574                                                  
  24096489.097   126627889.659                                                  
  26059587.822   136944014.742                                                  
  27564574.385   144852745.015                                                  
  24584175.761   129190671.184                                                  
  26494661.417   139230405.644                                                  
  27395669.036   143965149.237                                                  
  27741643.323   145783267.691                                                  
 21  8 31 21 56 54.0000000  0 19G10G12G18G21G23G24G32C19C21C22C34E 3
                                E 5E 9E13E15E24E25E31
  20412905.393   107270495.602    20412908.395    83587387.145                  
  24338065.118   127897362.168    24338067.512    99660273.769                  
  23525911.395   123629466.380    23525914.432    96334642.745                  
  25217955.268   132521219.863    25217956.304   103263281.320                  
  20809953.207   109357038.644    20809954.422    85213277.656                  
  21778668.465   114447625.507    21778671.968    89179955.269                  
  21395317.776   112433113.863    21395320.938    87610208.390                  
                 132087780.940                   132087780.940    25366076.084  
                 119512643.081                   119512643.081    22951145.604  
                 116622697.735                   116622697.735    22396158.857  
                 130930515.175                   130930515.175    25143834.007  
  24225719.014   127306988.457                                                  
  24096698.736   126628991.362                                                  
  26060001.258   136946187.378                                                  
  27564152.301   144850526.939                                                  
  24584209.122   129190846.511                                                  
  26494400.244   139229033.047                                                  
  27395121.064   143962269.563                                                  
  27741806.538   145784125.419                                                  
 21  8 31 21 56 55.0000000  0 19G10G12G18G21G23G24G32C19C21C22C34E 3
                                E 5E 9E13E15E24E25E31
  20412748.520   107269671.192    20412751.522    83586744.746                  
  24337567.448   127894746.858    24337569.842    99658235.870                  
  23526625.941   123633221.297    23526628.961    96337568.653                  
  25217480.452   132518724.778    25217481.489   103261337.098                  
  20810233.500   109358511.672    20810234.733    85214425.469                  
  21779151.501   114450163.969    21779155.021    89181933.294                  
  21395020.167   112431549.893    21395023.312    87608989.712                  
                 132090193.158                   132090193.158    25366539.321  
                 119511060.992                   119511060.992    22950841.777  
                 116623531.577                   116623531.577    22396318.999  
                 130931798.552                   130931798.552    25144080.456  
  24225531.783   127306004.493                                                  
  24096908.411   126630093.192                                                  
  26060414.675   136948359.991                                                  
  27563730.288   144848309.191                                                  
  24584242.573   129191022.352                                                  
  26494139.106   139227660.843                                                  
  27394573.075   143959389.898                                                  
  27741969.843   145784983.598                                                  
 21  8 31 21 56 56.0000000  0 19G10G12G18G21G23G24G32C19C21C22C34E 3
                                E 5E 9E13E15E24E25E31
  20412591.702   107268847.176    20412594.722    83586102.653                  
  24337069.795   127892131.907    24337072.172    99656198.289                  
  23527340.523   123636976.259    23527343.561    96340494.555                  
  25217005.726   132516229.945    25217006.762   103259393.054                  
  20810513.883   109359985.126    20810515.116    85215573.612                  
  21779634.643   114452702.907    21779638.164    89183911.687                  
  21394722.594   112429986.202    21394725.757    87607771.253                  
                 132092605.468                   132092605.468    25367002.575  
                 119509479.054                   119509479.054    22950537.986  
                 116624365.648                   116624365.648    22396479.159  
                 130933082.374                   130933082.374    25144327.013  
  24225344.551   127305020.675                                                  
  24097118.122   126631195.124                                                  
  26060828.129   136950532.622                                                  
  27563308.311   144846091.758                                                  
  24584276.149   129191198.686                                                  
  26493878.057   139226289.024                                                  
  27394025.104   143956510.247                                                  
  27742133.220   145785842.285                                                  
 21  8 31 21 56 57.0000000  0 19G10G12G18G21G23G24G32C19C21C22C34E 3
                                E 5E 9E13E15E24E25E31
  20412434.973   107268023.579    20412437.975    83585460.891                  
  24336572.214   127889517.102    24336574.609    99654160.781                  
  23528055.105   123640731.434    23528058.143    96343420.664                  
  25216531.017   132513735.449    25216532.054   103257449.293                  
  20810794.355   109361459.012    20810795.606    85216722.094                  
  21780117.875   114455242.311    21780121.378    89185890.446                  
  21394425.075   112428422.781    21394428.256    87606553.001                  
                 132095017.878                   132095017.878    25367465.865  
                 119507897.272                   119507897.272    22950234.213  
                 116625199.966                   116625199.966    22396639.373  
                 130934366.641                   130934366.641    25144573.641  
  24225157.373   127304037.006                                                  
  24097327.815   126632297.180                                                  
  26061241.546   136952705.220                                                  
  27562886.406   144843874.632                                                  
  24584309.796   129191375.531                                                  
  26493617.098   139224917.606                                                  
  27393477.114   143953630.644                                                  
  27742296.703   145786701.372                                                  
 21  8 31 21 56 58.0000000  0 19G10G12G18G21G23G24G32C19C21C22C34E 3
                                E 5E 9E13E15E24E25E31
  20412278.315   107267200.378    20412281.335    83584819.434                  
  24336074.687   127886902.538    24336077.064    99652123.460                  
  23528769.723   123644486.742    23528772.761    96346346.875                  
  25216056.380   132511241.239    25216057.417   103255505.755                  
  20811074.899   109362933.329    20811076.132    85217870.915                  
  21780601.197   114457782.202    21780604.717    89187869.577                  
  21394127.627   112426859.641    21394130.808    87605334.972                  
                 132097430.383                   132097430.383    25367929.156  
                 119506315.639                   119506315.639    22949930.475  
                 116626034.511                   116626034.511    22396799.658  
                 130935651.353                   130935651.353    25144820.359  
  24224970.213   127303053.491                                                  
  24097537.562   126633399.359                                                  
  26061654.982   136954877.788                                                  
  27562464.554   144841657.841                                                  
  24584343.533   129191552.871                                                  
  26493356.192   139223546.597                                                  
  27392929.161   143950751.046                                                  
  27742460.276   145787560.913                                                  
 21  8 31 21 56 59.0000000  0 19G10G12G18G21G23G24G32C19C21C22C34E 3
                                E 5E 9E13E15E24E25E31
  20412121.764   107266377.591    20412124.766    83584178.301                  
  24335577.196   127884288.232    24335579.572    99650086.337                  
  23529484.341   123648242.172    23529487.379    96349273.180                  
  25215581.797   132508747.324    25215582.851   103253562.445                  
  20811355.532   109364408.065    20811356.783    85219020.058                  
  21781084.625   114460322.569    21781088.128    89189849.086                  
  21393830.215   112425296.786    21393833.396    87604117.163                  
                 132099842.987                   132099842.987    25368392.482  
                 119504734.163                   119504734.163    22949626.773  
                 116626869.300                   116626869.300    22396959.961  
                 130936936.503                   130936936.503    25145067.166  
  24224783.106   127302070.122                                                  
  24097747.326   126634501.643                                                  
  26062068.400   136957050.354                                                  
  27562042.773   144839441.358                                                  
  24584377.377   129191730.722                                                  
  26493095.376   139222175.972                                                  
  27392381.171   143947871.472                                                  
  27742623.921   145788420.903                                                  
 21  8 31 21 57  0.0000000  0 19G10G12G18G21G23G24G32C19C21C22C34E 3
                                E 5E 9E13E15E24E25E31
  20411965.268   107265555.229    20411968.287    83583537.500                  
  24335079.740   127881674.169    24335082.117    99648049.409                  
  23530198.995   123651997.738    23530202.069    96352199.593                  
  25215107.285   132506253.703    25215108.322   103251619.364                  
  20811636.254   109365883.250    20811637.505    85220169.551                  
  21781568.125   114462863.417    21781571.645    89191828.965                  
  21393532.857   112423734.198    21393536.037    87602899.567                  
                 132102255.688                   132102255.688    25368855.825  
                 119503152.839                   119503152.839    22949323.107  
                 116627704.319                   116627704.319    22397120.318  
                 130938222.102                   130938222.102    25145314.044  
  24224596.000   127301086.915                                                  
  24097957.108   126635604.063                                                  
  26062481.818   136959222.905                                                  
  27561621.064   144837225.219                                                  
  24584411.328   129191909.087                                                  
  26492834.631   139220805.766                                                  
  27391833.218   143944991.930                                                  
  27742787.655   145789281.362                                                  
 21  8 31 21 57  1.0000000  0 19G10G12G18G21G23G24G32C19C21C22C34E 3
                                E 5E 9E13E15E24E25E31
  20411808.842   107264733.267    20411811.862    83582897.007                  
  24334582.338   127879060.345    24334584.732    99646012.665                  
  23530913.685   123655753.407    23530916.740    96355126.090                  
  25214632.827   132503760.370    25214633.863   103249676.509                  
  20811917.066   109367358.847    20811918.281    85221319.368                  
  21782051.715   114465404.737    21782055.217    89193809.215                  
  21393235.588   112422171.907    21393238.733    87601682.192                  
                 132104668.484                   132104668.484    25369319.187  
                 119501571.671                   119501571.671    22949019.459  
                 116628539.579                   116628539.579    22397280.728  
                 130939508.145                   130939508.145    25145561.012  
  24224408.911   127300103.851                                                  
  24098166.926   126636706.594                                                  
  26062895.253   136961395.457                                                  
  27561199.391   144835009.382                                                  
  24584445.368   129192087.944                                                  
  26492573.958   139219435.942                                                  
  27391285.264   143942112.400                                                  
  27742951.478   145790142.259                                                  
 21  8 31 21 57  2.0000000  0 19G10G12G18G21G23G24G32C19C21C22C34E 3
                                E 5E 9E13E15E24E25E31
  20411652.506   107263911.706    20411655.526    83582256.832                  
  24334085.007   127876446.769    24334087.384    99643976.118                  
  23531628.392   123659509.228    23531631.447    96358052.699                  
  25214158.404   132501267.333    25214159.441   103247733.883                  
  20812197.913   109368834.883    20812199.164    85222469.524                  
  21782535.393   114467946.548    21782538.913    89195789.844                  
  21392938.319   112420609.879    21392941.499    87600465.032                  
                 132107081.379                   132107081.379    25369782.549  
                 119499990.652                   119499990.652    22948715.846  
                 116629375.069                   116629375.069    22397441.174  
                 130940794.633                   130940794.633    25145808.087  
  24224221.876   127299120.943                                                  
  24098376.745   126637809.245                                                  
  26063308.653   136963567.976                                                  
  27560777.807   144832793.870                                                  
  24584479.498   129192267.310                                                  
  26492313.374   139218066.520                                                  
  27390737.328   143939232.908                                                  
  27743115.408   145791003.625                                                  
 21  8 31 21 57  3.0000000  0 19G10G12G18G21G23G24G32C19C21C22C34E 3
                                E 5E 9E13E15E24E25E31
  20411496.241   107263090.563    20411499.261    83581616.980                  
  24333587.694   127873833.446    24333590.089    99641939.757                  
  23532343.117   123663265.163    23532346.173    96360979.402                  
  25213684.053   132498774.593    25213685.107   103245791.488                  
  20812478.886   109370311.339    20812480.119    85223620.012                  
  21783019.179   114470488.828    21783022.699    89197770.839                  
  21392641.139   112419048.139    21392644.302    87599248.090                  
                 132109494.370                   132109494.370    25370245.946  
                 119498409.789                   119498409.789    22948412.234  
                 116630210.801                   116630210.801    22397601.656  
                 130942081.564                   130942081.564    25146055.216  
  24224034.877   127298138.178                                                  
  24098586.580   126638912.008                                                  
  26063722.089   136965740.497                                                  
  27560356.277   144830578.687                                                  
  24584513.718   129192447.180                                                  
  26492052.862   139216697.491                                                  
  27390189.357   143936353.418                                                  
  27743279.392   145791865.437                                                  
 21  8 31 21 57  4.0000000  0 19G10G12G18G21G23G24G32C19C21C22C34E 3
                                E 5E 9E13E15E24E25E31
  20411340.066   107262269.824    20411343.068    83580977.441                  
  24333090.435   127871220.370    24333092.812    99639903.599                  
  23533057.878   123667021.251    23533060.916    96363906.220                  
  25213209.738   132496282.140    25213210.792   103243849.321                  
  20812759.912   109371788.235    20812761.163    85224770.840                  
  21783503.054   114473031.598    21783506.557    89199752.223                  
  21392343.995   112417486.675    21392347.158    87598031.362                  
                 132111907.457                   132111907.457    25370709.343  
                 119496829.078                   119496829.078    22948108.675  
                 116631046.765                   116631046.765    22397762.209  
                 130943368.936                   130943368.936    25146302.434  
  24223847.878   127297155.575                                                  
  24098796.452   126640014.891                                                  
  26064135.506   136967912.996                                                  
  27559934.800   144828363.816                                                  
  24584548.044   129192627.551                                                  
  26491792.421   139215328.865                                                  
  27389641.421   143933473.965                                                  
  27743443.484   145792727.693                                                  
 21  8 31 21 57  5.0000000  0 19G10G12G18G21G23G24G32C19C21C22C34E 3
                                E 5E 9E13E15E24E25E31
  20411183.962   107261449.499    20411186.964    83580338.231                  
  24332593.248   127868607.540    24332595.624    99637867.630                  
  23533772.657   123670777.442    23533775.694    96366833.122                  
  25212735.494   132493789.989    25212736.548   103241907.383                  
  20813041.063   109373265.548    20813042.278    85225921.988                  
  21783987.019   114475574.840    21783990.539    89201733.968                  
  21392046.904   112415925.487    21392050.085    87596814.854                  
                 132114320.640                   132114320.640    25371172.776  
                 119495248.518                   119495248.518    22947805.151  
                 116631882.964                   116631882.964    22397922.798  
                 130944656.753                   130944656.753    25146549.759  
  24223660.932   127296173.125                                                  
  24099006.360   126641117.891                                                  
  26064548.924   136970085.488                                                  
  27559513.377   144826149.273                                                  
  24584582.478   129192808.431                                                  
  26491532.033   139213960.637                                                  
  27389093.486   143930594.528                                                  
  27743607.664   145793590.409                                                  
 21  8 31 21 57  6.0000000  0 19G10G12G18G21G23G24G32C19C21C22C34E 3
                                E 5E 9E13E15E24E25E31
  20411027.948   107260629.582    20411030.932    83579699.333                  
  24332096.078   127865994.965    24332098.454    99635831.859                  
  23534487.453   123674533.759    23534490.527    96369760.122                  
  25212261.322   132491298.126    25212262.358   103239965.671                  
  20813322.268   109374743.301    20813323.501    85227073.484                  
  21784471.055   114478118.555    21784474.575    89203716.081                  
  21391749.886   112414364.601    21391753.066    87595598.582                  
                 132116733.921                   132116733.921    25371636.227  
                 119493668.112                   119493668.112    22947501.664  
                 116632719.402                   116632719.402    22398083.422  
                 130945945.015                   130945945.015    25146797.155  
  24223474.004   127295190.804                                                  
  24099216.285   126642221.009                                                  
  26064962.324   136972257.966                                                  
  27559092.026   144823935.052                                                  
  24584616.983   129192989.824                                                  
  26491271.753   139212592.797                                                  
  27388545.532   143927715.124                                                  
  27743771.916   145794453.595                                                  
 21  8 31 21 57  7.0000000  0 19G10G12G18G21G23G24G32C19C21C22C34E 3
                                E 5E 9E13E15E24E25E31
  20410871.987   107259810.075    20410874.971    83579060.754                  
  24331598.962   127863382.628    24331601.338    99633796.274                  
  23535202.304   123678290.211    23535205.341    96372687.223                  
  25211787.185   132488806.571    25211788.221   103238024.202                  
  20813603.544   109376221.491    20813604.777    85228225.325                  
  21784955.216   114480662.745    21784958.719    89205698.567                  
  21391452.902   112412804.003    21391456.083    87594382.531                  
                 132119147.302                   132119147.302    25372099.678  
                 119492087.863                   119492087.863    22947198.176  
                 116633556.073                   116633556.073    22398244.101  
                 130947233.722                   130947233.722    25147044.641  
  24223287.094   127294208.650                                                  
  24099426.192   126643324.247                                                  
  26065375.742   136974430.435                                                  
  27558670.746   144821721.161                                                  
  24584651.595   129193171.733                                                  
  26491011.544   139211225.356                                                  
  27387997.614   143924835.747                                                  
  27743936.258   145795317.226                                                  
 21  8 31 21 57  8.0000000  0 19G10G12G18G21G23G24G32C19C21C22C34E 3
                                E 5E 9E13E15E24E25E31
  20410716.098   107258990.965    20410719.118    83578422.488                  
  24331101.899   127860770.532    24331104.258    99631760.875                  
  23535917.154   123682046.833    23535920.192    96375614.456                  
  25211313.102   132486315.283    25211314.138   103236082.941                  
  20813884.928   109377700.086    20813886.143    85229377.473                  
  21785439.431   114483207.429    21785442.951    89207681.437                  
  21391155.955   112411243.601    21391159.136    87593166.634                  
                 132121560.773                   132121560.773    25372563.165  
                 119490507.766                   119490507.766    22946894.742  
                 116634392.982                   116634392.982    22398404.815  
                 130948522.871                   130948522.871    25147292.199  
  24223100.238   127293226.660                                                  
  24099636.171   126644427.606                                                  
  26065789.141   136976602.889                                                  
  27558249.501   144819507.571                                                  
  24584686.297   129193354.085                                                  
  26490751.407   139209858.343                                                  
  27387449.678   143921956.363                                                  
  27744100.688   145796181.304                                                  
 21  8 31 21 57  9.0000000  0 19G10G12G18G21G23G24G32C19C21C22C34E 3
                                E 5E 9E13E15E24E25E31
  20410560.316   107258172.269    20410563.318    83577784.548                  
  24330604.872   127858158.691    24330607.249    99629725.676                  
  23536632.040   123685803.538    23536635.078    96378541.761                  
  25210839.072   132483824.309    25210840.127   103234141.925                  
  20814166.365   109379179.128    20814167.598    85230529.972                  
  21785923.789   114485752.581    21785927.273    89209664.673                  
  21390859.097   112409683.543    21390862.260    87591951.004                  
                 132123974.348                   132123974.348    25373026.688  
                 119488927.819                   119488927.819    22946591.344  
                 116635230.126                   116635230.126    22398565.582  
                 130949812.465                   130949812.465    25147539.863  
  24222913.399   127292244.808                                                  
  24099846.168   126645531.079                                                  
  26066202.541   136978775.329                                                  
  27557828.346   144817294.307                                                  
  24584721.105   129193536.984                                                  
  26490491.341   139208491.703                                                  
  27386901.761   143919077.015                                                  
  27744265.209   145797045.833                                                  
 21  8 31 21 57 10.0000000  0 19G10G12G18G21G23G24G32C19C21C22C34E 3
                                E 5E 9E13E15E24E25E31
  20410404.605   107257353.989    20410407.607    83577146.923                  
  24330107.899   127855547.097    24330110.275    99627690.672                  
  23537346.944   123689560.386    23537349.982    96381469.173                  
  25210365.114   132481333.616    25210366.169   103232201.125                  
  20814447.891   109380658.597    20814449.142    85231682.804                  
  21786408.182   114488298.224    21786411.703    89211648.286                  
  21390562.275   112408123.754    21390565.437    87590735.587                  
                 132126388.017                   132126388.017    25373490.192  
                 119487348.027                   119487348.027    22946287.964  
                 116636067.504                   116636067.504    22398726.385  
                 130951102.501                   130951102.501    25147787.599  
  24222726.578   127291263.100                                                  
  24100056.165   126646634.669                                                  
  26066615.941   136980947.763                                                  
  27557407.227   144815081.367                                                  
  24584756.004   129193720.387                                                  
  26490231.365   139207125.473                                                  
  27386353.843   143916197.699                                                  
  27744429.800   145797910.818                                                  
 21  8 31 21 57 11.0000000  0 19G10G12G18G21G23G24G32C19C21C22C34E 3
                                E 5E 9E13E15E24E25E31
  20410248.966   107256536.114    20410251.968    83576509.618                  
  24329610.979   127852935.754    24329613.338    99625655.860                  
  23538061.866   123693317.366    23538064.921    96384396.683                  
  25209891.228   132478843.217    25209892.264   103230260.559                  
  20814729.507   109382138.492    20814730.740    85232835.969                  
  21786892.701   114490844.328    21786896.203    89213632.265                  
  21390265.506   112406564.241    21390268.687    87589520.380                  
                 132128801.779                   132128801.779    25373953.732  
                 119485768.392                   119485768.392    22945984.602  
                 116636905.122                   116636905.122    22398887.242  
                 130952392.981                   130952392.981    25148035.425  
  24222539.794   127290281.551                                                  
  24100266.197   126647738.379                                                  
  26067029.341   136983120.173                                                  
  27556986.179   144812868.745                                                  
  24584790.991   129193904.292                                                  
  26489971.442   139205759.637                                                  
  27385805.943   143913318.406                                                  
  27744594.481   145798776.251                                                  
 21  8 31 21 57 12.0000000  0 19G10G12G18G21G23G24G32C19C21C22C34E 3
                                E 5E 9E13E15E24E25E31
  20410093.398   107255718.653    20410096.400    83575872.633                  
  24329114.095   127850324.653    24329116.454    99623621.235                  
  23538776.823   123697074.469    23538779.861    96387324.296                  
  25209417.359   132476353.124    25209418.396   103228320.222                  
  20815011.194   109383618.819    20815012.445    85233989.472                  
  21787377.309   114493390.915    21787380.793    89215616.617                  
  21389968.809   112405005.005    21389971.954    87588305.390                  
                 132131215.642                   132131215.642    25374417.309  
                 119484188.908                   119484188.908    22945681.275  
                 116637742.967                   116637742.967    22399048.135  
                 130953683.907                   130953683.907    25148283.322  
  24222353.062   127289300.157                                                  
  24100476.248   126648842.205                                                  
  26067442.741   136985292.572                                                  
  27556565.203   144810656.456                                                  
  24584826.104   129194088.698                                                  
  26489711.609   139204394.194                                                  
  27385258.025   143910439.137                                                  
  27744759.251   145799642.145                                                  
 21  8 31 21 57 13.0000000  0 19G10G12G18G21G23G24G32C19C21C22C34E 3
                                E 5E 9E13E15E24E25E31
  20409937.920   107254901.594    20409940.922    83575235.966                  
  24328617.265   127847713.798    24328619.641    99621586.805                  
  23539491.798   123700831.699    23539494.836    96390252.007                  
  25208943.562   132473863.318    25208944.599   103226380.113                  
  20815292.971   109385099.583    20815294.222    85235143.312                  
  21787861.988   114495937.987    21787865.508    89217601.351                  
  21389672.147   112403446.067    21389675.292    87587090.633                  
                 132133629.598                   132133629.598    25374880.867  
                 119482609.575                   119482609.575    22945377.984  
                 116638581.060                   116638581.060    22399209.081  
                 130954975.274                   130954975.274    25148531.326  
  24222166.313   127288318.909                                                  
  24100686.316   126649946.153                                                  
  26067856.123   136987464.967                                                  
  27556144.263   144808444.478                                                  
  24584861.288   129194273.618                                                  
  26489451.847   139203029.156                                                  
  27384710.125   143907559.880                                                  
  27744924.129   145800508.503                                                  
 21  8 31 21 57 14.0000000  0 19G10G12G18G21G23G24G32C19C21C22C34E 3
                                E 5E 9E13E15E24E25E31
  20409782.513   107254084.955    20409785.515    83574599.621                  
  24328120.488   127845103.192    24328122.865    99619552.569                  
  23540206.792   123704589.055    23540209.847    96393179.812                  
  25208469.819   132471373.808    25208470.855   103224440.238                  
  20815574.837   109386580.763    20815576.088    85236297.476                  
  21788346.757   114498485.529    21788350.277    89219586.446                  
  21389375.521   112401887.394    21389378.702    87585876.085                  
                 132136043.654                   132136043.654    25375344.461  
                 119481030.399                   119481030.399    22945074.729  
                 116639419.379                   116639419.379    22399370.081  
                 130956267.081                   130956267.081    25148779.402  
  24221979.618   127287337.809                                                  
  24100896.420   126651050.216                                                  
  26068269.523   136989637.348                                                  
  27555723.393   144806232.825                                                  
  24584896.561   129194459.029                                                  
  26489192.156   139201664.509                                                  
  27384162.225   143904680.649                                                  
  27745089.060   145801375.289                                                  
 21  8 31 21 57 15.0000000  0 19G10G12G18G21G23G24G32C19C21C22C34E 3
                                E 5E 9E13E15E24E25E31
  20409627.177   107253268.708    20409630.197    83573963.590                  
  24327623.747   127842492.815    24327626.124    99617518.505                  
  23540921.821   123708346.610    23540924.876    96396107.810                  
  25207996.147   132468884.636    25207997.183   103222500.660                  
  20815856.774   109388062.343    20815858.025    85237451.944                  
  21788831.633   114501033.542    21788835.135    89221571.911                  
  21389078.985   112400328.938    21389082.148    87584661.681                  
                 132138457.805                   132138457.805    25375808.072  
                 119479451.374                   119479451.374    22944771.474  
                 116640257.943                   116640257.943    22399531.117  
                 130957559.336                   130957559.336    25149027.567  
  24221792.958   127286356.843                                                  
  24101106.542   126652154.419                                                  
  26068682.905   136991809.691                                                  
  27555302.596   144804021.442                                                  
  24584931.942   129194644.894                                                  
  26488932.555   139200300.342                                                  
  27383614.325   143901801.597                                                  
  27745254.098   145802242.542                                                  
 21  8 31 21 57 16.0000000  0 19G10G12G18G21G23G24G32C19C21C22C34E 3
                                E 5E 9E13E15E24E25E31
  20409471.931   107252452.876    20409474.933    83573327.876                  
  24327127.042   127839882.706    24327129.419    99615484.653                  
  23541636.885   123712104.218    23541639.923    96399035.814                  
  25207522.492   132466395.710    25207523.547   103220561.237                  
  20816138.801   109389544.386    20816140.034    85238606.781                  
  21789316.598   114503582.035    21789320.118    89223557.747                  
  21388782.466   112398770.819    21388785.647    87583447.562                  
                 132140872.055                   132140872.055    25376271.702  
                 119477872.504                   119477872.504    22944468.272  
                 116641096.733                   116641096.733    22399692.206  
                 130958852.032                   130958852.032    25149275.821  
  24221606.316   127285376.030                                                  
  24101316.681   126653258.714                                                  
  26069096.304   136993982.034                                                  
  27554881.852   144801810.429                                                  
  24584967.412   129194831.331                                                  
  26488673.025   139198936.493                                                  
  27383066.425   143898922.398                                                  
  27745419.226   145803110.226                                                  
 21  8 31 21 57 17.0000000  0 19G10G12G18G21G23G24G32C19C21C22C34E 3
                                E 5E 9E13E15E24E25E31
  20409316.757   107251637.457    20409319.777    83572692.485                  
  24326630.408   127837272.840    24326632.785    99613450.996                  
  23542351.932   123715861.961    23542355.006    96401963.925                  
  25207048.945   132463907.072    25207049.964   103218622.039                  
  20816420.900   109391026.849    20816422.132    85239761.949                  
  21789801.635   114506131.005    21789805.155    89225543.957                  
  21388486.019   112397212.976    21388489.200    87582233.661                  
                 132143286.398                   132143286.398    25376735.368  
                 119476293.784                   119476293.784    22944165.106  
                 116641935.765                   116641935.765    22399853.313  
                 130960145.173                   130960145.173    25149524.147  
  24221419.727   127284395.387                                                  
  24101526.839   126654363.132                                                  
  26069509.686   136996154.374                                                  
  27554461.179   144799599.739                                                  
  24585003.007   129195018.258                                                  
  26488413.567   139197573.043                                                  
  27382518.543   143896043.235                                                  
  27745584.425   145803978.394                                                  
 21  8 31 21 57 18.0000000  0 19G10G12G18G21G23G24G32C19C21C22C34E 3
                                E 5E 9E13E15E24E25E31
  20409161.671   107250822.447    20409164.673    83572057.409                  
  24326133.792   127834663.226    24326136.187    99611417.530                  
  23543067.032   123719619.831    23543070.106    96404892.128                  
  25206575.416   132461418.736    25206576.453   103216683.073                  
  20816703.087   109392509.749    20816704.320    85240917.458                  
  21790286.797   114508680.448    21790290.299    89227530.536                  
  21388189.626   112395655.427    21388192.806    87581019.981                  
                 132145700.843                   132145700.843    25377199.033  
                 119474715.222                   119474715.222    22943861.958  
                 116642775.032                   116642775.032    22400014.492  
                 130961438.754                   130961438.754    25149772.562  
  24221233.121   127283414.897                                                  
  24101737.014   126655467.667                                                  
  26069923.068   136998326.702                                                  
  27554040.560   144797389.380                                                  
  24585038.656   129195205.696                                                  
  26488154.180   139196210.000                                                  
  27381970.661   143893164.101                                                  
  27745749.713   145804846.997                                                  
 21  8 31 21 57 19.0000000  0 19G10G12G18G21G23G24G32C19C21C22C34E 3
                                E 5E 9E13E15E24E25E31
  20409006.658   107250007.855    20409009.660    83571422.661                  
  24325637.266   127832053.870    24325639.642    99609384.262                  
  23543782.187   123723377.832    23543785.224    96407820.439                  
  25206101.959   132458930.687    25206102.995   103214744.336                  
  20816985.364   109393993.083    20816986.597    85242073.294                  
  21790772.012   114511230.375    21790775.532    89229517.483                  
  21387893.286   112394098.144    21387896.466    87579806.512                  
                 132148115.384                   132148115.384    25377662.716  
                 119473136.814                   119473136.814    22943558.846  
                 116643614.535                   116643614.535    22400175.724  
                 130962732.782                   130962732.782    25150021.084  
  24221046.587   127282434.566                                                  
  24101947.243   126656572.319                                                  
  26070336.432   137000499.024                                                  
  27553619.995   144795179.327                                                  
  24585074.412   129195393.636                                                  
  26487894.883   139194847.357                                                  
  27381422.779   143890284.993                                                  
  27745915.091   145805716.066                                                  
