     2.11           OBSERVATION DATA    M (MIXED)           RINEX VERSION / TYPE
CONVBIN 2.4.3                           20210901 191302 UTC PGM / RUN BY / DATE 
log: logs/21_09_01_10_42_44_msme_P1.rtcm                    COMMENT             
format: RTCM 3, station ID: 849                             COMMENT             
0849                                                        MARKER NAME         
                                                            MARKER NUMBER       
                                                            OBSERVER / AGENCY   
                                                            REC # / TYPE / VERS 
                                                            ANT # / TYPE        
   125061.8430 -5391554.9860  3394068.6240                  APPROX POSITION XYZ 
        0.0000        0.0000        0.0000                  ANTENNA: DELTA H/E/N
     1     1                                                WAVELENGTH FACT L1/2
     5    C1    L1    C2    L2    P2                        # / TYPES OF OBSERV 
  2021     9     1    10    42   49.0000000     GPS         TIME OF FIRST OBS   
  2021     9     1    11    12   48.0000000     GPS         TIME OF LAST OBS    
                                                            END OF HEADER       
 21  9  1 10 42 49.0000000  0 25G30G22G 3G24G 1G14G17G19G 6R13R14R15
                                R17R18R23R24E 1E13E15E21E26E27C23C27
                                C28
  22676091.236   119163669.2481   22676096.275    92854821.4861   22676096.436  
  24354025.908   127981274.8421                   99725640.3931   24354026.104  
  23634122.391   124198155.9021   23634127.716    96777818.0521   23634127.234  
  24204422.838   127195103.7671   24204427.448    99113080.4921   24204426.590  
  23099849.290   121390541.9131   23099854.973    94590057.4091   23099855.241  
  20491632.895   107684281.9241   20491635.557    83909853.5731   20491635.111  
  21003549.114   110374414.7701   21003551.562    86006050.2051   21003551.312  
  20879147.192   109720677.6611                   85496643.6801   20879148.139  
  21775540.439   114431242.1441   21775546.407    89167226.4341   21775546.050  
  21897386.466   116930831.997    21897393.363    90946193.083                  
  19124526.626   101944495.468    19124533.434    79290191.759                  
  21203636.695   113305807.225    21203644.629    88126777.405                  
  19874976.200   106355038.495    19874985.903    82720608.519                  
  23417192.703   125002554.329    23417201.351    97224241.170                  
  23121148.290   123682567.160                                                  
  20100142.865   107484494.186    20100151.013    83599103.872                  
  26147046.093   137403664.163                                                  
  23424632.578   123097290.032                                                  
  26905013.648   141386814.959                                                  
  23527774.204   123639308.784                                                  
  23937197.121   125790824.097                                                  
  25179820.718   132320874.455                                                  
                 119653624.454    22978219.783   119653624.454                  
                 124055626.862    23823579.619   124055626.862                  
                 113381447.147    21773708.596   113381447.147                  
 21  9  1 10 42 50.0000000  0 25G30G22G 3G24G 1G14G17G19G 6R13R14R15
                                R17R18R23R24E 1E13E15E21E26E27C23C27
                                C28
  22676721.137   119166978.7871   22676726.087    92857400.3471   22676726.212  
  24354169.271   127982025.8111                   99726225.5511   24354168.967  
  23633964.036   124197324.1741   23633969.987    96777169.9541   23633968.932  
  24203977.953   127192763.6411   24203981.938    99111257.0151   24203981.294  
  23100503.118   121393977.5531   23100508.693    94592734.5291   23100509.015  
  20491707.337   107684672.8611   20491709.821    83910158.1981   20491709.481  
  21003682.238   110375114.5651   21003684.633    86006595.4961   21003684.472  
  20878993.733   109719871.5381                   85496015.5351   20878994.751  
  21775000.008   114428402.4291   21775006.012    89165013.6711   21775005.709  
  21898075.281   116934511.829    21898082.500    90949055.192                  
  19124556.646   101944655.509    19124563.561    79290316.231                  
  21203001.844   113302413.663    21203009.724    88124137.972                  
  19874762.987   106353897.967    19874772.797    82719721.439                  
  23416571.593   124999238.126    23416579.956    97221661.888                  
  23121843.234   123686282.542                                                  
  20100576.189   107486811.435    20100584.230    83600906.191                  
  26146604.818   137401345.488                                                  
  23424820.345   123098276.764                                                  
  26905528.419   141389520.160                                                  
  23527680.178   123638814.708                                                  
  23936859.003   125789047.338                                                  
  25180166.323   132322690.712                                                  
                 119655905.953    22978657.878   119655905.953                  
                 124053634.068    23823196.882   124053634.068                  
                 113381764.518    21773769.458   113381764.518                  
 21  9  1 10 42 51.0000000  0 25G30G22G 3G24G 1G14G17G19G 6R13R14R15
                                R17R18R23R24E 1E13E15E21E26E27C23C27
                                C28
  22677351.127   119170288.8681   22677355.773    92859979.6291   22677356.077  
  24354312.277   127982777.6321                   99726811.3891   24354312.026  
  23633806.038   124196493.2671   23633811.917    96776522.4901   23633810.809  
  24203533.121   127190424.2961   24203536.963    99109434.1421   24203536.123  
  23101156.803   121397413.7661   23101162.646    94595412.1001   23101162.914  
  20491781.905   107685064.5011   20491784.335    83910463.3751   20491784.013  
  21003815.434   110375814.8121   21003818.132    86007141.1431   21003817.739  
  20878840.524   109719066.0151                   85495387.8571   20878841.489  
  21774459.971   114425563.4441   21774465.868    89162801.4751   21774465.492  
  21898764.453   116938192.359    21898772.387    90951917.824                  
  19124586.844   101944816.649    19124593.563    79290441.564                  
  21202367.154   113299020.783    21202374.909    88121499.057                  
  19874550.042   106352758.365    19874559.548    82718835.077                  
  23415950.448   124995922.554    23415958.740    97219083.108                  
  23122538.107   123689998.206                                                  
  20101009.656   107489129.388    20101017.554    83602709.039                  
  26146163.774   137399027.177                                                  
  23425008.220   123099264.150                                                  
  26906043.172   141392225.733                                                  
  23527586.258   123638321.237                                                  
  23936520.957   125787271.231                                                  
  25180511.927   132324507.555                                                  
                 119658188.135    22979096.116   119658188.135                  
                 124051641.817    23822814.289   124051641.817                  
                 113382082.501    21773830.517   113382082.501                  
 21  9  1 10 42 52.0000000  0 25G30G22G 3G24G 1G14G17G19G 6R13R14R15
                                R17R18R23R24E 1E13E15E21E26E27C23C27
                                C28
  22677981.100   119173599.0821   22677985.907    92862559.0141   22677986.014  
  24354455.461   127983529.8861                   99727397.5641   24354455.139  
  23633648.112   124195662.7591   23633654.169    96775875.3411   23633652.829  
  24203087.754   127188085.2851   24203092.275    99107611.5411   24203091.077  
  23101810.720   121400850.1491   23101816.348    94598089.7941   23101816.849  
  20491856.544   107685456.4521   20491858.974    83910768.7931   20491858.634  
  21003948.737   110376515.0891   21003951.417    86007686.8161   21003951.006  
  20878687.315   109718260.6641                   85494760.3131   20878688.244  
  21773919.647   114422724.7461   21773925.598    89160589.5011   21773925.330  
  21899453.840   116941873.227    21899461.899    90954780.704                  
  19124617.186   101944978.488    19124623.994    79290567.437                  
  21201732.375   113295628.152    21201740.094    88118860.350                  
  19874337.061   106351619.241    19874346.800    82717949.090                  
  23415329.446   124992607.221    23415337.541    97216504.520                  
  23123232.926   123693713.711                                                  
  20101443.212   107491447.646    20101450.985    83604512.122                  
  26145722.481   137396708.840                                                  
  23425196.220   123100251.774                                                  
  26906558.032   141394931.271                                                  
  23527492.410   123637827.962                                                  
  23936183.000   125785495.350                                                  
  25180857.693   132326324.565                                                  
                 119660470.593    22979534.353   119660470.593                  
                 124049649.711    23822431.748   124049649.711                  
                 113382400.657    21773891.629   113382400.657                  
 21  9  1 10 42 53.0000000  0 25G30G22G 3G24G 1G14G17G19G 6R13R14R15
                                R17R18R23R24E 1E13E15E21E26E27C23C27
                                C28
  22678611.001   119176909.3391   22678616.111    92865138.4351   22678616.004  
  24354598.967   127984282.4791                   99727983.9811   24354598.342  
  23633490.203   124194832.6191   23633495.725    96775228.4831   23633494.849  
  24202642.619   127185746.5441   24202647.032    99105789.1431   24202646.085  
  23102464.636   121404286.5961   23102470.712    94600767.5451   23102470.783  
  20491931.057   107685848.6291   20491933.362    83911074.3821   20491933.273  
  21004082.076   110377215.3341   21004084.524    86008232.4591   21004084.291  
  20878534.034   109717455.4071                   85494132.8431   20878535.035  
  21773379.360   114419886.2981   21773385.506    89158377.7191   21773385.238  
  21900143.102   116945554.282    21900150.929    90957643.770                  
  19124647.599   101945140.949    19124654.389    79290693.798                  
  21201097.721   113292235.685    21201105.494    88116221.760                  
  19874124.491   106350480.508    19874134.015    82717063.416                  
  23414708.390   124989292.007    23414716.646    97213926.011                  
  23123927.620   123697428.971                                                  
  20101876.857   107493766.107    20101884.201    83606315.365                  
  26145281.277   137394390.361                                                  
  23425384.220   123101239.559                                                  
  26907072.946   141397636.642                                                  
  23527398.508   123637334.795                                                  
  23935845.133   125783719.615                                                  
  25181203.459   132328141.637                                                  
                 119662753.238    22979972.734   119662753.238                  
                 124047657.678    23822049.244   124047657.678                  
                 113382718.925    21773952.812   113382718.925                  
 21  9  1 10 42 54.0000000  0 25G30G22G 3G24G 1G14G17G19G 6R13R14R15
                                R17R18R23R24E 1E13E15E21E26E27C23C27
                                C28
  22679241.027   119180219.8721   22679246.227    92867718.0741   22679245.976  
  24354742.366   127985035.6611                   99728570.8901   24354741.634  
  23633332.545   124194003.0591   23633336.655    96774582.0681   23633337.012  
  24202197.698   127183408.2731   24202202.076    99103967.1231   24202201.111  
  23103118.607   121407723.3581   23103124.950    94603445.5391   23103124.790  
  20492005.714   107686241.2621   20492008.055    83911380.3311   20492007.983  
  21004215.289   110377915.7601   21004217.469    86008778.2501   21004217.594  
  20878380.915   109716650.4821                   85493505.6311   20878381.880  
  21772839.340   114417048.2881   21772845.433    89156166.2861   21772845.201  
  21900832.453   116949235.802    21900840.190    90960507.156                  
  19124678.155   101945304.261    19124685.017    79290820.816                  
  21200462.942   113288843.608    21200470.751    88113583.481                  
  19873911.760   106349342.433    19873921.606    82716178.248                  
  23414087.210   124985977.145    23414095.644    97211347.804                  
  23124622.207   123701144.235                                                  
  20102310.628   107496084.993    20102317.990    83608118.947                  
  26144840.287   137392072.009                                                  
  23425572.256   123102227.738                                                  
  26907587.770   141400342.112                                                  
  23527304.696   123636841.969                                                  
  23935507.247   125781944.245                                                  
  25181549.349   132329959.029                                                  
                 119665036.307    22980411.276   119665036.307                  
                 124045665.924    23821666.793   124045665.924                  
                 113383037.526    21774014.031   113383037.526                  
 21  9  1 10 42 55.0000000  0 25G30G22G 3G24G 1G14G17G19G 6R13R14R15
                                R17R18R23R24E 1E13E15E21E26E27C23C27
                                C28
  22679870.803   119183530.3171   22679876.324    92870297.6351   22679875.949  
  24354885.783   127985789.0511                   99729157.9361   24354884.961  
  23633174.493   124193173.6721   23633178.532    96773935.7861   23633179.157  
  24201752.491   127181070.1251   24201757.101    99102145.1961   24201756.226  
  23103772.595   121411160.0311   23103779.153    94606123.4661   23103778.778  
  20492080.460   107686633.9761   20492082.998    83911686.3381   20492082.712  
  21004348.592   110378616.0081   21004350.826    86009323.8971   21004350.861  
  20878227.741   109715845.5131                   85492878.3801   20878228.706  
  21772299.338   114414210.3851   21772305.378    89153954.9341   21772305.145  
  21901522.037   116952917.406    21901529.470    90963370.642                  
  19124708.836   101945468.035    19124715.805    79290948.189                  
  21199828.180   113285451.583    21199836.025    88110945.239                  
  19873699.208   106348204.603    19873708.536    82715293.272                  
  23413465.725   124982662.249    23413474.606    97208769.568                  
  23125316.436   123704859.107                                                  
  20102744.363   107498403.911    20102751.796    83609922.559                  
  26144399.030   137389753.384                                                  
  23425760.345   123103215.928                                                  
  26908102.577   141403047.313                                                  
  23527210.830   123636349.111                                                  
  23935169.416   125780168.903                                                  
  25181895.222   132331776.365                                                  
                 119667319.431    22980849.782   119667319.431                  
                 124043674.107    23821284.432   124043674.107                  
                 113383356.090    21774075.251   113383356.090                  
 21  9  1 10 42 56.0000000  0 25G30G22G 3G24G 1G14G17G19G 6R13R14R15
                                R17R18R23R24E 1E13E15E21E26E27C23C27
                                C28
  22680500.829   119186841.4961   22680505.957    92872877.7741   22680506.011  
  24355029.378   127986543.4831                   99729745.7981   24355028.503  
  23633016.638   124192345.3511   23633021.749    96773290.3411   23633021.588  
  24201307.517   127178732.9431   24201311.895    99100324.0221   24201311.484  
  23104426.619   121414597.4911   23104433.445    94608802.0091   23104432.909  
  20492155.439   107687027.6031   20492158.012    83911993.0601   20492157.637  
  21004482.092   110379316.9041   21004484.021    86009870.0501   21004484.236  
  20878074.711   109715041.3281                   85492251.7391   20878075.694  
  21771759.479   114411373.3961   21771765.376    89151744.2951   21771765.322  
  21902211.727   116956599.922    21902218.768    90966234.828                  
  19124739.821   101945633.107    19124746.879    79291076.580                  
  21199193.634   113282060.470    21199201.264    88108307.693                  
  19873486.817   106347067.857    19873496.127    82714409.132                  
  23412843.990   124979348.198    23412854.193    97206191.966                  
  23126010.970   123708574.442                                                  
  20103178.365   107500723.689    20103185.799    83611726.842                  
  26143958.022   137387435.340                                                  
  23425948.596   123104204.969                                                  
  26908617.312   141405753.068                                                  
  23527117.196   123635857.057                                                  
  23934831.709   125778394.390                                                  
  25182241.113   132333594.465                                                  
                 119669603.436    22981288.520   119669603.436                  
                 124041683.022    23820902.124   124041683.022                  
                 113383675.471    21774136.559   113383675.471                  
 21  9  1 10 42 57.0000000  0 25G30G22G 3G24G 1G14G17G19G 6R13R14R15
                                R17R18R23R24E 1E13E15E21E26E27C23C27
                                C28
  22681130.855   119190152.8161   22681136.108    92875458.0211   22681136.126  
  24355172.795   127987298.3551                   99730333.9961   24355172.116  
  23632859.159   124191517.4491   23632864.519    96772645.2251   23632864.091  
  24200862.685   127176396.0831   24200866.992    99098503.0941   24200866.777  
  23105080.929   121418035.1001   23105087.487    94611480.6611   23105087.059  
  20492230.471   107687421.5501   20492232.901    83912300.0311   20492232.597  
  21004615.484   110380017.8431   21004617.324    86010416.2351   21004617.628  
  20877921.681   109714237.3301                   85491625.2501   20877922.681  
  21771219.745   114408536.7201   21771225.731    89149533.8991   21771225.517  
  21902901.150   116960282.763    21902908.994    90969099.221                  
  19124770.931   101945798.899    19124778.043    79291205.523                  
  21198559.051   113278669.617    21198566.556    88105670.379                  
  19873274.480   106345931.620    19873283.789    82713525.396                  
  23412222.917   124976034.307    23412233.334    97203614.518                  
  23126705.610   123712289.630                                                  
  20103612.368   107503043.741    20103619.712    83613531.316                  
  26143516.907   137385117.249                                                  
  23426136.846   123105194.260                                                  
  26909132.279   141408458.782                                                  
  23527023.634   123635365.208                                                  
  23934494.163   125776620.108                                                  
  25182587.057   132335412.731                                                  
                 119671887.720    22981727.276   119671887.720                  
                 124039692.117    23820519.835   124039692.117                  
                 113383995.032    21774197.939   113383995.032                  
 21  9  1 10 42 58.0000000  0 25G30G22G 3G24G 1G14G17G19G 6R13R14R15
                                R17R18R23R24E 1E13E15E21E26E27C23C27
                                C28
  22681761.024   119193464.4171   22681766.420    92878038.4921   22681766.277  
  24355316.498   127988053.8321                   99730922.6931   24355315.908  
  23632701.804   124190690.1221   23632708.058    96772000.5521   23632706.700  
  24200418.193   127174059.7541   24200422.303    99096682.5901   24200422.196  
  23105735.186   121421473.0441   23105741.511    94614159.5741   23105741.279  
  20492305.467   107687815.9661   20492307.790    83912607.3711   20492307.647  
  21004749.001   110380718.9951   21004750.591    86010962.5841   21004751.056  
  20877768.668   109713433.6811                   85490999.0281   20877769.723  
  21770679.922   114405700.5231   21770686.087    89147323.8751   21770685.819  
  21903590.251   116963966.078    21903598.631    90971964.047                  
  19124802.094   101945965.569    19124809.188    79291335.162                  
  21197924.451   113275279.170    21197932.188    88103033.362                  
  19873062.303   106344796.064    19873071.380    82712642.197                  
  23411602.987   124972720.852    23411612.779    97201037.386                  
  23127400.125   123716004.822                                                  
  20104046.407   107505364.224    20104053.519    83615336.143                  
  26143075.793   137382799.296                                                  
  23426325.149   123106183.961                                                  
  26909647.086   141411164.596                                                  
  23526930.125   123634873.712                                                  
  23934156.635   125774846.228                                                  
  25182933.252   132337231.329                                                  
                 119674172.446    22982166.103   119674172.446                  
                 124037701.497    23820137.705   124037701.497                  
                 113384314.951    21774259.373   113384314.951                  
 21  9  1 10 42 59.0000000  0 25G30G22G 3G24G 1G14G17G19G 6R13R14R15
                                R17R18R23R24E 1E13E15E21E26E27C23C27
                                C28
  22682391.175   119196776.1181   22682396.678    92880619.0361   22682396.482  
  24355459.933   127988809.7191                   99731511.7171   24355459.807  
  23632544.324   124189863.1861   23632550.847    96771356.1861   23632549.381  
  24199973.791   127171723.7041   24199977.990    99094862.2851   24199977.668  
  23106389.460   121424911.0941   23106395.553    94616838.5711   23106395.553  
  20492380.553   107688210.6461   20492382.947    83912914.9161   20492382.733  
  21004882.447   110381420.1431   21004884.073    86011508.9331   21004884.502  
  20877615.781   109712630.1621                   85490372.9111   20877616.764  
  21770140.367   114402864.5811   21770146.335    89145114.0521   21770146.174  
  21904279.959   116967649.641    21904287.768    90974829.043                  
  19124833.419   101946132.912    19124840.674    79291465.322                  
  21197289.939   113271888.959    21197297.677    88100396.522                  
  19872850.269   106343660.956    19872859.329    82711759.324                  
  23410981.395   124969407.549    23410992.009    97198460.368                  
  23128094.551   123719719.831                                                  
  20104480.392   107507684.928    20104487.253    83617141.123                  
  26142634.714   137380481.267                                                  
  23426513.543   123107173.871                                                  
  26910162.053   141413870.319                                                  
  23526836.599   123634382.376                                                  
  23933819.179   125773072.536                                                  
  25183279.410   132339050.050                                                  
                 119676457.400    22982604.931   119676457.400                  
                 124035710.991    23819755.380   124035710.991                  
                 113384635.021    21774320.807   113384635.021                  
 21  9  1 10 43  0.0000000  0 25G30G22G 3G24G 1G14G17G19G 6R13R14R15
                                R17R18R23R24E 1E13E15E21E26E27C23C27
                                C28
  22683021.522   119200088.1101   22683027.240    92883199.8081   22683026.722  
  24355603.760   127989566.1821                   99732101.1681   24355603.760  
  23632387.542   124189036.8341   23632393.313    96770712.2781   23632392.170  
  24199529.460   127169388.1861   24199533.730    99093042.3951   24199533.230  
  23107043.627   121428349.4611   23107049.685    94619517.8201   23107049.846  
  20492455.871   107688605.7841   20492458.247    83913222.8161   20492457.908  
  21005015.857   110382121.4881   21005017.805    86012055.4381   21005017.984  
  20877462.947   109711826.9741                   85489747.0481   20877463.912  
  21769600.812   114400029.1231   21769606.583    89142904.6001   21769606.619  
  21904969.775   116971333.669    21904978.031    90977694.400                  
  19124864.922   101946301.109    19124872.373    79291596.149                  
  21196655.500   113268499.153    21196663.112    88097760.006                  
  19872638.324   106342526.493    19872647.491    82710876.969                  
  23410361.161   124966094.609    23410370.792    97195883.612                  
  23128788.995   123723434.835                                                  
  20104914.609   107510006.094    20104921.256    83618946.465                  
  26142193.581   137378163.358                                                  
  23426701.971   123108164.171                                                  
  26910676.878   141416576.162                                                  
  23526743.162   123633891.387                                                  
  23933481.704   125771299.219                                                  
  25183625.623   132340869.088                                                  
                 119678742.798    22983043.901   119678742.798                  
                 124033720.793    23819373.215   124033720.793                  
                 113384955.429    21774382.294   113384955.429                  
 21  9  1 10 43  1.0000000  0 25G30G22G 3G24G 1G14G17G19G 6R13R14R15
                                R17R18R23R24E 1E13E15E21E26E27C23C27
                                C28
  22683651.888   119203400.7911   22683657.606    92885781.1251   22683657.123  
  24355747.892   127990323.6481                   99732691.4001   24355747.892  
  23632230.652   124188211.4941   23632236.334    96770069.1601   23632235.137  
  24199085.414   127167053.5651   24199089.435    99091223.2081   24199088.935  
  23107698.134   121431788.5461   23107703.691    94622197.6271   23107704.281  
  20492531.224   107689001.8121   20492533.190    83913531.4091   20492533.261  
  21005149.392   110382823.4371   21005151.286    86012602.4121   21005151.555  
  20877310.131   109711024.5291                   85489121.7661   20877311.186  
  21769061.292   114397194.5281   21769067.421    89140695.8271   21769067.243  
  21905660.252   116975018.591    21905668.240    90980560.439                  
  19124896.747   101946470.562    19124904.127    79291727.948                  
  21196021.239   113265110.171    21196029.065    88095124.145                  
  19872426.577   106341393.097    19872435.725    82709995.441                  
  23409741.124   124962782.448    23409750.934    97193307.507                  
  23129483.403   123727150.271                                                  
  20105348.791   107512328.109    20105355.384    83620752.484                  
  26141752.520   137375845.965                                                  
  23426890.579   123109155.278                                                  
  26911191.988   141419282.492                                                  
  23526649.939   123633401.164                                                  
  23933144.409   125769526.718                                                  
  25183971.960   132342688.860                                                  
                 119681029.016    22983482.979   119681029.016                  
                 124031731.290    23818991.211   124031731.290                  
                 113385276.601    21774443.996   113385276.601                  
 21  9  1 10 43  2.0000000  0 25G30G22G 3G24G 1G14G17G19G 6R13R14R15
                                R17R18R23R24E 1E13E15E21E26E27C23C27
                                C28
  22684282.271   119206713.2141   22684288.204    92888362.2361   22684287.435  
  24355892.291   127991081.1611                   99733281.6581   24355892.023  
  23632073.726   124187386.1621   23632079.247    96769426.0401   23632078.122  
  24198641.369   127164718.8831   24198645.211    99089403.9841   24198644.586  
  23108352.748   121435227.4091   23108357.912    94624877.2581   23108358.644  
  20492606.453   107689397.7451   20492608.418    83913839.9261   20492608.615  
  21005282.624   110383525.0381   21005285.000    86013149.1151   21005285.090  
  20877157.387   109710221.8721                   85488496.3221   20877158.441  
  21768521.952   114394359.8571   21768527.777    89138486.9901   21768527.848  
  21906350.872   116978703.404    21906358.252    90983426.418                  
  19124928.643   101946640.292    19124936.041    79291859.956                  
  21195386.924   113261721.043    21195394.876    88092488.150                  
  19872214.846   106340259.776    19872223.942    82709113.974                  
  23409120.550   124959470.146    23409130.468    97190731.282                  
  23130177.776   123730865.161                                                  
  20105783.133   107514649.950    20105789.566    83622558.358                  
  26141311.495   137373528.173                                                  
  23427079.169   123110146.247                                                  
  26911706.830   141421988.391                                                  
  23526556.609   123632910.742                                                  
  23932806.970   125767754.047                                                  
  25184318.154   132344508.397                                                  
                 119683315.129    22983921.895   119683315.129                  
                 124029741.545    23818609.118   124029741.545                  
                 113385597.569    21774505.626   113385597.569                  
 21  9  1 10 43  3.0000000  0 25G30G22G 3G24G 1G14G17G19G 6R13R14R15
                                R17R18R23R24E 1E13E15E21E26E27C23C27
                                C28
  22684912.601   119210025.8451   22684918.158    92890943.5051   22684917.783  
  24356036.602   127991839.1821                   99733872.3421   24356036.244  
  23631916.961   124186561.3301   23631921.875    96768783.3161   23631921.196  
  24198197.395   127162384.6371   24198201.219    99087585.0851   24198200.397  
  23109007.343   121438666.4941   23109012.740    94627557.0671   23109013.079  
  20492681.896   107689794.0721   20492684.004    83914148.7481   20492684.022  
  21005416.177   110384226.7581   21005418.875    86013695.9111   21005418.643  
  20877004.714   109709419.4761                   85487871.0761   20877005.750  
  21767982.521   114391525.5791   21767988.418    89136278.4591   21767988.472  
  21907040.920   116982388.630    21907048.532    90986292.678                  
  19124960.628   101946810.784    19124967.919    79291992.565                  
  21194752.610   113258332.273    21194760.436    88089852.442                  
  19872003.277   106339127.014    19872012.194    82708232.932                  
  23408500.585   124956158.145    23408510.305    97188155.279                  
  23130872.130   123734579.971                                                  
  20106217.457   107516972.096    20106224.140    83624364.476                  
  26140870.469   137371210.393                                                  
  23427267.848   123111137.521                                                  
  26912221.583   141424694.302                                                  
  23526463.386   123632420.592                                                  
  23932469.692   125765981.682                                                  
  25184664.385   132346328.184                                                  
                 119685601.597    22984360.919   119685601.597                  
                 124027752.030    23818226.971   124027752.030                  
                 113385918.797    21774567.239   113385918.797                  
 21  9  1 10 43  4.0000000  0 25G30G22G 3G24G 1G14G17G19G 6R13R14R15
                                R17R18R23R24E 1E13E15E21E26E27C23C27
                                C28
  22685542.859   119213338.8081   22685548.667    92893525.0301   22685548.238  
  24356180.894   127992597.8511                   99734463.4921   24356180.626  
  23631760.017   124185737.1341   23631764.467    96768141.0881   23631764.431  
  24197753.279   127160050.9411   24197757.424    99085766.6181   24197756.334  
  23109661.832   121442105.9581   23109667.497    94630237.1641   23109667.586  
  20492757.375   107690190.9031   20492759.537    83914457.9691   20492759.519  
  21005549.712   110384928.7341   21005552.518    86014242.9071   21005552.232  
  20876852.256   109708617.4621                   85487246.1301   20876853.113  
  21767443.306   114388691.8231   21767449.185    89134070.3381   21767449.185  
  21907731.254   116986074.349    21907738.562    90989159.323                  
  19124992.703   101946982.205    19125000.333    79292125.886                  
  21194118.509   113254943.995    21194126.461    88087217.112                  
  19871791.601   106337994.975    19871800.535    82707352.452                  
  23407880.905   124952846.607    23407889.947    97185579.635                  
  23131566.467   123738294.837                                                  
  20106651.764   107519294.752    20106658.929    83626171.001                  
  26140429.355   137368892.778                                                  
  23427456.580   123112129.259                                                  
  26912736.461   141427400.385                                                  
  23526370.235   123631930.838                                                  
  23932132.522   125764209.768                                                  
  25185010.686   132348148.334                                                  
                 119687888.542    22984800.086   119687888.542                  
                 124025762.888    23817845.003   124025762.888                  
                 113386240.437    21774628.994   113386240.437                  
 21  9  1 10 43  5.0000000  0 25G30G22G 3G24G 1G14G17G19G 6R13R14R15
                                R17R18R23R24E 1E13E15E21E26E27C23C27
                                C28
  22686173.278   119216652.0121   22686178.871    92896106.7471   22686178.693  
  24356325.294   127993357.0551                   99735055.0681   24356325.115  
  23631603.377   124184913.4791   23631607.898    96767499.2851   23631607.737  
  24197309.180   127157717.6821   24197313.701    99083948.4871   24197312.325  
  23110316.643   121445545.6751   23110321.914    94632917.4651   23110322.128  
  20492832.978   107690588.1481   20492835.284    83914767.5081   20492835.123  
  21005683.301   110385630.8451   21005685.552    86014790.0041   21005685.838  
  20876699.654   109707815.7331                   85486621.4081   20876700.530  
  21766904.126   114385858.4701   21766910.041    89131862.5321   21766910.005  
  21908421.338   116989760.473    21908429.111    90992026.375                  
  19125024.885   101947154.444    19125032.766    79292259.852                  
  21193484.481   113251556.096    21193492.379    88084582.089                  
  19871580.210   106336863.524    19871589.323    82706472.456                  
  23407260.743   124949535.351    23407269.391    97183004.233                  
  23132260.821   123742009.631                                                  
  20107086.142   107521617.818    20107093.129    83627977.822                  
  26139988.347   137366575.256                                                  
  23427645.367   123113121.332                                                  
  26913251.482   141430106.504                                                  
  23526277.102   123631441.387                                                  
  23931795.351   125762438.159                                                  
  25185357.095   132349968.740                                                  
                 119690175.859    22985239.343   119690175.859                  
                 124023773.963    23817462.891   124023773.963                  
                 113386562.356    21774690.821   113386562.356                  
 21  9  1 10 43  6.0000000  0 25G30G22G 3G24G 1G14G17G19G 6R13R14R15
                                R17R18R23R24E 1E13E15E21E26E27C23C27
                                C28
  22686803.787   119219965.5851   22686809.576    92898688.7481   22686809.219  
  24356470.193   127994116.9241                   99735647.1741   24356469.729  
  23631446.452   124184090.4691   23631450.919    96766857.9721   23631451.116  
  24196865.474   127155385.0041   24196869.727    99082130.8291   24196868.512  
  23110971.238   121448985.7811   23110976.760    94635598.0651   23110976.760  
  20492908.725   107690985.9301   20492911.120    83915077.4681   20492910.852  
  21005816.997   110386333.2311   21005819.070    86015337.3211   21005819.481  
  20876547.196   109707014.4111                   85485997.0021   20876548.018  
  21766365.125   114383025.6681   21766370.932    89129655.1541   21766370.968  
  21909111.100   116993447.155    21909118.730    90994893.762                  
  19125057.264   101947327.606    19125065.144    79292394.538                  
  21192850.452   113248168.687    21192858.493    88081947.433                  
  19871368.909   106335732.812    19871378.505    82705592.990                  
  23406639.794   124946224.549    23406648.907    97180429.148                  
  23132955.372   123745724.530                                                  
  20107520.520   107523941.391    20107527.561    83629785.032                  
  26139547.411   137364257.905                                                  
  23427834.242   123114113.885                                                  
  26913766.485   141432812.811                                                  
  23526184.004   123630952.364                                                  
  23931458.377   125760667.032                                                  
  25185703.683   132351789.553                                                  
                 119692463.685    22985678.653   119692463.685                  
                 124021785.411    23817081.120   124021785.411                  
                 113386884.700    21774752.755   113386884.700                  
 21  9  1 10 43  7.0000000  0 25G30G22G 3G24G 1G14G17G19G 6R13R14R15
                                R17R18R23R24E 1E13E15E21E26E27C23C27
                                C28
  22687434.367   119223279.1881   22687440.103    92901270.7801   22687439.781  
  24356615.076   127994877.1261                   99736239.5571   24356614.379  
  23631289.740   124183267.7871   23631294.762    96766216.9211   23631294.583  
  24196421.947   127153052.5661   24196425.360    99080313.3501   24196424.699  
  23111625.816   121452425.9551   23111631.195    94638278.7181   23111631.392  
  20492984.490   107691383.9351   20492987.063    83915387.6021   20492986.634  
  21005950.657   110387035.5711   21005952.891    86015884.5981   21005953.105  
  20876394.880   109706213.1721                   85485372.6641   20876395.541  
  21765826.159   114380193.0801   21765831.859    89127447.9471   21765831.949  
  21909801.309   116997134.048    21909809.761    90997761.362                  
  19125089.821   101947501.376    19125097.791    79292529.687                  
  21192216.584   113244781.423    21192224.500    88079312.888                  
  19871157.554   106334602.485    19871167.525    82704713.851                  
  23406018.988   124942913.842    23406027.691    97177854.147                  
  23133649.780   123749439.172                                                  
  20107954.898   107526265.135    20107961.849    83631592.397                  
  26139106.439   137361940.439                                                  
  23428023.136   123115106.589                                                  
  26914281.453   141435518.971                                                  
  23526090.907   123630463.441                                                  
  23931121.492   125758896.045                                                  
  25186050.235   132353610.428                                                  
                 119694751.700    22986118.070   119694751.700                  
                 124019796.926    23816699.259   124019796.926                  
                 113387207.143    21774814.653   113387207.143                  
 21  9  1 10 43  8.0000000  0 25G30G22G 3G24G 1G14G17G19G 6R13R14R15
                                R17R18R23R24E 1E13E15E21E26E27C23C27
                                C28
  22688064.786   119226593.0981   22688070.879    92903853.0491   22688070.450  
  24356759.815   127995637.9491                   99736832.4061   24356759.136  
  23631133.583   124182445.7341   23631137.711    96765576.3631   23631138.211  
  24195978.349   127150720.6741   24195981.547    99078496.2941   24195980.940  
  23112280.555   121455866.4551   23112285.523    94640959.6321   23112286.095  
  20493060.237   107691782.4251   20493062.685    83915698.1161   20493062.506  
  21006084.407   110387738.1341   21006086.766    86016432.0521   21006086.801  
  20876242.439   109705412.2991                   85484748.6001   20876243.118  
  21765287.319   114377361.0051   21765293.001    89125241.1361   21765293.001  
  21910492.036   117000821.434    21910500.416    91000629.345                  
  19125122.611   101947675.993    19125130.188    79292665.510                  
  21191582.699   113241394.587    21191590.722    88076678.693                  
  19870946.628   106333472.834    19870956.385    82703835.227                  
  23405399.273   124939603.525    23405407.421    97175279.463                  
  23134344.010   123753153.853                                                  
  20108389.437   107528589.302    20108396.299    83633400.090                  
  26138665.539   137359623.113                                                  
  23428212.136   123116099.712                                                  
  26914796.456   141438225.263                                                  
  23525997.952   123629974.905                                                  
  23930784.590   125757125.478                                                  
  25186396.822   132355431.658                                                  
                 119697040.171    22986557.487   119697040.171                  
                 124017808.769    23816317.559   124017808.769                  
                 113387529.961    21774876.694   113387529.961                  
 21  9  1 10 43  9.0000000  0 25G30G22G 3G24G 1G14G17G19G 6R13R14R15
                                R17R18R23R24E 1E13E15E21E26E27C23C27
                                C28
  22688695.491   119229907.3441   22688701.888    92906435.5801   22688701.156  
  24356904.679   127996399.4151                   99737425.7501   24356904.035  
  23630977.247   124181624.2971   23630981.053    96764936.2821   23630981.946  
  24195534.697   127148389.3311   24195538.127    99076679.6651   24195537.305  
  23112935.258   121459307.3311   23112940.405    94643640.8311   23112940.869  
  20493136.109   107692181.4271   20493138.646    83916009.0321   20493138.467  
  21006218.264   110388440.9431   21006220.765    86016979.6961   21006220.551  
  20876090.052   109704611.8141                   85484124.8461   20876090.767  
  21764748.514   114374529.4241   21764754.143    89123034.7111   21764754.161  
  21911182.638   117004509.344    21911190.965    91003497.708                  
  19125155.633   101947851.528    19125163.013    79292802.035                  
  21190948.974   113238008.237    21190956.622    88074044.870                  
  19870735.810   106332343.860    19870745.280    82702957.157                  
  23404779.915   124936293.617    23404787.152    97172705.099                  
  23135038.329   123756868.584                                                  
  20108824.065   107530913.942    20108830.730    83635208.134                  
  26138224.603   137357305.964                                                  
  23428401.208   123117093.284                                                  
  26915311.691   141440931.702                                                  
  23525905.033   123629486.763                                                  
  23930447.723   125755355.334                                                  
  25186743.553   132357253.255                                                  
                 119699329.105    22986997.083   119699329.105                  
                 124015820.964    23815935.715   124015820.964                  
                 113387853.177    21774938.789   113387853.177                  
 21  9  1 10 43 10.0000000  0 25G30G22G 3G24G 1G14G17G19G 6R13R14R15
                                R17R18R23R24E 1E13E15E21E26E27C23C27
                                C28
  22689326.357   119233221.6151   22689332.843    92909018.1291   22689331.896  
  24357049.418   127997161.2001                   99738019.3351   24357049.007  
  23630820.679   124180803.1791   23630825.682    96764296.4551   23630825.682  
  24195090.937   127146058.2291   24195094.297    99074863.2151   24195093.743  
  23113589.640   121462748.2451   23113595.233    94646322.0611   23113595.644  
  20493212.070   107692580.6211   20493214.446    83916320.0921   20493214.428  
  21006352.031   110389143.6821   21006354.122    86017527.2821   21006354.265  
  20875937.630   109703811.3961                   85483501.1411   20875938.434  
  21764209.853   114371698.0481   21764215.338    89120828.4441   21764215.392  
  21911872.972   117008197.431    21911880.995    91006366.222                  
  19125188.691   101948027.675    19125195.856    79292939.029                  
  21190315.284   113234622.050    21190323.075    88071411.165                  
  19870524.919   106331215.269    19870534.068    82702079.362                  
  23404160.574   124932983.831    23404166.882    97170130.838                  
  23135733.058   123760583.059                                                  
  20109258.676   107533238.745    20109265.448    83637016.319                  
  26137783.667   137354988.657                                                  
  23428590.298   123118086.985                                                  
  26915826.694   141443637.977                                                  
  23525812.168   123628998.705                                                  
  23930110.963   125753585.313                                                  
  25187090.212   132359074.899                                                  
                 119701618.219    22987436.750   119701618.219                  
                 124013833.194    23815553.997   124013833.194                  
                 113388176.466    21775000.955   113388176.466                  
 21  9  1 10 43 11.0000000  0 25G30G22G 3G24G 1G14G17G19G 6R13R14R15
                                R17R18R23R24E 1E13E15E21E26E27C23C27
                                C28
  22689957.294   119236536.1981   22689963.191    92911600.9251   22689962.709  
  24357194.461   127997923.5941                   99738613.4151   24357194.103  
  23630664.593   124179982.6721   23630669.507    96763657.0981   23630669.560  
  24194647.089   127143727.6311   24194651.109    99073047.1581   24194650.305  
  23114244.147   121466189.5051   23114250.025    94649003.5621   23114250.526  
  20493288.138   107692980.3191   20493290.354    83916631.5401   20493290.515  
  21006485.906   110389846.6521   21006488.122    86018075.0491   21006488.032  
  20875785.296   109703011.3331                   85482877.7181   20875786.172  
  21763671.209   114368867.1741   21763676.784    89118622.5681   21763676.677  
  21912563.931   117011886.027    21912571.937    91009235.100                  
  19125222.017   101948204.722    19125229.039    79293076.737                  
  21189681.774   113231236.297    21189689.815    88068777.796                  
  19870314.261   106330087.378    19870322.767    82701202.104                  
  23403541.002   124929674.489    23403547.631    97167556.901                  
  23136427.502   123764297.569                                                  
  20109693.447   107535563.976    20109700.273    83638824.822                  
  26137342.713   137352671.493                                                  
  23428779.424   123119081.117                                                  
  26916341.662   141446344.377                                                  
  23525719.320   123628511.023                                                  
  23929774.186   125751815.714                                                  
  25187436.978   132360896.893                                                  
                 119703907.790    22987876.471   119703907.790                  
                 124011845.743    23815172.386   124011845.743                  
                 113388500.124    21775063.158   113388500.124                  
 21  9  1 10 43 12.0000000  0 25G30G22G 3G24G 1G14G17G19G 6R13R14R15
                                R17R18R23R24E 1E13E15E21E26E27C23C27
                                C28
  22690587.999   119239850.8451   22690593.968    92914183.7671   22690593.539  
  24357339.611   127998686.3861                   99739207.7941   24357339.271  
  23630508.560   124179162.5441   23630513.617    96763018.0331   23630513.492  
  24194202.972   127141397.3241   24194207.886    99071231.3481   24194206.957  
  23114898.868   121469630.8671   23114904.443    94651685.1361   23114905.425  
  20493364.296   107693380.2731   20493366.476    83916943.1921   20493366.655  
  21006619.530   110390549.6081   21006621.925    86018622.8071   21006621.800  
  20875633.088   109702211.4061                   85482254.4001   20875633.928  
  21763132.654   114366036.5551   21763138.265    89116416.8891   21763137.961  
  21913255.034   117015574.864    21913262.789    91012104.233                  
  19125255.503   101948382.423    19125262.454    79293214.945                  
  21189048.371   113227850.738    21189056.108    88066144.595                  
  19870103.353   106328959.923    19870111.859    82700325.185                  
  23402921.340   124926365.264    23402928.326    97164983.082                  
  23137121.839   123768011.874                                                  
  20110128.182   107537889.400    20110135.527    83640633.481                  
  26136901.652   137350354.259                                                  
  23428968.586   123120075.435                                                  
  26916856.718   141449050.678                                                  
  23525626.544   123628023.482                                                  
  23929437.516   125750046.286                                                  
  25187783.798   132362718.994                                                  
                 119706197.576    22988316.138   119706197.576                  
                 124009858.409    23814790.686   124009858.409                  
                 113388823.922    21775125.378   113388823.922                  
 21  9  1 10 43 13.0000000  0 25G30G22G 3G24G 1G14G17G19G 6R13R14R15
                                R17R18R23R24E 1E13E15E21E26E27C23C27
                                C28
  22691218.847   119243165.9361   22691224.976    92916766.9501   22691224.351  
  24357485.118   127999449.8881                   99739802.7371   24357484.564  
  23630352.903   124178343.1341   23630358.067    96762379.5251   23630357.585  
  24193759.391   127139067.6631   24193764.359    99069416.0301   24193763.716  
  23115553.660   121473072.6821   23115559.753    94654367.0701   23115560.361  
  20493440.472   107693780.8221   20493443.027    83917255.3111   20493442.902  
  21006753.262   110391252.8991   21006755.371    86019170.8251   21006755.621  
  20875480.826   109701411.9471                   85481631.4461   20875481.791  
  21762594.082   114363206.5441   21762599.621    89114211.6881   21762599.407  
  21913946.279   117019264.316    21913953.015    91014973.811                  
  19125289.097   101948561.107    19125295.941    79293353.921                  
  21188415.075   113224465.742    21188422.687    88063511.812                  
  19869892.553   106327833.232    19869901.791    82699448.868                  
  23402301.928   124923056.569    23402308.629    97162409.629                  
  23137816.515   123771726.322                                                  
  20110563.097   107540215.392    20110570.262    83642442.602                  
  26136460.806   137348037.274                                                  
  23429157.872   123121070.286                                                  
  26917371.757   141451757.214                                                  
  23525533.911   123627536.443                                                  
  23929100.899   125748277.380                                                  
  25188130.582   132364541.560                                                  
                 119708487.929    22988755.841   119708487.929                  
                 124007871.500    23814409.040   124007871.500                  
                 113389148.205    21775187.633   113389148.205                  
 21  9  1 10 43 14.0000000  0 25G30G22G 3G24G 1G14G17G19G 6R13R14R15
                                R17R18R23R24E 1E13E15E21E26E27C23C27
                                C28
  22691849.642   119246481.1321   22691855.610    92919350.2221   22691855.181  
  24357630.322   128000213.8221                   99740398.0011   24357629.947  
  23630197.478   124177524.1271   23630202.232    96761741.3461   23630201.785  
  24193316.007   127136738.3391   24193321.296    99067600.9771   24193320.510  
  23116208.738   121476514.6311   23116214.993    94657049.1081   23116215.332  
  20493516.951   107694181.6741   20493519.506    83917567.6631   20493519.220  
  21006887.173   110391956.2211   21006889.442    86019718.8691   21006889.460  
  20875328.814   109700612.6621                   85481008.6311   20875329.690  
  21762055.599   114360376.8351   21762061.531    89112006.7221   21762060.924  
  21914637.560   117022954.069    21914645.065    91017843.612                  
  19125322.744   101948740.463    19125329.517    79293493.420                  
  21187781.743   113221080.997    21187789.337    88060879.223                  
  19869681.966   106326706.993    19869691.312    82698572.906                  
  23401682.212   124919748.026    23401688.770    97159836.330                  
  23138510.834   123775440.602                                                  
  20110998.207   107542541.704    20111005.623    83644251.960                  
  26136019.798   137345720.240                                                  
  23429347.302   123122065.366                                                  
  26917886.742   141454463.697                                                  
  23525441.261   123627049.577                                                  
  23928764.264   125746508.694                                                  
  25188477.473   132366364.275                                                  
                 119710778.555    22989195.741   119710778.555                  
                 124005884.713    23814027.536   124005884.713                  
                 113389472.660    21775249.996   113389472.660                  
 21  9  1 10 43 15.0000000  0 25G30G22G 3G24G 1G14G17G19G 6R13R14R15
                                R17R18R23R24E 1E13E15E21E26E27C23C27
                                C28
  22692480.454   119249796.8531   22692486.458    92921933.9011   22692486.136  
  24357775.937   128000978.5771                   99740993.8941   24357775.454  
  23630041.786   124176705.9351   23630046.485    96761103.8011   23630046.110  
  24192872.963   127134409.7391   24192878.037    99065786.4771   24192877.412  
  23116863.978   121479957.1271   23116869.749    94659731.5721   23116870.428  
  20493593.395   107694583.2121   20493595.986    83917880.5521   20493595.646  
  21007021.137   110392659.9731   21007023.406    86020267.2471   21007023.424  
  20875176.927   109699813.9411                   85480386.2501   20875177.678  
  21761517.169   114357547.8241   21761523.156    89109802.2961   21761522.584  
  21915328.501   117026644.505    21915337.043    91020713.949                  
  19125356.624   101948920.892    19125363.343    79293633.746                  
  21187148.643   113217696.930    21187156.220    88058247.168                  
  19869471.719   106325581.665    19869481.225    82697697.663                  
  23401062.586   124916440.097    23401069.037    97157263.496                  
  23139205.099   123779155.122                                                  
  20111433.372   107544868.717    20111440.376    83646061.857                  
  26135578.987   137343403.551                                                  
  23429536.803   123123061.083                                                  
  26918401.728   141457170.497                                                  
  23525348.717   123626563.292                                                  
  23928427.755   125744740.633                                                  
  25188824.454   132368187.535                                                  
                 119713069.835    22989635.712   119713069.835                  
                 124003898.478    23813645.997   124003898.478                  
                 113389797.700    21775312.413   113389797.700                  
 21  9  1 10 43 16.0000000  0 25G30G22G 3G24G 1G14G17G19G 6R13R14R15
                                R17R18R23R24E 1E13E15E21E26E27C23C27
                                C28
  22693111.498   119253112.7331   22693117.324    92924517.7011   22693117.163  
  24357921.390   128001743.8051                   99741590.1851   24357921.069  
  23629886.450   124175888.2251   23629890.596    96760466.6181   23629890.524  
  24192430.079   127132081.5281   24192434.796    99063972.2861   24192434.314  
  23117519.163   121483399.8241   23117524.703    94662414.1891   23117525.578  
  20493669.856   107694985.0991   20493672.608    83918193.7111   20493672.143  
  21007155.119   110393363.8061   21007157.227    86020815.6881   21007157.352  
  20875024.933   109699015.4391                   85479764.0391   20875025.738  
  21760978.829   114354719.1511   21760984.744    89107598.1371   21760984.279  
  21916019.782   117030335.305    21916028.199    91023584.571                  
  19125390.646   101949102.055    19125397.365    79293774.663                  
  21186515.437   113214313.182    21186523.013    88055615.371                  
  19869261.562   106324456.896    19869271.014    82696822.831                  
  23400442.745   124913132.431    23400449.625    97154690.841                  
  23139899.775   123782869.510                                                  
  20111868.607   107547196.023    20111875.719    83647871.977                  
  26135138.248   137341086.875                                                  
  23429726.357   123124057.076                                                  
  26918916.749   141459877.293                                                  
  23525256.263   123626077.248                                                  
  23928091.353   125742972.839                                                  
  25189171.381   132370010.999                                                  
                 119715361.433    22990075.808   119715361.433                  
                 124001912.426    23813264.547   124001912.426                  
                 113390122.957    21775374.883   113390122.957                  
 21  9  1 10 43 17.0000000  0 25G30G22G 3G24G 1G14G17G19G 6R13R14R15
                                R17R18R23R24E 1E13E15E21E26E27C23C27
                                C28
  22693742.614   119256428.9771   22693748.154    92927101.7921   22693748.225  
  24358067.309   128002509.7141                   99742187.0101   24358066.809  
  23629730.686   124175071.1831   23629734.403    96759829.9621   23629735.100  
  24191987.195   127129753.9261   24191991.984    99062158.5631   24191991.394  
  23118174.635   121486842.9211   23118180.406    94665097.1241   23118180.800  
  20493746.461   107695387.5441   20493749.284    83918507.3001   20493748.712  
  21007289.154   110394067.9181   21007291.138    86021364.3451   21007291.352  
  20874873.083   109698217.3511                   85479142.1541   20874873.869  
  21760440.436   114351891.0551   21760446.601    89105394.4221   21760446.136  
  21916710.956   117034026.657    21916719.498    91026455.592                  
  19125424.776   101949284.191    19125431.763    79293916.315                  
  21185882.337   113210929.956    21185889.932    88052983.982                  
  19869051.511   106323332.859    19869060.821    82695948.589                  
  23399822.333   124909825.202    23399829.981    97152118.587                  
  23140594.344   123786583.994                                                  
  20112303.861   107549523.779    20112311.098    83649682.447                  
  26134697.508   137338770.395                                                  
  23429915.930   123125053.559                                                  
  26919431.787   141462584.284                                                  
  23525163.772   123625591.649                                                  
  23927755.076   125741205.520                                                  
  25189518.380   132371834.873                                                  
                 119717653.542    22990515.940   119717653.542                  
                 123999926.755    23812883.257   123999926.755                  
                 113390448.651    21775437.371   113390448.651                  
 21  9  1 10 43 18.0000000  0 25G30G22G 3G24G 1G14G17G19G 6R13R14R15
                                R17R18R23R24E 1E13E15E21E26E27C23C27
                                C28
  22694373.748   119259745.0881   22694379.002    92929685.7751   22694379.234  
  24358213.245   128003275.7841                   99742783.9481   24358212.602  
  23629574.940   124174254.2561   23629578.513    96759193.3981   23629579.639  
  24191544.490   127127426.3571   24191549.029    99060344.8731   24191548.493  
  23118829.910   121490285.8771   23118835.771    94667779.9451   23118835.967  
  20493822.994   107695790.0101   20493825.656    83918820.9121   20493825.317  
  21007423.047   110394771.7871   21007425.423    86021912.8161   21007425.245  
  20874721.232   109697419.1581                   85478520.1861   20874721.964  
  21759902.257   114349062.9721   21759908.368    89103190.7251   21759907.992  
  21917401.791   117037718.026    21917410.386    91029326.659                  
  19125459.013   101949466.754    19125466.179    79294058.306                  
  21185249.005   113207546.700    21185256.832    88050352.545                  
  19868841.514   106322208.996    19868850.860    82695074.476                  
  23399202.456   124906517.944    23399210.372    97149546.296                  
  23141288.895   123790298.038                                                  
  20112739.204   107551851.435    20112746.423    83651492.857                  
  26134256.715   137336453.601                                                  
  23430105.520   123126049.992                                                  
  26919946.826   141465290.919                                                  
  23525071.318   123625105.954                                                  
  23927418.745   125739438.149                                                  
  25189865.414   132373658.618                                                  
                 119719945.636    22990956.018   119719945.636                  
                 123997940.942    23812501.915   123997940.942                  
                 113390774.255    21775499.841   113390774.255                  
 21  9  1 10 43 19.0000000  0 25G30G22G 3G24G 1G14G17G19G 6R13R14R15
                                R17R18R23R24E 1E13E15E21E26E27C23C27
                                C28
  22695004.846   119263061.3761   22695010.171    92932269.8931   22695010.332  
  24358359.039   128004042.3291                   99743381.2401   24358358.485  
  23629419.372   124173437.8601   23629423.964    96758557.2431   23629424.322  
  24191101.606   127125099.2131   24191106.288    99058531.5231   24191105.591  
  23119485.167   121493729.0591   23119491.099    94670462.9441   23119491.189  
  20493899.580   107696192.8361   20493902.046    83919134.8021   20493902.028  
  21007556.993   110395475.7581   21007559.280    86022461.3671   21007559.209  
  20874569.470   109696621.1931                   85477898.3971   20874570.113  
  21759364.077   114346235.2611   21759370.206    89100987.3161   21759369.903  
  21918092.964   117041409.759    21918102.095    91032198.007                  
  19125493.393   101949650.102    19125500.845    79294200.914                  
  21184615.906   113204163.740    21184623.268    88047721.358                  
  19868631.679   106321085.658    19868640.970    82694200.757                  
  23398583.277   124903210.987    23398591.229    97146974.209                  
  23141983.410   123794012.005                                                  
  20113174.422   107554179.430    20113181.927    83653303.525                  
  26133815.869   137334136.830                                                  
  23430295.200   123127046.733                                                  
  26920461.972   141467997.567                                                  
  23524979.007   123624620.514                                                  
  23927082.521   125737671.062                                                  
  25190212.448   132375482.592                                                  
                 119722238.068    22991396.150   119722238.068                  
                 123995955.353    23812120.661   123995955.353                  
                 113391100.105    21775562.329   113391100.105                  
 21  9  1 10 43 20.0000000  0 25G30G22G 3G24G 1G14G17G19G 6R13R14R15
                                R17R18R23R24E 1E13E15E21E26E27C23C27
                                C28
  22695635.963   119266378.2941   22695641.359    92934854.5021   22695641.502  
  24358505.118   128004809.7991                   99743979.2841   24358504.510  
  23629263.804   124172622.3391   23629268.629    96757921.7671   23629269.147  
  24190658.830   127122772.8851   24190663.619    99056718.8071   24190662.922  
  23120140.406   121497172.8871   23120146.338    94673146.4411   23120146.535  
  20493976.292   107696596.4661   20493978.830    83919449.3191   20493978.865  
  21007691.046   110396180.2571   21007693.173    86023010.3281   21007693.280  
  20874417.637   109695823.9101                   85477277.1391   20874418.387  
  21758826.327   114343408.3721   21758832.027    89098784.5451   21758831.956  
  21918784.031   117045102.303    21918793.537    91035070.009                  
  19125528.041   101949834.646    19125535.546    79294344.449                  
  21183983.039   113200781.531    21183990.347    88045090.763                  
  19868422.003   106319963.337    19868430.974    82693327.861                  
  23397963.937   124899904.688    23397972.031    97144402.632                  
  23142677.836   123797726.315                                                  
  20113609.872   107556508.265    20113617.681    83655114.853                  
  26133375.075   137331820.512                                                  
  23430485.004   123128044.211                                                  
  26920977.136   141470704.660                                                  
  23524886.713   123624135.761                                                  
  23926746.423   125735904.703                                                  
  25190559.572   132377307.220                                                  
                 119724531.262    22991836.604   119724531.262                  
                 123993970.383    23811739.586   123993970.383                  
                 113391426.634    21775625.067   113391426.634                  
 21  9  1 10 43 21.0000000  0 25G30G22G 3G24G 1G14G17G19G 6R13R14R15
                                R17R18R23R24E 1E13E15E21E26E27C23C27
                                C28
  22696267.096   119269695.1421   22696273.136    92937439.0591   22696272.672  
  24358651.161   128005577.5331                   99744577.5121   24358650.607  
  23629108.880   124171807.0821   23629113.990    96757286.5061   23629114.026  
  24190216.178   127120446.7451   24190221.343    99054906.2371   24190220.324  
  23120795.752   121500616.6791   23120801.613    94675829.9181   23120801.881  
  20494053.129   107697000.2231   20494055.398    83919763.9301   20494055.702  
  21007825.046   110396884.6251   21007827.387    86023559.1881   21007827.351  
  20874265.840   109695026.6231                   85476655.8751   20874266.697  
  21758288.434   114340581.5941   21758294.044    89096581.8641   21758294.044  
  21919476.152   117048794.964    21919484.264    91037942.074                  
  19125562.636   101950019.676    19125570.302    79294488.359                  
  21183350.082   113197399.388    21183357.587    88042460.198                  
  19868212.221   106318841.341    19868221.459    82692455.183                  
  23397344.721   124896598.432    23397352.334    97141831.085                  
  23143372.066   123801440.288                                                  
  20114045.447   107558837.231    20114053.113    83656926.252                  
  26132934.265   137329503.979                                                  
  23430674.845   123129041.739                                                  
  26921492.157   141473411.495                                                  
  23524794.473   123623651.022                                                  
  23926410.307   125734138.391                                                  
  25190906.803   132379131.825                                                  
                 119726824.555    22992276.968   119726824.555                  
                 123991985.396    23811358.422   123991985.396                  
                 113391753.176    21775687.787   113391753.176                  
 21  9  1 10 43 22.0000000  0 25G30G22G 3G24G 1G14G17G19G 6R13R14R15
                                R17R18R23R24E 1E13E15E21E26E27C23C27
                                C28
  22696898.480   119273012.4981   22696904.538    92940024.0121   22696903.931  
  24358797.151   128006346.0771                   99745176.3751   24358796.865  
  23628953.902   124170992.6461   23628959.620    96756651.8811   23628959.030  
  24189773.455   127118121.3211   24189778.655    99053094.2161   24189777.833  
  23121451.188   121504061.0091   23121456.799    94678513.8091   23121457.317  
  20494130.127   107697404.6751   20494132.414    83920079.0901   20494132.718  
  21007959.135   110397589.4061   21007961.583    86024108.3681   21007961.494  
  20874114.203   109694229.8941                   85476035.0451   20874115.079  
  21757750.630   114337755.5181   21757756.508    89094379.7221   21757756.276  
  21920167.951   117052488.313    21920175.796    91040814.658                  
  19125597.552   101950205.781    19125605.218    79294633.109                  
  21182717.304   113194017.914    21182724.666    88039830.170                  
  19868002.671   106317720.184    19868011.874    82691583.166                  
  23396725.560   124893292.756    23396733.243    97139260.009                  
  23144066.009   123805154.470                                                  
  20114481.041   107561166.845    20114488.814    83658738.179                  
  26132493.418   137327187.786                                                  
  23430864.775   123130039.885                                                  
  26922007.303   141476118.670                                                  
  23524702.359   123623166.850                                                  
  23926074.280   125732372.687                                                  
  25191254.069   132380956.973                                                  
                 119729118.490    22992717.457   119729118.490                  
                 123990000.914    23810977.312   123990000.914                  
                 113392080.274    21775750.597   113392080.274                  
 21  9  1 10 43 23.0000000  0 25G30G22G 3G24G 1G14G17G19G 6R13R14R15
                                R17R18R23R24E 1E13E15E21E26E27C23C27
                                C28
  22697529.972   119276330.3381   22697535.743    92942609.3391   22697535.279  
  24358943.516   128007115.3981                   99745775.8441   24358943.266  
  23628798.924   124170178.9501   23628804.910    96756017.8301   23628804.231  
  24189330.929   127115796.5681   24189336.183    99051282.7261   24189335.396  
  23122106.677   121507505.8521   23122112.181    94681198.1001   23122112.860  
  20494207.142   107697809.7761   20494209.501    83920394.7531   20494209.822  
  21008093.278   110398294.5861   21008095.583    86024657.8571   21008095.690  
  20873962.638   109693433.6901                   85475414.6261   20873963.567  
  21757213.004   114334930.1111   21757219.044    89092178.1061   21757218.597  
  21920859.965   117056182.312    21920867.005    91043687.757                  
  19125632.665   101950392.942    19125640.312    79294778.681                  
  21182084.598   113190637.090    21182092.014    88037200.629                  
  19867793.550   106316599.859    19867802.466    82690711.806                  
  23396106.791   124889987.662    23396114.457    97136689.394                  
  23144760.078   123808868.858                                                  
  20114916.741   107563497.014    20114924.175    83660550.526                  
  26132052.661   137324871.934                                                  
  23431054.830   123131038.637                                                  
  26922522.646   141478826.151                                                  
  23524610.405   123622683.241                                                  
  23925738.324   125730607.563                                                  
  25191601.479   132382782.640                                                  
                 119731413.044    22993158.090   119731413.044                  
                 123988016.927    23810596.201   123988016.927                  
                 113392407.919    21775813.478   113392407.919                  
 21  9  1 10 43 24.0000000  0 25G30G22G 3G24G 1G14G17G19G 6R13R14R15
                                R17R18R23R24E 1E13E15E21E26E27C23C27
                                C28
  22698161.534   119279648.1201   22698166.752    92945194.6231   22698166.609  
  24359089.917   128007884.9901                   99746375.5231   24359089.721  
  23628644.089   124169365.5391   23628650.557    96755384.0031   23628649.414  
  24188888.260   127113472.0101   24188893.996    99049471.3671   24188892.977  
  23122762.095   121510950.6771   23122767.956    94683882.3771   23122768.385  
  20494284.318   107698215.0201   20494286.731    83920710.5281   20494286.945  
  21008227.457   110398999.6311   21008229.655    86025207.2431   21008229.869  
  20873811.073   109692637.5011                   85474794.2191   20873812.056  
  21756675.468   114332104.8381   21756680.990    89089976.5951   21756680.972  
  21921551.728   117059876.437    21921558.751    91046560.983                  
  19125667.813   101950580.636    19125675.657    79294924.672                  
  21181451.963   113187256.356    21181459.665    88034571.171                  
  19867584.179   106315479.892    19867593.024    82689840.707                  
  23395488.040   124886682.610    23395495.170    97134118.779                  
  23145454.128   123812582.909                                                  
  20115352.709   107565827.258    20115360.161    83662362.947                  
  26131611.939   137322555.839                                                  
  23431244.885   123132037.447                                                  
  26923037.864   141481533.388                                                  
  23524518.433   123622199.641                                                  
  23925402.404   125728842.501                                                  
  25191948.996   132384608.286                                                  
                 119733707.712    22993598.793   119733707.712                  
                 123986032.928    23810215.144   123986032.928                  
                 113392735.576    21775876.359   113392735.576                  
 21  9  1 10 43 25.0000000  0 25G30G22G 3G24G 1G14G17G19G 6R13R14R15
                                R17R18R23R24E 1E13E15E21E26E27C23C27
                                C28
  22698792.865   119282966.0151   22698797.940    92947779.9991   22698797.975  
  24359236.658   128008654.9681                   99746975.5181   24359236.229  
  23628489.593   124168552.5111   23628495.954    96754750.4751   23628494.686  
  24188446.055   127111147.7561   24188451.880    99047660.2611   24188450.630  
  23123417.728   121514395.6231   23123423.892    94686566.7521   23123423.928  
  20494361.602   107698620.5341   20494363.871    83921026.5151   20494364.086  
  21008361.528   110399704.6851   21008363.940    86025756.6331   21008364.030  
  20873659.651   109691841.4521                   85474173.9211   20873660.562  
  21756137.950   114329279.8421   21756143.186    89087775.2951   21756143.400  
  21922244.046   117063570.844    21922251.104    91049434.398                  
  19125703.122   101950768.997    19125710.788    79295071.166                  
  21180819.453   113183875.818    21180827.119    88031941.873                  
  19867375.111   106314360.397    19867383.742    82688970.000                  
  23394869.415   124883377.736    23394876.116    97131548.336                  
  23146148.251   123816296.765                                                  
  20115788.553   107568157.762    20115795.915    83664175.552                  
  26131171.074   137320239.682                                                  
  23431434.957   123133036.471                                                  
  26923553.081   141484240.554                                                  
  23524426.461   123621716.208                                                  
  23925066.538   125727077.630                                                  
  25192296.405   132386434.074                                                  
                 119736002.619    22994039.604   119736002.619                  
                 123984049.031    23809834.195   123984049.031                  
                 113393063.398    21775939.365   113393063.398                  
 21  9  1 10 43 26.0000000  0 25G30G22G 3G24G 1G14G17G19G 6R13R14R15
                                R17R18R23R24E 1E13E15E21E26E27C23C27
                                C28
  22699424.303   119286283.7061   22699429.252    92950365.2151   22699429.288  
  24359383.130   128009425.0641                   99747575.6021   24359382.808  
  23628335.080   124167739.5841   23628340.547    96754117.0251   23628339.958  
  24188004.244   127108823.5321   24188008.872    99045849.1841   24188008.353  
  23124073.414   121517840.3951   23124079.721    94689250.9861   23124079.435  
  20494438.725   107699026.0311   20494440.851    83921342.4851   20494441.280  
  21008495.653   110400409.4461   21008497.690    86026305.7971   21008498.137  
  20873508.211   109691045.2571                   85473553.5141   20873509.069  
  21755600.486   114326454.8251   21755605.489    89085573.9851   21755605.793  
  21922935.988   117067265.190    21922942.653    91052307.810                  
  19125738.592   101950957.732    19125746.365    79295217.956                  
  21180186.890   113180495.206    21180194.466    88029312.504                  
  19867165.936   106313241.039    19867174.674    82688099.396                  
  23394250.557   124880072.738    23394256.990    97128977.786                  
  23146842.355   123820010.135                                                  
  20116224.468   107570488.218    20116231.419    83665988.134                  
  26130730.281   137317923.166                                                  
  23431625.066   123134035.398                                                  
  26924068.013   141486947.331                                                  
  23524334.453   123621232.643                                                  
  23924730.636   125725312.671                                                  
  25192643.797   132388259.685                                                  
                 119738297.479    22994480.362   119738297.479                  
                 123982064.966    23809453.120   123982064.966                  
                 113393391.080    21776002.246   113393391.080                  
 21  9  1 10 43 27.0000000  0 25G30G22G 3G24G 1G14G17G19G 6R13R14R15
                                R17R18R23R24E 1E13E15E21E26E27C23C27
                                C28
  22700055.705   119289602.2501   22700060.869    92952951.0891   22700060.761  
  24359530.103   128010196.3231                   99748176.5821   24359529.620  
  23628180.584   124166927.8191   23628185.945    96753484.4831   23628185.516  
  24187562.289   127106500.3501   24187566.595    99044038.9121   24187566.274  
  23124728.814   121521286.0541   23124735.532    94691935.9151   23124735.139  
  20494516.080   107699432.5641   20494518.492    83921659.2631   20494518.671  
  21008629.813   110401114.9841   21008631.654    86026855.5671   21008632.404  
  20873357.003   109690249.9691                   85472933.8091   20873357.736  
  21755063.075   114323630.8621   21755068.132    89083373.4941   21755068.418  
  21923628.234   117070960.596    21923635.667    91055182.015                  
  19125774.259   101951147.888    19125781.960    79295365.859                  
  21179554.452   113177115.606    21179562.314    88026683.928                  
  19866957.047   106312122.883    19866965.785    82687229.737                  
  23393631.413   124876768.726    23393638.204    97126407.987                  
  23147536.692   123823724.099                                                  
  20116660.472   107572819.663    20116666.976    83667801.480                  
  26130289.506   137315607.350                                                  
  23431815.371   123135035.303                                                  
  26924583.266   141489654.770                                                  
  23524242.553   123620750.006                                                  
  23924394.985   125723548.665                                                  
  25192991.349   132390086.188                                                  
                 119740593.324    22994921.280   119740593.324                  
                 123980081.749    23809072.152   123980081.749                  
                 113393719.673    21776065.324   113393719.673                  
 21  9  1 10 43 28.0000000  0 25G30G22G 3G24G 1G14G17G19G 6R13R14R15
                                R17R18R23R24E 1E13E15E21E26E27C23C27
                                C28
  22700687.142   119292921.1171   22700692.467    92955537.2161   22700692.306  
  24359677.058   128010968.2001                   99748778.0361   24359676.504  
  23628026.303   124166116.6961   23628031.556    96752852.4401   23628031.145  
  24187120.281   127104177.7281   24187124.677    99042229.0861   24187124.301  
  23125384.732   121524732.0501   23125390.968    94694621.1091   23125390.915  
  20494593.470   107699839.6041   20494595.865    83921976.4351   20494596.133  
  21008764.135   110401820.7541   21008765.922    86027405.5181   21008766.690  
  20873205.724   109689455.0651                   85472314.4011   20873206.457  
  21754525.914   114320807.4031   21754530.846    89081173.3891   21754531.132  
  21924320.444   117074656.516    21924328.556    91058056.617                  
  19125810.015   101951338.940    19125817.913    79295514.455                  
  21178922.103   113173736.453    21178929.822    88024055.700                  
  19866748.015   106311005.414    19866757.004    82686360.588                  
  23393012.466   124873465.119    23393019.149    97123838.534                  
  23148231.082   123827438.113                                                  
  20117096.708   107575151.534    20117103.034    83669615.160                  
  26129848.856   137313291.671                                                  
  23432005.783   123136035.644                                                  
  26925098.537   141492362.368                                                  
  23524150.795   123620267.762                                                  
  23924059.369   125721785.097                                                  
  25193338.973   132391913.067                                                  
                 119742889.644    22995362.341   119742889.644                  
                 123978098.896    23808691.453   123978098.896                  
                 113394048.650    21776128.527   113394048.650                  
 21  9  1 10 43 29.0000000  0 25G30G22G 3G24G 1G14G17G19G 6R13R14R15
                                R17R18R23R24E 1E13E15E21E26E27C23C27
                                C28
  22701318.633   119296239.6231   22701324.298    92958123.0701   22701323.780  
  24359824.066   128011740.0391                   99749379.4601   24359823.334  
  23627871.986   124165305.4681   23627877.454    96752220.3141   23627876.775  
  24186678.326   127101854.9801   24186682.490    99040419.1531   24186682.257  
  23126040.525   121528177.7471   23126046.458    94697306.0631   23126046.618  
  20494670.986   107700246.4741   20494673.202    83922293.4771   20494673.559  
  21008898.260   110402526.0781   21008900.261    86027955.1211   21008900.904  
  20873054.373   109688659.8561                   85471694.7581   20873055.124  
  21753988.307   114317983.7801   21753993.703    89078973.1681   21753993.810  
  21925012.583   117078352.251    21925021.213    91060931.077                  
  19125845.949   101951530.203    19125853.651    79295663.215                  
  21178289.575   113170357.103    21178297.598    88021427.322                  
  19866539.287   106309887.963    19866548.579    82685491.453                  
  23392393.304   124870161.244    23392399.737    97121268.851                  
  23148925.436   123831151.495                                                  
  20117532.855   107577483.161    20117539.074    83671428.622                  
  26129408.134   137310975.505                                                  
  23432196.124   123137035.748                                                  
  26925613.594   141495069.426                                                  
  23524058.984   123619785.230                                                  
  23923723.645   125720021.271                                                  
  25193686.579   132393739.612                                                  
                 119745185.757    22995803.313   119745185.757                  
                 123976115.697    23808310.574   123976115.697                  
                 113394377.344    21776191.640   113394377.344                  
 21  9  1 10 43 30.0000000  0 25G30G22G 3G24G 1G14G17G19G 6R13R14R15
                                R17R18R23R24E 1E13E15E21E26E27C23C27
                                C28
  22701950.286   119299558.8511   22701955.968    92960709.4771   22701955.360  
  24359971.164   128012512.8821                   99749981.6701   24359970.396  
  23627717.812   124164495.2811   23627723.887    96751588.9991   23627722.583  
  24186236.407   127099533.1331   24186240.964    99038609.9191   24186240.410  
  23126696.282   121531624.1481   23126702.322    94699991.5681   23126702.447  
  20494748.556   107700654.2131   20494750.628    83922611.1951   20494751.164  
  21009032.599   110403232.0161   21009034.493    86028505.2021   21009035.262  
  20872903.237   109687865.3981                   85471075.7021   20872903.934  
  21753451.200   114315161.0251   21753456.739    89076773.6241   21753456.614  
  21925704.811   117082048.847    21925713.495    91063806.201                  
  19125882.241   101951722.742    19125889.782    79295812.973                  
  21177657.333   113166978.610    21177665.392    88018799.611                  
  19866330.649   106308771.591    19866339.601    82684623.165                  
  23391774.036   124866858.171    23391780.576    97118699.789                  
  23149619.755   123834865.300                                                  
  20117968.967   107579815.609    20117975.292    83673242.778                  
  26128967.502   137308659.849                                                  
  23432386.590   123138036.659                                                  
  26926128.847   141497776.983                                                  
  23523967.281   123619303.464                                                  
  23923388.119   125718258.251                                                  
  25194034.275   132395566.893                                                  
                 119747482.716    22996244.552   119747482.716                  
                 123974133.228    23807930.018   123974133.228                  
                 113394706.780    21776254.950   113394706.780                  
 21  9  1 10 43 31.0000000  0 25G30G22G 3G24G 1G14G17G19G 6R13R14R15
                                R17R18R23R24E 1E13E15E21E26E27C23C27
                                C28
  22702581.884   119302878.2751   22702587.352    92963296.0481   22702587.012  
  24360118.208   128013286.2501                   99750584.3111   24360117.565  
  23627563.567   124163685.6051   23627569.571    96750958.0851   23627568.463  
  24185794.364   127097211.7591   24185799.099    99036801.0511   24185798.741  
  23127351.897   121535070.7871   23127358.580    94702677.2611   23127358.330  
  20494826.196   107701062.3561   20494828.609    83922929.2291   20494828.841  
  21009167.046   110403938.0671   21009168.975    86029055.3721   21009169.619  
  20872752.172   109687071.1951                   85470456.8401   20872752.780  
  21752914.128   114312338.6871   21752919.829    89074574.3971   21752919.525  
  21926397.200   117085745.849    21926405.580    91066681.654                  
  19125918.497   101951916.083    19125926.038    79295963.342                  
  21177025.216   113163600.469    21177033.168    88016172.164                  
  19866122.278   106307655.795    19866131.177    82683755.313                  
  23391155.070   124863555.384    23391162.057    97116130.953                  
  23150314.092   123838579.040                                                  
  20118405.060   107582148.433    20118411.850    83675057.210                  
  26128526.852   137306344.270                                                  
  23432577.038   123139037.908                                                  
  26926644.100   141500484.596                                                  
  23523875.684   123618821.988                                                  
  23923052.628   125716495.548                                                  
  25194381.952   132397394.438                                                  
                 119749780.033    22996685.703   119749780.033                  
                 123972150.979    23807549.300   123972150.979                  
                 113395036.510    21776318.242   113395036.510                  
 21  9  1 10 43 32.0000000  0 25G30G22G 3G24G 1G14G17G19G 6R13R14R15
                                R17R18R23R24E 1E13E15E21E26E27C23C27
                                C28
  22703213.625   119306198.0051   22703219.058    92965882.8461   22703218.754  
  24360265.556   128014060.2221                   99751187.3901   24360264.859  
  23627409.607   124162876.5111   23627415.111    96750327.6151   23627414.503  
  24185352.749   127094890.8541   24185357.055    99034992.5471   24185357.126  
  23128007.904   121538517.7511   23128014.248    94705363.2051   23128014.284  
  20494903.802   107701470.9701   20494906.536    83923247.6311   20494906.607  
  21009301.456   110404644.3271   21009303.190    86029605.7071   21009304.012  
  20872601.161   109686277.3391                   85469838.2531   20872601.697  
  21752377.200   114309516.8221   21752382.900    89072375.5411   21752382.489  
  21927089.160   117089443.325    21927097.290    91069557.469                  
  19125954.968   101952110.296    19125962.348    79296114.399                  
  21176393.046   113160222.757    21176400.944    88013545.043                  
  19865914.032   106306540.639    19865922.699    82682887.978                  
  23390536.195   124860252.966    23390543.646    97113562.399                  
  23151008.410   123842292.792                                                  
  20118841.225   107584481.732    20118848.516    83676871.982                  
  26128086.274   137304028.794                                                  
  23432767.683   123140039.558                                                  
  26927159.514   141503192.317                                                  
  23523784.141   123618340.865                                                  
  23922717.333   125714733.239                                                  
  25194729.791   132399222.288                                                  
                 119752077.784    22997126.978   119752077.784                  
                 123970169.036    23807168.726   123970169.036                  
                 113395366.583    21776381.695   113395366.583                  
 21  9  1 10 43 33.0000000  0 25G30G22G 3G24G 1G14G17G19G 6R13R14R15
                                R17R18R23R24E 1E13E15E21E26E27C23C27
                                C28
  22703845.492   119309518.1281   22703851.335    92968469.9531   22703850.585  
  24360412.707   128014834.8871                   99751791.0121   24360412.261  
  23627255.773   124162068.1111   23627261.098    96749697.6981   23627260.722  
  24184911.223   127092570.5911   24184915.261    99033184.5521   24184915.529  
  23128664.073   121541965.1471   23128670.148    94708049.4801   23128670.309  
  20494981.746   107701880.1701   20494984.516    83923566.4911   20494984.480  
  21009435.957   110405350.9101   21009437.672    86030156.2911   21009438.494  
  20872450.222   109685483.9461                   85469220.0251   20872450.722  
  21751840.272   114306695.5461   21751846.079    89070177.1511   21751845.614  
  21927781.995   117093141.374    21927788.839    91072433.729                  
  19125991.689   101952305.497    19125998.890    79296266.222                  
  21175761.019   113156845.588    21175768.667    88010918.370                  
  19865705.840   106305426.269    19865714.364    82682021.241                  
  23389917.390   124856951.047    23389925.110    97110994.253                  
  23151703.051   123846006.678                                                  
  20119277.658   107586815.610    20119285.324    83678687.221                  
  26127645.838   137301713.587                                                  
  23432958.399   123141041.731                                                  
  26927674.678   141505900.243                                                  
  23523692.634   123617860.214                                                  
  23922382.111   125712971.434                                                  
  25195077.790   132401050.594                                                  
                 119754376.086    22997568.397   119754376.086                  
                 123968187.524    23806788.187   123968187.524                  
                 113395697.118    21776445.219   113395697.118                  
 21  9  1 10 43 34.0000000  0 25G30G22G 3G24G 1G14G17G19G 6R13R14R15
                                R17R18R23R24E 1E13E15E21E26E27C23C27
                                C28
  22704477.216   119312838.4741   22704483.273    92971057.2401   22704482.433  
  24360560.252   128015610.0871                   99752395.0721   24360559.787  
  23627101.724   124161260.2401   23627107.335    96749068.1921   23627106.995  
  24184469.661   127090250.7571   24184474.147    99031376.8891   24184474.039  
  23129320.098   121545412.7811   23129326.209    94710735.9551   23129326.388  
  20495059.655   107702289.7691   20495062.282    83923885.6541   20495062.443  
  21009570.510   110406057.6141   21009572.261    86030706.9711   21009572.994  
  20872299.318   109684690.8121                   85468601.9981   20872299.800  
  21751303.397   114303874.6761   21751309.544    89067979.0681   21751308.811  
  21928474.617   117096839.834    21928481.657    91075310.307                  
  19126028.446   101952501.463    19126035.772    79296418.642                  
  21175129.009   113153468.763    21175136.854    88008291.946                  
  19865497.756   106304312.491    19865506.190    82681154.983                  
  23389298.676   124853649.431    23389307.056    97108426.330                  
  23152397.387   123849720.487                                                  
  20119714.127   107589149.861    20119722.097    83680502.752                  
  26127205.295   137299398.396                                                  
  23433149.151   123142044.227                                                  
  26928190.128   141508608.223                                                  
  23523601.144   123617379.854                                                  
  23922046.888   125711209.949                                                  
  25195425.789   132402879.145                                                  
                 119756674.749    22998009.762   119756674.749                  
                 123966206.250    23806407.649   123966206.250                  
                 113396027.932    21776508.726   113396027.932                  
 21  9  1 10 43 35.0000000  0 25G30G22G 3G24G 1G14G17G19G 6R13R14R15
                                R17R18R23R24E 1E13E15E21E26E27C23C27
                                C28
  22705109.118   119316158.5331   22705115.086    92973644.2911   22705114.210  
  24360707.904   128016385.3031                   99752999.1301   24360707.314  
  23626948.175   124160452.3741   23626953.661    96748438.6821   23626953.268  
  24184027.939   127087930.8501   24184032.835    99029569.1721   24184032.603  
  23129976.124   121548860.1591   23129982.431    94713422.2211   23129982.414  
  20495137.671   107702699.2561   20495140.137    83924204.7361   20495140.370  
  21009704.903   110406763.9441   21009707.155    86031257.3571   21009707.405  
  20872148.396   109683897.4371                   85467983.7841   20872148.825  
  21750766.593   114301053.7111   21750772.758    89065780.9121   21750771.990  
  21929167.184   117100538.163    21929174.528    91078186.768                  
  19126065.166   101952697.697    19126072.457    79296571.266                  
  21174497.000   113150091.765    21174505.077    88005665.396                  
  19865289.760   106303198.757    19865298.373    82680288.736                  
  23388679.978   124850347.607    23388688.109    97105858.256                  
  23153091.385   123853433.707                                                  
  20120150.578   107591483.922    20120159.226    83682318.137                  
  26126764.609   137297082.775                                                  
  23433339.867   123143046.543                                                  
  26928705.417   141511315.721                                                  
  23523509.744   123616899.273                                                  
  23921711.718   125709448.277                                                  
  25195773.699   132404707.444                                                  
                 119758973.267    22998451.162   119758973.267                  
                 123964224.693    23806027.217   123964224.693                  
                 113396358.525    21776572.179   113396358.525                  
 21  9  1 10 43 36.0000000  0 25G30G22G 3G24G 1G14G17G19G 6R13R14R15
                                R17R18R23R24E 1E13E15E21E26E27C23C27
                                C28
  22705741.002   119319479.0461   22705746.702    92976231.7041   22705746.077  
  24360855.591   128017161.2831                   99753603.8031   24360854.966  
  23626794.609   124159645.2841   23626800.059    96747809.7811   23626799.684  
  24183586.413   127085611.6291   24183591.542    99027761.9871   24183591.185  
  23130632.060   121552308.0151   23130638.296    94716108.8611   23130638.511  
  20495215.723   107703109.3931   20495218.368    83924524.3221   20495218.422  
  21009839.332   110407470.6561   21009841.637    86031808.0441   21009841.905  
  20871997.385   109683104.5871                   85467365.9811   20871997.975  
  21750229.879   114298233.3871   21750235.705    89063583.2561   21750235.294  
  21929859.841   117104237.124    21929866.738    91081063.722                  
  19126102.120   101952894.969    19126109.517    79296724.696                  
  21173865.223   113146715.375    21173872.817    88003039.320                  
  19865081.729   106302085.824    19865090.378    82679423.124                  
  23388061.478   124847046.376    23388069.501    97103290.611                  
  23153785.757   123857147.130                                                  
  20120587.029   107593818.567    20120595.713    83684133.958                  
  26126324.048   137294767.484                                                  
  23433530.726   123144049.447                                                  
  26929220.581   141514023.498                                                  
  23523418.416   123616419.227                                                  
  23921376.531   125707687.179                                                  
  25196121.770   132406536.237                                                  
                 119761272.410    22998892.688   119761272.410                  
                 123962243.632    23805646.660   123962243.632                  
                 113396689.636    21776635.810   113396689.636                  
 21  9  1 10 43 37.0000000  0 25G30G22G 3G24G 1G14G17G19G 6R13R14R15
                                R17R18R23R24E 1E13E15E21E26E27C23C27
                                C28
  22706372.976   119322799.8761   22706378.748    92978819.3671   22706377.997  
  24361003.279   128017937.8991                   99754208.9711   24361002.760  
  23626641.328   124158838.7711   23626646.653    96747181.3311   23626646.189  
  24183145.245   127083292.9421   24183150.249    99025955.2151   24183149.891  
  23131288.210   121555756.2331   23131294.107    94718795.7771   23131294.697  
  20495293.918   107703520.0271   20495296.670    83924844.2981   20495296.563  
  21009973.814   110408177.5971   21009975.815    86032358.9071   21009976.441  
  20871846.535   109682312.0981                   85466748.4551   20871847.178  
  21749693.255   114295413.5691   21749698.901    89061385.9931   21749698.669  
  21930552.373   117107936.595    21930560.074    91083941.109                  
  19126139.251   101953093.135    19126146.649    79296878.834                  
  21173233.517   113143339.466    21173241.058    88000413.603                  
  19864873.984   106300973.584    19864882.507    82678558.044                  
  23387443.067   124843745.524    23387451.304    97100723.293                  
  23154479.951   123860860.575                                                  
  20121023.676   107596153.643    20121031.771    83685950.149                  
  26125883.505   137292452.310                                                  
  23433721.656   123145052.767                                                  
  26929735.870   141516731.416                                                  
  23523327.141   123615939.568                                                  
  23921041.541   125705926.507                                                  
  25196469.805   132408365.387                                                  
                 119763572.010    22999334.285   119763572.010                  
                 123960262.907    23805266.336   123960262.907                  
                 113397021.131    21776699.478   113397021.131                  
 21  9  1 10 43 38.0000000  0 25G30G22G 3G24G 1G14G17G19G 6R13R14R15
                                R17R18R23R24E 1E13E15E21E26E27C23C27
                                C28
  22707004.753   119326120.6711   22707010.453    92981407.0011   22707009.953  
  24361151.216   128018714.7591                   99754814.3111   24361150.573  
  23626487.869   124158032.5551   23626493.337    96746553.1111   23626492.712  
  24182704.148   127080974.4171   24182708.991    99024148.5841   24182708.741  
  23131944.254   121559204.4181   23131950.990    94721482.6741   23131950.847  
  20495372.077   107703930.8001   20495374.865    83925164.3781   20495374.740  
  21010108.296   110408884.4031   21010110.316    86032909.6641   21010110.941  
  20871695.684   109681519.6301                   85466130.9471   20871696.363  
  21749156.648   114292593.8991   21749162.384    89059188.8521   21749162.098  
  21931245.280   117111636.186    21931252.463    91086818.578                  
  19126176.490   101953291.849    19126183.852    79297033.382                  
  21172601.847   113139963.649    21172608.959    87997787.957                  
  19864666.185   106299861.697    19864674.297    82677693.236                  
  23386824.674   124840444.674    23386833.001    97098155.977                  
  23155173.912   123864573.684                                                  
  20121460.377   107598488.820    20121468.115    83687766.386                  
  26125442.945   137290136.936                                                  
  23433912.605   123146056.166                                                  
  26930251.124   141519439.119                                                  
  23523235.866   123615459.926                                                  
  23920706.604   125704165.885                                                  
  25196817.893   132410194.537                                                  
                 119765871.700    22999775.918   119765871.700                  
                 123958282.159    23804885.869   123958282.159                  
                 113397352.643    21776763.145   113397352.643                  
 21  9  1 10 43 39.0000000  0 25G30G22G 3G24G 1G14G17G19G 6R13R14R15
                                R17R18R23R24E 1E13E15E21E26E27C23C27
                                C28
  22707636.798   119329441.8621   22707642.552    92983994.9421   22707641.980  
  24361299.261   128019492.3501                   99755420.2171   24361298.529  
  23626334.839   124157227.0581   23626340.200    96745925.4531   23626339.431  
  24182262.998   127078656.5551   24182268.073    99022342.4461   24182267.626  
  23132600.797   121562653.0351   23132606.908    94724169.9061   23132607.105  
  20495450.379   107704342.1661   20495452.970    83925484.9201   20495453.042  
  21010242.922   110409591.5371   21010245.066    86033460.6781   21010245.477  
  20871544.870   109680727.6131                   85465513.7921   20871545.656  
  21748620.131   114289774.8181   21748625.920    89056992.1621   21748625.670  
  21931938.187   117115336.366    21931945.478    91089696.496                  
  19126213.980   101953491.580    19126221.306    79297188.726                  
  21171970.266   113136588.399    21171977.343    87995162.762                  
  19864458.708   106298750.608    19864466.731    82676829.058                  
  23386206.566   124837144.355    23386214.572    97095589.042                  
  23155868.016   123868286.937                                                  
  20121897.203   107600824.576    20121904.387    83689583.090                  
  26125002.366   137287821.826                                                  
  23434103.660   123147060.088                                                  
  26930766.502   141522147.028                                                  
  23523144.716   123614980.781                                                  
  23920371.649   125702405.783                                                  
  25197166.018   132412024.131                                                  
                 119768171.956    23000217.658   119768171.956                  
                 123956301.821    23804505.527   123956301.821                  
                 113397684.620    21776826.937   113397684.620                  
 21  9  1 10 43 40.0000000  0 25G30G22G 3G24G 1G14G17G19G 6R13R14R15
                                R17R18R23R24E 1E13E15E21E26E27C23C27
                                C28
  22708269.076   119332763.1911   22708274.383    92986582.9841   22708274.008  
  24361447.217   128020270.3571                   99756026.4591   24361446.556  
  23626181.451   124156421.9621   23626187.348    96745298.1081   23626186.169  
  24181821.597   127076339.0071   24181827.083    99020536.5711   24181826.565  
  23133257.287   121566101.7951   23133263.077    94726857.2561   23133263.381  
  20495528.646   107704753.8311   20495531.362    83925805.7011   20495531.380  
  21010377.511   110410298.7071   21010379.727    86034011.7201   21010380.013  
  20871394.055   109679935.7641                   85464896.7661   20871394.967  
  21748083.703   114286956.0371   21748089.707    89054795.7131   21748089.296  
  21932630.951   117119036.818    21932638.170    91092574.641                  
  19126251.630   101953692.017    19126259.045    79297344.624                  
  21171338.722   113133213.418    21171345.923    87992537.781                  
  19864251.248   106297639.955    19864259.182    82675965.215                  
  23385588.477   124833844.236    23385596.482    97093022.301                  
  23156561.960   123872000.017                                                  
  20122334.119   107603160.607    20122341.266    83691399.994                  
  26124561.859   137285506.649                                                  
  23434294.680   123148064.236                                                  
  26931281.809   141524854.888                                                  
  23523053.548   123614501.808                                                  
  23920036.783   125700645.912                                                  
  25197514.285   132413853.862                                                  
                 119770472.472    23000659.398   119770472.472                  
                 123954321.632    23804125.220   123954321.632                  
                 113398016.790    21776890.712   113398016.790                  
 21  9  1 10 43 41.0000000  0 25G30G22G 3G24G 1G14G17G19G 6R13R14R15
                                R17R18R23R24E 1E13E15E21E26E27C23C27
                                C28
  22708900.978   119336084.7401   22708906.839    92989171.2091   22708906.089  
  24361595.262   128021048.9221                   99756633.1491   24361594.743  
  23626028.314   124155617.4281   23626033.549    96744671.1981   23626032.995  
  24181380.965   127074021.9341   24181385.861    99018731.0641   24181385.665  
  23133913.777   121569550.8491   23133919.853    94729544.8301   23133919.710  
  20495606.983   107705165.9211   20495609.539    83926126.8081   20495609.789  
  21010512.172   110411006.0381   21010514.281    86034562.8891   21010514.620  
  20871243.491   109679144.2231                   85464279.9831   20871244.384  
  21747547.453   114284137.6961   21747553.457    89052599.6061   21747552.975  
  21933324.430   117122737.727    21933330.148    91095453.075                  
  19126289.583   101953893.246    19126296.695    79297501.135                  
  21170707.373   113129838.827    21170714.324    87989913.088                  
  19864043.807   106296529.897    19864051.973    82675101.847                  
  23384970.101   124830544.487    23384978.518    97090455.841                  
  23157255.957   123875713.070                                                  
  20122771.124   107605496.997    20122777.932    83693217.186                  
  26124121.334   137283191.578                                                  
  23434485.843   123149068.750                                                  
  26931797.008   141527562.799                                                  
  23522962.452   123614023.153                                                  
  23919701.882   125698886.387                                                  
  25197862.445   132415683.887                                                  
                 119772773.383    23001101.281   119772773.383                  
                 123952341.710    23803744.985   123952341.710                  
                 113398349.258    21776954.576   113398349.258                  
 21  9  1 10 43 42.0000000  0 25G30G22G 3G24G 1G14G17G19G 6R13R14R15
                                R17R18R23R24E 1E13E15E21E26E27C23C27
                                C28
  22709533.113   119339406.9701   22709539.117    92991759.9571   22709538.295  
  24361743.682   128021828.4671                   99757240.5641   24361743.110  
  23625875.480   124154813.8381   23625880.144    96744045.0221   23625880.090  
  24180940.512   127071705.7411   24180944.729    99016926.2351   24180944.943  
  23134570.339   121573000.5951   23134576.504    94732232.9371   23134576.182  
  20495685.446   107705578.8691   20495687.912    83926448.5851   20495688.341  
  21010646.904   110411713.9511   21010648.816    86035114.5071   21010649.335  
  20871093.016   109678353.3981                   85463663.7561   20871093.945  
  21747011.329   114281320.2241   21747017.101    89050404.1701   21747016.833  
  21934017.355   117126439.470    21934024.288    91098332.217                  
  19126327.555   101954095.683    19126334.846    79297658.591                  
  21170075.989   113126465.025    21170082.726    87987289.031                  
  19863836.437   106295420.905    19863844.424    82674239.294                  
  23384352.190   124827245.539    23384360.428    97087889.965                  
  23157950.061   123879426.511                                                  
  20123208.254   107607834.156    20123215.008    83695034.963                  
  26123680.880   137280876.993                                                  
  23434677.149   123150074.040                                                  
  26932312.423   141530271.231                                                  
  23522871.481   123613545.228                                                  
  23919367.160   125697127.625                                                  
  25198210.784   132417514.619                                                  
                 119775075.105    23001543.272   119775075.105                  
                 123950362.471    23803364.983   123950362.471                  
                 113398682.451    21777018.475   113398682.451                  
 21  9  1 10 43 43.0000000  0 25G30G22G 3G24G 1G14G17G19G 6R13R14R15
                                R17R18R23R24E 1E13E15E21E26E27C23C27
                                C28
  22710165.176   119342728.7691   22710171.341    92994348.3761   22710170.465  
  24361892.316   128022607.8951                   99757847.9101   24361891.405  
  23625722.503   124154010.1571   23625726.560    96743418.7701   23625727.131  
  24180499.754   127069389.3671   24180503.721    99015121.2681   24180504.186  
  23135226.704   121576449.9511   23135232.761    94734920.7471   23135232.547  
  20495764.052   107705991.5751   20495766.464    83926770.1771   20495766.858  
  21010781.530   110412421.3491   21010783.638    86035665.7271   21010783.942  
  20870942.416   109677562.2001                   85463047.2411   20870943.381  
  21746475.151   114278502.4991   21746481.048    89048208.5401   21746480.619  
  21934710.334   117130140.954    21934717.571    91101211.170                  
  19126365.634   101954298.260    19126372.907    79297816.141                  
  21169444.552   113123090.918    21169451.520    87984664.728                  
  19863628.817   106294311.851    19863637.304    82673376.687                  
  23383734.029   124823946.210    23383742.124    97085323.852                  
  23158643.969   123883139.238                                                  
  20123645.330   107610171.026    20123651.870    83696852.526                  
  26123240.391   137278561.849                                                  
  23434868.454   123151079.035                                                  
  26932827.747   141532979.019                                                  
  23522780.509   123613066.974                                                  
  23919032.526   125695368.559                                                  
  25198559.140   132419344.960                                                  
                 119777376.551    23001985.244   119777376.551                  
                 123948382.840    23802984.694   123948382.840                  
                 113399015.289    21777082.393   113399015.289                  
 21  9  1 10 43 44.0000000  0 25G30G22G 3G24G 1G14G17G19G 6R13R14R15
                                R17R18R23R24E 1E13E15E21E26E27C23C27
                                C28
  22710797.435   119346051.1631   22710803.296    92996937.2521   22710802.725  
  24362041.058   128023388.2211                   99758455.9631   24362039.879  
  23625569.955   124153207.3651   23625573.922    96742793.2211   23625574.351  
  24180059.193   127067073.7791   24180062.946    99013316.9111   24180063.553  
  23135883.122   121579899.9001   23135888.501    94737609.0191   23135889.019  
  20495842.855   107706405.0451   20495845.267    83927092.3611   20495845.553  
  21010916.209   110413129.2501   21010918.353    86036217.3371   21010918.674  
  20870792.101   109676771.6341                   85462431.2151   20870792.941  
  21745938.973   114275685.5541   21745944.781    89046013.5191   21745944.602  
  21935403.134   117133843.216    21935411.604    91104090.703                  
  19126403.892   101954502.016    19126411.182    79297974.630                  
  21168813.203   113119717.548    21168820.261    87982040.998                  
  19863421.554   106293203.741    19863430.185    82672514.835                  
  23383115.994   124820647.563    23383124.606    97082758.224                  
  23159337.984   123886852.282                                                  
  20124082.513   107612508.646    20124089.000    83698670.682                  
  26122800.045   137276247.106                                                  
  23435059.796   123152084.730                                                  
  26933343.126   141535687.225                                                  
  23522689.628   123612589.369                                                  
  23918697.947   125693610.178                                                  
  25198907.551   132421175.933                                                  
                 119779678.727    23002427.359   119779678.727                  
                 123946403.810    23802604.692   123946403.810                  
                 113399348.779    21777146.435   113399348.779                  
 21  9  1 10 43 45.0000000  0 25G30G22G 3G24G 1G14G17G19G 6R13R14R15
                                R17R18R23R24E 1E13E15E21E26E27C23C27
                                C28
  22711429.838   119349373.5131   22711435.556    92999526.0971   22711434.984  
  24362189.996   128024168.8191                   99759064.2171   24362188.406  
  23625416.979   124152404.8261   23625421.232    96742167.8671   23625421.607  
  24179618.758   127064758.3821   24179622.475    99011512.7011   24179622.921  
  23136539.559   121583349.8431   23136545.330    94740297.2911   23136545.545  
  20495921.639   107706818.6611   20495924.016    83927414.6621   20495924.266  
  21011050.869   110413837.0271   21011053.085    86036768.8541   21011053.353  
  20870641.644   109675981.0991                   85461815.2111   20870642.520  
  21745402.956   114272868.7661   21745408.942    89043818.6211   21745408.585  
  21936096.327   117137545.603    21936105.029    91106970.356                  
  19126442.221   101954706.334    19126449.636    79298133.535                  
  21168181.998   113116344.297    21168189.181    87979417.345                  
  19863214.363   106292095.950    19863223.172    82671653.218                  
  23382498.404   124817348.929    23382506.696    97080192.631                  
  23160032.053   123890564.988                                                  
  20124519.625   107614846.337    20124526.416    83700488.893                  
  26122359.520   137273932.178                                                  
  23435251.191   123153090.485                                                  
  26933858.433   141538395.204                                                  
  23522598.781   123612111.782                                                  
  23918363.332   125691851.857                                                  
  25199255.979   132423006.891                                                  
                 119781981.016    23002869.385   119781981.016                  
                 123944424.766    23802224.653   123944424.766                  
                 113399682.291    21777210.460   113399682.291                  
 21  9  1 10 43 46.0000000  0 25G30G22G 3G24G 1G14G17G19G 6R13R14R15
                                R17R18R23R24E 1E13E15E21E26E27C23C27
                                C28
  22712062.026   119352696.3011   22712067.655    93002115.2801   22712067.262  
  24362338.506   128024950.1421                   99759673.0471   24362337.040  
  23625264.324   124151602.9961   23625268.023    96741543.0701   23625268.970  
  24179178.233   127062443.6331   24179182.128    99009709.0011   24179182.414  
  23137196.049   121586800.2501   23137202.178    94742985.9171   23137202.160  
  20496000.388   107707232.8851   20496002.550    83927737.4311   20496003.104  
  21011185.638   110414545.1421   21011187.978    86037320.6321   21011188.104  
  20870491.330   109675191.0281                   85461199.5721   20870492.188  
  21744867.010   114270052.5901   21744873.014    89041624.2011   21744872.675  
  21936789.752   117141248.601    21936797.668    91109850.440                  
  19126480.585   101954911.659    19126488.090    79298293.232                  
  21167550.846   113112971.625    21167558.405    87976794.154                  
  19863007.475   106290988.934    19863016.213    82670792.210                  
  23381880.476   124814050.813    23381889.071    97077627.416                  
  23160726.211   123894277.835                                                  
  20124956.916   107617184.614    20124963.724    83702307.550                  
  26121919.030   137271617.509                                                  
  23435442.658   123154096.799                                                  
  26934373.847   141541103.430                                                  
  23522508.043   123611634.705                                                  
  23918028.788   125690094.075                                                  
  25199604.568   132424838.327                                                  
                 119784283.872    23003311.590   119784283.872                  
                 123942446.147    23801844.615   123942446.147                  
                 113400016.287    21777274.592   113400016.287                  
 21  9  1 10 43 47.0000000  0 25G30G22G 3G24G 1G14G17G19G 6R13R14R15
                                R17R18R23R24E 1E13E15E21E26E27C23C27
                                C28
  22712694.232   119356019.0291   22712699.772    93004704.4191   22712699.557  
  24362487.301   128025731.7391                   99760282.0901   24362485.764  
  23625112.133   124150801.4521   23625115.475    96740918.4901   23625116.440  
  24178737.833   127060129.0551   24178741.907    99007905.4351   24178741.996  
  23137852.539   121590250.6151   23137858.418    94745674.5141   23137858.722  
  20496079.315   107707647.2561   20496081.317    83928060.3171   20496081.978  
  21011320.352   110415253.1391   21011322.622    86037872.3181   21011322.836  
  20870340.962   109674400.9721                   85460583.9431   20870341.838  
  21744331.208   114267236.5501   21744337.247    89039429.8811   21744336.765  
  21937483.445   117144951.725    21937491.236    91112730.675                  
  19126519.200   101955117.510    19126526.634    79298453.345                  
  21166919.641   113109599.043    21166927.146    87974171.043                  
  19862800.855   106289882.223    19862809.701    82669931.439                  
  23381263.012   124810752.726    23381271.178    97075062.233                  
  23161420.458   123897990.359                                                  
  20125394.153   107619523.007    20125401.104    83704126.310                  
  26121478.416   137269302.646                                                  
  23435634.160   123155103.174                                                  
  26934889.118   141543811.454                                                  
  23522417.232   123611157.646                                                  
  23917694.226   125688336.361                                                  
  25199953.049   132426669.740                                                  
                 119786586.833    23003753.831   119786586.833                  
                 123940467.525    23801464.684   123940467.525                  
                 113400350.308    21777338.760   113400350.308                  
 21  9  1 10 43 48.0000000  0 25G30G22G 3G24G 1G14G17G19G 6R13R14R15
                                R17R18R23R24E 1E13E15E21E26E27C23C27
                                C28
  22713326.724   119359342.7711   22713331.870    93007294.3471   22713332.049  
  24362636.311   128026514.6641                   99760892.1391   24362634.738  
  23624959.800   124150001.2071   23624963.016    96740294.9251   23624964.160  
  24178297.755   127057815.7291   24178301.578    99006102.8491   24178301.811  
  23138509.476   121593702.0431   23138514.890    94748363.9361   23138515.497  
  20496158.368   107708062.8211   20496160.441    83928384.1341   20496161.048  
  21011455.138   110415962.0641   21011457.533    86038424.7271   21011457.765  
  20870190.934   109673611.9811                   85459969.1501   20870191.684  
  21743795.709   114264421.7181   21743801.677    89037236.5101   21743801.141  
  21938177.121   117148656.077    21938184.769    91115611.801                  
  19126558.137   101955324.981    19126565.588    79298614.707                  
  21166288.739   113106227.646    21166296.280    87971548.850                  
  19862594.540   106288776.924    19862603.224    82669071.758                  
  23380645.601   124807455.782    23380653.249    97072497.961                  
  23162114.723   123901703.648                                                  
  20125831.605   107621862.553    20125839.217    83705945.942                  
  26121038.034   137266988.636                                                  
  23435825.859   123156110.681                                                  
  26935404.568   141546520.284                                                  
  23522326.565   123610681.693                                                  
  23917360.004   125686579.762                                                  
  25200301.745   132428502.221                                                  
                 119788890.960    23004196.285   119788890.960                  
                 123938489.929    23801084.895   123938489.929                  
                 113400685.400    21777403.106   113400685.400                  
 21  9  1 10 43 49.0000000  0 25G30G22G 3G24G 1G14G17G19G 6R13R14R15
                                R17R18R23R24E 1E13E15E21E26E27C23C27
                                C28
  22713959.109   119362666.3711   22713964.434    93009884.1611   22713964.541  
  24362785.356   128027297.7221                   99761502.3161   24362783.712  
  23624807.288   124149201.1211   23624811.398    96739671.4771   23624811.844  
  24177857.426   127055502.4421   24177861.393    99004300.2831   24177861.697  
  23139166.305   121597153.3361   23139171.166    94751053.2531   23139172.238  
  20496237.438   107708478.4061   20496239.779    83928707.9691   20496240.136  
  21011590.049   110416670.7091   21011592.748    86038976.9161   21011592.623  
  20870040.709   109672822.8751                   85459354.2601   20870041.531  
  21743260.013   114261606.9041   21743266.000    89035043.1471   21743265.463  
  21938870.903   117152360.424    21938878.176    91118492.964                  
  19126597.234   101955532.850    19126604.579    79298776.376                  
  21165657.855   113102856.194    21165665.325    87968926.605                  
  19862388.063   106287671.856    19862396.980    82668212.265                  
  23380027.994   124804158.783    23380035.463    97069933.629                  
  23162808.970   123905416.468                                                  
  20126268.967   107624202.048    20126276.454    83707765.566                  
  26120597.652   137264674.290                                                  
  23436017.629   123157118.133                                                  
  26935919.857   141549228.783                                                  
  23522235.987   123610205.626                                                  
  23917025.728   125684823.099                                                  
  25200650.424   132430334.564                                                  
                 119791195.058    23004638.633   119791195.058                  
                 123936512.191    23800705.072   123936512.191                  
                 113401020.387    21777467.399   113401020.387                  
 21  9  1 10 43 50.0000000  0 25G30G22G 3G24G 1G14G17G19G 6R13R14R15
                                R17R18R23R24E 1E13E15E21E26E27C23C27
                                C28
  22714591.315   119365990.2411   22714596.819    93012474.1871   22714597.033  
  24362934.420   128028081.3931                   99762112.9731   24362932.847  
  23624654.919   124148401.6041   23624659.404    96739048.4831   23624659.707  
  24177417.080   127053189.6711   24177421.011    99002498.1191   24177421.654  
  23139823.153   121600604.9161   23139828.478    94753742.7981   23139829.049  
  20496316.616   107708894.4641   20496319.028    83929032.1681   20496319.278  
  21011725.050   110417379.5841   21011727.391    86039529.2841   21011727.534  
  20869890.448   109672034.1221                   85458739.6431   20869891.449  
  21742724.443   114258792.5801   21742730.429    89032850.1691   21742729.911  
  21939564.918   117156065.220    21939571.530    91121374.491                  
  19126636.278   101955741.553    19126643.569    79298938.707                  
  21165027.025   113099485.185    21165034.352    87966304.714                  
  19862181.676   106286567.440    19862190.628    82667353.277                  
  23379410.423   124800862.176    23379417.606    97067369.597                  
  23163503.057   123909129.312                                                  
  20126706.401   107626541.970    20126713.941    83709585.500                  
  26120157.145   137262360.096                                                  
  23436209.435   123158125.996                                                  
  26936435.342   141551937.396                                                  
  23522145.444   123609729.928                                                  
  23916691.542   125683066.831                                                  
  25200999.209   132432167.232                                                  
                 119793499.595    23005081.213   119793499.595                  
                 123934534.758    23800325.265   123934534.758                  
                 113401355.729    21777531.817   113401355.729                  
 21  9  1 10 43 51.0000000  0 25G30G22G 3G24G 1G14G17G19G 6R13R14R15
                                R17R18R23R24E 1E13E15E21E26E27C23C27
                                C28
  22715223.843   119369314.1471   22715229.328    93015064.2441   22715229.578  
  24363083.358   128028865.4011                   99762723.8881   24363082.036  
  23624502.871   124147602.4661   23624506.498    96738425.7801   23624507.624  
  24176976.716   127050877.1641   24176981.201    99000696.1771   24176981.737  
  23140480.232   121604056.5991   23140485.539    94756432.4191   23140485.879  
  20496395.794   107709310.7481   20496398.242    83929356.5421   20496398.510  
  21011859.872   110418088.4061   21011862.087    86040081.6151   21011862.409  
  20869740.402   109671245.4481                   85458125.0981   20869741.385  
  21742188.944   114255978.4771   21742194.859    89030657.3611   21742194.466  
  21940258.755   117159770.241    21940265.509    91124256.190                  
  19126675.572   101955950.848    19126682.756    79299101.490                  
  21164396.267   113096114.369    21164403.664    87963682.968                  
  19861975.289   106285463.393    19861984.098    82666494.576                  
  23378792.887   124797565.717    23378799.999    97064805.694                  
  23164197.072   123912841.896                                                  
  20127144.067   107628882.053    20127151.840    83711405.567                  
  26119716.781   137260045.752                                                  
  23436401.241   123159134.002                                                  
  26936950.667   141554645.827                                                  
  23522054.973   123609254.342                                                  
  23916357.391   125681310.717                                                  
  25201347.941   132433999.980                                                  
                 119795804.315    23005523.793   119795804.315                  
                 123932557.392    23799945.531   123932557.392                  
                 113401691.169    21777596.288   113401691.169                  
 21  9  1 10 43 52.0000000  0 25G30G22G 3G24G 1G14G17G19G 6R13R14R15
                                R17R18R23R24E 1E13E15E21E26E27C23C27
                                C28
  22715856.388   119372638.2901   22715861.785    93017654.4851   22715862.178  
  24363232.511   128029649.9341                   99763335.2091   24363231.296  
  23624350.734   124146803.8061   23624354.755    96737803.4391   23624355.630  
  24176537.084   127048565.0981   24176541.158    98998894.5781   24176541.891  
  23141136.883   121607508.5091   23141142.190    94759122.2141   23141142.762  
  20496475.025   107709727.4331   20496477.455    83929681.2301   20496477.812  
  21011994.818   110418797.3661   21011997.088    86040634.0491   21011997.320  
  20869590.428   109670457.0641                   85457510.7731   20869591.321  
  21741653.588   114253164.7841   21741659.521    89028464.8731   21741659.038  
  21940953.020   117163475.675    21940958.881    91127138.190                  
  19126715.081   101956160.947    19126722.175    79299264.903                  
  21163765.669   113092743.935    21163772.888    87961061.522                  
  19861769.044   106284359.945    19861777.747    82665636.339                  
  23378175.173   124794269.553    23378182.892    97062242.011                  
  23164891.015   123916554.426                                                  
  20127581.679   107631222.497    20127589.041    83713225.922                  
  26119276.470   137257731.482                                                  
  23436593.101   123160142.361                                                  
  26937466.206   141557354.347                                                  
  23521964.503   123608779.053                                                  
  23916023.240   125679554.933                                                  
  25201696.780   132435832.989                                                  
                 119798109.419    23005966.480   119798109.419                  
                 123930580.258    23799565.796   123930580.258                  
                 113402026.903    21777660.706   113402026.903                  
 21  9  1 10 43 53.0000000  0 25G30G22G 3G24G 1G14G17G19G 6R13R14R15
                                R17R18R23R24E 1E13E15E21E26E27C23C27
                                C28
  22716489.220   119375963.0401   22716494.634    93020245.2021   22716494.848  
  24363382.039   128030435.4161                   99763947.2951   24363380.788  
  23624198.955   124146006.1231   23624203.082    96737181.8701   23624203.779  
  24176097.131   127046253.8761   24176101.777    98997093.6171   24176102.116  
  23141793.891   121610961.0631   23141799.181    94761812.5181   23141799.752  
  20496554.435   107710144.9261   20496556.793    83930006.5471   20496557.294  
  21012129.801   110419506.8631   21012132.178    86041186.9061   21012132.338  
  20869440.614   109669669.3471                   85456896.9681   20869441.400  
  21741118.250   114250351.9091   21741124.218    89026273.0251   21741123.772  
  21941647.249   117167181.924    21941654.111    91130020.800                  
  19126754.714   101956372.285    19126761.790    79299429.274                  
  21163135.071   113089374.274    21163141.986    87958440.668                  
  19861563.104   106283257.497    19861571.645    82664778.868                  
  23377557.995   124790974.084    23377564.803    97059678.857                  
  23165584.709   123920267.302                                                  
  20128019.559   107633563.730    20128026.886    83715046.865                  
  26118836.231   137255417.678                                                  
  23436785.157   123161151.444                                                  
  26937981.692   141560063.286                                                  
  23521874.175   123608304.453                                                  
  23915689.304   125677799.869                                                  
  25202045.637   132437666.656                                                  
                 119800415.279    23006409.364   119800415.279                  
                 123928603.773    23799186.401   123928603.773                  
                 113402363.309    21777725.320   113402363.309                  
 21  9  1 10 43 54.0000000  0 25G30G22G 3G24G 1G14G17G19G 6R13R14R15
                                R17R18R23R24E 1E13E15E21E26E27C23C27
                                C28
  22717121.926   119379287.8531   22717127.233    93022835.9651   22717127.572  
  24363531.692   128031221.2411                   99764559.6171   24363530.352  
  23624047.318   124145208.7631   23624051.535    96736560.5531   23624051.982  
  24175657.213   127043942.9281   24175662.091    98995292.8761   24175662.395  
  23142450.721   121614413.7031   23142455.921    94764502.8871   23142456.761  
  20496633.880   107710562.6571   20496636.543    83930332.0561   20496636.775  
  21012264.855   110420216.3211   21012267.214    86041739.7331   21012267.321  
  20869290.871   109668881.7351                   85456283.2441   20869291.532  
  21740583.037   114247539.2731   21740589.077    89024081.3581   21740588.523  
  21942341.103   117170888.385    21942348.698    91132903.635                  
  19126794.598   101956584.271    19126801.638    79299594.148                  
  21162504.598   113086004.787    21162511.585    87955819.962                  
  19861357.235   106282155.465    19861365.383    82663921.720                  
  23376940.513   124787678.752    23376947.464    97057115.825                  
  23166278.581   123923979.949                                                  
  20128457.529   107635905.175    20128465.016    83716867.979                  
  26118395.813   137253103.763                                                  
  23436977.231   123162160.689                                                  
  26938497.106   141562772.099                                                  
  23521783.829   123607829.973                                                  
  23915355.385   125676044.966                                                  
  25202394.619   132439500.413                                                  
                 119802721.337    23006852.230   119802721.337                  
                 123926627.361    23798806.917   123926627.361                  
                 113402699.837    21777789.970   113402699.837                  
 21  9  1 10 43 55.0000000  0 25G30G22G 3G24G 1G14G17G19G 6R13R14R15
                                R17R18R23R24E 1E13E15E21E26E27C23C27
                                C28
  22717754.811   119382612.5891   22717759.850    93025426.6661   22717760.207  
  24363681.166   128032007.3001                   99765172.1381   24363679.915  
  23623895.932   124144411.6411   23623899.827    96735939.4161   23623900.274  
  24175217.403   127041632.1441   24175222.263    98993492.2621   24175222.656  
  23143107.729   121617866.3071   23143113.197    94767193.2301   23143113.751  
  20496713.523   107710980.5021   20496716.149    83930657.6471   20496716.257  
  21012399.784   110420925.6331   21012402.071    86042292.4411   21012402.286  
  20869141.004   109668094.0911                   85455669.5021   20869141.683  
  21740047.771   114244726.7661   21740053.900    89021889.7961   21740053.328  
  21943034.797   117174594.964    21943043.034    91135786.528                  
  19126834.589   101956796.757    19126841.701    79299759.424                  
  21161873.965   113082635.355    21161880.862    87953199.286                  
  19861151.348   106281053.717    19861159.264    82663064.798                  
  23376323.120   124784383.429    23376330.786    97054552.803                  
  23166971.988   123927692.249                                                  
  20128895.535   107638246.652    20128902.933    83718689.138                  
  26117955.485   137250789.621                                                  
  23437169.341   123163169.996                                                  
  26939012.574   141565480.662                                                  
  23521693.537   123607355.499                                                  
  23915021.556   125674290.099                                                  
  25202743.601   132441334.135                                                  
                 119805027.476    23007295.114   119805027.476                  
                 123924650.902    23798427.307   123924650.902                  
                 113403036.360    21777854.603   113403036.360                  
 21  9  1 10 43 56.0000000  0 25G30G22G 3G24G 1G14G17G19G 6R13R14R15
                                R17R18R23R24E 1E13E15E21E26E27C23C27
                                C28
  22718387.321   119385937.3831   22718392.771    93028017.4191   22718392.914  
  24363830.837   128032793.7211                   99765784.9401   24363829.622  
  23623744.778   124143614.8641   23623748.655    96735318.5521   23623748.655  
  24174777.593   127039321.6291   24174782.507    98991691.8591   24174783.007  
  23143764.827   121621318.9741   23143770.384    94769883.6151   23143770.741  
  20496793.147   107711398.5731   20496795.631    83930983.4171   20496795.810  
  21012534.785   110421634.9011   21012536.947    86042845.1181   21012537.268  
  20868991.029   109667306.5671                   85455055.8431   20868991.815  
  21739512.629   114241914.4931   21739518.740    89019698.4111   21739518.151  
  21943728.919   117178301.750    21943737.764    91138669.577                  
  19126874.669   101957009.836    19126881.548    79299925.138                  
  21161243.456   113079266.124    21161250.318    87950578.773                  
  19860945.586   106279952.363    19860953.306    82662208.213                  
  23375705.746   124781088.240    23375712.804    97051989.876                  
  23167665.860   123931404.310                                                  
  20129333.558   107640588.297    20129340.527    83720510.431                  
  26117515.120   137248475.369                                                  
  23437361.451   123164179.449                                                  
  26939527.988   141568189.088                                                  
  23521603.334   123606881.148                                                  
  23914687.709   125672535.386                                                  
  25203092.547   132443167.954                                                  
                 119807333.807    23007738.015   119807333.807                  
                 123922674.513    23798047.876   123922674.513                  
                 113403372.989    21777919.235   113403372.989                  
 21  9  1 10 43 57.0000000  0 25G30G22G 3G24G 1G14G17G19G 6R13R14R15
                                R17R18R23R24E 1E13E15E21E26E27C23C27
                                C28
  22719020.063   119389262.6271   22719025.584    93030608.5231   22719025.656  
  24363980.615   128033580.9271                   99766398.3271   24363979.454  
  23623593.213   124142818.8811   23623597.894    96734698.3041   23623597.180  
  24174338.158   127037011.7841   24174343.090    98989891.9781   24174343.465  
  23144421.817   121624772.1361   23144427.785    94772574.3881   23144427.875  
  20496872.754   107711817.3041   20496875.273    83931309.6961   20496875.487  
  21012669.803   110422344.5481   21012671.912    86043398.0911   21012672.322  
  20868841.233   109666519.5541                   85454442.5861   20868842.019  
  21738977.559   114239102.8751   21738983.438    89017507.5391   21738983.116  
  21944423.059   117182009.171    21944431.922    91141553.131                  
  19126914.803   101957223.932    19126921.611    79300091.662                  
  21160613.091   113075897.490    21160620.095    87947958.729                  
  19860739.807   106278851.828    19860747.633    82661352.248                  
  23375088.549   124777793.648    23375096.287    97049427.424                  
  23168359.553   123935116.547                                                  
  20129771.564   107642930.545    20129778.658    83722332.173                  
  26117074.810   137246161.418                                                  
  23437553.686   123165189.492                                                  
  26940043.420   141570897.804                                                  
  23521513.185   123606407.329                                                  
  23914353.916   125670781.244                                                  
  25203441.601   132445002.257                                                  
                 119809640.752    23008181.060   119809640.752                  
                 123920698.618    23797668.338   123920698.618                  
                 113403710.145    21777983.957   113403710.145                  
 21  9  1 10 43 58.0000000  0 25G30G22G 3G24G 1G14G17G19G 6R13R14R15
                                R17R18R23R24E 1E13E15E21E26E27C23C27
                                C28
  22719652.984   119392588.4021   22719658.720    93033200.0311   22719658.559  
  24364130.608   128034368.9471                   99767012.3681   24364129.429  
  23623441.755   124142023.6981   23623446.865    96734078.6861   23623445.811  
  24173898.812   127034702.7051   24173903.172    98988092.6971   24173904.048  
  23145079.254   121628225.8581   23145085.294    94775265.5961   23145085.115  
  20496952.539   107712236.7361   20496954.987    83931636.5241   20496955.308  
  21012804.929   110423054.6341   21012806.805    86043951.4031   21012807.448  
  20868691.544   109665733.1191                   85453829.7771   20868692.366  
  21738442.561   114236291.9661   21738448.350    89015317.2261   21738448.171  
  21945117.735   117185717.307    21945126.616    91144437.216                  
  19126955.097   101957439.148    19126962.120    79300259.052                  
  21159982.815   113072529.551    21159989.891    87945339.225                  
  19860534.259   106277752.177    19860542.354    82660496.955                  
  23374471.353   124774499.669    23374479.341    97046865.448                  
  23169053.300   123938829.027                                                  
  20130209.658   107645273.480    20130216.520    83724154.462                  
  26116634.606   137243847.829                                                  
  23437745.975   123166200.169                                                  
  26940558.959   141573606.857                                                  
  23521423.125   123605934.108                                                  
  23914020.301   125669027.732                                                  
  25203790.779   132446837.130                                                  
                 119811948.359    23008624.229   119811948.359                  
                 123918723.249    23797289.033   123918723.249                  
                 113404047.883    21778048.803   113404047.883                  
 21  9  1 10 43 59.0000000  0 25G30G22G 3G24G 1G14G17G19G 6R13R14R15
                                R17R18R23R24E 1E13E15E21E26E27C23C27
                                C28
  22720285.940   119395914.3901   22720291.426    93035791.7061   22720291.480  
  24364280.261   128035157.5101                   99767626.8351   24364279.475  
  23623290.494   124141229.0731   23623295.729    96733459.4931   23623294.603  
  24173459.824   127032394.0631   24173463.612    98986293.7511   24173464.773  
  23145736.870   121631679.8101   23145742.159    94777956.9871   23145742.356  
  20497032.467   107712656.5711   20497035.201    83931963.6701   20497035.237  
  21012940.143   110423764.8501   21012941.555    86044504.8161   21012942.609  
  20868541.963   109664946.9451                   85453217.1761   20868542.749  
  21737907.741   114233481.4751   21737913.816    89013127.2321   21737913.334  
  21945812.161   117189425.834    21945820.756    91147321.630                  
  19126995.428   101957655.180    19127002.647    79300427.088                  
  21159352.538   113069161.996    21159359.632    87942720.009                  
  19860328.980   106276653.124    19860337.146    82659642.133                  
  23373854.247   124771205.991    23373861.841    97044303.680                  
  23169747.083   123942541.428                                                  
  20130647.807   107647616.782    20130654.526    83725977.035                  
  26116194.296   137241534.306                                                  
  23437938.406   123167211.177                                                  
  26941074.516   141576315.940                                                  
  23521333.136   123605461.175                                                  
  23913686.687   125667274.543                                                  
  25204140.029   132448672.269                                                  
                 119814256.333    23009067.417   119814256.333                  
                 123916748.116    23796909.709   123916748.116                  
                 113404385.903    21778113.757   113404385.903                  
 21  9  1 10 44  0.0000000  0 25G30G22G 3G24G 1G14G17G19G 6R13R14R15
                                R17R18R23R24E 1E13E15E21E26E27C23C27
                                C28
  22720918.664   119399240.5231   22720924.114    93038383.4981   22720924.400  
  24364430.486   128035946.5181                   99768241.6291   24364429.610  
  23623139.161   124140434.8581   23623145.040    96732840.6231   23623143.503  
  24173020.567   127030085.7901   24173024.266    98984495.1021   24173025.589  
  23146394.271   121635133.9461   23146399.400    94780648.5241   23146399.632  
  20497112.449   107713076.7311   20497115.129    83932291.0721   20497115.200  
  21013075.269   110424475.1241   21013076.806    86045058.2761   21013077.771  
  20868392.310   109664160.9821                   85452604.7381   20868393.185  
  21737372.903   114230671.3151   21737379.086    89010937.4951   21737378.567  
  21946506.802   117193134.677    21946515.504    91150206.321                  
  19127036.008   101957871.970    19127043.388    79300595.694                  
  21158722.387   113065794.723    21158729.660    87940101.014                  
  19860123.683   106275554.597    19860132.063    82658787.717                  
  23373237.265   124767912.523    23373244.752    97041742.091                  
  23170440.812   123946253.693                                                  
  20131086.080   107649960.365    20131092.728    83727799.808                  
  26115753.967   137239220.764                                                  
  23438130.802   123168222.459                                                  
  26941589.948   141579024.987                                                  
  23521243.130   123604988.470                                                  
  23913353.179   125665521.603                                                  
  25204489.297   132450507.576                                                  
                 119816564.601    23009510.747   119816564.601                  
                 123914773.170    23796530.314   123914773.170                  
                 113404724.132    21778178.675   113404724.132                  
 21  9  1 10 44  1.0000000  0 25G30G22G 3G24G 1G14G17G19G 6R13R14R15
                                R17R18R23R24E 1E13E15E21E26E27C23C27
                                C28
  22721551.746   119402567.0051   22721557.232    93040975.5621   22721557.393  
  24364580.764   128036736.1841                   99768856.9731   24364579.907  
  23622988.310   124139641.3161   23622993.439    96732222.2781   23622992.438  
  24172581.561   127027778.0781   24172585.564    98982696.8871   24172586.529  
  23147051.262   121638588.4341   23147056.676    94783340.3331   23147056.980  
  20497192.466   107713497.4371   20497195.182    83932618.8911   20497195.254  
  21013210.627   110425185.6661   21013212.307    86045611.9451   21013212.968  
  20868242.835   109663375.4161                   85451992.6101   20868243.693  
  21736838.333   114227861.6831   21736844.248    89008748.1741   21736843.908  
  21947202.049   117196844.069    21947209.769    91153091.359                  
  19127076.839   101958089.686    19127084.219    79300765.029                  
  21158092.326   113062427.911    21158099.902    87937482.392                  
  19859918.636   106274456.799    19859926.838    82657933.883                  
  23372620.373   124764619.507    23372628.467    97039180.866                  
  23171134.809   123949966.035                                                  
  20131524.479   107652304.414    20131531.394    83729622.959                  
  26115313.692   137236907.409                                                  
  23438323.323   123169234.192                                                  
  26942105.612   141581734.220                                                  
  23521153.320   123604516.174                                                  
  23913019.725   125663769.124                                                  
  25204838.708   132452343.267                                                  
                 119818873.354    23009954.185   119818873.354                  
                 123912798.572    23796151.169   123912798.572                  
                 113405062.768    21778243.736   113405062.768                  
 21  9  1 10 44  2.0000000  0 25G30G22G 3G24G 1G14G17G19G 6R13R14R15
                                R17R18R23R24E 1E13E15E21E26E27C23C27
                                C28
  22722184.452   119405893.4551   22722190.170    93043567.5961   22722190.421  
  24364731.007   128037526.1351                   99769472.5241   24364730.257  
  23622837.317   124138848.0411   23622842.142    96731604.1411   23622841.481  
  24172142.555   127025470.5661   24172146.522    98980898.8231   24172147.469  
  23147708.395   121642042.9491   23147713.702    94786032.1611   23147714.345  
  20497272.519   107713918.2891   20497275.307    83932946.8281   20497275.343  
  21013345.788   110425896.0901   21013347.325    86046165.5221   21013348.165  
  20868093.343   109662589.8731                   85451380.4991   20868094.183  
  21736303.799   114225052.2161   21736309.500    89006558.9761   21736309.303  
  21947896.726   117200553.585    21947904.749    91155976.562                  
  19127117.688   101958307.914    19127125.121    79300934.759                  
  21157462.389   113059061.196    21157469.751    87934863.826                  
  19859713.624   106273359.318    19859721.880    82657080.284                  
  23372003.552   124761326.553    23372011.968    97036619.682                  
  23171828.896   123953678.063                                                  
  20131962.931   107654648.573    20131970.240    83731446.187                  
  26114873.489   137234593.875                                                  
  23438515.844   123170246.007                                                  
  26942621.115   141584443.220                                                  
  23521063.511   123604043.924                                                  
  23912686.200   125662016.730                                                  
  25205188.048   132454178.979                                                  
                 119821182.238    23010397.658   119821182.238                  
                 123910823.977    23795771.845   123910823.977                  
                 113405401.439    21778308.780   113405401.439                  
 21  9  1 10 44  3.0000000  0 25G30G22G 3G24G 1G14G17G19G 6R13R14R15
                                R17R18R23R24E 1E13E15E21E26E27C23C27
                                C28
  22722817.516   119409219.8571   22722823.377    93046159.5981   22722823.413  
  24364881.482   128038316.3471                   99770088.2571   24364880.553  
  23622686.306   124138055.0181   23622691.631    96730986.2011   23622690.559  
  24171703.317   127023163.2271   24171707.212    98979100.8941   24171708.374  
  23148365.743   121645497.4231   23148371.121    94788723.9561   23148371.729  
  20497352.644   107714339.2771   20497355.199    83933274.8731   20497355.467  
  21013480.878   110426606.3821   21013482.790    86046718.9971   21013483.326  
  20867943.994   109661804.3361                   85450768.3921   20867944.708  
  21735769.301   114222242.8901   21735775.430    89004369.8931   21735774.680  
  21948591.527   117204263.240    21948599.068    91158861.791                  
  19127158.608   101958526.646    19127166.077    79301104.888                  
  21156832.416   113055694.590    21156839.886    87932245.353                  
  19859508.595   106272262.154    19859517.119    82656226.929                  
  23371386.892   124758033.672    23371395.558    97034058.552                  
  23172523.036   123957389.757                                                  
  20132401.419   107656992.809    20132408.692    83733269.494                  
  26114433.161   137232280.130                                                  
  23438708.400   123171257.899                                                  
  26943136.583   141587152.018                                                  
  23520973.630   123603571.701                                                  
  23912352.675   125660264.386                                                  
  25205537.315   132456014.676                                                  
                 119823491.218    23010841.060   119823491.218                  
                 123908849.355    23795392.540   123908849.355                  
                 113405740.131    21778373.787   113405740.131                  
 21  9  1 10 44  4.0000000  0 25G30G22G 3G24G 1G14G17G19G 6R13R14R15
                                R17R18R23R24E 1E13E15E21E26E27C23C27
                                C28
  22723450.705   119412546.7801   22723456.888    93048752.0051   22723456.441  
  24365032.100   128039107.3831                   99770704.6541   24365031.010  
  23622535.760   124137262.8281   23622540.709    96730368.9151   23622539.744  
  24171264.328   127020856.6271   24171268.456    98977303.5371   24171269.367  
  23149022.858   121648952.4341   23149028.576    94791416.1721   23149029.184  
  20497432.930   107714760.9781   20497435.342    83933603.4681   20497435.717  
  21013616.093   110427317.1001   21013618.076    86047272.8021   21013618.577  
  20867794.626   109661019.3711                   85450156.7351   20867795.377  
  21735234.839   114219434.2911   21735240.789    89002181.3751   21735240.217  
  21949286.739   117207973.612    21949293.815    91161747.666                  
  19127199.814   101958746.478    19127207.426    79301275.862                  
  21156202.462   113052328.674    21156210.217    87929627.432                  
  19859303.816   106271165.856    19859312.304    82655374.263                  
  23370770.286   124754741.428    23370778.666    97031497.913                  
  23173217.283   123961101.710                                                  
  20132839.925   107659337.694    20132847.412    83735093.277                  
  26113993.011   137229966.740                                                  
  23438900.993   123172270.419                                                  
  26943652.104   141589861.154                                                  
  23520883.909   123603100.070                                                  
  23912019.328   125658512.664                                                  
  25205886.744   132457850.930                                                  
                 119825800.861    23011284.516   119825800.861                  
                 123906875.266    23795013.269   123906875.266                  
                 113406079.404    21778438.973   113406079.404                  
 21  9  1 10 44  5.0000000  0 25G30G22G 3G24G 1G14G17G19G 6R13R14R15
                                R17R18R23R24E 1E13E15E21E26E27C23C27
                                C28
  22724083.947   119415874.3061   22724090.505    93051344.8781   22724089.630  
  24365182.933   128039899.3411                   99771321.7711   24365181.700  
  23622385.249   124136471.5661   23622389.913    96729752.3471   23622389.198  
  24170825.697   127018550.8731   24170829.289    98975506.8541   24170830.611  
  23149680.403   121652408.0751   23149686.121    94794108.8851   23149686.746  
  20497513.269   107715183.4621   20497515.860    83933932.6791   20497516.146  
  21013751.397   110428028.3391   21013753.273    86047827.0181   21013753.917  
  20867645.224   109660235.0601                   85449545.5871   20867646.171  
  21734700.448   114216626.4761   21734706.201    88999993.4671   21734705.880  
  21949981.987   117211684.745    21949988.795    91164634.110                  
  19127241.252   101958967.513    19127248.864    79301447.783                  
  21155572.704   113048963.528    21155580.334    87927010.087                  
  19859099.091   106270070.538    19859107.668    82654522.353                  
  23370153.840   124751449.861    23370162.256    97028937.810                  
  23173911.405   123964813.998                                                  
  20133278.538   107661683.304    20133286.222    83736917.661                  
  26113552.861   137227653.811                                                  
  23439093.817   123173283.660                                                  
  26944167.572   141592570.689                                                  
  23520794.332   123602629.115                                                  
  23911686.035   125656761.661                                                  
  25206236.369   132459687.825                                                  
                 119828111.257    23011728.132   119828111.257                  
                 123904901.808    23794634.303   123904901.808                  
                 113406419.334    21778504.231   113406419.334                  
 21  9  1 10 44  6.0000000  0 25G30G22G 3G24G 1G14G17G19G 6R13R14R15
                                R17R18R23R24E 1E13E15E21E26E27C23C27
                                C28
  22724717.190   119419202.0501   22724723.569    93053937.9271   22724722.872  
  24365333.836   128040691.8211                   99771939.2781   24365332.532  
  23622234.863   124135680.8141   23622239.616    96729136.1841   23622238.705  
  24170386.906   127016245.5321   24170390.265    98973710.4851   24170391.945  
  23150338.197   121655863.9671   23150343.433    94796801.7841   23150344.398  
  20497593.697   107715606.3491   20497596.449    83934262.2011   20497596.628  
  21013886.719   110428739.7141   21013888.810    86048381.3361   21013889.328  
  20867496.035   109659451.0251                   85448934.6461   20867496.964  
  21734166.253   114213819.0741   21734172.114    88997805.8861   21734171.685  
  21950676.806   117215396.287    21950683.918    91167520.848                  
  19127282.905   101959189.361    19127290.302    79301620.331                  
  21154942.982   113045598.752    21154950.647    87924393.046                  
  19858894.669   106268975.806    19858903.211    82653670.895                  
  23369537.484   124748158.583    23369545.507    97026377.927                  
  23174605.545   123968526.227                                                  
  20133717.115   107664029.270    20133724.674    83738742.292                  
  26113112.729   137225340.931                                                  
  23439286.713   123174297.228                                                  
  26944683.290   141595280.265                                                  
  23520704.719   123602158.456                                                  
  23911352.867   125655010.981                                                  
  25206585.959   132461524.971                                                  
                 119830422.005    23012171.802   119830422.005                  
                 123902928.580    23794255.266   123902928.580                  
                 113406759.543    21778569.524   113406759.543                  
 21  9  1 10 44  7.0000000  0 25G30G22G 3G24G 1G14G17G19G 6R13R14R15
                                R17R18R23R24E 1E13E15E21E26E27C23C27
                                C28
  22725350.468   119422529.8611   22725356.651    93056531.0291   22725356.132  
  24365484.615   128041484.7001                   99772557.1041   24365483.418  
  23622084.424   124134890.4271   23622089.427    96728520.2951   23622088.284  
  24169948.132   127013940.5171   24169951.795    98971914.3621   24169953.296  
  23150996.134   121659319.9571   23151001.334    94799494.7641   23151002.031  
  20497674.215   107716029.5021   20497676.877    83934591.9311   20497677.145  
  21014022.131   110429451.0801   21014024.257    86048935.6451   21014024.668  
  20867346.704   109658667.1231                   85448323.8081   20867347.794  
  21733632.077   114211011.9401   21733637.991    88995618.5081   21733637.509  
  21951371.840   117219108.070    21951379.166    91170407.809                  
  19127324.682   101959411.858    19127332.116    79301793.382                  
  21154313.206   113042234.173    21154321.015    87921776.156                  
  19858690.212   106267881.534    19858698.307    82652819.792                  
  23368921.003   124744867.454    23368928.686    97023818.158                  
  23175299.739   123972238.246                                                  
  20134155.746   107666375.463    20134163.430    83740567.118                  
  26112672.544   137223027.973                                                  
  23439479.645   123175310.989                                                  
  26945198.883   141597989.743                                                  
  23520615.231   123601687.940                                                  
  23911019.699   125653260.480                                                  
  25206935.549   132463362.244                                                  
                 119832732.983    23012615.544   119832732.983                  
                 123900955.468    23793876.532   123900955.468                  
                 113407099.898    21778634.854   113407099.898                  
 21  9  1 10 44  8.0000000  0 25G30G22G 3G24G 1G14G17G19G 6R13R14R15
                                R17R18R23R24E 1E13E15E21E26E27C23C27
                                C28
  22725983.693   119425857.8341   22725989.571    93059124.2501   22725989.411  
  24365635.644   128042278.0221                   99773175.2681   24365634.411  
  23621934.092   124134100.5231   23621938.863    96727904.7811   23621938.005  
  24169509.644   127011635.8831   24169513.629    98970118.5441   24169514.683  
  23151654.161   121662776.1391   23151659.236    94802187.8881   23151659.701  
  20497754.751   107716452.9901   20497757.520    83934921.9191   20497757.753  
  21014157.506   110430162.5081   21014159.704    86049490.0061   21014160.044  
  20867197.587   109657883.4191                   85447713.1331   20867198.659  
  21733097.900   114208205.1461   21733103.797    88993431.3961   21733103.404  
  21952066.909   117222820.184    21952073.967    91173295.019                  
  19127366.675   101959635.063    19127373.929    79301966.986                  
  21153683.501   113038869.901    21153690.971    87919159.479                  
  19858485.772   106266787.779    19858493.867    82651969.101                  
  23368304.700   124741576.572    23368311.204    97021258.571                  
  23175993.879   123975950.134                                                  
  20134594.395   107668721.960    20134601.775    83742392.162                  
  26112232.340   137220715.008                                                  
  23439672.577   123176325.017                                                  
  26945714.368   141600699.184                                                  
  23520525.742   123601217.657                                                  
  23910686.656   125651510.245                                                  
  25207285.192   132465199.702                                                  
                 119835044.266    23013059.446   119835044.266                  
                 123898982.513    23793497.726   123898982.513                  
                 113407440.468    21778700.236   113407440.468                  
 21  9  1 10 44  9.0000000  0 25G30G22G 3G24G 1G14G17G19G 6R13R14R15
                                R17R18R23R24E 1E13E15E21E26E27C23C27
                                C28
  22726617.024   119429185.8771   22726622.832    93061717.5311   22726622.671  
  24365786.852   128043071.7671                   99773793.7731   24365785.494  
  23621783.813   124133311.0101   23621788.674    96727289.5811   23621787.780  
  24169071.281   127009331.5341   24169075.337    98968322.9431   24169076.213  
  23152311.866   121666232.4411   23152317.227    94804881.1081   23152317.388  
  20497835.376   107716876.7531   20497838.038    83935252.1251   20497838.413  
  21014292.918   110430873.9471   21014295.151    86050044.3771   21014295.384  
  20867048.577   109657099.8631                   85447102.5691   20867049.542  
  21732563.759   114205398.6391   21732569.585    88991244.5101   21732569.352  
  21952761.871   117226532.579    21952768.697    91176182.450                  
  19127408.792   101959858.923    19127416.118    79302141.095                  
  21153053.833   113035505.865    21153061.427    87916543.027                  
  19858281.458   106265694.463    19858289.213    82651118.730                  
  23367688.397   124738285.875    23367694.473    97018699.148                  
  23176687.983   123979661.798                                                  
  20135033.169   107671068.663    20135040.853    83744217.396                  
  26111792.155   137218401.959                                                  
  23439865.598   123177339.250                                                  
  26946230.104   141603408.540                                                  
  23520436.308   123600747.526                                                  
  23910353.649   125649760.208                                                  
  25207634.942   132467037.280                                                  
                 119837355.781    23013503.295   119837355.781                  
                 123897009.677    23793118.956   123897009.677                  
                 113407781.189    21778765.673   113407781.189                  
 21  9  1 10 44 10.0000000  0 25G30G22G 3G24G 1G14G17G19G 6R13R14R15
                                R17R18R23R24E 1E13E15E21E26E27C23C27
                                C28
  22727250.535   119432514.3311   22727256.074    93064311.1361   22727256.038  
  24365937.863   128043866.1981                   99774412.8131   24365936.702  
  23621633.606   124132522.1801   23621638.699    96726674.9101   23621637.680  
  24168633.025   127007027.8101   24168636.867    98966527.8311   24168637.814  
  23152969.679   121669689.1451   23152975.182    94807574.6421   23152975.164  
  20497916.108   107717301.0951   20497918.681    83935582.7801   20497919.181  
  21014428.329   110431585.6891   21014430.724    86050598.9781   21014430.831  
  20866899.567   109656316.7201                   85446492.3301   20866900.514  
  21732029.779   114202592.6991   21732035.658    88989058.0661   21732035.408  
  21953456.583   117230245.528    21953464.213    91179070.281                  
  19127451.052   101960083.753    19127458.128    79302315.974                  
  21152424.325   113032142.363    21152431.830    87913926.968                  
  19858077.412   106264601.913    19858084.845    82650268.966                  
  23367072.131   124734995.673    23367077.724    97016140.122                  
  23177382.034   123983373.581                                                  
  20135472.032   107673415.868    20135479.948    83746042.991                  
  26111352.076   137216089.150                                                  
  23440058.709   123178353.982                                                  
  26946745.733   141606118.113                                                  
  23520346.927   123600277.865                                                  
  23910020.731   125648010.663                                                  
  25207984.657   132468875.298                                                  
                 119839667.835    23013947.304   119839667.835                  
                 123895037.245    23792740.044   123895037.245                  
                 113408122.357    21778831.181   113408122.357                  
 21  9  1 10 44 11.0000000  0 25G30G22G 3G24G 1G14G17G19G 6R13R14R15
                                R17R18R23R24E 1E13E15E21E26E27C23C27
                                C28
  22727884.170   119435843.0491   22727889.531    93066904.9461   22727889.460  
  24366088.963   128044661.2401                   99775032.3231   24366088.016  
  23621483.292   124131733.9401   23621488.170    96726060.7001   23621487.670  
  24168195.038   127004724.6201   24168198.933    98964733.1281   24168199.523  
  23153627.473   121673146.1661   23153632.709    94810268.4291   23153633.030  
  20497996.822   107717725.9091   20497999.360    83935913.8051   20498000.039  
  21014563.812   110432297.6391   21014566.528    86051153.7471   21014566.314  
  20866750.611   109655533.9211                   85445882.3591   20866751.540  
  21731495.871   114199787.2521   21731501.535    88986872.0031   21731501.517  
  21954151.402   117233958.942    21954159.103    91181958.531                  
  19127493.330   101960309.455    19127500.531    79302491.516                  
  21151795.032   113028779.302    21151802.751    87911311.250                  
  19857873.383   106263510.010    19857880.817    82649419.702                  
  23366455.864   124731705.874    23366460.635    97013581.357                  
  23178076.085   123987085.373                                                  
  20135911.038   107675763.497    20135919.294    83747868.941                  
  26110912.123   137213776.493                                                  
  23440251.855   123179369.131                                                  
  26947261.486   141608827.782                                                  
  23520257.654   123599808.561                                                  
  23909687.903   125646261.515                                                  
  25208334.425   132470713.636                                                  
                 119841980.316    23014391.421   119841980.316                  
                 123893065.119    23792361.381   123893065.119                  
                 113408463.881    21778896.831   113408463.881                  
 21  9  1 10 44 12.0000000  0 25G30G22G 3G24G 1G14G17G19G 6R13R14R15
                                R17R18R23R24E 1E13E15E21E26E27C23C27
                                C28
  22728517.484   119439171.9901   22728522.916    93069498.9221   22728523.006  
  24366240.207   128045456.7721                   99775652.2251   24366239.474  
  23621333.192   124130946.2341   23621337.785    96725446.8961   23621337.802  
  24167756.621   127002421.8211   24167761.160    98962938.7481   24167761.392  
  23154285.321   121676603.4011   23154290.896    94812962.3831   23154290.914  
  20498077.680   107718151.1111   20498080.306    83936245.1301   20498080.968  
  21014699.277   110433009.7011   21014702.065    86051708.6021   21014701.815  
  20866601.744   109654751.3801                   85445272.5891   20866602.638  
  21730962.284   114196982.2041   21730967.966    88984686.2471   21730967.698  
  21954846.614   117237672.753    21954854.744    91184847.025                  
  19127535.841   101960535.950    19127543.078    79302667.678                  
  21151165.685   113025416.591    21151173.636    87908695.819                  
  19857669.319   106262418.670    19857676.967    82648570.898                  
  23365839.597   124728416.402    23365844.314    97011022.900                  
  23178770.118   123990797.079                                                  
  20136350.098   107678111.523    20136358.246    83749695.165                  
  26110472.009   137211463.863                                                  
  23440445.073   123180384.591                                                  
  26947776.883   141611537.473                                                  
  23520168.344   123599339.554                                                  
  23909355.057   125644512.681                                                  
  25208684.229   132472552.224                                                  
                 119844293.157    23014835.520   119844293.157                  
                 123891093.237    23791982.701   123891093.237                  
                 113408805.675    21778962.589   113408805.675                  
 21  9  1 10 44 13.0000000  0 25G30G22G 3G24G 1G14G17G19G 6R13R14R15
                                R17R18R23R24E 1E13E15E21E26E27C23C27
                                C28
  22729151.191   119442501.3741   22729156.570    93072093.2541   22729156.606  
  24366391.808   128046253.0701                   99776272.7151   24366391.039  
  23621183.629   124130159.2741   23621188.132    96724833.6941   23621188.060  
  24167318.652   127000119.7221   24167322.940    98961144.9081   24167323.315  
  23154943.294   121680061.1261   23154948.727    94815656.7121   23154948.852  
  20498158.876   107718576.9491   20498161.521    83936576.9551   20498162.039  
  21014834.850   110433722.1291   21014837.351    86052263.7371   21014837.387  
  20866452.859   109653969.3411                   85444663.2081   20866453.842  
  21730428.679   114194177.7931   21730434.451    88982500.9931   21730434.058  
  21955542.094   117241387.204    21955550.243    91187736.060                  
  19127578.530   101960763.474    19127586.106    79302844.641                  
  21150536.570   113022054.504    21150544.504    87906080.846                  
  19857465.540   106261328.166    19857473.260    82647722.733                  
  23365223.509   124725127.485    23365227.851    97008464.839                  
  23179463.918   123994508.964                                                  
  20136789.354   107680460.146    20136797.342    83751521.890                  
  26110031.949   137209151.533                                                  
  23440638.398   123181400.618                                                  
  26948292.708   141614247.439                                                  
  23520079.178   123598871.055                                                  
  23909022.407   125642764.407                                                  
  25209034.176   132474391.295                                                  
                 119846606.580    23015279.744   119846606.580                  
                 123889121.820    23791604.003   123889121.820                  
                 113409147.972    21779028.365   113409147.972                  
 21  9  1 10 44 14.0000000  0 25G30G22G 3G24G 1G14G17G19G 6R13R14R15
                                R17R18R23R24E 1E13E15E21E26E27C23C27
                                C28
  22729784.666   119445830.5611   22729790.188    93074687.4261   22729790.152  
  24366543.248   128047049.4911                   99776893.2981   24366542.604  
  23621033.922   124129372.4131   23621038.729    96724220.5511   23621038.371  
  24166880.825   126997817.6561   24166884.577    98959351.0851   24166885.274  
  23155601.053   121683518.6901   23155606.557    94818350.9171   23155606.771  
  20498239.930   107719002.7791   20498242.682    83936908.7681   20498243.075  
  21014970.386   110434434.2761   21014972.941    86052818.6561   21014972.888  
  20866303.957   109653187.1631                   85444053.7191   20866304.993  
  21729894.967   114191373.3841   21729900.846    88980315.7401   21729900.381  
  21956237.717   117245101.594    21956246.330    91190625.045                  
  19127621.362   101960991.376    19127629.010    79303021.899                  
  21149907.402   113018692.377    21149915.371    87903465.859                  
  19857261.709   106260237.805    19857269.482    82646874.679                  
  23364607.331   124721838.466    23364612.281    97005906.704                  
  23180157.469   123998220.365                                                  
  20137228.664   107682808.701    20137236.134    83753348.525                  
  26109591.978   137206838.847                                                  
  23440831.669   123182416.565                                                  
  26948808.318   141616957.023                                                  
  23519989.993   123598402.435                                                  
  23908689.704   125641016.039                                                  
  25209384.123   132476230.208                                                  
                 119848919.974    23015723.932   119848919.974                  
                 123887150.223    23791225.376   123887150.223                  
                 113409490.147    21779094.105   113409490.147                  
 21  9  1 10 44 15.0000000  0 25G30G22G 3G24G 1G14G17G19G 6R13R14R15
                                R17R18R23R24E 1E13E15E21E26E27C23C27
                                C28
  22730418.302   119449160.2421   22730423.930    93077281.9751   22730423.787  
  24366695.134   128047846.7101                   99777514.4941   24366694.294  
  23620884.394   124128586.3541   23620890.040    96723608.0421   23620888.790  
  24166442.873   126995516.3041   24166446.786    98957557.8211   24166447.447  
  23156259.223   121686976.7611   23156264.030    94821045.5161   23156264.798  
  20498321.038   107719429.2921   20498323.986    83937241.1161   20498324.201  
  21015105.887   110435146.8361   21015108.514    86053373.8981   21015108.478  
  20866155.090   109652405.5351                   85443444.6561   20866156.269  
  21729361.255   114188569.6571   21729367.313    88978131.0171   21729366.848  
  21956933.805   117248816.699    21956942.007    91193514.525                  
  19127664.319   101961220.335    19127671.895    79303199.985                  
  21149278.394   113015330.874    21149286.114    87900851.364                  
  19857058.037   106259148.312    19857066.132    82646027.291                  
  23363991.386   124718550.008    23363996.890    97003349.012                  
  23180851.037   124001931.975                                                  
  20137667.903   107685157.870    20137675.408    83755175.657                  
  26109151.971   137204526.481                                                  
  23441025.137   123183433.119                                                  
  26949324.018   141619666.928                                                  
  23519900.845   123597934.382                                                  
  23908357.125   125639268.272                                                  
  25209734.141   132478069.653                                                  
                 119851233.999    23016168.334   119851233.999                  
                 123885179.138    23790846.821   123885179.138                  
                 113409832.863    21779159.899   113409832.863                  
 21  9  1 10 44 16.0000000  0 25G30G22G 3G24G 1G14G17G19G 6R13R14R15
                                R17R18R23R24E 1E13E15E21E26E27C23C27
                                C28
  22731051.866   119452490.0571   22731057.584    93079876.6371   22731057.423  
  24366847.164   128048644.3671                   99778136.0541   24366846.128  
  23620734.884   124127800.7551   23620739.655    96722995.8831   23620739.262  
  24166005.153   126993215.3151   24166009.156    98955764.8381   24166009.603  
  23156917.267   121690434.9821   23156922.146    94823740.2361   23156922.843  
  20498402.395   107719856.1311   20498405.380    83937573.7181   20498405.433  
  21015241.531   110435859.4491   21015244.175    86053929.1811   21015244.086  
  20866006.473   109651624.1061                   85442835.7521   20866007.563  
  21728827.775   114185766.2551   21728833.779    88975946.5481   21728833.386  
  21957629.965   117252532.081    21957637.970    91196404.276                  
  19127707.330   101961450.023    19127714.924    79303378.631                  
  21148649.387   113011969.628    21148657.303    87898237.061                  
  19856854.670   106258059.338    19856862.640    82645180.297                  
  23363375.065   124715261.744    23363381.891    97000791.485                  
  23181544.623   124005643.445                                                  
  20138107.248   107687507.303    20138114.485    83757002.996                  
  26108711.767   137202214.130                                                  
  23441218.587   123184449.923                                                  
  26949839.647   141622376.797                                                  
  23519811.804   123597466.546                                                  
  23908024.565   125637520.761                                                  
  25210084.178   132479909.273                                                  
                 119853548.315    23016612.826   119853548.315                  
                 123883208.212    23790468.319   123883208.212                  
                 113410175.791    21779225.746   113410175.791                  
 21  9  1 10 44 17.0000000  0 25G30G22G 3G24G 1G14G17G19G 6R13R14R15
                                R17R18R23R24E 1E13E15E21E26E27C23C27
                                C28
  22731685.466   119455820.0901   22731690.826    93082471.4721   22731691.130  
  24366999.104   128049442.5631                   99778758.0161   24366998.032  
  23620585.534   124127015.6821   23620590.395    96722384.1391   23620589.912  
  24165567.326   126990914.7771   24165571.544    98953972.2181   24165571.829  
  23157575.312   121693893.4791   23157580.012    94826435.1641   23157580.941  
  20498483.717   107720283.3631   20498486.612    83937906.6281   20498486.702  
  21015377.157   110436572.1911   21015379.926    86054484.5671   21015379.712  
  20865857.803   109650842.9531                   85442227.0621   20865858.911  
  21728294.314   114182963.2821   21728300.389    88973762.4111   21728299.960  
  21958326.052   117256247.848    21958334.487    91199294.308                  
  19127750.519   101961680.515    19127758.149    79303557.905                  
  21148020.486   113008608.758    21148028.188    87895623.044                  
  19856651.231   106256970.958    19856659.505    82644333.775                  
  23362758.924   124711973.798    23362766.053    96998234.189                  
  23182238.156   124009354.861                                                  
  20138546.648   107689857.067    20138553.831    83758830.581                  
  26108271.725   137199901.814                                                  
  23441412.180   123185467.065                                                  
  26950355.311   141625086.687                                                  
  23519722.780   123596998.997                                                  
  23907692.040   125635773.559                                                  
  25210434.321   132481749.155                                                  
                 119855862.992    23017057.425   119855862.992                  
                 123881237.540    23790089.925   123881237.540                  
                 113410519.001    21779291.647   113410519.001                  
 21  9  1 10 44 18.0000000  0 25G30G22G 3G24G 1G14G17G19G 6R13R14R15
                                R17R18R23R24E 1E13E15E21E26E27C23C27
                                C28
  22732319.226   119459149.9371   22732324.212    93085066.1561   22732324.748  
  24367151.080   128050240.8861                   99779380.0901   24367149.937  
  23620436.328   124126230.7141   23620440.920    96721772.4781   23620440.474  
  24165129.482   126988614.2841   24165133.842    98952179.6221   24165133.949  
  23158233.535   121697351.7911   23158238.360    94829129.9551   23158238.986  
  20498564.914   107720710.6101   20498567.934    83938239.5481   20498568.023  
  21015512.747   110437284.6671   21015515.624    86055039.7401   21015515.284  
  20865709.133   109650061.6771                   85441618.2771   20865710.223  
  21727760.780   114180160.3141   21727766.838    88971578.2801   21727766.588  
  21959021.908   117259963.609    21959030.378    91202184.335                  
  19127793.726   101961911.406    19127801.392    79303737.484                  
  21147391.407   113005247.876    21147399.073    87893009.027                  
  19856447.810   106255882.722    19856456.405    82643487.388                  
  23362142.889   124708685.769    23362150.001    96995676.822                  
  23182931.777   124013065.793                                                  
  20138986.011   107692206.792    20138993.284    83760658.142                  
  26107831.682   137197589.178                                                  
  23441605.791   123186484.144                                                  
  26950870.957   141627796.224                                                  
  23519633.774   123596531.352                                                  
  23907359.552   125634026.306                                                  
  25210784.393   132483588.895                                                  
                 119858177.636    23017501.864   119858177.636                  
                 123879266.719    23789711.495   123879266.719                  
                 113410862.103    21779357.477   113410862.103                  
 21  9  1 10 44 19.0000000  0 25G30G22G 3G24G 1G14G17G19G 6R13R14R15
                                R17R18R23R24E 1E13E15E21E26E27C23C27
                                C28
  22732953.023   119462480.2311   22732957.901    93087661.1901   22732958.490  
  24367302.949   128051039.9861                   99780002.7651   24367302.002  
  23620286.764   124125446.5261   23620291.017    96721161.4141   23620291.196  
  24164691.869   126986314.4691   24164695.836    98950387.5691   24164696.283  
  23158891.723   121700810.5961   23158896.548    94831825.1301   23158897.137  
  20498646.308   107721138.5031   20498649.488    83938572.9661   20498649.453  
  21015648.444   110437997.5121   21015651.071    86055595.2041   21015650.946  
  20865560.516   109649280.8701                   85441009.8561   20865561.642  
  21727227.497   114177357.9801   21727233.626    88969394.6441   21727233.340  
  21959718.156   117263679.999    21959726.644    91205074.874                  
  19127837.184   101962143.347    19127844.885    79303917.883                  
  21146762.507   113001887.618    21146769.994    87890395.481                  
  19856244.479   106254795.308    19856253.199    82642641.612                  
  23361527.087   124705398.303    23361534.538    96993119.909                  
  23183625.238   124016776.925                                                  
  20139425.518   107694557.132    20139432.647    83762486.201                  
  26107391.711   137195276.829                                                  
  23441799.420   123187501.788                                                  
  26951386.461   141630506.032                                                  
  23519544.876   123596064.231                                                  
  23907027.241   125632279.605                                                  
  25211134.572   132485429.120                                                  
                 119860492.888    23017946.517   119860492.888                  
                 123877296.346    23789333.368   123877296.346                  
                 113411205.712    21779423.431   113411205.712                  
 21  9  1 10 44 20.0000000  0 25G30G22G 3G24G 1G14G17G19G 6R13R14R15
                                R17R18R23R24E 1E13E15E21E26E27C23C27
                                C28
  22733586.801   119465810.8481   22733591.715    93090256.4741   22733592.305  
  24367454.961   128051839.6791                   99780625.9121   24367454.193  
  23620137.576   124124662.9411   23620141.400    96720550.8261   23620142.115  
  24164254.060   126984015.1671   24164257.902    98948595.9031   24164258.760  
  23159549.982   121704269.7391   23159555.396    94834520.5631   23159555.379  
  20498727.755   107721566.8741   20498730.953    83938906.7611   20498730.971  
  21015784.195   110438710.5801   21015786.375    86056150.8411   21015786.661  
  20865412.060   109648500.4211                   85440401.7171   20865413.097  
  21726694.375   114174556.1511   21726700.379    88967211.3981   21726700.164  
  21960414.298   117267396.866    21960422.553    91207965.757                  
  19127880.891   101962376.182    19127888.521    79304098.967                  
  21146133.839   112998527.789    21146140.933    87887782.285                  
  19856041.344   106253708.584    19856050.135    82641796.385                  
  23360911.320   124702111.225    23360918.486    96990563.316                  
  23184318.932   124020488.060                                                  
  20139865.310   107696907.894    20139872.368    83764314.562                  
  26106951.883   137192964.622                                                  
  23441993.156   123188519.848                                                  
  26951902.125   141633215.960                                                  
  23519456.085   123595597.484                                                  
  23906694.967   125630533.309                                                  
  25211484.734   132487269.700                                                  
                 119862808.582    23018391.151   119862808.582                  
                 123875326.317    23788955.313   123875326.317                  
                 113411549.681    21779489.422   113411549.681                  
 21  9  1 10 44 21.0000000  0 25G30G22G 3G24G 1G14G17G19G 6R13R14R15
                                R17R18R23R24E 1E13E15E21E26E27C23C27
                                C28
  22734220.830   119469142.1281   22734226.190    93092852.2741   22734226.280  
  24367607.169   128052640.3811                   99781249.8201   24367606.490  
  23619988.602   124123880.3561   23619992.747    96719941.0241   23619993.176  
  24163816.680   126981716.7961   24163820.487    98946804.9691   24163821.434  
  23160208.098   121707729.5971   23160213.584    94837216.5501   23160213.727  
  20498809.416   107721996.1311   20498812.150    83939241.2451   20498812.668  
  21015920.000   110439424.2411   21015921.965    86056706.9431   21015922.483  
  20865263.694   109647720.7141                   85439794.1531   20865264.694  
  21726161.342   114171755.2091   21726167.417    88965028.8521   21726167.167  
  21961110.350   117271114.598    21961118.516    91210857.350                  
  19127924.921   101962610.278    19127932.372    79304281.045                  
  21145505.439   112995168.796    21145512.587    87885169.733                  
  19855838.441   106252622.939    19855847.322    82640951.994                  
  23360295.679   124698824.958    23360302.809    96988007.346                  
  23185012.661   124024199.640                                                  
  20140305.192   107699259.476    20140312.304    83766143.584                  
  26106512.019   137190652.960                                                  
  23442187.070   123189538.709                                                  
  26952417.950   141635926.398                                                  
  23519367.437   123595131.502                                                  
  23906362.746   125628787.817                                                  
  25211835.128   132489110.999                                                  
                 119865125.108    23018835.911   119865125.108                  
                 123873356.999    23788577.133   123873356.999                  
                 113411894.409    21779555.609   113411894.409                  
 21  9  1 10 44 22.0000000  0 25G30G22G 3G24G 1G14G17G19G 6R13R14R15
                                R17R18R23R24E 1E13E15E21E26E27C23C27
                                C28
  22734854.519   119472473.3571   22734860.273    93095448.0371   22734860.130  
  24367759.735   128053441.3331                   99781873.9491   24367758.824  
  23619839.574   124123097.9991   23619843.630    96719331.3951   23619844.381  
  24163379.372   126979418.5861   24163383.714    98945014.1611   24163384.125  
  23160866.375   121711189.4031   23160872.236    94839912.5051   23160872.075  
  20498891.274   107722425.5051   20498894.151    83939575.8201   20498894.383  
  21016055.697   110440137.7691   21016058.127    86057262.9391   21016058.288  
  20865115.309   109646940.9961                   85439186.5761   20865116.310  
  21725628.363   114168954.4011   21725634.581    88962846.4021   21725634.224  
  21961806.902   117274832.446    21961814.640    91213748.958                  
  19127968.861   101962844.878    19127976.241    79304463.509                  
  21144876.825   112991809.889    21144884.258    87882557.245                  
  19855635.592   106251537.581    19855644.812    82640107.834                  
  23359680.055   124695538.715    23359687.292    96985451.356                  
  23185706.265   124027910.874                                                  
  20140745.127   107701611.151    20140752.114    83767972.651                  
  26106072.084   137188341.064                                                  
  23442380.967   123190557.631                                                  
  26952933.632   141638636.590                                                  
  23519278.806   123594665.538                                                  
  23906030.614   125627042.374                                                  
  25212185.539   132490952.275                                                  
                 119867441.721    23019280.814   119867441.721                  
                 123871387.635    23788199.043   123871387.635                  
                 113412239.134    21779621.795   113412239.134                  
 21  9  1 10 44 23.0000000  0 25G30G22G 3G24G 1G14G17G19G 6R13R14R15
                                R17R18R23R24E 1E13E15E21E26E27C23C27
                                C28
  22735488.208   119475804.3881   22735494.158    93098043.6411   22735493.998  
  24367912.176   128054242.4171                   99782498.1751   24367911.264  
  23619690.779   124122315.7811   23619694.728    96718721.8811   23619695.514  
  24162941.652   126977120.3871   24162946.227    98943223.3611   24162946.816  
  23161524.974   121714649.0561   23161530.871    94842608.3381   23161530.406  
  20498973.114   107722854.8671   20498975.866    83939910.3911   20498976.098  
  21016191.359   110440851.0131   21016193.771    86057818.7141   21016193.985  
  20864966.997   109646161.1431                   85438578.8961   20864967.908  
  21725095.616   114166153.5841   21725101.852    88960663.9481   21725101.244  
  21962502.990   117278550.238    21962510.459    91216640.627                  
  19128012.872   101963079.849    19128020.198    79304646.262                  
  21144248.228   112988450.949    21144255.894    87879944.739                  
  19855432.760   106250452.369    19855441.981    82639263.785                  
  23359064.503   124692252.346    23359071.919    96982895.294                  
  23186400.155   124031621.621                                                  
  20141184.937   107703962.790    20141191.978    83769801.706                  
  26105631.952   137186028.839                                                  
  23442574.864   123191576.466                                                  
  26953449.261   141641346.401                                                  
  23519190.158   123594199.448                                                  
  23905698.429   125625296.847                                                  
  25212535.933   132492793.397                                                  
                 119869758.296    23019725.592   119869758.296                  
                 123869418.103    23787820.827   123869418.103                  
                 113412583.722    21779687.964   113412583.722                  
 21  9  1 10 44 24.0000000  0 25G30G22G 3G24G 1G14G17G19G 6R13R14R15
                                R17R18R23R24E 1E13E15E21E26E27C23C27
                                C28
  22736122.040   119479135.7321   22736127.865    93100639.4911   22736127.937  
  24368064.759   128055044.1141                   99783122.8811   24368063.812  
  23619541.858   124121534.1671   23619546.272    96718112.8321   23619546.755  
  24162504.415   126974822.7551   24162508.811    98941432.9961   24162509.579  
  23162183.143   121718109.0351   23162189.398    94845304.4261   23162188.790  
  20499055.026   107723284.7411   20499057.635    83940245.3571   20499057.885  
  21016327.199   110441564.4921   21016329.647    86058374.6711   21016329.736  
  20864818.880   109645381.6631                   85437971.5111   20864819.577  
  21724562.868   114163353.2811   21724568.980    88958481.8961   21724568.408  
  21963199.525   117282268.539    21963206.583    91219532.637                  
  19128057.116   101963315.702    19128064.371    79304829.708                  
  21143619.650   112985092.484    21143627.387    87877332.613                  
  19855230.072   106249367.848    19855239.275    82638420.272                  
  23358449.022   124688966.359    23358456.599    96980339.549                  
  23187093.866   124035332.379                                                  
  20141624.766   107706314.898    20141631.877    83771631.125                  
  26105191.963   137183716.755                                                  
  23442768.761   123192595.750                                                  
  26953965.104   141644056.364                                                  
  23519101.635   123593733.754                                                  
  23905366.423   125623551.745                                                  
  25212886.469   132494634.875                                                  
                 119872075.319    23020170.531   119872075.319                  
                 123867448.907    23787442.611   123867448.907                  
                 113412928.700    21779754.276   113412928.700                  
 21  9  1 10 44 25.0000000  0 25G30G22G 3G24G 1G14G17G19G 6R13R14R15
                                R17R18R23R24E 1E13E15E21E26E27C23C27
                                C28
  22736755.908   119482467.5611   22736761.626    93103235.7261   22736762.001  
  24368217.253   128055846.5921                   99783748.1821   24368216.485  
  23619393.420   124120753.3281   23619398.209    96717504.3881   23619398.191  
  24162067.303   126972525.8191   24162072.056    98939643.1601   24162072.467  
  23162841.760   121721569.5121   23162847.925    94848000.9041   23162847.281  
  20499136.830   107723715.2771   20499139.493    83940580.8371   20499139.814  
  21016463.003   110442278.3531   21016465.630    86058930.9261   21016465.577  
  20864670.603   109644602.7071                   85437364.5331   20864671.336  
  21724030.121   114160553.6441   21724036.501    88956300.3581   21724035.697  
  21963896.113   117285987.520    21963902.474    91222425.111                  
  19128101.574   101963552.612    19128108.775    79305013.975                  
  21142991.357   112981734.640    21142998.898    87874720.959                  
  19855027.598   106248284.190    19855036.604    82637577.430                  
  23357833.381   124685680.977    23357840.547    96977784.222                  
  23187787.774   124039043.344                                                  
  20142064.665   107708667.588    20142071.920    83773460.989                  
  26104752.010   137181404.993                                                  
  23442962.872   123193615.602                                                  
  26954480.911   141646766.621                                                  
  23519013.112   123593268.606                                                  
  23905034.398   125621807.222                                                  
  25213236.917   132496476.864                                                  
                 119874392.967    23020615.612   119874392.967                  
                 123865480.209    23787064.342   123865480.209                  
                 113413274.216    21779820.642   113413274.216                  
 21  9  1 10 44 26.0000000  0 25G30G22G 3G24G 1G14G17G19G 6R13R14R15
                                R17R18R23R24E 1E13E15E21E26E27C23C27
                                C28
  22737390.044   119485799.7271   22737395.744    93105832.2211   22737396.048  
  24368369.837   128056649.7391                   99784374.0041   24368369.319  
  23619244.750   124119973.1791   23619250.218    96716896.4811   23619249.682  
  24161630.423   126970229.4751   24161635.248    98937853.8031   24161635.445  
  23163500.609   121725030.3771   23163506.077    94850697.6801   23163505.809  
  20499218.867   107724146.3531   20499221.601    83940916.7411   20499221.833  
  21016598.933   110442992.4921   21016601.578    86059487.4031   21016601.470  
  20864522.469   109643824.1691                   85436757.8841   20864523.166  
  21723497.714   114157754.5531   21723503.843    88954119.2511   21723503.039  
  21964592.987   117289706.982    21964598.615    91225318.081                  
  19128146.282   101963790.489    19128153.323    79305198.986                  
  21142363.297   112978377.282    21142370.712    87872109.673                  
  19854825.267   106247201.261    19854833.880    82636735.149                  
  23357218.025   124682396.036    23357225.119    96975229.268                  
  23188481.539   124042754.366                                                  
  20142504.636   107711020.738    20142512.177    83775291.221                  
  26104312.164   137179093.434                                                  
  23443156.983   123194635.931                                                  
  26954996.665   141649477.027                                                  
  23518924.732   123592803.886                                                  
  23904702.446   125620063.167                                                  
  25213587.560   132498319.248                                                  
                 119876711.118    23021060.873   119876711.118                  
                 123863511.889    23786686.376   123863511.889                  
                 113413620.136    21779887.115   113413620.136                  
 21  9  1 10 44 27.0000000  0 25G30G22G 3G24G 1G14G17G19G 6R13R14R15
                                R17R18R23R24E 1E13E15E21E26E27C23C27
                                C28
  22738024.305   119489132.0601   22738030.023    93108428.8421   22738030.130  
  24368522.778   128057453.3641                   99785000.2001   24368522.224  
  23619096.616   124119193.5011   23619101.852    96716288.9391   23619101.351  
  24161193.347   126967933.4861   24161198.029    98936064.7301   24161198.511  
  23164159.172   121728491.4121   23164164.622    94853394.5921   23164164.389  
  20499300.832   107724577.7701   20499303.620    83941252.9151   20499303.923  
  21016734.773   110443706.7041   21016737.293    86060043.9321   21016737.382  
  20864374.245   109643045.8481                   85436151.4001   20864375.049  
  21722965.074   114154955.8231   21722971.042    88951938.4171   21722970.453  
  21965289.325   117293426.825    21965295.221    91228211.309                  
  19128191.008   101964029.124    19128198.156    79305384.589                  
  21141735.111   112975020.240    21141742.473    87869498.655                  
  19854623.079   106246118.846    19854631.478    82635893.266                  
  23356602.813   124679111.363    23356608.942    96972674.539                  
  23189175.428   124046465.259                                                  
  20142944.607   107713374.163    20142952.684    83777121.672                  
  26103872.282   137176781.878                                                  
  23443351.219   123195656.535                                                  
  26955512.472   141652187.424                                                  
  23518836.334   123592339.410                                                  
  23904370.564   125618319.377                                                  
  25213938.240   132500161.835                                                  
                 119879029.572    23021506.169   119879029.572                  
                 123861543.744    23786308.393   123861543.744                  
                 113413966.289    21779953.588   113413966.289                  
 21  9  1 10 44 28.0000000  0 25G30G22G 3G24G 1G14G17G19G 6R13R14R15
                                R17R18R23R24E 1E13E15E21E26E27C23C27
                                C28
  22738658.584   119492464.6191   22738664.159    93111025.6391   22738664.338  
  24368675.630   128058257.5291                   99785626.8131   24368675.201  
  23618948.535   124118414.3441   23618953.539    96715681.7981   23618953.110  
  24160756.628   126965638.0261   24160761.006    98934276.0601   24160761.739  
  23164818.038   121731952.7151   23164823.435    94856091.7111   23164823.059  
  20499383.030   107725009.6151   20499385.924    83941589.4171   20499386.103  
  21016870.757   110444421.0631   21016872.651    86060600.5711   21016873.312  
  20864226.147   109642267.8231                   85435545.1461   20864226.987  
  21722432.559   114152157.5211   21722438.367    88949757.9271   21722437.956  
  21965986.288   117297147.077    21965992.757    91231104.787                  
  19128235.985   101964268.573    19128243.061    79305570.827                  
  21141106.819   112971663.610    21141113.984    87866887.945                  
  19854421.052   106245037.019    19854429.057    82635051.850                  
  23355987.493   124675827.025    23355993.479    96970120.060                  
  23189869.247   124050176.119                                                  
  20143384.811   107715727.961    20143392.941    83778952.413                  
  26103432.418   137174470.387                                                  
  23443545.473   123196677.488                                                  
  26956028.333   141654897.892                                                  
  23518748.007   123591875.233                                                  
  23904038.772   125616575.925                                                  
  25214288.955   132502004.684                                                  
                 119881348.415    23021951.590   119881348.415                  
                 123859575.871    23785930.445   123859575.871                  
                 113414312.733    21780020.096   113414312.733                  
 21  9  1 10 44 29.0000000  0 25G30G22G 3G24G 1G14G17G19G 6R13R14R15
                                R17R18R23R24E 1E13E15E21E26E27C23C27
                                C28
  22739292.666   119495797.3341   22739298.456    93113622.5601   22739298.527  
  24368828.624   128059062.1721                   99786253.8171   24368828.285  
  23618800.097   124117635.6671   23618805.047    96715075.0351   23618804.958  
  24160319.891   126963342.8851   24160324.609    98932487.6451   24160324.966  
  23165476.780   121735414.2021   23165481.872    94858788.9741   23165481.729  
  20499465.245   107725441.8071   20499468.050    83941926.1901   20499468.336  
  21017006.811   110445135.5051   21017008.580    86061157.2791   21017009.242  
  20864078.209   109641490.0091                   85434939.0601   20864078.960  
  21721899.973   114149359.5721   21721905.852    88947577.7021   21721905.530  
  21966682.983   117300867.680    21966690.077    91233998.615                  
  19128280.961   101964508.733    19128288.341    79305757.627                  
  21140478.758   112968307.282    21140485.816    87864277.453                  
  19854219.025   106243955.695    19854227.209    82634210.820                  
  23355372.388   124672542.957    23355377.588    96967565.790                  
  23190563.280   124053886.869                                                  
  20143825.032   107718082.058    20143833.252    83780783.377                  
  26102992.662   137172158.928                                                  
  23443739.835   123197698.720                                                  
  26956544.176   141657608.319                                                  
  23518659.627   123591411.294                                                  
  23903707.016   125614832.745                                                  
  25214639.581   132503847.746                                                  
                 119883667.563    23022396.904   119883667.563                  
                 123857608.171    23785552.569   123857608.171                  
                 113414659.400    21780086.676   113414659.400                  
 21  9  1 10 44 30.0000000  0 25G30G22G 3G24G 1G14G17G19G 6R13R14R15
                                R17R18R23R24E 1E13E15E21E26E27C23C27
                                C28
  22739926.998   119499130.5741   22739932.198    93116219.8941   22739932.788  
  24368982.030   128059867.6431                   99786881.4751   24368981.565  
  23618652.142   124116857.8211   23618657.181    96714468.9241   23618656.967  
  24159883.351   126961048.5101   24159888.015    98930699.8071   24159888.372  
  23166135.521   121738876.2431   23166140.953    94861486.6691   23166140.489  
  20499547.657   107725874.7111   20499550.534    83942263.5161   20499550.695  
  21017142.795   110445850.3721   21017144.814    86061714.3181   21017145.278  
  20863930.218   109640712.7791                   85434333.4241   20863931.076  
  21721367.673   114146562.3351   21721373.677    88945398.0421   21721373.230  
  21967379.732   117304588.987    21967386.487    91236892.965                  
  19128326.098   101964749.997    19128333.710    79305945.268                  
  21139850.751   112964951.615    21139858.149    87861667.479                  
  19854017.033   106242875.282    19854025.486    82633370.483                  
  23354757.247   124669259.519    23354762.768    96965011.993                  
  23191257.330   124057597.858                                                  
  20144265.360   107720436.833    20144273.687    83782614.866                  
  26102552.869   137169847.815                                                  
  23443934.285   123198720.583                                                  
  26957059.929   141660319.092                                                  
  23518571.515   123590947.962                                                  
  23903375.438   125613090.202                                                  
  25214990.368   132505691.360                                                  
                 119885987.372    23022842.307   119885987.372                  
                 123855641.017    23785174.764   123855641.017                  
                 113415006.658    21780153.345   113415006.658                  
 21  9  1 10 44 31.0000000  0 25G30G22G 3G24G 1G14G17G19G 6R13R14R15
                                R17R18R23R24E 1E13E15E21E26E27C23C27
                                C28
  22740561.349   119502464.0071   22740566.334    93118817.3721   22740567.103  
  24369135.507   128060673.5951                   99787509.4901   24369134.935  
  23618504.651   124116080.4801   23618509.619    96713863.2031   23618509.118  
  24159447.043   126958754.5671   24159451.332    98928912.3191   24159451.921  
  23166794.459   121742338.4931   23166799.498    94864184.5281   23166799.302  
  20499630.158   107726307.9971   20499633.232    83942601.1431   20499633.124  
  21017278.867   110446565.3621   21017281.244    86062271.4551   21017281.333  
  20863782.370   109639935.7991                   85433727.9901   20863783.192  
  21720835.283   114143765.4951   21720841.287    88943218.6831   21720841.001  
  21968076.392   117308310.664    21968084.254    91239787.596                  
  19128371.485   101964992.014    19128379.116    79306133.504                  
  21139222.727   112961596.292    21139230.249    87859057.793                  
  19853815.292   106241795.443    19853823.566    82632530.608                  
  23354142.356   124665976.372    23354147.913    96962458.439                  
  23191951.131   124061308.769                                                  
  20144705.868   107722791.942    20144713.748    83784446.620                  
  26102113.202   137167536.752                                                  
  23444128.754   123199742.763                                                  
  26957575.772   141663029.885                                                  
  23518483.385   123590484.897                                                  
  23903043.968   125611347.958                                                  
  25215341.209   132507535.212                                                  
                 119888307.529    23023287.871   119888307.529                  
                 123853674.078    23784797.120   123853674.078                  
                 113415354.166    21780220.122   113415354.166                  
 21  9  1 10 44 32.0000000  0 25G30G22G 3G24G 1G14G17G19G 6R13R14R15
                                R17R18R23R24E 1E13E15E21E26E27C23C27
                                C28
  22741195.788   119505797.4911   22741200.738    93121414.8881   22741201.399  
  24369289.180   128061479.9201                   99788137.7951   24369288.376  
  23618356.999   124115303.5031   23618361.913    96713257.7681   23618361.270  
  24159010.038   126956460.8791   24159014.774    98927125.0341   24159015.399  
  23167453.380   121745800.8341   23167458.329    94866882.4541   23167458.151  
  20499712.677   107726741.5271   20499715.715    83942938.9541   20499715.608  
  21017414.833   110447280.3081   21017417.209    86062828.5561   21017417.334  
  20863634.557   109639158.9391                   85433122.6421   20863635.308  
  21720303.036   114140968.9011   21720308.897    88941039.5191   21720308.826  
  21968772.855   117312032.568    21968780.592    91242682.421                  
  19128416.998   101965234.675    19128424.592    79306322.242                  
  21138594.898   112958241.190    21138602.350    87856448.276                  
  19853613.730   106240716.022    19853621.717    82631691.056                  
  23353527.340   124662693.351    23353533.004    96959904.981                  
  23192644.860   124065019.438                                                  
  20145146.285   107725147.251    20145153.862    83786278.515                  
  26101673.392   137165225.583                                                  
  23444323.312   123200765.110                                                  
  26958091.597   141665740.538                                                  
  23518395.290   123590021.956                                                  
  23902712.623   125609605.885                                                  
  25215692.049   132509379.161                                                  
                 119890627.882    23023733.453   119890627.882                  
                 123851707.209    23784419.441   123851707.209                  
                 113415701.796    21780286.863   113415701.796                  
 21  9  1 10 44 33.0000000  0 25G30G22G 3G24G 1G14G17G19G 6R13R14R15
                                R17R18R23R24E 1E13E15E21E26E27C23C27
                                C28
  22741830.103   119509130.8361   22741835.231    93124012.2971   22741835.696  
  24369442.872   128062286.4271                   99788766.2141   24369441.871  
  23618209.330   124114526.6901   23618213.636    96712652.4691   23618213.457  
  24158573.570   126954167.3141   24158578.394    98925337.8431   24158578.930  
  23168112.121   121749263.0491   23168116.964    94869580.2791   23168116.981  
  20499795.250   107727175.0971   20499798.127    83943276.8041   20499798.109  
  21017550.798   110447995.0341   21017553.353    86063385.4831   21017553.353  
  20863486.727   109638381.9911                   85432517.2281   20863487.424  
  21719771.058   114138172.3601   21719776.311    88938860.3981   21719776.651  
  21969469.800   117315754.495    21969477.145    91245577.230                  
  19128462.760   101965477.802    19128470.158    79306511.346                  
  21137967.052   112954886.097    21137974.522    87853838.759                  
  19853412.167   106239636.802    19853420.172    82630851.676                  
  23352912.431   124659410.309    23352918.256    96957351.494                  
  23193338.768   124068729.656                                                  
  20145586.775   107727502.548    20145594.333    83788110.397                  
  26101233.528   137162914.121                                                  
  23444517.923   123201787.434                                                  
  26958607.405   141668450.868                                                  
  23518307.178   123589558.953                                                  
  23902381.099   125607863.779                                                  
  25216043.014   132511223.010                                                  
                 119892948.254    23024178.821   119892948.254                  
                 123849740.238    23784041.761   123849740.238                  
                 113416049.359    21780353.603   113416049.359                  
 21  9  1 10 44 34.0000000  0 25G30G22G 3G24G 1G14G17G19G 6R13R14R15
                                R17R18R23R24E 1E13E15E21E26E27C23C27
                                C28
  22742464.543   119512464.7921   22742469.778    93126610.1871   22742470.082  
  24369596.545   128063093.8671                   99789395.3811   24369595.527  
  23618061.392   124113750.8161   23618065.734    96712047.8871   23618065.841  
  24158137.262   126951874.5881   24158142.336    98923551.3031   24158142.569  
  23168770.934   121752725.9131   23168775.955    94872278.6141   23168775.920  
  20499877.984   107727609.4871   20499880.700    83943615.2911   20499880.789  
  21017686.871   110448710.3001   21017689.444    86063942.8331   21017689.444  
  20863339.129   109637605.7211                   85431912.3441   20863339.682  
  21719238.990   114135376.6551   21719244.332    88936681.9271   21719244.636  
  21970167.139   117319477.243    21970174.197    91248472.756                  
  19128508.684   101965722.147    19128515.831    79306701.387                  
  21137339.385   112951531.806    21137346.962    87851229.859                  
  19853210.747   106238558.591    19853218.860    82630013.084                  
  23352297.325   124656128.003    23352304.509    96954798.581                  
  23194032.551   124072440.236                                                  
  20146027.300   107729858.603    20146034.733    83789942.880                  
  26100793.771   137160603.126                                                  
  23444712.642   123202810.494                                                  
  26959123.212   141671161.662                                                  
  23518219.155   123589096.660                                                  
  23902049.718   125606122.401                                                  
  25216393.962   132513067.525                                                  
                 119895269.392    23024624.528   119895269.392                  
                 123847773.895    23783664.117   123847773.895                  
                 113416397.593    21780420.487   113416397.593                  
 21  9  1 10 44 35.0000000  0 25G30G22G 3G24G 1G14G17G19G 6R13R14R15
                                R17R18R23R24E 1E13E15E21E26E27C23C27
                                C28
  22743099.054   119515798.8951   22743104.414    93129208.1901   22743104.504  
  24369750.326   128063901.7581                   99790024.9141   24369749.272  
  23617913.937   124112975.3791   23617918.440    96711443.6441   23617918.243  
  24157701.204   126949582.2201   24157706.171    98921765.0401   24157706.386  
  23169429.908   121756188.9461   23169434.643    94874977.0821   23169434.893  
  20499960.699   107728044.1961   20499963.326    83943954.0261   20499963.505  
  21017823.015   110449425.6151   21017825.570    86064500.2201   21017825.552  
  20863191.459   109636829.6411                   85431307.6051   20863191.977  
  21718707.118   114132581.2551   21718712.854    88934503.6961   21718712.693  
  21970864.174   117323200.303    21970870.768    91251368.461                  
  19128554.768   101965967.180    19128561.630    79306891.971                  
  21136711.700   112948177.796    21136719.491    87848621.192                  
  19853009.238   106237480.885    19853017.333    82629174.843                  
  23351682.560   124652845.927    23351690.065    96952245.871                  
  23194726.101   124076150.657                                                  
  20146467.932   107732214.928    20146475.562    83791775.586                  
  26100353.907   137158292.110                                                  
  23444907.397   123203833.795                                                  
  26959638.894   141673872.402                                                  
  23518131.204   123588634.563                                                  
  23901718.390   125604381.270                                                  
  25216745.053   132514912.204                                                  
                 119897590.805    23025070.181   119897590.805                  
                 123845807.736    23783286.437   123845807.736                  
                 113416746.026    21780487.335   113416746.026                  
 21  9  1 10 44 36.0000000  0 25G30G22G 3G24G 1G14G17G19G 6R13R14R15
                                R17R18R23R24E 1E13E15E21E26E27C23C27
                                C28
  22743733.529   119519133.0271   22743739.265    93131806.2171   22743738.872  
  24369904.268   128064709.9991                   99790654.7281   24369903.035  
  23617766.535   124112200.2711   23617770.663    96710839.6591   23617770.788  
  24157264.985   126947290.1461   24157269.774    98919979.0041   24157270.239  
  23170088.864   121759652.0331   23170092.831    94877675.5911   23170093.885  
  20500043.361   107728479.1341   20500046.113    83944292.9341   20500046.274  
  21017959.069   110450140.8811   21017961.714    86065057.5721   21017961.661  
  20863043.861   109636053.6531                   85430702.9431   20863044.290  
  21718175.300   114129786.0991   21718181.394    88932325.6551   21718180.804  
  21971561.441   117326923.572    21971567.695    91254264.311                  
  19128600.816   101966212.802    19128607.714    79307083.010                  
  21136084.140   112944823.965    21136091.967    87846012.650                  
  19852807.819   106236403.577    19852816.074    82628336.953                  
  23351067.615   124649563.982    23351075.281    96949693.233                  
  23195419.794   124079860.839                                                  
  20146908.636   107734571.425    20146916.087    83793608.433                  
  26099914.204   137155980.982                                                  
  23445102.187   123204857.263                                                  
  26960154.701   141676583.002                                                  
  23518043.306   123588172.596                                                  
  23901387.116   125602640.285                                                  
  25217096.250   132516756.966                                                  
                 119899912.411    23025515.978   119899912.411                  
                 123843841.623    23782908.811   123843841.623                  
                 113417094.566    21780554.219   113417094.566                  
 21  9  1 10 44 37.0000000  0 25G30G22G 3G24G 1G14G17G19G 6R13R14R15
                                R17R18R23R24E 1E13E15E21E26E27C23C27
                                C28
  22744368.112   119522467.2091   22744373.508    93134404.2811   22744373.276  
  24370058.352   128065518.5871                   99791284.7961   24370056.834  
  23617619.277   124111425.5651   23617624.226    96710235.9941   23617623.369  
  24156829.070   126944998.3161   24156833.931    98918193.1691   24156834.092  
  23170748.088   121763115.1951   23170752.090    94880374.1591   23170752.912  
  20500126.238   107728914.3071   20500128.525    83944632.0321   20500129.097  
  21018095.178   110450856.1211   21018097.822    86065614.9021   21018097.733  
  20862896.263   109635277.7611                   85430098.3501   20862896.656  
  21717643.465   114126991.2021   21717649.594    88930147.8121   21717648.968  
  21972258.047   117330647.056    21972265.606    91257160.364                  
  19128647.044   101966459.064    19128654.030    79307274.554                  
  21135456.508   112941470.316    21135464.103    87843404.270                  
  19852606.453   106235326.669    19852614.816    82627499.354                  
  23350452.706   124646282.177    23350461.015    96947140.743                  
  23196113.345   124083570.783                                                  
  20147349.375   107736928.090    20147356.326    83795441.388                  
  26099474.340   137153669.749                                                  
  23445296.941   123205880.893                                                  
  26960670.348   141679293.458                                                  
  23517955.391   123587710.740                                                  
  23901055.896   125600899.461                                                  
  25217447.305   132518601.821                                                  
                 119902234.211    23025961.810   119902234.211                  
                 123841875.594    23782531.060   123841875.594                  
                 113417443.225    21780621.192   113417443.225                  
 21  9  1 10 44 38.0000000  0 25G30G22G 3G24G 1G14G17G19G 6R13R14R15
                                R17R18R23R24E 1E13E15E21E26E27C23C27
                                C28
  22745002.605   119525802.1041   22745008.520    93137002.8931   22745007.876  
  24370212.419   128066328.2271                   99791915.6671   24370210.865  
  23617471.804   124110651.8441   23617478.058    96709633.0971   23617476.128  
  24156393.048   126942707.4531   24156397.909    98916408.0791   24156398.141  
  23171407.383   121766579.0911   23171411.886    94883073.2991   23171412.047  
  20500209.222   107729350.3841   20500211.634    83944971.8291   20500212.063  
  21018231.429   110451571.9711   21018233.913    86066172.7091   21018233.949  
  20862748.897   109634502.6471                   85429494.3631   20862749.147  
  21717111.772   114124197.1901   21717118.133    88927970.6601   21717117.293  
  21972955.618   117334371.441    21972963.212    91260057.086                  
  19128693.592   101966706.657    19128700.454    79307467.117                  
  21134829.020   112938117.551    21134836.471    87840796.552                  
  19852405.408   106234250.834    19852413.628    82626662.588                  
  23349838.226   124643001.183    23349846.589    96944588.843                  
  23196807.056   124087281.159                                                  
  20147790.240   107739285.617    20147797.173    83797275.011                  
  26099034.655   137151359.073                                                  
  23445491.892   123206905.347                                                  
  26961186.244   141682004.460                                                  
  23517867.654   123587249.682                                                  
  23900724.730   125599159.457                                                  
  25217798.592   132520447.413                                                  
                 119904556.864    23026407.821   119904556.864                  
                 123839910.295    23782153.595   123839910.295                  
                 113417792.649    21780688.272   113417792.649                  
 21  9  1 10 44 39.0000000  0 25G30G22G 3G24G 1G14G17G19G 6R13R14R15
                                R17R18R23R24E 1E13E15E21E26E27C23C27
                                C28
  22745637.116   119529136.9811   22745643.352    93139601.4941   22745642.459  
  24370366.647   128067138.1441                   99792546.7691   24370365.003  
  23617324.563   124109878.4471   23617329.638    96709030.4501   23617328.976  
  24155957.116   126940416.7961   24155961.529    98914623.1521   24155962.316  
  23172066.607   121770043.0051   23172070.699    94885772.4551   23172071.182  
  20500292.313   107729786.6421   20500294.493    83945311.7691   20500295.047  
  21018367.609   110452287.7441   21018370.146    86066730.4551   21018370.129  
  20862601.442   109633727.5801                   85428890.4141   20862601.656  
  21716580.115   114121403.3811   21716586.673    88925793.6641   21716585.726  
  21973653.243   117338095.992    21973660.730    91262953.987                  
  19128740.123   101966954.845    19128747.057    79307660.147                  
  21134201.549   112934764.943    21134209.143    87838188.970                  
  19852204.436   106233175.373    19852212.512    82625826.128                  
  23349223.585   124639720.275    23349231.644    96942037.030                  
  23197500.517   124090991.252                                                  
  20148231.193   107741643.291    20148237.948    83799108.760                  
  26098594.827   137149048.227                                                  
  23445686.843   123207929.918                                                  
  26961702.194   141684715.271                                                  
  23517779.953   123586788.695                                                  
  23900393.581   125597419.558                                                  
  25218149.719   132522293.052                                                  
                 119906879.659    23026853.831   119906879.659                  
                 123837945.017    23781776.201   123837945.017                  
                 113418142.134    21780755.406   113418142.134                  
 21  9  1 10 44 40.0000000  0 25G30G22G 3G24G 1G14G17G19G 6R13R14R15
                                R17R18R23R24E 1E13E15E21E26E27C23C27
                                C28
  22746271.931   119532472.1521   22746278.007    93142200.3271   22746277.131  
  24370520.856   128067948.6911                   99793178.3871   24370519.248  
  23617177.519   124109105.6451   23617181.932    96708428.2621   23617181.950  
  24155521.183   126938126.6681   24155526.133    98912838.6331   24155526.472  
  23172725.796   121773507.2451   23172729.709    94888471.8601   23172730.388  
  20500375.422   107730223.3821   20500377.494    83945652.0861   20500378.120  
  21018503.932   110453003.7231   21018506.416    86067288.3631   21018506.344  
  20862453.951   109632952.8621                   85428286.7401   20862454.237  
  21716048.601   114118610.0651   21716054.998    88923617.0521   21716054.176  
  21974350.760   117341820.997    21974358.372    91265851.225                  
  19128786.887   101967203.911    19128793.748    79307853.870                  
  21133574.346   112931412.798    21133581.816    87835581.742                  
  19852003.570   106232100.593    19852011.629    82624990.180                  
  23348608.980   124636439.746    23348616.468    96939485.503                  
  23198193.924   124094701.368                                                  
  20148672.183   107744001.395    20148679.027    83800942.836                  
  26098155.035   137146737.528                                                  
  23445881.902   123208954.892                                                  
  26962218.109   141687426.191                                                  
  23517692.341   123586328.075                                                  
  23900062.539   125595680.070                                                  
  25218500.916   132524139.029                                                  
                 119909202.904    23027300.003   119909202.904                  
                 123835980.049    23781398.897   123835980.049                  
                 113418491.974    21780822.540   113418491.974                  
 21  9  1 10 44 41.0000000  0 25G30G22G 3G24G 1G14G17G19G 6R13R14R15
                                R17R18R23R24E 1E13E15E21E26E27C23C27
                                C28
  22746906.692   119535807.6161   22746912.821    93144799.3871   22746911.857  
  24370674.870   128068759.8401                   99793810.4421   24370673.619  
  23617030.653   124108333.4391   23617034.584    96707826.5531   23617035.067  
  24155085.286   126935837.0621   24155090.700    98911054.5221   24155090.754  
  23173384.841   121776971.7751   23173388.629    94891171.4961   23173389.648  
  20500458.602   107730660.5971   20500460.818    83945992.7751   20500461.318  
  21018640.183   110453719.9051   21018642.685    86067846.4241   21018642.631  
  20862306.549   109632178.4931                   85427683.3361   20862306.853  
  21715517.033   114115817.2271   21715523.591    88921440.8171   21715522.697  
  21975048.920   117345546.470    21975056.175    91268748.794                  
  19128833.739   101967453.825    19128840.654    79308048.250                  
  21132947.054   112928061.086    21132954.649    87832974.866                  
  19851802.936   106231026.446    19851810.638    82624154.742                  
  23347994.483   124633159.610    23348001.416    96936934.272                  
  23198887.296   124098411.497                                                  
  20149113.173   107746359.884    20149120.606    83802777.217                  
  26097715.314   137144426.970                                                  
  23446076.996   123209980.261                                                  
  26962733.987   141690137.219                                                  
  23517604.711   123585867.827                                                  
  23899731.569   125593940.969                                                  
  25218852.221   132525985.325                                                  
                 119911526.574    23027746.407   119911526.574                  
                 123834015.407    23781021.574   123834015.407                  
                 113418842.166    21780889.835   113418842.166                  
 21  9  1 10 44 42.0000000  0 25G30G22G 3G24G 1G14G17G19G 6R13R14R15
                                R17R18R23R24E 1E13E15E21E26E27C23C27
                                C28
  22747541.400   119539143.3891   22747547.565    93147398.6951   22747546.618  
  24370829.437   128069571.6061                   99794442.9791   24370828.061  
  23616883.895   124107561.8581   23616888.469    96707225.3231   23616888.237  
  24154650.068   126933548.0011   24154654.446    98909270.8341   24154655.143  
  23174044.136   121780436.6781   23174048.568    94893871.4181   23174048.979  
  20500541.871   107731098.3231   20500544.230    83946333.8621   20500544.641  
  21018776.470   110454436.3271   21018778.918    86068404.6751   21018778.972  
  20862159.273   109631404.4891                   85427080.2181   20862159.576  
  21714985.626   114113024.9111   21714992.023    88919264.9841   21714991.291  
  21975746.920   117349272.438    21975754.193    91271646.794                  
  19128880.735   101967704.617    19128887.811    79308243.311                  
  21132319.941   112924709.830    21132327.249    87830368.324                  
  19851602.232   106229952.989    19851610.362    82623319.850                  
  23347380.038   124629879.880    23347386.382    96934383.375                  
  23199580.703   124102121.661                                                  
  20149554.305   107748718.819    20149561.864    83804611.941                  
  26097275.682   137142116.564                                                  
  23446272.179   123211006.074                                                  
  26963249.777   141692848.380                                                  
  23517517.189   123585407.967                                                  
  23899400.707   125592202.305                                                  
  25219203.544   132527831.979                                                  
                 119913850.712    23028192.864   119913850.712                  
                 123832051.088    23780644.324   123832051.088                  
                 113419192.738    21780957.237   113419192.738                  
 21  9  1 10 44 43.0000000  0 25G30G22G 3G24G 1G14G17G19G 6R13R14R15
                                R17R18R23R24E 1E13E15E21E26E27C23C27
                                C28
  22748176.179   119542479.2141   22748182.040    93149998.0421   22748181.397  
  24370983.950   128070383.7411                   99795075.8141   24370982.592  
  23616737.011   124106790.6561   23616741.354    96706624.3861   23616741.461  
  24154214.797   126931259.2251   24154218.781    98907487.3931   24154219.550  
  23174703.360   121783901.6481   23174707.881    94896571.3931   23174708.292  
  20500625.159   107731536.2951   20500627.732    83946675.1401   20500628.000  
  21018912.829   110455152.7111   21018915.259    86068962.8961   21018915.295  
  20862011.978   109630630.5981                   85426477.1841   20862012.336  
  21714454.309   114110232.8431   21714460.295    88917089.3481   21714459.902  
  21976445.117   117352998.596    21976452.193    91274544.867                  
  19128927.891   101967956.032    19128935.092    79308438.853                  
  21131692.828   112921358.768    21131700.136    87827761.952                  
  19851401.723   106228879.966    19851409.800    82622485.246                  
  23346765.630   124626600.310    23346771.830    96931832.611                  
  23200273.968   124105831.607                                                  
  20149995.474   107751077.923    20150003.265    83806446.823                  
  26096836.033   137139806.071                                                  
  23446467.380   123212032.063                                                  
  26963765.816   141695559.429                                                  
  23517429.738   123584948.244                                                  
  23899069.844   125590463.803                                                  
  25219554.939   132529678.739                                                  
                 119916175.048    23028639.233   119916175.048                  
                 123830086.851    23780267.198   123830086.851                  
                 113419543.427    21781024.639   113419543.427                  
 21  9  1 10 44 44.0000000  0 25G30G22G 3G24G 1G14G17G19G 6R13R14R15
                                R17R18R23R24E 1E13E15E21E26E27C23C27
                                C28
  22748810.905   119545815.4151   22748816.891    93152597.6791   22748816.230  
  24371138.642   128071196.5451                   99795709.1661   24371137.284  
  23616590.128   124106020.1261   23616594.167    96706023.9731   23616594.846  
  24153779.382   126928971.0241   24153783.367    98905704.3701   24153784.082  
  23175362.727   121787367.0201   23175367.016    94899271.6871   23175367.713  
  20500708.536   107731974.8161   20500711.323    83947016.8441   20500711.431  
  21019049.259   110455869.3881   21019052.028    86069521.3461   21019051.689  
  20861864.863   109629857.1311                   85425874.4841   20861865.149  
  21713923.259   114107441.3251   21713929.174    88914914.1451   21713928.673  
  21977142.902   117356725.316    21977150.997    91277443.438                  
  19128975.298   101968208.411    19128982.427    79308635.148                  
  21131065.929   112918008.261    21131073.326    87825155.991                  
  19851201.269   106227807.648    19851209.381    82621651.235                  
  23346151.203   124623321.188    23346156.528    96929282.194                  
  23200967.340   124109541.616                                                  
  20150436.821   107753437.556    20150444.737    83808282.086                  
  26096396.383   137137495.788                                                  
  23446662.724   123213058.527                                                  
  26964281.731   141698270.648                                                  
  23517342.358   123584488.965                                                  
  23898739.052   125588725.770                                                  
  25219906.512   132531525.907                                                  
                 119918499.902    23029085.744   119918499.902                  
                 123828123.012    23779890.179   123828123.012                  
                 113419894.543    21781092.094   113419894.543                  
 21  9  1 10 44 45.0000000  0 25G30G22G 3G24G 1G14G17G19G 6R13R14R15
                                R17R18R23R24E 1E13E15E21E26E27C23C27
                                C28
  22749445.755   119549151.8621   22749451.634    93155197.5081   22749451.170  
  24371293.334   128072009.9391                   99796342.9771   24371292.066  
  23616443.388   124105250.1731   23616447.551    96705424.0081   23616448.337  
  24153343.878   126926683.3201   24153348.042    98903921.7391   24153348.703  
  23176022.309   121790832.6661   23176026.919    94901972.1881   23176027.205  
  20500792.074   107732413.7891   20500794.772    83947358.8991   20500794.950  
  21019185.760   110456586.2361   21019188.351    86070079.9291   21019188.101  
  20861717.711   109629083.9801                   85425272.0311   20861718.015  
  21713392.102   114104650.2721   21713397.963    88912739.3001   21713397.570  
  21977840.830   117360452.464    21977848.800    91280342.331                  
  19129022.901   101968461.653    19129029.995    79308832.114                  
  21130439.101   112914658.199    21130446.642    87822550.382                  
  19851001.064   106226735.970    19851009.391    82620817.710                  
  23345536.974   124620042.435    23345542.424    96926732.055                  
  23201660.693   124113251.601                                                  
  20150878.114   107755797.613    20150886.334    83810117.683                  
  26095956.734   137135185.611                                                  
  23446858.122   123214085.364                                                  
  26964797.645   141700981.961                                                  
  23517254.961   123584030.020                                                  
  23898408.386   125586988.122                                                  
  25220258.031   132533373.368                                                  
                 119920825.171    23029532.273   119920825.171                  
                 123826159.449    23779513.161   123826159.449                  
                 113420245.985    21781159.639   113420245.985                  
 21  9  1 10 44 46.0000000  0 25G30G22G 3G24G 1G14G17G19G 6R13R14R15
                                R17R18R23R24E 1E13E15E21E26E27C23C27
                                C28
  22750080.695   119552488.5181   22750086.682    93157797.4951   22750086.092  
  24371448.277   128072823.8431                   99796977.1901   24371446.919  
  23616297.255   124104480.7291   23616301.007    96704824.4381   23616301.901  
  24152908.392   126924396.0671   24152912.520    98902139.4611   24152913.396  
  23176681.801   121794298.5491   23176686.393    94904672.8801   23176686.750  
  20500875.611   107732853.1641   20500878.417    83947701.2691   20500878.560  
  21019322.226   110457303.2041   21019324.960    86070638.6071   21019324.513  
  20861570.542   109628311.0991                   85424669.7891   20861570.971  
  21712861.142   114101859.6401   21712866.914    88910564.7841   21712866.574  
  21978538.651   117364180.001    21978546.442    91283241.517                  
  19129070.611   101968715.684    19129077.598    79309029.691                  
  21129812.292   112911308.486    21129819.797    87819945.054                  
  19850800.985   106225664.886    19850808.954    82619984.652                  
  23344922.780   124616763.987    23344928.212    96924182.137                  
  23202354.208   124116961.518                                                  
  20151319.568   107758158.019    20151327.413    83811953.546                  
  26095517.084   137132875.487                                                  
  23447053.627   123215112.532                                                  
  26965313.667   141703693.288                                                  
  23517167.653   123583571.360                                                  
  23898077.845   125585250.787                                                  
  25220609.711   132535221.076                                                  
                 119923150.790    23029978.766   119923150.790                  
                 123824196.130    23779136.142   123824196.130                  
                 113420597.707    21781227.202   113420597.707                  
 21  9  1 10 44 47.0000000  0 25G30G22G 3G24G 1G14G17G19G 6R13R14R15
                                R17R18R23R24E 1E13E15E21E26E27C23C27
                                C28
  22750715.778   119555825.3471   22750721.765    93160397.6281   22750720.996  
  24371603.201   128073638.2441                   99797611.7721   24371601.914  
  23616150.997   124103711.7741   23616153.999    96704225.2531   23616155.536  
  24152473.443   126922109.2161   24152477.141    98900357.5071   24152478.231  
  23177341.150   121797764.6341   23177346.385    94907373.7241   23177346.314  
  20500959.345   107733292.9001   20500961.954    83948043.9201   20500962.222  
  21019458.692   110458020.2691   21019461.247    86071197.3591   21019460.961  
  20861423.534   109627538.4381                   85424067.7131   20861423.945  
  21712330.146   114099069.3591   21712336.097    88908390.5431   21712335.614  
  21979236.669   117367907.871    21979244.228    91286141.006                  
  19129118.446   101968970.456    19129125.576    79309227.852                  
  21129185.518   112907959.071    21129192.844    87817339.959                  
  19850600.816   106224594.340    19850608.660    82619152.002                  
  23344308.818   124613485.794    23344314.107    96921632.423                  
  23203047.437   124120671.327                                                  
  20151761.005   107760518.727    20151768.974    83813789.663                  
  26095077.542   137130565.381                                                  
  23447249.168   123216139.977                                                  
  26965829.706   141706404.619                                                  
  23517080.434   123583112.958                                                  
  23897747.393   125583513.738                                                  
  25220961.338   132537069.007                                                  
                 119925476.734    23030425.402   119925476.734                  
                 123822232.989    23778759.034   123822232.989                  
                 113420949.655    21781294.819   113420949.655                  
 21  9  1 10 44 48.0000000  0 25G30G22G 3G24G 1G14G17G19G 6R13R14R15
                                R17R18R23R24E 1E13E15E21E26E27C23C27
                                C28
  22751350.772   119559162.2521   22751356.597    93162997.8071   22751356.025  
  24371757.982   128074453.0281                   99798246.6721   24371756.946  
  23616004.757   124102943.2161   23616008.706    96703626.3781   23616009.296  
  24152038.368   126919822.6851   24152042.120    98898575.7871   24152043.228  
  23178000.803   121801230.8101   23178006.824    94910074.6411   23178005.877  
  20501043.098   107733732.9211   20501045.635    83948386.7931   20501045.921  
  21019595.122   110458737.3331   21019597.355    86071756.1111   21019597.409  
  20861276.400   109626765.9241                   85423465.7541   20861276.918  
  21711799.347   114096279.3731   21711804.797    88906216.5261   21711804.690  
  21979934.883   117371636.006    21979942.388    91289040.642                  
  19129166.335   101969225.904    19129173.394    79309426.531                  
  21128558.815   112904609.880    21128565.820    87814735.030                  
  19850400.826   106223524.233    19850408.706    82618319.695                  
  23343694.660   124610207.820    23343700.556    96919082.870                  
  23203740.791   124124380.938                                                  
  20152202.477   107762879.640    20152210.053    83815625.932                  
  26094638.000   137128255.213                                                  
  23447444.762   123217167.635                                                  
  26966345.674   141709115.858                                                  
  23516993.287   123582654.718                                                  
  23897416.834   125581776.876                                                  
  25221313.036   132538917.055                                                  
                 119927802.904    23030872.056   119927802.904                  
                 123820269.981    23778381.855   123820269.981                  
                 113421301.762    21781362.524   113421301.762                  
 21  9  1 10 44 49.0000000  0 25G30G22G 3G24G 1G14G17G19G 6R13R14R15
                                R17R18R23R24E 1E13E15E21E26E27C23C27
                                C28
  22751985.891   119562499.4441   22751991.716    93165598.2211   22751991.037  
  24371912.978   128075268.3941                   99798882.0311   24371912.085  
  23615858.981   124102175.2501   23615862.716    96703027.9661   23615863.091  
  24151603.668   126917536.6561   24151607.420    98896794.4611   24151608.242  
  23178660.473   121804697.3181   23178666.459    94912775.8131   23178665.548  
  20501126.993   107734173.3961   20501129.566    83948730.0211   20501129.744  
  21019731.641   110459454.5891   21019733.535    86072315.0111   21019733.857  
  20861129.481   109625993.7301                   85422864.0401   20861129.963  
  21711268.583   114093489.8631   21711274.141    88904042.8781   21711273.873  
  21980633.222   117375364.610    21980640.352    91291940.646                  
  19129214.510   101969482.215    19129221.318    79309625.882                  
  21127932.167   112901261.155    21127939.368    87812130.466                  
  19850201.086   106222454.757    19850208.930    82617487.889                  
  23343080.680   124606930.229    23343086.720    96916533.617                  
  23204434.270   124128090.544                                                  
  20152644.127   107765240.951    20152651.918    83817462.493                  
  26094198.476   137125945.165                                                  
  23447640.392   123218195.687                                                  
  26966861.678   141711827.171                                                  
  23516906.211   123582196.835                                                  
  23897086.400   125580040.416                                                  
  25221664.806   132540765.426                                                  
                 119930129.494    23031318.746   119930129.494                  
                 123818307.265    23778004.747   123818307.265                  
                 113421654.205    21781430.087   113421654.205                  
 21  9  1 10 44 50.0000000  0 25G30G22G 3G24G 1G14G17G19G 6R13R14R15
                                R17R18R23R24E 1E13E15E21E26E27C23C27
                                C28
  22752620.991   119565836.8841   22752626.870    93168198.8191   22752626.084  
  24372068.046   128076084.3321                   99799517.8311   24372067.331  
  23615712.956   124101407.8591   23615716.815    96702429.9971   23615717.083  
  24151168.664   126915251.1081   24151173.078    98895013.5351   24151173.400  
  23179320.162   121808164.0701   23179326.077    94915477.1781   23179325.237  
  20501210.923   107734614.3261   20501213.354    83949073.6031   20501213.604  
  21019868.071   110460172.0201   21019870.054    86072874.0491   21019870.376  
  20860982.669   109625221.8521                   85422262.5811   20860983.044  
  21710737.963   114090700.8081   21710743.520    88901869.5901   21710743.145  
  21981331.508   117379093.652    21981337.995    91294841.001                  
  19129262.739   101969739.363    19129269.583    79309825.881                  
  21127305.357   112897912.862    21127312.862    87809526.240                  
  19850001.274   106221385.911    19850009.530    82616656.558                  
  23342466.665   124603652.994    23342472.669    96913984.661                  
  23205127.659   124131800.147                                                  
  20153085.760   107767602.636    20153093.587    83819299.357                  
  26093758.951   137123635.215                                                  
  23447836.040   123219224.111                                                  
  26967377.593   141714538.590                                                  
  23516819.207   123581739.287                                                  
  23896756.055   125578304.317                                                  
  25222016.575   132542614.102                                                  
                 119932456.502    23031765.633   119932456.502                  
                 123816344.833    23777627.800   123816344.833                  
                 113422006.970    21781497.918   113422006.970                  
 21  9  1 10 44 51.0000000  0 25G30G22G 3G24G 1G14G17G19G 6R13R14R15
                                R17R18R23R24E 1E13E15E21E26E27C23C27
                                C28
  22753256.325   119569174.4991   22753261.882    93170799.5601   22753261.256  
  24372223.596   128076900.7721                   99800154.0091   24372222.684  
  23615566.966   124100640.9441   23615570.414    96701832.4031   23615571.165  
  24150733.679   126912965.9621   24150738.360    98893232.9071   24150738.557  
  23179979.886   121811631.0471   23179985.783    94918178.7171   23179984.943  
  20501294.979   107735055.6231   20501297.410    83949417.4681   20501297.570  
  21020004.537   110460889.5521   21020006.377    86073433.1641   21020006.895  
  20860835.732   109624450.2101                   85421661.3061   20860836.161  
  21710207.324   114087912.1281   21710212.756    88899696.5971   21710212.471  
  21982029.615   117382823.031    21982035.548    91297741.638                  
  19129311.110   101969997.254    19129318.097    79310026.470                  
  21126678.708   112894564.882    21126686.213    87806922.259                  
  19849801.659   106220317.612    19849809.915    82615825.656                  
  23341852.810   124600376.021    23341857.438    96911435.930                  
  23205821.120   124135509.630                                                  
  20153527.590   107769964.657    20153535.095    83821136.484                  
  26093319.427   137121325.299                                                  
  23448031.777   123220252.826                                                  
  26967893.382   141717249.994                                                  
  23516732.167   123581281.989                                                  
  23896425.764   125576568.523                                                  
  25222368.380   132544462.986                                                  
                 119934783.830    23032212.537   119934783.830                  
                 123814382.599    23777250.871   123814382.599                  
                 113422359.979    21781565.659   113422359.979                  
 21  9  1 10 44 52.0000000  0 25G30G22G 3G24G 1G14G17G19G 6R13R14R15
                                R17R18R23R24E 1E13E15E21E26E27C23C27
                                C28
  22753891.479   119572512.3871   22753897.340    93173400.5141   22753896.411  
  24372379.020   128077717.8021                   99800790.6421   24372378.163  
  23615421.065   124099874.6281   23615424.728    96701235.2711   23615425.354  
  24150298.997   126910681.3671   24150303.786    98891452.7031   24150303.821  
  23180639.682   121815098.3241   23180645.150    94920880.4911   23180644.739  
  20501379.125   107735497.3841   20501381.698    83949761.7041   20501381.644  
  21020141.217   110461607.2801   21020143.129    86073992.4301   21020143.486  
  20860688.849   109623678.8991                   85421060.2821   20860689.367  
  21709676.614   114085123.9181   21709681.939    88897523.9641   21709681.904  
  21982727.758   117386552.873    21982734.566    91300642.589                  
  19129359.625   101970256.024    19129366.647    79310227.729                  
  21126052.077   112891217.318    21126059.904    87804318.583                  
  19849602.116   106219249.970    19849610.407    82614995.271                  
  23341239.098   124597099.444    23341243.137    96908887.454                  
  23206514.367   124139219.113                                                  
  20153969.437   107772327.124    20153976.781    83822973.947                  
  26092879.813   137119015.512                                                  
  23448227.586   123221281.937                                                  
  26968409.404   141719961.512                                                  
  23516645.180   123580825.057                                                  
  23896095.527   125574833.108                                                  
  25222720.311   132546312.193                                                  
                 119937111.588    23032659.566   119937111.588                  
                 123812420.687    23776874.228   123812420.687                  
                 113422713.340    21781633.472   113422713.340                  
 21  9  1 10 44 53.0000000  0 25G30G22G 3G24G 1G14G17G19G 6R13R14R15
                                R17R18R23R24E 1E13E15E21E26E27C23C27
                                C28
  22754526.848   119575850.5511   22754532.548    93176001.6831   22754531.619  
  24372534.588   128078535.4181                   99801427.7361   24372533.766  
  23615275.397   124099108.8891   23615279.471    96700638.5891   23615279.668  
  24149863.904   126908397.2461   24149868.478    98889672.8641   24149869.193  
  23181299.478   121818565.8971   23181305.071    94923582.4981   23181304.588  
  20501463.288   107735939.6261   20501466.039    83950106.3041   20501465.789  
  21020277.843   110462325.1981   21020279.809    86074551.8521   21020280.077  
  20860542.412   109622907.9221                   85420459.5211   20860542.644  
  21709146.047   114082336.1951   21709151.354    88895351.7101   21709151.408  
  21983425.972   117390283.185    21983433.030    91303543.957                  
  19129408.282   101970515.660    19129415.429    79310429.673                  
  21125425.625   112887870.195    21125433.630    87801715.279                  
  19849402.662   106218182.971    19849411.150    82614165.373                  
  23340625.333   124593823.252    23340630.140    96906339.297                  
  23207207.685   124142928.594                                                  
  20154411.284   107774690.015    20154418.450    83824811.774                  
  26092440.199   137116705.849                                                  
  23448423.466   123222311.444                                                  
  26968925.425   141722673.116                                                  
  23516558.265   123580368.483                                                  
  23895765.433   125573098.074                                                  
  25223072.152   132548161.720                                                  
                 119939439.769    23033106.596   119939439.769                  
                 123810459.055    23776497.602   123810459.055                  
                 113423067.027    21781701.428   113423067.027                  
 21  9  1 10 44 54.0000000  0 25G30G22G 3G24G 1G14G17G19G 6R13R14R15
                                R17R18R23R24E 1E13E15E21E26E27C23C27
                                C28
  22755161.984   119579188.9001   22755167.345    93178602.9871   22755166.863  
  24372690.334   128079353.5221                   99802065.2271   24372689.459  
  23615129.764   124098343.6591   23615134.107    96700042.3051   23615134.053  
  24149429.454   126906113.5551   24149433.582    98887893.3671   24149434.601  
  23181959.452   121822033.6761   23181964.384    94926284.6661   23181964.491  
  20501547.469   107736382.2291   20501550.256    83950451.1891   20501550.006  
  21020414.470   110463043.2171   21020416.471    86075111.3441   21020416.703  
  20860395.761   109622137.1811                   85419858.9461   20860395.958  
  21708615.552   114079548.8531   21708620.895    88893179.7481   21708621.002  
  21984125.062   117394013.849    21984131.959    91306445.603                  
  19129457.154   101970776.049    19129464.426    79310632.195                  
  21124799.244   112884523.433    21124806.821    87799112.233                  
  19849203.333   106217116.504    19849212.000    82613335.913                  
  23340011.497   124590547.352    23340017.661    96903791.398                  
  23207900.932   124146637.948                                                  
  20154853.132   107777053.222    20154860.172    83826649.819                  
  26092000.550   137114396.203                                                  
  23448619.436   123223341.242                                                  
  26969441.465   141725384.722                                                  
  23516471.404   123579912.162                                                  
  23895435.338   125571363.352                                                  
  25223424.136   132550011.471                                                  
                 119941768.266    23033553.768   119941768.266                  
                 123808497.647    23776120.834   123808497.647                  
                 113423420.961    21781769.330   113423420.961                  
 21  9  1 10 44 55.0000000  0 25G30G22G 3G24G 1G14G17G19G 6R13R14R15
                                R17R18R23R24E 1E13E15E21E26E27C23C27
                                C28
  22755797.407   119582527.6181   22755803.071    93181204.5841   22755802.142  
  24372846.277   128080172.3181                   99802703.2571   24372845.295  
  23614984.203   124097579.1171   23614988.903    96699446.5591   23614988.581  
  24148995.398   126903830.4461   24148998.757    98886114.3161   24149000.098  
  23182619.623   121825501.8501   23182624.466    94928987.1421   23182624.466  
  20501631.775   107736825.3921   20501634.687    83950796.5111   20501634.330  
  21020551.186   110463761.5201   21020552.812    86075671.0611   21020553.419  
  20860249.163   109621366.8651                   85419258.6991   20860249.378  
  21708085.360   114076762.0601   21708090.578    88891008.2261   21708090.685  
  21984823.919   117397745.053    21984830.692    91309347.653                  
  19129506.115   101971037.388    19129513.441    79310835.458                  
  21124172.953   112881177.226    21124180.494    87796509.630                  
  19849004.040   106216050.754    19849012.885    82612506.980                  
  23339397.946   124587271.914    23339404.504    96901243.851                  
  23208594.375   124150347.405                                                  
  20155295.158   107779416.916    20155302.520    83828488.239                  
  26091561.186   137112086.795                                                  
  23448815.477   123224371.530                                                  
  26969957.504   141728096.516                                                  
  23516384.650   123579456.298                                                  
  23895105.369   125569629.105                                                  
  25223776.191   132551861.640                                                  
                 119944097.303    23034000.958   119944097.303                  
                 123806536.620    23775744.423   123806536.620                  
                 113423775.337    21781837.376   113423775.337                  
 21  9  1 10 44 56.0000000  0 25G30G22G 3G24G 1G14G17G19G 6R13R14R15
                                R17R18R23R24E 1E13E15E21E26E27C23C27
                                C28
  22756432.633   119585866.2611   22756438.190    93183806.1211   22756437.440  
  24373002.167   128080991.3551                   99803341.4651   24373001.184  
  23614838.660   124096814.8021   23614843.914    96698850.9911   23614843.109  
  24148561.020   126901547.5151   24148564.522    98884335.4091   24148565.648  
  23183279.759   121828969.9961   23183283.779    94931689.5881   23183284.440  
  20501716.134   107737268.6841   20501718.779    83951141.9341   20501718.636  
  21020687.848   110464479.6671   21020689.689    86076230.6541   21020690.064  
  20860102.405   109620596.5401                   85418658.4511   20860102.798  
  21707555.097   114073975.4171   21707560.511    88888836.8161   21707560.368  
  21985523.045   117401476.350    21985528.763    91312249.770                  
  19129555.308   101971299.250    19129562.366    79311039.125                  
  21123546.715   112877831.099    21123554.542    87793907.087                  
  19848804.890   106214985.321    19848813.663    82611678.312                  
  23338784.288   124583996.470    23338790.149    96898696.254                  
  23209288.014   124154056.503                                                  
  20155737.005   107781780.636    20155744.385    83830326.702                  
  26091121.805   137109777.162                                                  
  23449011.482   123225401.868                                                  
  26970473.579   141730808.070                                                  
  23516297.878   123579000.437                                                  
  23894775.364   125567894.887                                                  
  25224128.229   132553711.769                                                  
                 119946426.408    23034448.220   119946426.408                  
                 123804575.560    23775367.869   123804575.560                  
                 113424129.707    21781905.332   113424129.707                  
 21  9  1 10 44 57.0000000  0 25G30G22G 3G24G 1G14G17G19G 6R13R14R15
                                R17R18R23R24E 1E13E15E21E26E27C23C27
                                C28
  22757068.252   119589205.7331   22757073.577    93186408.3121   22757072.916  
  24373158.217   128081811.5251                   99803980.5421   24373157.252  
  23614693.528   124096051.6521   23614698.406    96698256.3291   23614697.906  
  24148126.749   126899265.6321   24148130.430    98882557.3091   24148131.377  
  23183939.787   121832438.9861   23183944.129    94934392.7001   23183944.540  
  20501800.583   107737712.9981   20501802.996    83951488.1521   20501803.139  
  21020824.689   110465198.5691   21020826.476    86076790.8401   21020826.869  
  20859955.897   109619827.1071                   85418058.8951   20859956.380  
  21707025.012   114071189.7951   21707030.534    88886666.1991   21707030.266  
  21986221.599   117405208.678    21986228.978    91315152.715                  
  19129604.662   101971562.524    19129611.721    79311243.900                  
  21122920.835   112874485.948    21122928.626    87791305.319                  
  19848606.097   106213921.148    19848614.585    82610850.617                  
  23338170.737   124580721.959    23338177.456    96896149.421                  
  23209981.654   124157766.147                                                  
  20156179.192   107784145.328    20156186.393    83832165.899                  
  26090682.442   137107468.205                                                  
  23449207.756   123226433.150                                                  
  26970989.637   141733520.252                                                  
  23516211.267   123578545.489                                                  
  23894445.555   125566161.625                                                  
  25224480.445   132555562.781                                                  
                 119948756.487    23034895.892   119948756.487                  
                 123802615.344    23774991.655   123802615.344                  
                 113424484.970    21781973.520   113424484.970                  
 21  9  1 10 44 58.0000000  0 25G30G22G 3G24G 1G14G17G19G 6R13R14R15
                                R17R18R23R24E 1E13E15E21E26E27C23C27
                                C28
  22757703.764   119592545.1061   22757709.053    93189010.4231   22757708.338  
  24373314.464   128082631.9231                   99804619.8271   24373313.374  
  23614548.146   124095288.7011   23614553.167    96697661.8191   23614552.702  
  24147692.460   126896983.9111   24147696.141    98880779.3491   24147697.142  
  23184600.119   121835907.9061   23184604.586    94937095.7501   23184604.622  
  20501885.032   107738157.3941   20501887.748    83951834.4331   20501887.677  
  21020961.423   110465917.2681   21020963.406    86077350.8701   21020963.638  
  20859809.335   109619057.6271                   85417459.3001   20859809.961  
  21706495.035   114068404.2611   21706500.914    88884495.6601   21706500.181  
  21986920.724   117408941.051    21986928.032    91318055.651                  
  19129654.231   101971826.273    19129661.164    79311449.031                  
  21122294.811   112871140.843    21122302.620    87788703.549                  
  19848407.232   106212857.254    19848415.416    82610023.151                  
  23337557.508   124577447.436    23337563.458    96893602.589                  
  23210675.187   124161475.424                                                  
  20156621.415   107786510.055    20156628.991    83834005.148                  
  26090243.078   137105158.997                                                  
  23449404.011   123227464.456                                                  
  26971505.676   141736232.169                                                  
  23516124.745   123578090.524                                                  
  23894115.746   125564428.376                                                  
  25224832.733   132557413.728                                                  
                 119951086.618    23035343.422   119951086.618                  
                 123800655.041    23774615.226   123800655.041                  
                 113424840.195    21782041.726   113424840.195                  
 21  9  1 10 44 59.0000000  0 25G30G22G 3G24G 1G14G17G19G 6R13R14R15
                                R17R18R23R24E 1E13E15E21E26E27C23C27
                                C28
  22758339.204   119595884.9131   22758344.583    93191612.8631   22758343.903  
  24373470.818   128083453.0791                   99805259.6841   24373469.656  
  23614403.156   124094526.5071   23614407.302    96697067.9041   23614407.695  
  24147258.368   126894702.8471   24147262.264    98879001.9081   24147263.032  
  23185260.272   121839377.2781   23185265.097    94939799.1561   23185264.811  
  20501969.749   107738602.4351   20501972.430    83952181.2201   20501972.340  
  21021098.157   110466636.3461   21021100.265    86077911.1831   21021100.462  
  20859662.952   109618288.6521                   85416860.0961   20859663.613  
  21705965.111   114065619.3991   21705971.097    88882325.6351   21705970.275  
  21987619.474   117412674.074    21987627.819    91320959.146                  
  19129703.746   101972091.062    19129710.661    79311654.983                  
  21121668.949   112867796.360    21121676.436    87786102.292                  
  19848208.582   106211794.145    19848216.498    82609196.279                  
  23336944.029   124574173.477    23336950.747    96891056.178                  
  23211369.041   124165184.878                                                  
  20157063.530   107788875.391    20157071.535    83835844.835                  
  26089803.679   137102850.088                                                  
  23449600.392   123228496.320                                                  
  26972021.662   141738944.359                                                  
  23516038.223   123577636.083                                                  
  23893786.027   125562695.684                                                  
  25225185.039   132559265.177                                                  
                 119953417.348    23035791.095   119953417.348                  
                 123798695.238    23774238.922   123798695.238                  
                 113425195.929    21782110.021   113425195.929                  
 21  9  1 10 45  0.0000000  0 25G30G22G 3G24G 1G14G17G19G 6R13R14R15
                                R17R18R23R24E 1E13E15E21E26E27C23C27
                                C28
  22758974.805   119599224.6181   22758980.362    93194215.2331   22758979.397  
  24373626.939   128084274.4481                   99805899.7101   24373625.992  
  23614258.221   124093764.5191   23614262.402    96696474.1521   23614262.741  
  24146823.936   126892421.9241   24146828.243    98877224.5651   24146828.976  
  23185920.514   121842846.5941   23185925.607    94942502.5171   23185924.982  
  20502054.466   107739047.5651   20502057.325    83952528.0721   20502057.040  
  21021234.890   110467355.2271   21021237.035    86078471.3501   21021237.231  
  20859516.605   109617519.6321                   85416260.8581   20859517.266  
  21705435.259   114062834.6311   21705441.263    88880155.6881   21705440.334  
  21988318.582   117416407.165    21988325.640    91323862.633                  
  19129753.494   101972356.326    19129760.105    79311861.297                  
  21121043.319   112864451.911    21121050.395    87783501.061                  
  19848009.968   106210731.264    19848017.777    82608369.601                  
  23336330.460   124570899.511    23336336.661    96888509.770                  
  23212062.466   124168893.925                                                  
  20157505.717   107791240.742    20157513.936    83837684.562                  
  26089364.279   137100540.929                                                  
  23449796.754   123229528.189                                                  
  26972537.827   141741656.253                                                  
  23515951.719   123577181.613                                                  
  23893456.308   125560963.003                                                  
  25225537.344   132561116.550                                                  
                 119955748.122    23036238.696   119955748.122                  
                 123796735.344    23773862.565   123796735.344                  
                 113425551.636    21782178.299   113425551.636                  
 21  9  1 10 45  1.0000000  0 25G30G22G 3G24G 1G14G17G19G 6R13R14R15
                                R17R18R23R24E 1E13E15E21E26E27C23C27
                                C28
  22759610.245   119602564.5071   22759615.767    93196817.7421   22759614.963  
  24373783.454   128085096.3051                   99806540.1431   24373782.400  
  23614113.464   124093003.0391   23614117.323    96695880.7881   23614117.806  
  24146389.773   126890141.3961   24146394.419    98875447.5271   24146394.991  
  23186580.828   121846316.0931   23186585.421    94945206.0181   23186585.188  
  20502139.273   107739493.0611   20502142.007    83952875.2141   20502141.792  
  21021371.749   110468074.2051   21021373.858    86079031.6001   21021374.018  
  20859370.365   109616750.8421                   85415661.8011   20859370.937  
  21704905.442   114060050.2211   21704911.536    88877986.0161   21704910.481  
  21989017.690   117420140.603    21989025.373    91326766.460                  
  19129803.366   101972622.353    19129809.960    79312068.221                  
  21120417.724   112861107.787    21120424.604    87780900.080                  
  19847811.443   106209668.929    19847819.395    82607543.357                  
  23335717.177   124567625.862    23335723.574    96885963.558                  
  23212755.856   124172602.870                                                  
  20157947.975   107793606.401    20157956.266    83839524.519                  
  26088924.862   137098231.777                                                  
  23449993.189   123230560.349                                                  
  26973053.920   141744368.162                                                  
  23515865.358   123576727.411                                                  
  23893126.696   125559230.614                                                  
  25225889.757   132562968.140                                                  
                 119958079.210    23036686.225   119958079.210                  
                 123794775.663    23773486.297   123794775.663                  
                 113425907.577    21782246.737   113425907.577                  
 21  9  1 10 45  2.0000000  0 25G30G22G 3G24G 1G14G17G19G 6R13R14R15
                                R17R18R23R24E 1E13E15E21E26E27C23C27
                                C28
  22760246.007   119605904.8781   22760251.690    93199420.6331   22760250.618  
  24373939.880   128085918.9781                   99807181.1711   24373938.968  
  23613969.189   124092242.3591   23613972.459    96695288.0531   23613973.049  
  24145955.752   126887861.6181   24145960.684    98873671.0711   24145961.149  
  23187241.089   121849786.1281   23187245.163    94947909.9441   23187245.485  
  20502224.204   107739939.2471   20502226.813    83953222.8921   20502226.670  
  21021508.644   110468793.5941   21021510.770    86079592.1581   21021510.895  
  20859224.214   109615982.6041                   85415063.1761   20859224.679  
  21704375.679   114057266.5241   21704381.933    88875816.9011   21704380.754  
  21989717.494   117423874.720    21989724.463    91329670.725                  
  19129853.453   101972889.472    19129860.029    79312275.971                  
  21119792.076   112857764.343    21119798.866    87778299.612                  
  19847613.222   106208607.497    19847621.031    82606717.801                  
  23335104.234   124564352.808    23335110.971    96883417.855                  
  23213449.263   124176312.049                                                  
  20158390.484   107795972.692    20158398.507    83841364.972                  
  26088485.499   137095922.979                                                  
  23450189.766   123231593.134                                                  
  26973570.174   141747080.376                                                  
  23515778.997   123576273.780                                                  
  23892797.084   125557498.825                                                  
  25226242.188   132564820.276                                                  
                 119960410.961    23037133.952   119960410.961                  
                 123792816.500    23773110.082   123792816.500                  
                 113426264.078    21782315.158   113426264.078                  
 21  9  1 10 45  3.0000000  0 25G30G22G 3G24G 1G14G17G19G 6R13R14R15
                                R17R18R23R24E 1E13E15E21E26E27C23C27
                                C28
  22760881.698   119609245.5131   22760887.613    93202023.7181   22760886.326  
  24374096.287   128086742.2251                   99807822.6761   24374095.608  
  23613824.307   124091482.2611   23613827.559    96694695.7691   23613828.488  
  24145521.767   126885582.3351   24145527.003    98871895.0091   24145527.396  
  23187901.313   121853256.4331   23187905.727    94950614.0781   23187905.834  
  20502309.189   107740385.8961   20502311.602    83953570.9281   20502311.655  
  21021645.699   110469513.1621   21021647.361    86080152.8631   21021647.772  
  20859078.171   109615214.6971                   85414464.8091   20859078.528  
  21703845.809   114054483.2881   21703851.956    88873648.1481   21703851.134  
  21990416.798   117427609.270    21990424.089    91332575.411                  
  19129903.629   101973157.446    19129910.401    79312484.388                  
  21119166.499   112854421.353    21119173.254    87775699.509                  
  19847414.983   106207546.693    19847423.435    82605892.731                  
  23334491.219   124561080.134    23334497.992    96880872.446                  
  23214142.581   124180021.189                                                  
  20158833.117   107798339.378    20158841.069    83843205.721                  
  26088046.171   137093614.296                                                  
  23450386.414   123232626.295                                                  
  26974086.178   141749792.675                                                  
  23515692.779   123575820.493                                                  
  23892467.526   125555767.419                                                  
  25226594.762   132566672.717                                                  
                 119962743.110    23037581.589   119962743.110                  
                 123790857.627    23772733.832   123790857.627                  
                 113426620.905    21782383.739   113426620.905                  
