     2.11           OBSERVATION DATA    M (MIXED)           RINEX VERSION / TYPE
CONVBIN 2.4.3                           20210828 170335 UTC PGM / RUN BY / DATE 
log: logs/21_08_28_06_06_41_txda_SNTX.rtcm                  COMMENT             
format: RTCM 3, station ID: 3042                            COMMENT             
3042                                                        MARKER NAME         
                                                            MARKER NUMBER       
                                                            OBSERVER / AGENCY   
1707112             LEICA GR30          4.50                REC # / TYPE / VERS 
                    GPPNULLANTENNA                          ANT # / TYPE        
  -623595.6246 -5330169.5275  3435333.5519                  APPROX POSITION XYZ 
        0.0000        0.0000        0.0000                  ANTENNA: DELTA H/E/N
     1     1                                                WAVELENGTH FACT L1/2
     7    C1    L1    C2    L2    P2    C5    L5            # / TYPES OF OBSERV 
  2021     8    28     6     6   47.0000000     GPS         TIME OF FIRST OBS   
  2021     8    28     6    12   41.0000000     GPS         TIME OF LAST OBS    
                                                            END OF HEADER       
 21  8 28  6  6 47.0000000  0 18G 4G 7G 8G 9G16G27G30R 5R 7R 9R15R16
                                R17R18E 1E 4E19E21
  21354125.925   112216689.142    21354125.246    87441572.027    21354125.067  
  21354128.856    83798188.098  
  21730157.392   114192747.592    21730155.158    88981351.464    21730154.854  
                                
  20695035.126   108753143.775    20695036.126    84742710.249    20695035.447  
  20695034.589    81211760.132  
  20484556.994   107647073.025    20484556.690    83880833.939    20484556.422  
  20484556.690    80385800.268  
  23626585.238   124158542.941                    96746904.824    23626582.343  
                                
  21534686.684   113165542.144    21534686.613    88180940.005    21534686.130  
  21534686.059    84506733.081  
  24165999.846   126993186.178    24166000.650    98955730.146    24166000.025  
  24166000.632    94832576.279  
  22231018.672   118837535.419    22231019.440    92429197.265    22231019.512  
                                
  22385078.866   119829079.923    22385078.883    93200394.989    22385078.758  
                                
  22304847.506   119106641.358    22304848.310    92638501.793    22304848.310  
                                
  22261617.372   118959333.291    22261618.284    92523929.820    22261618.391  
                                
  20289981.507   108385439.560    20289981.024    84299783.538    20289982.186  
                                
  22134467.534   118446006.857    22134467.641    92124671.781    22134467.677  
                                
  21749337.858   116099441.958    21749340.234    90299576.319    21749340.252  
                                
  25144567.423   132135593.922                                                  
  25144569.603    98672691.574  
  26168318.629   137515442.853                                                  
  26168319.844   102690107.566  
  23588245.516   123957066.878                                                  
  23588246.409    92565344.704  
  23967382.618   125949446.364                                                  
  23967385.156    94053166.733  
 21  8 28  6  6 48.0000000  0 18G 4G 7G 8G 9G16G27G30R 5R 7R 9R15R16
                                R17R18E 1E 4E19E21
  21354607.585   112219220.304    21354606.906    87443544.360    21354606.709  
  21354610.515    83800078.259  
  21729806.623   114190904.269    21729804.389    88979915.110    21729804.085  
                                
  20694900.482   108752436.271    20694901.501    84742158.947    20694900.804  
  20694899.964    81211231.808  
  20484627.863   107647445.386    20484627.559    83881124.091    20484627.273  
  20484627.559    80386078.327  
  23627211.493   124161833.913                    96749469.218    23627208.598  
                                
  21534943.533   113166892.017    21534943.498    88181991.854    21534942.997  
  21534942.926    84507741.107  
  24165501.229   126990565.848    24165502.033    98953688.335    24165501.408  
  24165502.015    94830619.530  
  22231813.575   118841784.639    22231814.361    92432502.215    22231814.433  
                                
  22384561.271   119826309.306    22384561.307    93198240.067    22384561.200  
                                
  22304493.700   119104752.092    22304494.522    92637032.366    22304494.522  
                                
  22262023.982   118961506.068    22262024.893    92525619.758    22262024.983  
                                
  20289994.801   108385510.604    20289994.319    84299838.794    20289995.480  
                                
  22134545.800   118446425.607    22134545.890    92124997.469    22134545.925  
                                
  21748826.768   116096713.753    21748829.162    90297454.384    21748829.162  
                                
  25144366.843   132134539.935                                                  
  25144369.041    98671904.508  
  26167954.387   137513528.882                                                  
  26167955.620   102688678.313  
  23588427.654   123958024.031                                                  
  23588428.548    92566059.468  
  23967532.646   125950234.838                                                  
  23967535.184    94053755.534  
 21  8 28  6  6 49.0000000  0 18G 4G 7G 8G 9G16G27G30R 5R 7R 9R15R16
                                R17R18E 1E 4E19E21
  21355089.369   112221752.055    21355088.690    87445517.156    21355088.494  
  21355092.300    83801968.844  
  21729455.872   114189061.086    21729453.656    88978478.864    21729453.334  
                                
  20694766.000   108751729.541    20694767.019    84741608.256    20694766.322  
  20694765.482    81210704.059  
  20484698.856   107647818.468    20484698.535    83881414.802    20484698.284  
  20484698.535    80386356.933  
  23627837.749   124165124.991                    96752033.710    23627834.872  
                                
  21535200.561   113168242.676    21535200.508    88183044.323    21535200.025  
  21535199.936    84508749.714  
  24165002.594   126987945.565    24165003.398    98951646.546    24165002.773  
  24165003.380    94828662.836  
  22232608.550   118846034.176    22232609.336    92435807.415    22232609.390  
                                
  22384043.856   119823539.436    22384043.874    93196085.728    22384043.749  
                                
  22304139.947   119102863.061    22304140.733    92635563.118    22304140.769  
                                
  22262430.591   118963678.903    22262431.503    92527309.740    22262431.610  
                                
  20290008.149   108385581.922    20290007.667    84299894.262    20290008.828  
                                
  22134624.209   118446845.274    22134624.299    92125323.889    22134624.352  
                                
  21748315.803   116093986.144    21748318.180    90295332.920    21748318.198  
                                
  25144166.335   132133486.207                                                  
  25144168.533    98671117.631  
  26167590.270   137511615.323                                                  
  26167591.485   102687249.359  
  23588609.883   123958981.717                                                  
  23588610.794    92566774.623  
  23967682.728   125951023.509                                                  
  23967685.284    94054344.483  
 21  8 28  6  6 50.0000000  0 18G 4G 7G 8G 9G16G27G30R 5R 7R 9R15R16
                                R17R18E 1E 4E19E21
  21355571.207   112224284.229    21355570.528    87447490.278    21355570.350  
  21355574.156    83803859.757  
  21729105.138   114187217.994    21729102.923    88977042.691    21729102.601  
                                
  20694631.625   108751023.495    20694632.644    84741058.092    20694631.947  
  20694631.107    81210176.819  
  20484769.975   107648192.206    20484769.689    83881706.028    20484769.403  
  20484769.653    80386636.016  
  23628464.022   124168416.063                    96754598.180    23628461.128  
                                
  21535457.715   113169593.966    21535457.643    88184097.276    21535457.161  
  21535457.089    84509758.796  
  24164503.959   126985325.243    24164504.781    98949604.739    24164504.155  
  24164504.745    94826706.096  
  22233403.543   118850283.949    22233404.329    92439112.791    22233404.383  
                                
  22383526.530   119820770.215    22383526.548    93193931.894    22383526.441  
                                
  22303786.211   119100974.129    22303787.016    92634093.951    22303787.016  
                                
  22262837.201   118965851.719    22262838.130    92528999.708    22262838.220  
                                
  20290021.515   108385653.363    20290021.033    84299949.829    20290022.195  
                                
  22134702.780   118447265.752    22134702.887    92125650.933    22134702.923  
                                
  21747804.928   116091259.042    21747807.305    90293211.838    21747807.322  
                                
  25143965.844   132132432.646                                                  
  25143968.042    98670330.888  
  26167226.188   137509702.071                                                  
  26167227.403   102685820.630  
  23588792.236   123959939.832                                                  
  23588793.130    92567490.101  
  23967832.828   125951812.292                                                  
  23967835.383    94054933.511  
 21  8 28  6  6 51.0000000  0 18G 4G 7G 8G 9G16G27G30R 5R 7R 9R15R16
                                R17R18E 1E 4E19E21
  21356053.153   112226816.760    21356052.474    87449463.677    21356052.277  
  21356056.101    83805750.927  
  21728754.405   114185374.844    21728752.172    88975606.467    21728751.868  
                                
  20694497.393   108750318.031    20694498.412    84740508.379    20694497.733  
  20694496.875    81209650.005  
  20484841.183   107648566.451    20484840.879    83881997.646    20484840.611  
  20484840.879    80386915.486  
  23629090.260   124171707.011                    96757162.555    23629087.383  
                                
  21535714.957   113170945.793    21535714.886    88185150.652    21535714.403  
  21535714.332    84510768.279  
  24164005.288   126982704.754    24164006.110    98947562.795    24164005.467  
  24164006.092    94824749.241  
  22234198.572   118854533.770    22234199.358    92442418.205    22234199.411  
                                
  22383009.311   119818001.520    22383009.329    93191778.467    22383009.240  
                                
  22303432.476   119099085.194    22303433.280    92632624.779    22303433.280  
                                
  22263243.811   118968024.416    22263244.722    92530689.582    22263244.829  
                                
  20290034.899   108385724.824    20290034.417    84300005.413    20290035.578  
                                
  22134781.493   118447686.913    22134781.582    92125978.506    22134781.618  
                                
  21747294.124   116088532.386    21747296.536    90291091.106    21747296.536  
                                
  25143765.372   132131379.133                                                  
  25143767.570    98669544.171  
  26166862.143   137507789.022                                                  
  26166863.358   102684392.052  
  23588974.607   123960898.261                                                  
  23588975.501    92568205.802  
  23967982.928   125952601.078                                                  
  23967985.483    94055522.535  
 21  8 28  6  6 52.0000000  0 18G 4G 7G 8G 9G16G27G30R 5R 7R 9R15R16
                                R17R18E 1E 4E19E21
  21356535.152   112229349.817    21356534.473    87451437.488    21356534.294  
  21356538.100    83807642.504  
  21728403.690   114183531.863    21728401.474    88974170.378    21728401.152  
                                
  20694363.286   108749613.323    20694364.305    84739959.252    20694363.608  
  20694362.768    81209123.771  
  20484912.552   107648941.432    20484912.248    83882289.837    20484911.962  
  20484912.230    80387195.507  
  23629716.552   124174998.092                    96759727.031    23629713.639  
                                
  21535972.342   113172298.392    21535972.289    88186204.623    21535971.788  
  21535971.717    84511778.337  
  24163506.653   126980084.324    24163507.457    98945520.909    24163506.832  
  24163507.439    94822792.427  
  22234993.636   118858783.847    22234994.404    92445723.818    22234994.476  
                                
  22382492.235   119815233.530    22382492.253    93189625.586    22382492.128  
                                
  22303078.759   119097196.471    22303079.563    92631155.775    22303079.581  
                                
  22263650.402   118970197.209    22263651.332    92532379.527    22263651.421  
                                
  20290048.337   108385796.536    20290047.854    84300061.193    20290049.016  
                                
  22134860.366   118448109.022    22134860.456    92126306.817    22134860.492  
                                
  21746783.445   116085806.348    21746785.840    90288970.859    21746785.858  
                                
  25143564.953   132130325.883                                                  
  25143567.133    98668757.651  
  26166498.186   137505876.363                                                  
  26166499.384   102682963.774  
  23589157.086   123961857.210                                                  
  23589157.979    92568921.913  
  23968133.064   125953390.051                                                  
  23968135.619    94056111.703  
 21  8 28  6  6 53.0000000  0 18G 4G 7G 8G 9G16G27G30R 5R 7R 9R15R16
                                R17R18E 1E 4E19E21
  21357017.222   112231883.088    21357016.543    87453411.468    21357016.365  
  21357020.171    83809534.235  
  21728052.957   114181688.695    21728050.741    88972734.144    21728050.419  
                                
  20694229.268   108748909.055    20694230.287    84739410.474    20694229.572  
  20694228.732    81208597.861  
  20484983.992   107649316.804    20484983.671    83882582.334    20484983.385  
  20484983.671    80387475.817  
  23630342.771   124178288.891                    96762291.283    23630339.877  
                                
  21536229.799   113173651.396    21536229.764    88187258.914    21536229.263  
  21536229.174    84512788.690  
  24163007.928   126977463.603    24163008.733    98943478.786    24163008.125  
  24163008.715    94820835.395  
  22235788.700   118863033.847    22235789.469    92449029.374    22235789.540  
                                
  22381975.213   119812465.911    22381975.231    93187472.996    22381975.106  
                                
  22302725.060   119095307.604    22302725.846    92629686.652    22302725.846  
                                
  22264056.976   118972369.733    22264057.888    92534069.268    22264057.995  
                                
  20290061.739   108385868.201    20290061.256    84300116.930    20290062.418  
                                
  22134939.365   118448531.729    22134939.437    92126635.591    22134939.491  
                                
  21746272.838   116083080.623    21746275.215    90286850.855    21746275.232  
                                
  25143364.498   132129272.545                                                  
  25143366.696    98667971.072  
  26166134.230   137503963.778                                                  
  26166135.427   102681535.547  
  23589339.600   123962816.340                                                  
  23589340.494    92569638.136  
  23968283.181   125954178.895                                                  
  23968285.719    94056700.775  
 21  8 28  6  6 54.0000000  0 18G 4G 7G 8G 9G16G27G30R 5R 7R 9R15R16
                                R17R18E 1E 4E19E21
  21357499.382   112234416.791    21357498.703    87455385.777    21357498.507  
  21357502.331    83811426.272  
  21727702.224   114179845.583    21727700.008    88971297.952    21727699.686  
                                
  20694095.376   108748205.421    20694096.376    84738862.190    20694095.697  
  20694094.858    81208072.414  
  20485055.540   107649692.800    20485055.236    83882875.319    20485054.950  
  20485055.236    80387756.585  
  23630968.991   124181579.684                    96764855.542    23630966.079  
                                
  21536487.381   113175004.998    21536487.345    88188313.658    21536486.845  
  21536486.756    84513799.493  
  24162509.240   126974842.833    24162510.044    98941436.625    24162509.418  
  24162510.026    94818878.311  
  22236583.747   118867284.026    22236584.551    92452335.075    22236584.604  
                                
  22381458.316   119809698.893    22381458.316    93185320.863    22381458.208  
                                
  22302371.342   119093418.780    22302372.146    92628217.570    22302372.146  
                                
  22264463.514   118974542.179    22264464.444    92535758.953    22264464.533  
                                
  20290075.176   108385940.023    20290074.712    84300172.792    20290075.855  
                                
  22135018.507   118448955.278    22135018.597    92126965.005    22135018.615  
                                
  21745762.302   116080355.396    21745764.697    90284731.241    21745764.697  
                                
  25143164.079   132128219.336                                                  
  25143166.259    98667184.580  
  26165770.328   137502051.474                                                  
  26165771.525   102680107.517  
  23589522.204   123963775.875                                                  
  23589523.097    92570354.676  
  23968433.299   125954967.807                                                  
  23968435.854    94057289.889  
 21  8 28  6  6 55.0000000  0 18G 4G 7G 8G 9G16G27G30R 5R 7R 9R15R16
                                R17R18E 1E 4E19E21
  21357981.649   112236951.136    21357980.970    87457360.591    21357980.792  
  21357984.616    83813318.803  
  21727351.544   114178002.726    21727349.310    88969861.955    21727349.007  
                                
  20693961.626   108747502.639    20693962.645    84738314.565    20693961.948  
  20693961.108    81207547.613  
  20485127.230   107650069.607    20485126.909    83883168.932    20485126.658  
  20485126.909    80388037.975  
  23631595.229   124184870.665                    96767419.943    23631592.352  
                                
  21536745.124   113176359.478    21536745.088    88189369.099    21536744.588  
  21536744.516    84514810.953  
  24162010.533   126972222.177    24162011.337    98939394.546    24162010.694  
  24162011.319    94816921.336  
  22237378.918   118871534.596    22237379.704    92455641.079    22237379.776  
                                
  22380941.543   119806932.699    22380941.561    93183169.382    22380941.454  
                                
  22302017.696   119091530.301    22302018.483    92626748.751    22302018.483  
                                
  22264870.088   118976714.807    22264871.018    92537448.775    22264871.107  
                                
  20290088.721   108386012.213    20290088.221    84300228.939    20290089.364  
                                
  22135097.828   118449379.786    22135097.917    92127295.178    22135097.953  
                                
  21745251.909   116077630.887    21745254.304    90282612.183    21745254.321  
                                
  25142963.732   132127166.482                                                  
  25142965.930    98666398.358  
  26165406.514   137500139.660                                                  
  26165407.729   102678679.866  
  23589704.914   123964736.021                                                  
  23589705.826    92571071.670  
  23968583.470   125955757.018                                                  
  23968586.043    94057879.235  
 21  8 28  6  6 56.0000000  0 18G 4G 7G 8G 9G16G27G30R 5R 7R 9R15R16
                                R17R18E 1E 4E19E21
  21358463.970   112239485.719    21358463.291    87459335.591    21358463.094  
  21358466.918    83815211.509  
  21727000.829   114176159.707    21726998.595    88968425.837    21726998.291  
                                
  20693827.984   108746800.296    20693829.002    84737767.290    20693828.305  
  20693827.465    81207023.134  
  20485199.010   107650446.842    20485198.724    83883462.881    20485198.438  
  20485198.724    80388319.666  
  23632221.449   124188161.438                    96769984.186    23632218.554  
                                
  21537002.974   113177714.401    21537002.920    88190424.885    21537002.438  
  21537002.349    84515822.744  
  24161511.809   126969601.280    24161512.595    98937352.287    24161511.987  
  24161512.577    94814964.168  
  22238174.072   118875785.178    22238174.858    92458947.089    22238174.912  
                                
  22380424.896   119804166.946    22380424.896    93181018.243    22380424.789  
                                
  22301664.015   119089641.735    22301664.819    92625279.869    22301664.819  
                                
  22265276.644   118978887.203    22265277.556    92539138.411    22265277.663  
                                
  20290102.194   108386084.345    20290101.712    84300285.040    20290102.873  
                                
  22135177.274   118449804.865    22135177.345    92127625.797    22135177.399  
                                
  21744741.570   116074906.700    21744743.964    90280493.371    21744743.982  
                                
  25142763.366   132126113.573                                                  
  25142765.546    98665612.093  
  26165042.737   137498227.946                                                  
  26165043.934   102677252.286  
  23589887.661   123965696.378                                                  
  23589888.554    92571788.811  
  23968733.659   125956546.112                                                  
  23968736.197    94058468.496  
 21  8 28  6  6 57.0000000  0 18G 4G 7G 8G 9G16G27G30R 5R 7R 9R15R16
                                R17R18E 1E 4E19E21
  21358946.326   112242020.601    21358945.647    87461310.821    21358945.469  
  21358949.293    83817104.438  
  21726650.095   114174316.609    21726647.862    88966989.657    21726647.558  
                                
  20693694.431   108746098.449    20693695.449    84737220.396    20693694.734  
  20693693.895    81206499.030  
  20485270.897   107650824.556    20485270.593    83883757.203    20485270.325  
  20485270.576    80388601.729  
  23632847.615   124191452.043                    96772548.303    23632844.721  
                                
  21537260.896   113179069.814    21537260.842    88191481.046    21537260.359  
  21537260.288    84516834.903  
  24161013.031   126966980.187    24161013.817    98935309.879    24161013.209  
  24161013.799    94813006.859  
  22238969.225   118880035.768    22238970.012    92462253.104    22238970.065  
                                
  22379908.303   119801401.697    22379908.303    93178867.496    22379908.214  
                                
  22301310.351   119087753.128    22301311.137    92623810.955    22301311.137  
                                
  22265683.147   118981059.447    22265684.058    92540827.929    22265684.165  
                                
  20290115.703   108386156.454    20290115.221    84300341.125    20290116.364  
                                
  22135256.844   118450230.643    22135256.934    92127956.958    22135256.969  
                                
  21744231.302   116072182.882    21744233.697    90278374.848    21744233.714  
                                
  25142563.019   132125060.681                                                  
  25142565.199    98664825.838  
  26164678.977   137496316.379                                                  
  26164680.174   102675824.812  
  23590070.443   123966657.008                                                  
  23590071.372    92572506.169  
  23968883.795   125957335.165                                                  
  23968886.350    94059057.723  
 21  8 28  6  6 58.0000000  0 18G 4G 7G 8G 9G16G27G30R 5R 7R 9R15R16
                                R17R18E 1E 4E19E21
  21359428.790   112244555.882    21359428.111    87463286.365    21359427.914  
  21359431.738    83818997.672  
  21726299.362   114172473.532    21726297.147    88965553.490    21726296.825  
                                
  20693560.985   108745397.245    20693562.003    84736674.004    20693561.324  
  20693560.484    81205975.399  
  20485342.874   107651202.862    20485342.588    83884051.987    20485342.302  
  20485342.588    80388884.228  
  23633473.782   124194742.607                    96775112.375    23633470.905  
                                
  21537518.942   113180425.825    21537518.888    88192537.681    21537518.406  
  21537518.317    84517847.511  
  24160514.199   126964358.988    24160515.021    98933267.379    24160514.396  
  24160515.003    94811049.474  
  22239764.415   118884286.496    22239765.201    92465559.229    22239765.273  
                                
  22379391.852   119798637.061    22379391.852    93176717.224    22379391.745  
                                
  22300956.670   119085864.599    22300957.474    92622342.099    22300957.492  
                                
  22266089.649   118983231.633    22266090.560    92542517.410    22266090.668  
                                
  20290129.212   108386228.641    20290128.747    84300397.272    20290129.891  
                                
  22135336.558   118450657.226    22135336.647    92128288.742    22135336.683  
                                
  21743721.106   116069459.509    21743723.518    90276256.674    21743723.536  
                                
  25142362.671   132124007.886                                                  
  25142364.869    98664039.666  
  26164315.253   137494405.073                                                  
  26164316.468   102674397.540  
  23590253.333   123967618.013                                                  
  23590254.226    92573223.805  
  23969033.948   125958124.270                                                  
  23969036.503    94059646.992  
 21  8 28  6  6 59.0000000  0 18G 4G 7G 8G 9G16G27G30R 5R 7R 9R15R16
                                R17R18E 1E 4E19E21
  21359911.325   112247091.536    21359910.646    87465262.197    21359910.432  
  21359914.256    83820891.177  
  21725948.629   114170630.435    21725946.413    88964117.315    21725946.092  
                                
  20693427.646   108744696.631    20693428.682    84736128.068    20693427.986  
  20693427.146    81205452.211  
  20485414.975   107651581.705    20485414.671    83884347.190    20485414.385  
  20485414.671    80389167.135  
  23634099.966   124198033.128                    96777676.392    23634097.071  
                                
  21537777.096   113181782.432    21537777.024    88193594.775    21537776.542  
  21537776.470    84518860.560  
  24160015.385   126961737.654    24160016.207    98931224.802    24160015.564  
  24160016.189    94809092.002  
  22240559.622   118888537.359    22240560.408    92468865.425    22240560.462  
                                
  22378875.491   119795872.948    22378875.491    93174567.342    22378875.402  
                                
  22300603.024   119083976.117    22300603.828    92620873.284    22300603.846  
                                
  22266496.098   118985403.704    22266497.045    92544206.796    22266497.152  
                                
  20290142.757   108386300.908    20290142.274    84300453.477    20290143.436  
                                
  22135416.415   118451084.516    22135416.504    92128621.076    22135416.540  
                                
  21743211.017   116066736.607    21743213.411    90274138.844    21743213.429  
                                
  25142162.342   132122955.176                                                  
  25142164.522    98663253.565  
  26163951.583   137492493.978                                                  
  26163952.780   102672970.439  
  23590436.276   123968579.359                                                  
  23590437.187    92573941.696  
  23969184.119   125958913.393                                                  
  23969186.675    94060236.284  
 21  8 28  6  7  0.0000000  0 18G 4G 7G 8G 9G16G27G30R 5R 7R 9R15R16
                                R17R18E 1E 4E19E21
  21360393.932   112249627.757    21360393.253    87467238.473    21360393.056  
  21360396.898    83822785.106  
  21725597.950   114168787.525    21725595.734    88962681.279    21725595.412  
                                
  20693294.486   108743996.800    20693295.505    84735582.743    20693294.826  
  20693293.986    81204929.608  
  20485487.202   107651961.308    20485486.898    83884642.985    20485486.630  
  20485486.898    80389450.603  
  23634726.150   124201323.721                    96780240.488    23634723.255  
                                
  21538035.375   113183139.785    21538035.339    88194652.457    21538034.856  
  21538034.749    84519874.174  
  24159516.589   126959116.414    24159517.393    98929182.282    24159516.768  
  24159517.393    94807134.582  
  22241354.901   118892788.541    22241355.687    92472171.897    22241355.741  
                                
  22378359.273   119793109.562    22378359.273    93172418.041    22378359.184  
                                
  22300249.414   119082087.850    22300250.236    92619404.632    22300250.236  
                                
  22266902.583   118987575.855    22266903.530    92545896.245    22266903.637  
                                
  20290156.337   108386373.470    20290155.837    84300509.915    20290156.998  
                                
  22135496.432   118451512.747    22135496.522    92128954.150    22135496.557  
                                
  21742701.053   116064014.366    21742703.429    90272021.548    21742703.447  
                                
  25141962.066   132121902.739                                                  
  25141964.246    98662467.652  
  26163588.002   137490583.324                                                  
  26163589.217   102671543.639  
  23590619.326   123969541.263                                                  
  23590620.237    92574659.994  
  23969334.326   125959702.733                                                  
  23969336.882    94060825.722  
 21  8 28  6  7  1.0000000  0 18G 4G 7G 8G 9G16G27G30R 5R 7R 9R15R16
                                R17R18E 1E 4E19E21
  21360876.645   112252164.423    21360875.966    87469215.096    21360875.788  
  21360879.594    83824679.370  
  21725247.252   114166944.679    21725245.036    88961245.296    21725244.715  
                                
  20693161.451   108743297.618    20693162.470    84735037.924    20693161.773  
  20693160.933    81204407.495  
  20485559.571   107652341.545    20485559.268    83884939.273    20485558.982  
  20485559.250    80389734.546  
  23635352.334   124204614.353                    96782804.617    23635349.457  
                                
  21538293.797   113184497.801    21538293.761    88195710.649    21538293.260  
  21538293.189    84520888.274  
  24159017.758   126956495.080    24159018.562    98927139.684    24159017.919  
  24159018.544    94805177.117  
  22242150.197   118897039.875    22242150.984    92475478.486    22242151.055  
                                
  22377843.162   119790346.777    22377843.162    93170269.211    22377843.055  
                                
  22299895.821   119080199.657    22299896.626    92617936.038    22299896.643  
                                
  22267309.067   118989747.973    22267310.014    92547585.674    22267310.121  
                                
  20290169.953   108386446.214    20290169.471    84300566.496    20290170.632  
                                
  22135576.628   118451941.819    22135576.700    92129287.872    22135576.736  
                                
  21742191.196   116061292.683    21742193.572    90269904.679    21742193.590  
                                
  25141761.825   132120850.461                                                  
  25141764.023    98661681.864  
  26163224.474   137488672.963                                                  
  26163225.671   102670117.079  
  23590802.448   123970503.562                                                  
  23590803.341    92575378.589  
  23969484.551   125960492.179                                                  
  23969487.124    94061415.243  
 21  8 28  6  7  2.0000000  0 18G 4G 7G 8G 9G16G27G30R 5R 7R 9R15R16
                                R17R18E 1E 4E19E21
  21361359.502   112254701.782    21361358.823    87471192.261    21361358.627  
  21361362.468    83826574.151  
  21724896.626   114165102.130    21724894.410    88959809.548    21724894.107  
                                
  20693028.559   108742599.351    20693029.578    84734493.820    20693028.899  
  20693028.059    81203886.058  
  20485632.084   107652722.651    20485631.798    83885236.239    20485631.512  
  20485631.780    80390019.140  
  23635978.554   124207905.190                    96785368.908    23635975.677  
                                
  21538552.397   113185856.700    21538552.343    88196769.536    21538551.843  
  21538551.772    84521903.041  
  24158518.998   126953874.013    24158519.802    98925097.296    24158519.176  
  24158519.784    94803219.800  
  22242945.601   118901291.651    22242946.370    92478785.420    22242946.441  
                                
  22377327.212   119787584.876    22377327.212    93168121.061    22377327.105  
                                
  22299542.301   119078311.843    22299543.105    92616467.731    22299543.105  
                                
  22267715.623   118991920.345    22267716.534    92549275.297    22267716.642  
                                
  20290183.641   108386519.352    20290183.159    84300623.381    20290184.320  
                                
  22135657.003   118452371.957    22135657.075    92129622.426    22135657.110  
                                
  21741681.482   116058571.784    21741683.858    90267788.426    21741683.876  
                                
  25141561.675   132119798.584                                                  
  25141563.855    98660896.367  
  26162861.036   137486763.147                                                  
  26162862.251   102668690.916  
  23590985.677   123971466.542                                                  
  23590986.606    92576097.700  
  23969634.830   125961281.957                                                  
  23969637.403    94062005.014  
 21  8 28  6  7  3.0000000  0 18G 4G 7G 8G 9G16G27G30R 5R 7R 9R15R16
                                R17R18E 1E 4E19E21
  21361842.395   112257239.443    21361841.716    87473169.659    21361841.519  
  21361845.361    83828469.160  
  21724546.000   114163259.514    21724543.766    88958373.745    21724543.463  
                                
  20692895.792   108741901.607    20692896.811    84733950.123    20692896.114  
  20692895.292    81203365.015  
  20485704.721   107653104.249    20485704.400    83885533.584    20485704.114  
  20485704.400    80390304.098  
  23636604.756   124211195.889                    96787933.087    23636601.879  
                                
  21538811.069   113187216.121    21538811.033    88197828.823    21538810.533  
  21538810.461    84522918.189  
  24158020.184   126951252.734    24158021.006    98923054.742    24158020.362  
  24158020.988    94801262.350  
  22243740.969   118905543.456    22243741.773    92482092.378    22243741.827  
                                
  22376811.369   119784823.489    22376811.369    93165973.316    22376811.262  
                                
  22299188.780   119076424.006    22299189.566    92614999.413    22299189.602  
                                
  22268122.108   118994092.576    22268123.055    92550964.810    22268123.144  
                                
  20290197.329   108386592.484    20290196.846    84300680.261    20290197.990  
                                
  22135737.503   118452802.752    22135737.593    92129957.492    22135737.610  
                                
  21741171.822   116055851.251    21741174.216    90265672.452    21741174.216  
                                
  25141361.506   132118746.722                                                  
  25141363.686    98660110.882  
  26162497.652   137484853.496                                                  
  26162498.849   102667264.880  
  23591168.977   123972429.787                                                  
  23591169.888    92576817.008  
  23969785.126   125962071.699                                                  
  23969787.681    94062594.754  
 21  8 28  6  7  4.0000000  0 18G 4G 7G 8G 9G16G27G30R 5R 7R 9R15R16
                                R17R18E 1E 4E19E21
  21362325.376   112259777.585    21362324.697    87475147.430    21362324.519  
  21362328.343    83830364.521  
  21724195.392   114161416.997    21724193.141    88956938.008    21724192.837  
                                
  20692763.133   108741204.564    20692764.151    84733406.975    20692763.472  
  20692762.650    81202844.505  
  20485777.448   107653486.502    20485777.162    83885831.445    20485776.876  
  20485777.145    80390589.542  
  23637230.958   124214486.636                    96790497.307    23637228.081  
                                
  21539069.902   113188576.209    21539069.848    88198888.629    21539069.366  
  21539069.276    84523933.828  
  24157521.370   126948631.397    24157522.174    98921012.139    24157521.549  
  24157522.138    94799304.860  
  22244536.409   118909795.450    22244537.195    92485399.475    22244537.267  
                                
  22376295.651   119782062.805    22376295.651    93163826.112    22376295.544  
                                
  22298835.259   119074536.296    22298836.063    92613531.206    22298836.081  
                                
  22268528.610   118996264.799    22268529.557    92552654.317    22268529.646  
                                
  20290211.052   108386665.780    20290210.570    84300737.267    20290211.731  
                                
  22135818.164   118453234.387    22135818.235    92130293.201    22135818.289  
                                
  21740662.286   116053131.231    21740664.663    90263556.886    21740664.681  
                                
  25141161.373   132117695.034                                                  
  25141163.553    98659325.541  
  26162134.339   137482944.174                                                  
  26162135.536   102665839.085  
  23591352.367   123973393.492                                                  
  23591353.296    92577536.658  
  23969935.423   125962861.573                                                  
  23969937.996    94063184.593  
 21  8 28  6  7  5.0000000  0 18G 4G 7G 8G 9G16G27G30R 5R 7R 9R15R16
                                R17R18E 1E 4E19E21
  21362808.430   112262315.977    21362807.751    87477125.405    21362807.572  
  21362811.378    83832260.076  
  21723844.730   114159574.334    21723842.497    88955502.165    21723842.193  
                                
  20692630.580   108740507.996    20692631.599    84732864.197    20692630.920  
  20692630.080    81202324.336  
  20485850.282   107653869.204    20485849.961    83886129.655    20485849.693  
  20485849.961    80390875.326  
  23637857.124   124217777.127                    96793061.321    23637854.248  
                                
  21539328.806   113189936.757    21539328.752    88199948.797    21539328.270  
  21539328.181    84524949.824  
  24157022.485   126946009.838    24157023.289    98918969.370    24157022.663  
  24157023.289    94797347.209  
  22245331.848   118914047.459    22245332.617    92488706.590    22245332.706  
                                
  22375780.005   119779302.551    22375780.005    93161679.251    22375779.915  
                                
  22298481.738   119072648.491    22298482.525    92612062.918    22298482.543  
                                
  22268935.077   118998436.783    22268936.006    92554343.638    22268936.095  
                                
  20290224.758   108386739.026    20290224.275    84300794.236    20290225.437  
                                
  22135898.968   118453666.662    22135899.021    92130629.419    22135899.057  
                                
  21740152.787   116050411.548    21740155.181    90261441.572    21740155.181  
                                
  25140961.222   132116643.316                                                  
  25140963.420    98658540.171  
  26161770.990   137481034.957                                                  
  26161772.205   102664413.376  
  23591535.792   123974357.423                                                  
  23591536.686    92578256.471  
  23970085.737   125963651.345                                                  
  23970088.292    94063774.360  
 21  8 28  6  7  6.0000000  0 18G 4G 7G 8G 9G16G27G30R 5R 7R 9R15R16
                                R17R18E 1E 4E19E21
  21363291.608   112264855.097    21363290.929    87479103.937    21363290.733  
  21363294.556    83834156.176  
  21723494.140   114157732.025    21723491.924    88954066.602    21723491.603  
                                
  20692498.207   108739812.347    20692499.225    84732322.135    20692498.546  
  20692497.724    81201804.865  
  20485923.277   107654252.810    20485922.956    83886428.568    20485922.688  
  20485922.956    80391161.789  
  23638483.362   124221067.952                    96795625.605    23638480.467  
                                
  21539587.871   113191298.244    21539587.835    88201009.691    21539587.353  
  21539587.264    84525966.519  
  24156523.671   126943388.512    24156524.475    98916926.781    24156523.850  
  24156524.457    94795389.728  
  22246127.360   118918299.951    22246128.128    92492014.082    22246128.217  
                                
  22375264.555   119776543.215    22375264.555    93159533.098    22375264.430  
                                
  22298128.271   119070761.095    22298129.075    92610594.950    22298129.093  
                                
  22269341.561   119000609.020    22269342.508    92556033.158    22269342.598  
                                
  20290238.571   108386812.727    20290238.070    84300851.562    20290239.232  
                                
  22135979.932   118454100.066    22135980.022    92130966.511    22135980.057  
                                
  21739643.448   116047692.667    21739645.843    90259326.887    21739645.861  
                                
  25140761.196   132115592.047                                                  
  25140763.376    98657755.128  
  26161407.802   137479126.336                                                  
  26161408.999   102662988.107  
  23591719.361   123975322.064                                                  
  23591720.272    92578976.826  
  23970236.087   125964441.515                                                  
  23970238.642    94064364.418  
 21  8 28  6  7  7.0000000  0 18G 4G 7G 8G 9G16G27G30R 5R 7R 9R15R16
                                R17R18E 1E 4E19E21
  21363774.912   112267394.832    21363774.233    87481082.952    21363774.018  
  21363777.860    83836052.725  
  21723143.621   114155889.931    21723141.370    88952631.202    21723141.084  
                                
  20692365.994   108739117.531    20692367.012    84731780.718    20692366.315  
  20692365.494    81201286.004  
  20485996.433   107654637.208    20485996.112    83886728.097    20485995.826  
  20485996.112    80391448.840  
  23639109.600   124224358.910                    96798189.988    23639106.723  
                                
  21539847.115   113192660.527    21539847.061    88202071.210    21539846.579  
  21539846.507    84526983.810  
  24156024.875   126940767.305    24156025.679    98914884.289    24156025.054  
  24156025.661    94793432.328  
  22246922.924   118922552.810    22246923.728    92495321.859    22246923.782  
                                
  22374749.212   119773784.636    22374749.212    93157387.536    22374749.123  
                                
  22297774.893   119068873.955    22297775.680    92609127.177    22297775.680  
                                
  22269748.117   119002781.428    22269749.029    92557722.806    22269749.136  
                                
  20290252.419   108386886.748    20290251.919    84300909.131    20290253.080  
                                
  22136061.111   118454534.447    22136061.183    92131304.365    22136061.218  
                                
  21739134.253   116044974.483    21739136.647    90257212.744    21739136.647  
                                
  25140561.188   132114541.083                                                  
  25140563.368    98656970.318  
  26161044.686   137477218.170                                                  
  26161045.883   102661563.173  
  23591903.036   123976287.278                                                  
  23591903.948    92579697.602  
  23970386.508   125965231.927                                                  
  23970389.063    94064954.663  
 21  8 28  6  7  8.0000000  0 18G 4G 7G 8G 9G16G27G30R 5R 7R 9R15R16
                                R17R18E 1E 4E19E21
  21364258.322   112269935.208    21364257.643    87483062.465    21364257.447  
  21364261.289    83837949.763  
  21722793.120   114154048.110    21722790.887    88951196.021    21722790.583  
                                
  20692233.924   108738423.587    20692234.978    84731239.982    20692234.263  
  20692233.459    81200767.797  
  20486069.750   107655022.460    20486069.428    83887028.296    20486069.142  
  20486069.428    80391736.521  
  23639735.891   124227650.090                    96800754.549    23639732.997  
                                
  21540106.502   113194023.675    21540106.466    88203133.406    21540105.983  
  21540105.894    84528001.745  
  24155526.097   126938146.244    24155526.901    98912841.901    24155526.276  
  24155526.883    94791475.044  
  22247718.596   118926806.055    22247719.382    92498629.940    22247719.472  
                                
  22374234.066   119771026.905    22374234.048    93155242.634    22374233.941  
                                
  22297421.534   119066987.137    22297422.338    92607659.656    22297422.356  
                                
  22270154.691   119004954.077    22270155.620    92559412.644    22270155.710  
                                
  20290266.357   108386961.157    20290265.856    84300967.005    20290267.018  
                                
  22136142.469   118454969.838    22136142.558    92131643.003    22136142.594  
                                
  21738625.182   116042257.071    21738627.559    90255099.201    21738627.576  
                                
  25140361.269   132113490.483                                                  
  25140363.467    98656185.779  
  26160681.676   137475310.520                                                  
  26160682.874   102660138.632  
  23592086.837   123977253.116                                                  
  23592087.749    92580418.845  
  23970536.965   125966022.646                                                  
  23970539.521    94065545.137  
 21  8 28  6  7  9.0000000  0 18G 4G 7G 8G 9G16G27G30R 5R 7R 9R15R16
                                R17R18E 1E 4E19E21
  21364741.804   112272475.927    21364741.125    87485042.241    21364740.947  
  21364744.771    83839847.045  
  21722442.620   114152206.216    21722440.404    88949760.781    21722440.082  
                                
  20692101.979   108737730.180    20692102.998    84730699.667    20692102.301  
  20692101.479    81200250.006  
  20486143.138   107655408.196    20486142.834    83887328.869    20486142.548  
  20486142.834    80392024.576  
  23640362.147   124230941.092                    96803318.954    23640359.270  
                                
  21540366.013   113195387.322    21540365.960    88204195.995    21540365.477  
  21540365.406    84529020.068  
  24155027.283   126935525.021    24155028.087    98910799.390    24155027.462  
  24155028.070    94789517.642  
  22248514.250   118931059.329    22248515.054    92501938.045    22248515.126  
                                
  22373718.974   119768269.632    22373718.974    93153098.088    22373718.867  
                                
  22297068.209   119065100.328    22297069.013    92606192.131    22297069.031  
                                
  22270561.247   119007126.557    22270562.158    92561102.344    22270562.266  
                                
  20290280.277   108387035.583    20290279.794    84301024.892    20290280.956  
                                
  22136223.970   118455405.910    22136224.023    92131982.173    22136224.077  
                                
  21738116.183   116039540.044    21738118.577    90252985.960    21738118.577  
                                
  25140161.351   132112439.915                                                  
  25140163.549    98655401.259  
  26160318.703   137473403.044                                                  
  26160319.900   102658714.209  
  23592270.674   123978219.260                                                  
  23592271.603    92581140.314  
  23970687.422   125966813.345                                                  
  23970689.978    94066135.590  
 21  8 28  6  7 10.0000000  0 18G 4G 7G 8G 9G16G27G30R 5R 7R 9R15R16
                                R17R18E 1E 4E19E21
  21365225.394   112275017.276    21365224.715    87487022.509    21365224.536  
  21365228.378    83841744.806  
  21722092.172   114150364.585    21722089.957    88948325.744    21722089.635  
                                
  20691970.195   108737037.662    20691971.214    84730160.045    20691970.517  
  20691969.713    81199732.868  
  20486216.687   107655794.778    20486216.401    83887630.099    20486216.115  
  20486216.401    80392313.261  
  23640988.456   124234232.313                    96805883.547    23640985.579  
                                
  21540625.668   113196751.855    21540625.633    88205259.267    21540625.150  
  21540625.043    84530039.029  
  24154528.487   126932903.916    24154529.291    98908756.973    24154528.666  
  24154529.274    94787560.345  
  22249310.011   118935313.036    22249310.797    92505246.481    22249310.869  
                                
  22373204.060   119765513.219    22373204.042    93150954.212    22373203.935  
                                
  22296714.921   119063213.811    22296715.707    92604724.838    22296715.743  
                                
  22270967.839   119009299.209    22270968.750    92562792.187    22270968.857  
                                
  20290294.286   108387110.386    20290293.804    84301083.074    20290294.947  
                                
  22136305.649   118455843.005    22136305.702    92132322.133    22136305.774  
                                
  21737607.327   116036823.747    21737609.721    90250873.287    21737609.721  
                                
  25139961.486   132111389.702                                                  
  25139963.701    98654617.012  
  26159955.837   137471496.078                                                  
  26159957.016   102657290.176  
  23592454.653   123979186.014                                                  
  23592455.547    92581862.239  
  23970837.951   125967604.340                                                  
  23970840.506    94066726.266  
 21  8 28  6  7 11.0000000  0 18G 4G 7G 8G 9G16G27G30R 5R 7R 9R15R16
                                R17R18E 1E 4E19E21
  21365709.108   112277559.084    21365708.429    87489003.139    21365708.215  
  21365712.057    83843642.907  
  21721741.743   114148523.031    21721739.509    88946890.762    21721739.205  
                                
  20691838.554   108736345.825    20691839.572    84729620.951    20691838.876  
  20691838.054    81199216.234  
  20486290.396   107656181.990    20486290.075    83887931.823    20486289.789  
  20486290.075    80392602.408  
  23641614.748   124237523.538                    96808448.140    23641611.853  
                                
  21540885.448   113198117.028    21540885.412    88206323.041    21540884.930  
  21540884.841    84531058.478  
  24154029.709   126930282.799    24154030.513    98906714.549    24154029.888  
  24154030.496    94785603.011  
  22250105.790   118939566.911    22250106.577    92508555.046    22250106.648  
                                
  22372689.236   119762757.458    22372689.236    93148810.845    22372689.146  
                                
  22296361.668   119061327.435    22296362.472    92603257.656    22296362.490  
                                
  22271374.395   119011471.813    22271375.324    92564481.985    22271375.431  
                                
  20290308.313   108387185.361    20290307.831    84301141.388    20290308.974  
                                
  22136387.489   118456280.939    22136387.560    92132662.748    22136387.614  
                                
  21737098.560   116034107.966    21737100.972    90248761.020    21737100.972  
                                
  25139761.674   132110339.654                                                  
  25139763.872    98653832.878  
  26159592.988   137469589.408                                                  
  26159594.203   102655866.360  
  23592638.704   123980153.208                                                  
  23592639.615    92582584.492  
  23970988.480   125968395.438                                                  
  23970991.035    94067317.016  
 21  8 28  6  7 12.0000000  0 18G 4G 7G 8G 9G16G27G30R 5R 7R 9R15R16
                                R17R18E 1E 4E19E21
  21366192.841   112280101.200    21366192.162    87490984.010    21366191.983  
  21366195.825    83845541.240  
  21721391.278   114146681.406    21721389.062    88945455.734    21721388.758  
                                
  20691706.984   108735654.513    20691708.003    84729082.266    20691707.324  
  20691706.502    81198699.995  
  20486364.160   107656569.704    20486363.856    83888233.940    20486363.588  
  20486363.856    80392891.933  
  23642241.021   124240814.645                    96811012.641    23642238.144  
                                
  21541145.335   113199482.717    21541145.282    88207387.214    21541144.799  
  21541144.728    84532078.318  
  24153530.913   126927661.521    24153531.718    98904671.999    24153531.110  
  24153531.700    94783645.548  
  22250901.569   118943820.868    22250902.373    92511863.677    22250902.427  
                                
  22372174.554   119760002.205    22372174.536    93146667.873    22372174.429  
                                
  22296008.398   119059441.007    22296009.202    92601790.437    22296009.220  
                                
  22271780.933   119013644.242    22271781.880    92566171.652    22271781.969  
                                
  20290322.358   108387260.337    20290321.858    84301199.705    20290323.020  
                                
  22136469.472   118456719.581    22136469.526    92133003.912    22136469.561  
                                
  21736589.882   116031392.582    21736592.259    90246649.054    21736592.295  
                                
  25139561.863   132109289.626                                                  
  25139564.061    98653048.771  
  26159230.194   137467682.915                                                  
  26159231.391   102654442.688  
  23592822.809   123981120.687                                                  
  23592823.720    92583306.962  
  23971139.026   125969186.504                                                  
  23971141.582    94067907.751  
 21  8 28  6  7 13.0000000  0 18G 4G 7G 8G 9G16G27G30R 5R 7R 9R15R16
                                R17R18E 1E 4E19E21
  21366676.680   112282643.723    21366676.001    87492965.195    21366675.804  
  21366679.646    83847439.877  
  21721040.830   114144839.808    21721038.615    88944020.720    21721038.311  
                                
  20691575.558   108734963.817    20691576.576    84728544.064    20691575.879  
  20691575.093    81198184.213  
  20486438.066   107656958.002    20486437.744    83888536.507    20486437.459  
  20486437.744    80393181.896  
  23642867.295   124244105.682                    96813577.078    23642864.418  
                                
  21541405.329   113200849.026    21541405.294    88208451.875    21541404.811  
  21541404.704    84533098.602  
  24153032.064   126925040.111    24153032.868    98902629.341    24153032.243  
  24153032.850    94781688.012  
  22251697.384   118948074.937    22251698.188    92515172.395    22251698.260  
                                
  22371659.962   119757247.562    22371659.944    93144525.373    22371659.837  
                                
  22295655.127   119057554.619    22295655.949    92600323.246    22295655.949  
                                
  22272187.453   119015816.614    22272188.400    92567861.272    22272188.508  
                                
  20290336.421   108387335.411    20290335.921    84301258.095    20290337.082  
                                
  22136551.580   118457158.988    22136551.652    92133345.678    22136551.687  
                                
  21736081.294   116028677.680    21736083.671    90244537.466    21736083.689  
                                
  25139362.069   132108239.707                                                  
  25139364.267    98652264.742  
  26158867.452   137465776.679                                                  
  26158868.650   102653019.192  
  23593006.985   123982088.536                                                  
  23593007.896    92584029.702  
  23971289.555   125969977.622                                                  
  23971292.146    94068498.517  
 21  8 28  6  7 14.0000000  0 18G 4G 7G 8G 9G16G27G30R 5R 7R 9R15R16
                                R17R18E 1E 4E19E21
  21367160.609   112285186.828    21367159.930    87494946.837    21367159.733  
  21367163.575    83849338.955  
  21720690.419   114142998.406    21720688.203    88942585.867    21720687.899  
                                
  20691444.274   108734273.925    20691445.292    84728006.486    20691444.596  
  20691443.791    81197669.034  
  20486512.097   107657347.071    20486511.794    83888839.681    20486511.508  
  20486511.794    80393472.437  
  23643493.586   124247396.880                    96816141.655    23643490.691  
                                
  21541665.485   113202216.100    21541665.449    88209517.118    21541664.966  
  21541664.859    84534119.472  
  24152533.250   126922418.835    24152534.054    98900586.780    24152533.429  
  24152534.054    94779730.556  
  22252493.270   118952329.324    22252494.057    92518481.361    22252494.146  
                                
  22371145.531   119754493.709    22371145.495    93142383.482    22371145.406  
                                
  22295301.910   119055668.496    22295302.714    92598856.268    22295302.732  
                                
  22272594.027   119017989.129    22272594.974    92569551.008    22272595.046  
                                
  20290350.502   108387410.792    20290350.037    84301316.725    20290351.163  
                                
  22136633.867   118457599.346    22136633.921    92133688.176    22136633.974  
                                
  21735572.813   116025963.475    21735575.208    90242426.409    21735575.208  
                                
  25139162.329   132107190.090                                                  
  25139164.509    98651480.938  
  26158504.801   137463870.878                                                  
  26158505.980   102651596.044  
  23593191.268   123983056.942                                                  
  23593192.179    92584752.871  
  23971440.137   125970768.975                                                  
  23971442.728    94069089.476  
 21  8 28  6  7 15.0000000  0 18G 4G 7G 8G 9G16G27G30R 5R 7R 9R15R16
                                R17R18E 1E 4E19E21
  21367644.627   112287730.384    21367643.948    87496928.831    21367643.752  
  21367647.611    83851238.362  
  21720340.043   114141157.072    21720337.809    88941151.061    21720337.524  
                                
  20691313.115   108733584.708    20691314.152    84727469.434    20691313.455  
  20691312.633    81197154.359  
  20486586.254   107657736.772    20486585.950    83889143.344    20486585.664  
  20486585.950    80393763.447  
  23644119.860   124250688.066                    96818706.214    23644117.001  
                                
  21541925.747   113203583.847    21541925.711    88210582.893    21541925.229  
  21541925.157    84535140.836  
  24152034.436   126919797.478    24152035.223    98898544.166    24152034.597  
  24152035.223    94777773.055  
  22253289.192   118956583.891    22253289.997    92521790.461    22253290.050  
                                
  22370631.171   119751740.426    22370631.171    93140242.035    22370631.064  
                                
  22294948.747   119053782.501    22294949.533    92597389.386    22294949.533  
                                
  22273000.583   119020161.620    22273001.512    92571240.726    22273001.620  
                                
  20290364.654   108387486.319    20290364.172    84301375.469    20290365.315  
                                
  22136716.333   118458040.537    22136716.386    92134031.324    22136716.422  
                                
  21735064.440   116023249.796    21735066.852    90240315.772    21735066.852  
                                
  25138962.643   132106140.628                                                  
  25138964.823    98650697.247  
  26158142.185   137461965.388                                                  
  26158143.364   102650173.118  
  23593375.641   123984025.779                                                  
  23593376.534    92585476.349  
  23971590.773   125971560.434                                                  
  23971593.328    94069680.498  
 21  8 28  6  7 16.0000000  0 18G 4G 7G 8G 9G16G27G30R 5R 7R 9R15R16
                                R17R18E 1E 4E19E21
  21368128.753   112290274.445    21368128.074    87498911.217    21368127.877  
  21368131.737    83853138.148  
  21719989.667   114139315.859    21719987.452    88939716.349    21719987.130  
                                
  20691182.082   108732896.201    20691183.136    84726932.933    20691182.421  
  20691181.635    81196640.217  
  20486660.553   107658127.168    20486660.232    83889447.549    20486659.946  
  20486660.232    80394054.974  
  23644746.169   124253979.311                    96821270.822    23644743.292  
                                
  21542186.152   113204952.283    21542186.116    88211649.209    21542185.634  
  21542185.562    84536162.725  
  24151535.605   126917176.150    24151536.391    98896501.573    24151535.766  
  24151536.391    94775815.570  
  22254085.132   118960838.688    22254085.936    92525099.743    22254086.026  
                                
  22370116.972   119748987.824    22370116.954    93138101.123    22370116.865  
                                
  22294595.565   119051896.676    22294596.370    92595922.633    22294596.387  
                                
  22273407.157   119022334.159    22273408.068    92572930.481    22273408.176  
                                
  20290378.842   108387562.064    20290378.342    84301434.377    20290379.503  
                                
  22136798.923   118458482.625    22136798.995    92134375.168    22136799.048  
                                
  21734556.191   116020536.709    21734558.585    90238205.595    21734558.585  
                                
  25138762.975   132105091.381                                                  
  25138765.155    98649913.724  
  26157779.658   137460060.262                                                  
  26157780.837   102648750.457  
  23593560.085   123984995.101                                                  
  23593560.996    92586200.182  
  23971741.409   125972352.052                                                  
  23971743.964    94070271.643  
 21  8 28  6  7 17.0000000  0 18G 4G 7G 8G 9G16G27G30R 5R 7R 9R15R16
                                R17R18E 1E 4E19E21
  21368612.950   112292818.967    21368612.271    87500893.957    21368612.092  
  21368615.934    83855038.280  
  21719639.309   114137474.727    21719637.094    88938281.699    21719636.790  
                                
  20691051.209   108732208.373    20691052.228    84726396.967    20691051.549  
  20691050.727    81196126.587  
  20486734.960   107658518.210    20486734.638    83889752.254    20486734.352  
  20486734.638    80394346.990  
  23645372.478   124257270.544                    96823835.422    23645369.601  
                                
  21542446.700   113206321.402    21542446.647    88212716.053    21542446.164  
  21542446.093    84537185.115  
  24151036.773   126914554.775    24151037.541    98894458.938    24151036.934  
  24151037.541    94773858.054  
  22254881.126   118965093.726    22254881.930    92528409.217    22254882.001  
                                
  22369602.880   119746235.872    22369602.880    93135960.715    22369602.773  
                                
  22294242.438   119050010.979    22294243.242    92594455.982    22294243.260  
                                
  22273813.695   119024506.665    22273814.642    92574620.206    22273814.749  
                                
  20290393.048   108387637.964    20290392.566    84301493.410    20290393.709  
                                
  22136881.710   118458925.570    22136881.764    92134719.681    22136881.800  
                                
  21734048.050   116017824.150    21734050.426    90236095.827    21734050.444  
                                
  25138563.342   132104042.307                                                  
  25138565.522    98649130.325  
  26157417.185   137458155.471                                                  
  26157418.364   102647328.050  
  23593744.636   123985964.848                                                  
  23593745.529    92586924.357  
  23971892.063   125973143.786                                                  
  23971894.636    94070862.874  
 21  8 28  6  7 18.0000000  0 18G 4G 7G 8G 9G16G27G30R 5R 7R 9R15R16
                                R17R18E 1E 4E19E21
  21369097.272   112295364.064    21369096.593    87502877.151    21369096.414  
  21369100.256    83856938.835  
  21719289.005   114135633.780    21719286.754    88936847.197    21719286.468  
                                
  20690920.461   108731521.336    20690921.498    84725861.614    20690920.801  
  20690919.997    81195613.538  
  20486809.509   107658909.997    20486809.206    83890057.543    20486808.920  
  20486809.206    80394639.554  
  23645998.805   124260561.910                    96826400.116    23645995.928  
                                
  21542707.374   113207691.276    21542707.338    88213783.487    21542706.856  
  21542706.766    84538208.077  
  24150537.977   126911933.491    24150538.763    98892416.377    24150538.138  
  24150538.763    94771900.584  
  22255677.173   118969349.060    22255677.977    92531718.924    22255678.066  
                                
  22369088.931   119743484.684    22369088.931    93133820.903    22369088.824  
                                
  22293889.346   119048125.509    22293890.150    92592989.506    22293890.168  
                                
  22274220.269   119026679.287    22274221.216    92576310.021    22274221.305  
                                
  20290407.308   108387714.139    20290406.825    84301552.655    20290407.969  
                                
  22136964.641   118459369.409    22136964.712    92135064.886    22136964.748  
                                
  21733539.998   116015112.244    21733542.410    90233986.569    21733542.410  
                                
  25138363.763   132102993.515                                                  
  25138365.943    98648347.134  
  26157054.783   137456251.084                                                  
  26157055.962   102645905.936  
  23593929.259   123986935.141                                                  
  23593930.188    92587648.916  
  23972042.770   125973935.738                                                  
  23972045.325    94071454.262  
 21  8 28  6  7 19.0000000  0 18G 4G 7G 8G 9G16G27G30R 5R 7R 9R15R16
                                R17R18E 1E 4E19E21
  21369581.701   112297909.730    21369581.022    87504860.790    21369580.825  
  21369584.685    83858839.824  
  21718938.719   114133793.012    21718936.503    88935412.832    21718936.181  
                                
  20690789.892   108730835.112    20690790.911    84725326.898    20690790.214  
  20690789.410    81195101.099  
  20486884.220   107659302.564    20486883.898    83890363.439    20486883.612  
  20486883.898    80394932.701  
  23646625.150   124263853.396                    96828964.910    23646622.273  
                                
  21542968.208   113209061.937    21542968.172    88214851.543    21542967.672  
  21542967.582    84539231.635  
  24150039.163   126909312.251    24150039.950    98890373.852    24150039.324  
  24150039.950    94769943.191  
  22256473.292   118973604.755    22256474.096    92535028.909    22256474.167  
                                
  22368575.143   119740734.292    22368575.125    93131681.711    22368575.018  
                                
  22293536.325   119046240.292    22293537.112    92591523.212    22293537.112  
                                
  22274626.861   119028852.029    22274627.808    92577999.931    22274627.897  
                                
  20290421.621   108387790.615    20290421.138    84301612.141    20290422.282  
                                
  22137047.767   118459814.174    22137047.821    92135410.812    22137047.874  
                                
  21733032.106   116012401.009    21733034.483    90231877.821    21733034.501  
                                
  25138164.219   132101945.010                                                  
  25138166.399    98647564.157  
  26156692.489   137454347.150                                                  
  26156693.668   102644484.165  
  23594114.024   123987905.989                                                  
  23594114.918    92588373.901  
  23972193.513   125974727.928                                                  
  23972196.086    94072045.824  
 21  8 28  6  7 20.0000000  0 18G 4G 7G 8G 9G16G27G30R 5R 7R 9R15R16
                                R17R18E 1E 4E19E21
  21370066.201   112300455.822    21370065.522    87506844.757    21370065.326  
  21370069.186    83860741.129  
  21718588.432   114131952.300    21718586.216    88933978.516    21718585.913  
                                
  20690659.413   108730149.511    20690660.431    84724792.663    20690659.752  
  20690658.948    81194589.128  
  20486959.020   107659695.722    20486958.716    83890669.791    20486958.448  
  20486958.716    80395226.297  
  23647251.513   124267144.858                    96831529.681    23647248.618  
                                
  21543229.149   113210433.237    21543229.096    88215920.091    21543228.613  
  21543228.542    84540255.656  
  24149540.350   126906690.978    24149541.136    98888331.305    24149540.510  
  24149541.136    94767985.738  
  22257269.410   118977860.591    22257270.232    92538339.008    22257270.321  
                                
  22368061.462   119737984.515    22368061.462    93129542.993    22368061.337  
                                
  22293183.287   119044355.153    22293184.091    92590056.993    22293184.109  
                                
  22275033.470   119031024.741    22275034.417    92579689.820    22275034.489  
                                
  20290435.987   108387867.254    20290435.487    84301671.747    20290436.631  
                                
  22137131.055   118460259.772    22137131.108    92135757.389    22137131.144  
                                
  21732524.287   116009690.289    21732526.681    90229769.484    21732526.681  
                                
  25137964.730   132100896.637                                                  
  25137966.910    98646781.286  
  26156330.230   137452443.497                                                  
  26156331.409   102643062.601  
  23594298.844   123988877.244                                                  
  23594299.755    92589099.192  
  23972344.274   125975520.191                                                  
  23972346.829    94072637.457  
 21  8 28  6  7 21.0000000  0 18G 4G 7G 8G 9G16G27G30R 5R 7R 9R15R16
                                R17R18E 1E 4E19E21
  21370550.791   112303002.421    21370550.112    87508829.118    21370549.934  
  21370553.776    83862642.810  
  21718238.181   114130111.712    21718235.948    88932544.295    21718235.644  
                                
  20690529.076   108729464.616    20690530.095    84724258.980    20690529.398  
  20690528.594    81194077.683  
  20487033.980   107660089.578    20487033.658    83890976.692    20487033.390  
  20487033.658    80395520.412  
  23647877.858   124270436.396                    96834094.516    23647874.999  
                                
  21543490.233   113211805.241    21543490.180    88216989.181    21543489.715  
  21543489.626    84541280.200  
  24149041.536   126904069.706    24149042.322    98886288.753    24149041.697  
  24149042.322    94766028.297  
  22258065.600   118982116.662    22258066.404    92541649.290    22258066.511  
                                
  22367547.925   119735235.459    22367547.907    93127404.841    22367547.799  
                                
  22292830.303   119042470.193    22292831.089    92588590.915    22292831.089  
                                
  22275440.062   119033197.480    22275441.009    92581379.724    22275441.116  
                                
  20290450.354   108387944.136    20290449.872    84301731.544    20290451.015  
                                
  22137214.485   118460706.261    22137214.557    92136104.654    22137214.592  
                                
  21732016.574   116006980.153    21732018.986    90227661.598    21732018.986  
                                
  25137765.275   132099848.475                                                  
  25137767.456    98645998.565  
  26155968.043   137450540.190                                                  
  26155969.222   102641641.307  
  23594483.752   123989848.960                                                  
  23594484.646    92589824.824  
  23972495.053   125976312.603                                                  
  23972497.626    94073229.194  
 21  8 28  6  7 22.0000000  0 18G 4G 7G 8G 9G16G27G30R 5R 7R 9R15R16
                                R17R18E 1E 4E19E21
  21371035.453   112305549.259    21371034.774    87510813.667    21371034.595  
  21371038.437    83864544.658  
  21717887.895   114128270.962    21717885.661    88931109.940    21717885.358  
                                
  20690398.829   108728780.186    20690399.847    84723725.657    20690399.168  
  20690398.382    81193566.580  
  20487109.012   107660483.856    20487108.708    83891283.920    20487108.422  
  20487108.708    80395814.832  
  23648504.185   124273727.697                    96836659.166    23648501.308  
                                
  21543751.389   113213177.665    21543751.354    88218058.604    21543750.871  
  21543750.782    84542305.060  
  24148542.668   126901448.161    24148543.437    98884245.999    24148542.829  
  24148543.437    94764070.660  
  22258861.790   118986372.704    22258862.594    92544959.544    22258862.666  
                                
  22367034.458   119732486.813    22367034.440    93125267.007    22367034.333  
                                
  22292477.282   119040585.107    22292478.086    92587124.737    22292478.086  
                                
  22275846.618   119035369.977    22275847.565    92583069.444    22275847.655  
                                
  20290464.739   108388020.925    20290464.256    84301791.266    20290465.400  
                                
  22137298.023   118461153.333    22137298.094    92136452.379    22137298.130  
                                
  21731508.933   116004270.313    21731511.327    90225553.952    21731511.327  
                                
  25137565.804   132098800.252                                                  
  25137567.984    98645215.799  
  26155605.873   137448636.980                                                  
  26155607.053   102640220.077  
  23594668.715   123990820.897                                                  
  23594669.608    92590550.618  
  23972645.832   125977104.907                                                  
  23972648.423    94073820.841  
 21  8 28  6  7 23.0000000  0 18G 4G 7G 8G 9G16G27G30R 5R 7R 9R15R16
                                R17R18E 1E 4E19E21
  21371520.150   112308096.357    21371519.471    87512798.421    21371519.275  
  21371523.134    83866446.719  
  21717537.608   114126430.106    21717535.357    88929675.512    21717535.053  
                                
  20690268.689   108728096.242    20690269.707    84723192.716    20690269.028  
  20690268.224    81193055.843  
  20487184.134   107660878.580    20487183.812    83891591.497    20487183.526  
  20487183.812    80396109.596  
  23649130.459   124277018.807                    96839223.665    23649127.582  
                                
  21544012.652   113214550.564    21544012.616    88219128.396    21544012.134  
  21544012.045    84543330.288  
  24148043.747   126898826.395    24148044.534    98882203.072    24148043.908  
  24148044.534    94762112.851  
  22259657.962   118990628.709    22259658.767    92548269.773    22259658.838  
                                
  22366521.045   119729738.590    22366521.045    93123129.503    22366520.920  
                                
  22292124.262   119038699.986    22292125.066    92585658.534    22292125.066  
                                
  22276253.138   119037542.283    22276254.068    92584759.018    22276254.175  
                                
  20290479.105   108388097.651    20290478.623    84301850.943    20290479.767  
                                
  22137381.686   118461601.041    22137381.757    92136800.596    22137381.793  
                                
  21731001.363   116001560.815    21731003.740    90223446.565    21731003.740  
                                
  25137366.332   132097752.017                                                  
  25137368.512    98644433.029  
  26155243.740   137446733.908                                                  
  26155244.919   102638798.947  
  23594853.713   123991793.076                                                  
  23594854.624    92591276.601  
  23972796.593   125977897.132                                                  
  23972799.166    94074412.442  
 21  8 28  6  7 24.0000000  0 18G 4G 7G 8G 9G16G27G30R 5R 7R 9R15R16
                                R17R18E 1E 4E19E21
  21372004.973   112310644.145    21372004.294    87514783.705    21372004.097  
  21372007.939    83868349.285  
  21717187.358   114124589.555    21717185.124    88928241.312    21717184.820  
                                
  20690138.709   108727413.193    20690139.728    84722660.466    20690139.049  
  20690138.245    81192545.774  
  20487259.416   107661274.185    20487259.094    83891899.763    20487258.808  
  20487259.094    80396405.017  
  23649756.786   124280310.155                    96841788.356    23649753.909  
                                
  21544274.076   113215924.367    21544274.040    88220198.892    21544273.540  
  21544273.451    84544356.171  
  24147544.898   126896204.847    24147545.684    98880160.303    24147545.059  
  24147545.684    94760155.190  
  22260454.224   118994885.162    22260455.028    92551580.330    22260455.100  
                                
  22366007.811   119726991.211    22366007.793    93120992.657    22366007.704  
                                
  22291771.313   119036815.213    22291772.081    92584192.600    22291772.099  
                                
  22276659.694   119039714.801    22276660.624    92586448.763    22276660.731  
                                
  20290493.544   108388174.769    20290493.061    84301910.920    20290494.205  
                                
  22137465.581   118462049.837    22137465.634    92137149.662    22137465.670  
                                
  21730493.919   115998852.090    21730496.295    90221339.771    21730496.313  
                                
  25137166.931   132096704.173                                                  
  25137169.111    98643650.552  
  26154881.695   137444831.361                                                  
  26154882.875   102637378.228  
  23595038.818   123992765.913                                                  
  23595039.747    92592003.070  
  23972947.407   125978689.686                                                  
  23972949.980    94075004.292  
 21  8 28  6  7 25.0000000  0 18G 4G 7G 8G 9G16G27G30R 5R 7R 9R15R16
                                R17R18E 1E 4E19E21
  21372489.866   112313192.197    21372489.169    87516769.198    21372488.973  
  21372492.833    83870252.049  
  21716837.071   114122748.887    21716834.856    88926807.025    21716834.552  
                                
  20690008.820   108726730.638    20690009.838    84722128.604    20690009.159  
  20690008.355    81192036.073  
  20487334.769   107661670.239    20487334.466    83892208.376    20487334.180  
  20487334.466    80396700.770  
  23650383.077   124283601.335                    96844352.913    23650380.200  
                                
  21544535.589   113217298.619    21544535.553    88221269.740    21544535.053  
  21544534.964    84545382.405  
  24147045.977   126893583.061    24147046.763    98878117.353    24147046.174  
  24147046.763    94758197.352  
  22261250.468   118999141.622    22261251.272    92554890.909    22261251.379  
                                
  22365494.667   119724244.289    22365494.649    93118856.160    22365494.541  
                                
  22291418.310   119034930.331    22291419.114    92582726.582    22291419.132  
                                
  22277066.197   119041887.099    22277067.144    92588138.328    22277067.233  
                                
  20290507.982   108388251.874    20290507.481    84301970.896    20290508.643  
                                
  22137549.547   118462499.264    22137549.619    92137499.221    22137549.654  
                                
  21729986.546   115996143.725    21729988.940    90219233.267    21729988.958  
                                
  25136967.531   132095656.299                                                  
  25136969.711    98642868.046  
  26154519.651   137442928.935                                                  
  26154520.830   102635957.585  
  23595223.994   123993738.997                                                  
  23595224.924    92592729.713  
  23973098.204   125979482.163                                                  
  23973100.777    94075596.073  
 21  8 28  6  7 26.0000000  0 18G 4G 7G 8G 9G16G27G30R 5R 7R 9R15R16
                                R17R18E 1E 4E19E21
  21372974.832   112315740.824    21372974.153    87518755.144    21372973.974  
  21372977.816    83872155.247  
  21716486.856   114120908.398    21716484.623    88925372.878    21716484.319  
                                
  20689879.090   108726048.880    20689880.109    84721597.367    20689879.412  
  20689878.608    81191526.969  
  20487410.284   107662067.055    20487409.980    83892517.581    20487409.694  
  20487409.980    80396997.094  
  23651009.387   124286892.633                    96846917.560    23651006.510  
                                
  21544797.245   113218673.652    21544797.210    88222341.196    21544796.727  
  21544796.638    84546409.222  
  24146547.092   126890961.334    24146547.878    98876074.455    24146547.253  
  24146547.878    94756239.582  
  22262046.801   119003398.427    22262047.605    92558201.755    22262047.694  
                                
  22364981.665   119721498.139    22364981.647    93116720.272    22364981.540  
                                
  22291065.379   119033045.699    22291066.183    92581260.757    22291066.201  
                                
  22277472.735   119044059.527    22277473.682    92589827.997    22277473.771  
                                
  20290522.456   108388329.292    20290521.991    84302031.105    20290523.117  
                                
  22137633.710   118462949.665    22137633.782    92137849.537    22137633.818  
                                
  21729479.316   115993436.022    21729481.692    90217127.278    21729481.710  
                                
  25136768.166   132094608.710                                                  
  25136770.346    98642085.766  
  26154157.732   137441026.957                                                  
  26154158.911   102634537.277  
  23595409.278   123994712.624                                                  
  23595410.190    92593456.774  
  23973249.072   125980274.878                                                  
  23973251.627    94076188.037  
 21  8 28  6  7 27.0000000  0 18G 4G 7G 8G 9G16G27G30R 5R 7R 9R15R16
                                R17R18E 1E 4E19E21
  21373459.904   112318289.909    21373459.225    87520741.441    21373459.046  
  21373462.888    83874058.782  
  21716136.623   114119067.997    21716134.408    88923938.799    21716134.086  
                                
  20689749.486   108725367.798    20689750.505    84721066.651    20689749.808  
  20689749.022    81191018.366  
  20487485.923   107662464.506    20487485.602    83892827.285    20487485.316  
  20487485.602    80397293.893  
  23651635.696   124290183.920                    96849482.199    23651632.819  
                                
  21545059.026   113220049.354    21545058.991    88223413.171    21545058.490  
  21545058.419    84547436.529  
  24146048.189   126888339.581    24146048.957    98874031.530    24146048.349  
  24146048.957    94754281.781  
  22262843.169   119007655.415    22262843.956    92561512.744    22262844.045  
                                
  22364468.770   119718752.643    22364468.752    93114584.889    22364468.663  
                                
  22290712.484   119031161.206    22290713.270    92579795.044    22290713.288  
                                
  22277879.291   119046231.944    22277880.238    92591517.654    22277880.310  
                                
  20290536.983   108388406.884    20290536.501    84302091.454    20290537.644  
                                
  22137718.034   118463400.878    22137718.106    92138200.478    22137718.141  
                                
  21728972.175   115990728.849    21728974.552    90215021.702    21728974.569  
                                
  25136568.855   132093561.305                                                  
  25136571.053    98641303.603  
  26153795.866   137439125.297                                                  
  26153797.046   102633117.199  
  23595594.634   123995686.676                                                  
  23595595.545    92594184.157  
  23973399.940   125981067.689                                                  
  23973402.495    94076780.074  
 21  8 28  6  7 28.0000000  0 18G 4G 7G 8G 9G16G27G30R 5R 7R 9R15R16
                                R17R18E 1E 4E19E21
  21373945.066   112320839.366    21373944.387    87522728.036    21373944.190  
  21373948.050    83875962.605  
  21715786.409   114117227.593    21715784.193    88922504.720    21715783.871  
                                
  20689619.972   108724687.287    20689620.990    84720536.386    20689620.311  
  20689619.525    81190510.195  
  20487561.670   107662862.523    20487561.349    83893137.428    20487561.063  
  20487561.349    80397591.114  
  23652261.987   124293475.156                    96852046.801    23652259.128  
                                
  21545320.933   113221425.645    21545320.879    88224485.609    21545320.397  
  21545320.325    84548464.273  
  24145549.250   126885717.707    24145550.036    98871988.512    24145549.411  
  24145550.054    94752323.884  
  22263639.556   119011912.507    22263640.342    92564823.808    22263640.432  
                                
  22363956.001   119716007.738    22363955.983    93112449.963    22363955.894  
                                
  22290359.588   119029276.762    22290360.393    92578329.365    22290360.393  
                                
  22278285.811   119048404.280    22278286.740    92593207.246    22278286.848  
                                
  20290551.529   108388484.541    20290551.046    84302151.854    20290552.190  
                                
  22137802.483   118463852.824    22137802.537    92138551.992    22137802.608  
                                
  21728465.106   115988022.157    21728467.500    90212916.497    21728467.500  
                                
  25136369.562   132092513.974                                                  
  25136371.742    98640521.509  
  26153434.037   137437223.865                                                  
  26153435.216   102631697.303  
  23595780.061   123996661.100                                                  
  23595780.990    92594911.807  
  23973550.790   125981860.542                                                  
  23973553.381    94077372.133  
 21  8 28  6  7 29.0000000  0 18G 4G 7G 8G 9G16G27G30R 5R 7R 9R15R16
                                R17R18E 1E 4E19E21
  21374430.317   112323389.440    21374429.638    87524715.107    21374429.459  
  21374433.301    83877866.874  
  21715436.229   114115387.401    21715434.014    88921070.806    21715433.710  
                                
  20689490.654   108724007.613    20689491.672    84720006.772    20689490.975  
  20689490.189    81190002.646  
  20487637.542   107663261.326    20487637.238    83893448.184    20487636.952  
  20487637.238    80397888.921  
  23652888.314   124296766.545                    96854611.515    23652885.455  
                                
  21545582.982   113222802.729    21545582.928    88225558.661    21545582.464  
  21545582.357    84549492.617  
  24145050.329   126883095.941    24145051.115    98869945.575    24145050.490  
  24145051.115    94750366.081  
  22264435.978   119016169.937    22264436.800    92568135.149    22264436.872  
                                
  22363443.374   119713263.626    22363443.356    93110315.645    22363443.267  
                                
  22290006.729   119027392.580    22290007.533    92576863.883    22290007.551  
                                
  22278692.367   119050576.756    22278693.296    92594896.934    22278693.386  
                                
  20290566.128   108388562.487    20290565.627    84302212.479    20290566.789  
                                
  22137887.129   118464305.752    22137887.182    92138904.267    22137887.218  
                                
  21727958.179   115985316.164    21727960.592    90210811.845    21727960.592  
                                
  25136170.322   132091466.963                                                  
  25136172.502    98639739.650  
  26153072.278   137435322.894                                                  
  26153073.458   102630277.751  
  23595965.595   123997636.083                                                  
  23595966.524    92595639.876  
  23973701.730   125982653.638                                                  
  23973704.285    94077964.385  
 21  8 28  6  7 30.0000000  0 18G 4G 7G 8G 9G16G27G30R 5R 7R 9R15R16
                                R17R18E 1E 4E19E21
  21374915.640   112325939.822    21374914.961    87526702.413    21374914.782  
  21374918.642    83879771.380  
  21715086.050   114113547.164    21715083.816    88919636.854    21715083.513  
                                
  20689361.407   108723328.491    20689362.426    84719477.585    20689361.746  
  20689360.942    81189495.514  
  20487713.539   107663660.637    20487713.217    83893759.336    20487712.932  
  20487713.235    80398187.106  
  23653514.641   124300057.799                    96857176.130    23653511.747  
                                
  21545845.121   113224180.344    21545845.085    88226632.130    21545844.584  
  21545844.513    84550521.351  
  24144551.408   126880473.994    24144552.158    98867902.504    24144551.551  
  24144552.194    94748408.142  
  22265232.419   119020427.405    22265233.241    92571446.511    22265233.312  
                                
  22362930.855   119710520.029    22362930.837    93108181.735    22362930.730  
                                
  22289653.887   119025508.371    22289654.691    92575398.382    22289654.709  
                                
  22279098.870   119052749.071    22279099.817    92596586.512    22279099.924  
                                
  20290580.709   108388640.475    20290580.226    84302273.137    20290581.370  
                                
  22137971.899   118464759.404    22137971.971    92139257.110    22137972.007  
                                
  21727451.342   115982610.581    21727453.737    90208707.505    21727453.737  
                                
  25135971.101   132090419.984                                                  
  25135973.281    98638957.811  
  26152710.573   137433422.111                                                  
  26152711.753   102628858.327  
  23596151.164   123998611.364                                                  
  23596152.094    92596368.171  
  23973852.652   125983446.723                                                  
  23973855.207    94078556.619  
 21  8 28  6  7 31.0000000  0 18G 4G 7G 8G 9G16G27G30R 5R 7R 9R15R16
                                R17R18E 1E 4E19E21
  21375401.070   112328490.715    21375400.391    87528690.124    21375400.194  
  21375404.054    83881676.263  
  21714735.889   114111707.042    21714733.655    88918202.992    21714733.351  
                                
  20689232.321   108722650.099    20689233.340    84718948.969    20689232.661  
  20689231.857    81188988.918  
  20487789.661   107664060.640    20487789.339    83894071.027    20487789.054  
  20487789.339    80398485.808  
  23654140.951   124303349.123                    96859740.799    23654138.074  
                                
  21546107.420   113225558.657    21546107.366    88227706.142    21546106.884  
  21546106.795    84551550.617  
  24144052.487   126877852.108    24144053.255    98865859.476    24144052.648  
  24144053.273    94746450.218  
  22266028.912   119024685.145    22266029.734    92574758.087    22266029.824  
                                
  22362418.461   119707777.088    22362418.425    93106048.335    22362418.336  
                                
  22289301.081   119023624.326    22289301.885    92573933.017    22289301.885  
                                
  22279505.390   119054921.407    22279506.337    92598276.109    22279506.426  
                                
  20290595.361   108388718.669    20290594.879    84302333.952    20290596.022  
                                
  22138056.849   118465213.934    22138056.885    92139610.631    22138056.956  
                                
  21726944.595   115979905.605    21726947.007    90206603.639    21726947.007  
                                
  25135771.897   132089373.214                                                  
  25135774.077    98638176.132  
  26152348.940   137431521.689                                                  
  26152350.102   102627439.185  
  23596336.877   123999587.139                                                  
  23596337.788    92597096.827  
  23974003.592   125984239.951                                                  
  23974006.147    94079148.964  
 21  8 28  6  7 32.0000000  0 18G 4G 7G 8G 9G16G27G30R 5R 7R 9R15R16
                                R17R18E 1E 4E19E21
  21375886.589   112331042.174    21375885.910    87530678.271    21375885.731  
  21375889.591    83883581.575  
  21714385.763   114109867.099    21714383.529    88916769.272    21714383.226  
                                
  20689103.378   108721972.497    20689104.397    84718420.969    20689103.700  
  20689102.914    81188482.923  
  20487865.926   107664461.392    20487865.604    83894383.296    20487865.319  
  20487865.604    80398785.075  
  23654767.278   124306640.550                    96862305.547    23654764.419  
                                
  21546369.827   113226937.734    21546369.791    88228780.749    21546369.308  
  21546369.237    84552580.454  
  24143553.566   126875230.249    24143554.316    98863816.469    24143553.727  
  24143554.334    94744492.343  
  22266825.460   119028943.156    22266826.282    92578069.880    22266826.371  
                                
  22361906.191   119705034.886    22361906.156    93103915.514    22361906.066  
                                
  22288948.293   119021740.514    22288949.079    92572467.829    22288949.115  
                                
  22279911.946   119057093.859    22279912.893    92599965.792    22279912.982  
                                
  20290610.050   108388797.147    20290609.567    84302394.994    20290610.711  
                                
  22138141.959   118465669.358    22138141.995    92139964.849    22138142.048  
                                
  21726437.990   115977201.279    21726440.385    90204500.275    21726440.385  
                                
  25135572.764   132088326.728                                                  
  25135574.944    98637394.665  
  26151987.378   137429621.690                                                  
  26151988.558   102626020.352  
  23596522.644   124000563.438                                                  
  23596523.555    92597825.887  
  23974154.567   125985033.403                                                  
  23974157.158    94079741.479  
 21  8 28  6  7 33.0000000  0 18G 4G 7G 8G 9G16G27G30R 5R 7R 9R15R16
                                R17R18E 1E 4E19E21
  21376372.251   112333594.372    21376371.572    87532666.999    21376371.393  
  21376375.253    83885487.435  
  21714035.709   114108027.525    21714033.457    88915335.836    21714033.154  
                                
  20688974.614   108721295.866    20688975.633    84717893.722    20688974.954  
  20688974.150    81187977.646  
  20487942.352   107664863.077    20487942.048    83894696.302    20487941.762  
  20487942.048    80399085.032  
  23655393.676   124309932.235                    96864870.497    23655390.800  
                                
  21546632.448   113228317.758    21546632.412    88229856.093    21546631.911  
  21546631.822    84553610.998  
  24143054.698   126872608.654    24143055.449    98861773.665    24143054.823  
  24143055.467    94742534.661  
  22267622.114   119033201.684    22267622.919    92581382.066    22267623.008  
                                
  22361394.101   119702293.641    22361394.083    93101783.434    22361393.976  
                                
  22288595.594   119019857.125    22288596.398    92571002.976    22288596.398  
                                
  22280318.538   119059266.613    22280319.485    92601655.714    22280319.592  
                                
  20290624.827   108388876.084    20290624.345    84302456.392    20290625.488  
                                
  22138227.248   118466125.917    22138227.319    92140319.953    22138227.355  
                                
  21725931.528   115974497.761    21725933.905    90202397.541    21725933.905  
                                
  25135373.685   132087280.688                                                  
  25135375.865    98636613.534  
  26151625.924   137427722.286                                                  
  26151627.103   102624601.970  
  23596708.571   124001540.466                                                  
  23596709.500    92598555.487  
  23974305.632   125985827.250                                                  
  23974308.205    94080334.292  
 21  8 28  6  7 34.0000000  0 18G 4G 7G 8G 9G16G27G30R 5R 7R 9R15R16
                                R17R18E 1E 4E19E21
  21376857.985   112336146.969    21376857.306    87534656.032    21376857.127  
  21376860.987    83887393.598  
  21713685.637   114106187.987    21713683.421    88913902.428    21713683.099  
                                
  20688845.957   108720619.854    20688846.976    84717366.966    20688846.297  
  20688845.528    81187472.843  
  20488018.903   107665265.361    20488018.581    83895009.770    20488018.313  
  20488018.581    80399385.441  
  23656020.075   124313223.923                    96867435.453    23656017.180  
                                
  21546895.176   113229698.419    21546895.140    88230931.933    21546894.640  
  21546894.568    84554641.995  
  24142555.777   126869986.962    24142556.564    98859730.791    24142555.938  
  24142556.564    94740576.912  
  22268418.787   119037460.325    22268419.591    92584694.336    22268419.698  
                                
  22360882.136   119699553.002    22360882.118    93099651.833    22360881.993  
                                
  22288242.913   119017973.811    22288243.717    92569538.185    22288243.735  
                                
  22280725.147   119061439.286    22280726.077    92603345.566    22280726.184  
                                
  20290639.641   108388955.131    20290639.140    84302517.873    20290640.266  
                                
  22138312.733   118466583.274    22138312.787    92140675.675    22138312.840  
                                
  21725425.156   115971794.717    21725427.550    90200295.175    21725427.550  
                                
  25135174.660   132086234.759                                                  
  25135176.840    98635832.494  
  26151264.541   137425823.164                                                  
  26151265.720   102623183.792  
  23596894.552   124002517.869                                                  
  23596895.499    92599285.366  
  23974456.714   125986621.165                                                  
  23974459.287    94080927.146  
 21  8 28  6  7 35.0000000  0 18G 4G 7G 8G 9G16G27G30R 5R 7R 9R15R16
                                R17R18E 1E 4E19E21
  21377343.826   112338699.919    21377343.147    87536645.339    21377342.950  
  21377346.810    83889300.013  
  21713335.583   114104348.390    21713333.367    88912468.975    21713333.045  
                                
  20688717.443   108719944.409    20688718.462    84716840.643    20688717.783  
  20688716.996    81186968.441  
  20488095.543   107665668.166    20488095.257    83895323.644    20488094.971  
  20488095.257    80399686.235  
  23656646.420   124316515.482                    96870000.304    23656643.561  
                                
  21547158.011   113231079.602    21547157.958    88232008.179    21547157.475  
  21547157.386    84555673.392  
  24142056.874   126867365.123    24142057.625    98857687.800    24142057.017  
  24142057.643    94738619.050  
  22269215.477   119041719.026    22269216.264    92588006.657    22269216.371  
                                
  22360370.277   119696812.935    22360370.224    93097520.667    22360370.135  
                                
  22287890.232   119016090.494    22287891.019    92568073.385    22287891.037  
                                
  22281131.703   119063611.828    22281132.650    92605035.323    22281132.740  
                                
  20290654.436   108389034.219    20290653.936    84302579.387    20290655.080  
                                
  22138398.344   118467041.351    22138398.379    92141031.958    22138398.415  
                                
  21724918.873   115969092.090    21724921.250    90198193.135    21724921.250  
                                
  25134975.653   132085188.887                                                  
  25134977.833    98635051.481  
  26150903.193   137423924.229                                                  
  26150904.373   102621765.757  
  23597080.622   124003495.595                                                  
  23597081.551    92600015.484  
  23974607.797   125987415.063                                                  
  23974610.352    94081519.987  
 21  8 28  6  7 36.0000000  0 18G 4G 7G 8G 9G16G27G30R 5R 7R 9R15R16
                                R17R18E 1E 4E19E21
  21377829.649   112341253.089    21377828.970    87538634.826    21377828.791  
  21377832.651    83891206.607  
  21712985.475   114102508.644    21712983.259    88911035.409    21712982.937  
                                
  20688588.983   108719269.395    20688590.001    84716314.662    20688589.304  
  20688588.536    81186464.379  
  20488172.290   107666071.377    20488171.969    83895637.832    20488171.701  
  20488171.969    80399987.330  
  23657272.729   124319806.810                    96872564.973    23657269.870  
                                
  21547420.918   113232461.214    21547420.865    88233084.762    21547420.382  
  21547420.311    84556705.124  
  24141557.900   126864743.015    24141558.668    98855644.598    24141558.043  
  24141558.668    94736660.986  
  22270012.132   119045977.707    22270012.954    92591318.961    22270013.025  
                                
  22359858.473   119694073.274    22359858.437    93095389.822    22359858.330  
                                
  22287537.534   119014207.072    22287538.338    92566608.504    22287538.338  
                                
  22281538.224   119065784.128    22281539.153    92606724.885    22281539.260  
                                
  20290669.232   108389113.258    20290668.749    84302640.856    20290669.893  
                                
  22138484.044   118467500.026    22138484.115    92141388.705    22138484.151  
                                
  21724412.644   115966389.809    21724415.020    90196091.358    21724415.020  
                                
  25134776.610   132084142.955                                                  
  25134778.790    98634270.430  
  26150541.846   137422025.383                                                  
  26150543.025   102620347.793  
  23597266.710   124004473.512                                                  
  23597267.639    92600745.747  
  23974758.844   125988208.848                                                  
  23974761.417    94082112.747  
 21  8 28  6  7 37.0000000  0 18G 4G 7G 8G 9G16G27G30R 5R 7R 9R15R16
                                R17R18E 1E 4E19E21
  21378315.561   112343806.584    21378314.882    87540624.563    21378314.703  
  21378318.563    83893113.445  
  21712635.385   114100668.841    21712633.169    88909601.797    21712632.848  
                                
  20688460.630   108718594.912    20688461.648    84715789.087    20688460.969  
  20688460.183    81185960.711  
  20488249.109   107666475.102    20488248.806    83895952.423    20488248.520  
  20488248.806    80400288.819  
  23657899.056   124323098.040                    96875129.565    23657896.162  
                                
  21547683.914   113233843.351    21547683.879    88234161.750    21547683.396  
  21547683.325    84557737.248  
  24141058.889   126862120.736    24141059.658    98853601.273    24141059.032  
  24141059.658    94734702.800  
  22270808.840   119050236.467    22270809.662    92594631.328    22270809.734  
                                
  22359346.758   119691334.124    22359346.740    93093259.374    22359346.633  
                                
  22287184.817   119012323.627    22287185.621    92565143.604    22287185.621  
                                
  22281944.690   119067956.267    22281945.637    92608414.329    22281945.745  
                                
  20290684.027   108389192.335    20290683.545    84302702.360    20290684.689  
                                
  22138569.886   118467959.385    22138569.958    92141745.986    22138569.994  
                                
  21723906.504   115963687.966    21723908.880    90193989.925    21723908.880  
                                
  25134577.585   132083097.062                                                  
  25134579.765    98633489.409  
  26150180.552   137420126.733                                                  
  26150181.714   102618929.964  
  23597452.851   124005451.748                                                  
  23597453.780    92601476.243  
  23974909.890   125989002.614                                                  
  23974912.464    94082705.498  
 21  8 28  6  7 38.0000000  0 18G 4G 7G 8G 9G16G27G30R 5R 7R 9R15R16
                                R17R18E 1E 4E19E21
  21378801.563   112346360.449    21378800.884    87542614.583    21378800.705  
  21378804.565    83895020.541  
  21712285.277   114098829.027    21712283.044    88908168.175    21712282.740  
                                
  20688332.401   108717921.007    20688333.420    84715263.971    20688332.741  
  20688331.955    81185457.459  
  20488326.036   107666879.369    20488325.714    83896267.436    20488325.446  
  20488325.714    80400590.704  
  23658525.330   124326389.150                    96877694.067    23658522.453  
                                
  21547947.054   113235226.045    21547947.000    88235239.174    21547946.518  
  21547946.428    84558769.777  
  24140559.861   126859498.337    24140560.612    98851557.843    24140560.022  
  24140560.647    94732744.504  
  22271605.531   119054495.324    22271606.353    92597943.770    22271606.442  
                                
  22358835.150   119688595.479    22358835.132    93091129.315    22358835.043  
                                
  22286832.118   119010440.205    22286832.904    92563678.721    22286832.940  
                                
  22282351.175   119070128.323    22282352.122    92610103.706    22282352.211  
                                
  20290698.841   108389271.480    20290698.358    84302763.918    20290699.502  
                                
  22138655.854   118468419.455    22138655.926    92142103.816    22138655.961  
                                
  21723400.435   115960986.573    21723402.812    90191888.839    21723402.812  
                                
  25134378.560   132082051.228                                                  
  25134380.740    98632708.426  
  26149819.294   137418228.283                                                  
  26149820.455   102617512.292  
  23597639.082   124006430.302                                                  
  23597639.994    92602206.986  
  23975060.937   125989796.388                                                  
  23975063.510    94083298.243  
 21  8 28  6  7 39.0000000  0 18G 4G 7G 8G 9G16G27G30R 5R 7R 9R15R16
                                R17R18E 1E 4E19E21
  21379287.654   112348914.831    21379286.975    87544605.008    21379286.778  
  21379290.638    83896928.036  
  21711935.205   114096989.357    21711932.972    88906734.668    21711932.668  
                                
  20688204.281   108717247.859    20688205.335    84714739.438    20688204.620  
  20688203.852    81184954.788  
  20488403.123   107667284.367    20488402.801    83896583.017    20488402.515  
  20488402.801    80400893.133  
  23659151.621   124329680.375                    96880258.657    23659148.744  
                                
  21548210.300   113236609.494    21548210.247    88236317.188    21548209.764  
  21548209.693    84559802.868  
  24140060.851   126856875.979    24140061.601    98849514.440    24140060.994  
  24140061.637    94730786.249  
  22272402.293   119058754.463    22272403.115    92601256.427    22272403.222  
                                
  22358323.703   119685857.558    22358323.667    93088999.816    22358323.577  
                                
  22286479.437   119008557.007    22286480.241    92562214.018    22286480.241  
                                
  22282757.659   119072300.474    22282758.589    92611793.152    22282758.696  
                                
  20290713.708   108389350.879    20290713.225    84302825.673    20290714.369  
                                
  22138742.019   118468880.479    22138742.090    92142462.390    22138742.126  
                                
  21722894.474   115958285.800    21722896.868    90189788.245    21722896.868  
                                
  25134179.588   132081005.649                                                  
  25134181.768    98631927.632  
  26149458.107   137416330.214                                                  
  26149459.269   102616094.910  
  23597825.385   124007409.372                                                  
  23597826.332    92602938.105  
  23975212.020   125990590.326                                                  
  23975214.593    94083891.139  
 21  8 28  6  7 40.0000000  0 18G 4G 7G 8G 9G16G27G30R 5R 7R 9R15R16
                                R17R18E 1E 4E19E21
  21379773.798   112351469.553    21379773.119    87546595.705    21379772.923  
  21379776.782    83898835.778  
  21711585.115   114095149.640    21711582.882    88905301.123    21711582.578  
                                
  20688076.303   108716575.275    20688077.321    84714215.348    20688076.642  
  20688075.856    81184452.538  
  20488480.281   107667689.869    20488479.959    83896898.993    20488479.691  
  20488479.959    80401195.944  
  23659777.877   124332971.441                    96882823.136    23659775.000  
                                
  21548473.654   113237993.479    21548473.618    88237395.616    21548473.136  
  21548473.046    84560836.361  
  24139561.805   126854253.453    24139562.555    98847470.909    24139561.948  
  24139562.573    94728827.864  
  22273199.072   119063013.654    22273199.894    92604569.126    22273199.984  
                                
  22357812.327   119683120.150    22357812.291    93086870.728    22357812.202  
                                
  22286126.774   119006673.780    22286127.578    92560749.290    22286127.578  
                                
  22283164.108   119074472.467    22283165.055    92613482.482    22283165.162  
                                
  20290728.593   108389430.329    20290728.092    84302887.470    20290729.236  
                                
  22138828.308   118469342.217    22138828.362    92142821.524    22138828.415  
                                
  21722388.602   115955585.421    21722391.014    90187687.948    21722391.014  
                                
  25133980.634   132079960.102                                                  
  25133982.814    98631146.869  
  26149096.939   137414432.354                                                  
  26149098.118   102614677.679  
  23598011.759   124008388.747                                                  
  23598012.688    92603669.457  
  23975363.103   125991384.265                                                  
  23975365.676    94084484.013  
 21  8 28  6  7 41.0000000  0 18G 4G 7G 8G 9G16G27G30R 5R 7R 9R15R16
                                R17R18E 1E 4E19E21
  21380260.068   112354024.991    21380259.389    87548586.953    21380259.192  
  21380263.052    83900744.064  
  21711235.097   114093310.269    21711232.863    88903867.849    21711232.559  
                                
  20687948.485   108715903.653    20687949.540    84713692.011    20687948.843  
  20687948.057    81183951.002  
  20488557.618   107668096.293    20488557.314    83897215.687    20488557.028  
  20488557.314    80401499.442  
  23660404.204   124336262.800                    96885387.829    23660401.327  
                                
  21548737.204   113239378.378    21548737.150    88238474.760    21548736.668  
  21548736.596    84561870.541  
  24139062.777   126851631.130    24139063.527    98845427.538    24139062.919  
  24139063.545    94726869.653  
  22273995.923   119067273.280    22273996.763    92607882.167    22273996.835  
                                
  22357301.130   119680383.694    22357301.112    93084742.371    22357301.005  
                                
  22285774.165   119004790.936    22285774.969    92559284.859    22285774.969  
                                
  22283570.611   119076644.704    22283571.558    92615171.998    22283571.665  
                                
  20290743.549   108389510.229    20290743.067    84302949.612    20290744.210  
                                
  22138914.794   118469805.039    22138914.848    92143181.495    22138914.884  
                                
  21721882.872   115952885.858    21721885.285    90185588.290    21721885.285  
                                
  25133781.770   132078914.995                                                  
  25133783.950    98630366.432  
  26148735.913   137412535.089                                                  
  26148737.074   102613260.886  
  23598198.258   124009368.826                                                  
  23598199.205    92604401.334  
  23975514.257   125992178.591                                                  
  23975516.830    94085077.176  
 21  8 28  6  7 42.0000000  0 18G 4G 7G 8G 9G16G27G30R 5R 7R 9R15R16
                                R17R18E 1E 4E19E21
  21380746.427   112356580.807    21380745.748    87550578.501    21380745.569  
  21380749.429    83902652.628  
  21710885.078   114091470.886    21710882.863    88902434.561    21710882.541  
                                
  20687820.811   108715232.603    20687821.830    84713169.111    20687821.133  
  20687820.347    81183449.896  
  20488635.080   107668503.272    20488634.759    83897532.813    20488634.473  
  20488634.759    80401803.353  
  23661030.531   124339554.101                    96887952.472    23661027.654  
                                
  21549000.844   113240763.866    21549000.808    88239554.361    21549000.308  
  21549000.236    84562905.154  
  24138563.748   126849008.713    24138564.499    98843384.095    24138563.873  
  24138564.517    94724911.355  
  22274792.793   119071533.050    22274793.632    92611195.314    22274793.722  
                                
  22356790.058   119677647.805    22356790.004    93082614.459    22356789.915  
                                
  22285421.573   119002908.135    22285422.377    92557820.460    22285422.377  
                                
  22283977.095   119078816.820    22283978.060    92616861.418    22283978.149  
                                
  20290758.505   108389590.207    20290758.023    84303011.821    20290759.167  
                                
  22139001.423   118470268.558    22139001.459    92143542.009    22139001.513  
                                
  21721377.233   115950186.737    21721379.645    90183488.976    21721379.645  
                                
  25133582.888   132077869.967                                                  
  25133585.068    98629586.056  
  26148374.905   137410638.033                                                  
  26148376.084   102611844.255  
  23598384.828   124010349.231                                                  
  23598385.757    92605133.457  
  23975665.411   125992972.937                                                  
  23975668.002    94085670.357  
 21  8 28  6  7 43.0000000  0 18G 4G 7G 8G 9G16G27G30R 5R 7R 9R15R16
                                R17R18E 1E 4E19E21
  21381232.911   112359137.281    21381232.232    87552570.560    21381232.036  
  21381235.895    83904561.681  
  21710535.096   114089631.770    21710532.880    88901001.486    21710532.558  
                                
  20687693.262   108714562.425    20687694.299    84712646.898    20687693.602  
  20687692.815    81182949.438  
  20488712.650   107668911.081    20488712.364    83897850.586    20488712.078  
  20488712.364    80402107.886  
  23661656.858   124342845.592                    96890517.271    23661653.999  
                                
  21549264.662   113242150.196    21549264.608    88240634.618    21549264.126  
  21549264.054    84563940.401  
  24138064.774   126846386.467    24138065.506    98841340.785    24138064.899  
  24138065.560    94722953.168  
  22275589.769   119075793.226    22275590.591    92614508.775    22275590.698  
                                
  22356279.129   119674912.774    22356279.093    93080487.216    22356278.986  
                                
  22285069.053   119001025.668    22285069.839    92556356.321    22285069.875  
                                
  22284383.615   119080989.123    22284384.562    92618550.988    22284384.652  
                                
  20290773.569   108389670.543    20290773.069    84303074.302    20290774.194  
                                
  22139088.231   118470733.146    22139088.285    92143903.358    22139088.320  
                                
  21720871.754   115947488.370    21720874.148    90181390.246    21720874.148  
                                
  25133384.095   132076825.298                                                  
  25133386.275    98628805.948  
  26148014.022   137408741.513                                                  
  26148015.184   102610428.023  
  23598571.506   124011330.291                                                  
  23598572.453    92605866.062  
  23975816.618   125993767.586                                                  
  23975819.209    94086263.765  
 21  8 28  6  7 44.0000000  0 18G 4G 7G 8G 9G16G27G30R 5R 7R 9R15R16
                                R17R18E 1E 4E19E21
  21381719.449   112361694.004    21381718.770    87554562.812    21381718.573  
  21381722.433    83906470.918  
  21710185.095   114087792.546    21710182.879    88899568.322    21710182.558  
                                
  20687565.838   108713892.725    20687566.857    84712125.052    20687566.160  
  20687565.391    81182449.336  
  20488790.362   107669319.348    20488790.040    83898168.716    20488789.755  
  20488790.058    80402412.758  
  23662283.185   124346136.885                    96893081.914    23662280.326  
                                
  21549528.569   113243536.984    21549528.516    88241715.230    21549528.016  
  21549527.944    84564975.982  
  24137565.728   126843763.962    24137566.460    98839297.296    24137565.853  
  24137566.478    94720994.828  
  22276386.709   119080053.345    22276387.549    92617822.210    22276387.656  
                                
  22355768.271   119672178.174    22355768.254    93078360.309    22355768.128  
                                
  22284716.515   118999143.072    22284717.302    92554892.066    22284717.319  
                                
  22284790.100   119083161.235    22284791.065    92620240.413    22284791.154  
                                
  20290788.579   108389750.831    20290788.097    84303136.749    20290789.222  
                                
  22139175.164   118471198.359    22139175.235    92144265.195    22139175.271  
                                
  21720366.328   115944790.348    21720368.705    90179291.780    21720368.705  
                                
  25133185.302   132075780.608                                                  
  25133187.482    98628025.825  
  26147653.140   137406845.103                                                  
  26147654.319   102609011.870  
  23598758.237   124012311.570                                                  
  23598759.184    92606598.842  
  23975967.826   125994562.155                                                  
  23975970.417    94086857.104  
 21  8 28  6  7 45.0000000  0 18G 4G 7G 8G 9G16G27G30R 5R 7R 9R15R16
                                R17R18E 1E 4E19E21
  21382206.094   112364251.379    21382205.415    87556555.570    21382205.218  
  21382209.078    83908380.646  
  21709835.166   114085953.580    21709832.950    88898135.362    21709832.629  
                                
  20687438.575   108713223.888    20687439.594    84711603.880    20687438.879  
  20687438.128    81181949.875  
  20488868.200   107669728.437    20488867.878    83898487.487    20488867.610  
  20488867.896    80402718.251  
  23662909.530   124349428.385                    96895646.729    23662906.654  
                                
  21549792.620   113244924.623    21549792.584    88242796.507    21549792.102  
  21549791.995    84566012.209  
  24137066.699   126841141.633    24137067.450    98837253.920    24137066.842  
  24137067.468    94719036.600  
  22277183.757   119084313.864    22277184.597    92621135.933    22277184.668  
                                
  22355257.593   119669444.422    22355257.539    93076234.062    22355257.450  
                                
  22284364.031   118997260.834    22284364.835    92553428.106    22284364.835  
                                
  22285196.638   119085333.568    22285197.585    92621930.003    22285197.674  
                                
  20290803.678   108389831.471    20290803.178    84303199.471    20290804.322  
                                
  22139262.293   118471664.624    22139262.347    92144627.848    22139262.400  
                                
  21719861.028   115942093.072    21719863.423    90177193.899    21719863.423  
                                
  25132986.563   132074736.276                                                  
  25132988.743    98627245.964  
  26147292.364   137404949.205                                                  
  26147293.525   102607596.103  
  23598945.093   124013293.478                                                  
  23598946.023    92607332.083  
  23976119.087   125995357.009                                                  
  23976121.660    94087450.672  
 21  8 28  6  7 46.0000000  0 18G 4G 7G 8G 9G16G27G30R 5R 7R 9R15R16
                                R17R18E 1E 4E19E21
  21382692.864   112366809.358    21382692.185    87558548.796    21382691.988  
  21382695.848    83910290.823  
  21709485.273   114084114.849    21709483.021    88896702.582    21709482.735  
                                
  20687311.437   108712555.864    20687312.455    84711083.342    20687311.759  
  20687311.008    81181451.032  
  20488946.216   107670138.323    20488945.894    83898806.879    20488945.608  
  20488945.894    80403024.333  
  23663535.911   124352720.014                    96898211.635    23663533.034  
                                
  21550056.831   113246313.081    21550056.796    88243878.420    21550056.313  
  21550056.206    84567049.044  
  24136567.707   126838519.396    24136568.440    98835210.616    24136567.832  
  24136568.493    94717078.436  
  22277980.841   119088574.729    22277981.681    92624449.930    22277981.770  
                                
  22354747.039   119666711.463    22354747.003    93074108.432    22354746.914  
                                
  22284011.600   118995378.847    22284012.386    92551964.338    22284012.404  
                                
  22285603.176   119087506.032    22285604.123    92623619.697    22285604.230  
                                
  20290818.831   108389912.439    20290818.349    84303262.448    20290819.492  
                                
  22139349.619   118472131.862    22139349.690    92144991.253    22139349.726  
                                
  21719355.871   115939396.496    21719358.248    90175096.562    21719358.248  
                                
  25132787.895   132073692.255                                                  
  25132790.075    98626466.340  
  26146931.660   137403053.769                                                  
  26146932.821   102606180.681  
  23599132.075   124014275.978                                                  
  23599132.986    92608065.757  
  23976270.384   125996152.139                                                  
  23976272.975    94088044.429  
 21  8 28  6  7 47.0000000  0 18G 4G 7G 8G 9G16G27G30R 5R 7R 9R15R16
                                R17R18E 1E 4E19E21
  21383179.706   112369367.746    21383179.027    87560542.346    21383178.848  
  21383182.708    83912201.307  
  21709135.379   114082276.141    21709133.128    88895269.823    21709132.842  
                                
  20687184.424   108711888.494    20687185.460    84710563.313    20687184.763  
  20687183.995    81180952.667  
  20489024.339   107670548.814    20489024.017    83899126.737    20489023.732  
  20489024.017    80403330.864  
  23664162.274   124356011.612                    96900776.520    23664159.397  
                                
  21550321.168   113247702.155    21550321.132    88244960.816    21550320.632  
  21550320.542    84568086.335  
  24136068.697   126835897.096    24136069.465    98833167.270    24136068.840  
  24136069.483    94715120.223  
  22278777.942   119092835.713    22278778.800    92627764.017    22278778.907  
                                
  22354236.610   119663979.113    22354236.592    93071983.274    22354236.467  
                                
  22283659.169   118993496.931    22283659.974    92550500.628    22283659.974  
                                
  22286009.732   119089678.440    22286010.661    92625309.345    22286010.769  
                                
  20290834.002   108389993.532    20290833.520    84303325.519    20290834.663  
                                
  22139437.070   118472599.878    22139437.124    92145355.268    22139437.177  
                                
  21718850.803   115936700.421    21718853.197    90172999.615    21718853.197  
                                
  25132589.263   132072648.348                                                  
  25132591.425    98625686.800  
  26146571.045   137401158.602                                                  
  26146572.207   102604765.457  
  23599319.092   124015258.845                                                  
  23599320.021    92608799.723  
  23976421.717   125996947.313                                                  
  23976424.272    94088638.230  
 21  8 28  6  7 48.0000000  0 18G 4G 7G 8G 9G16G27G30R 5R 7R 9R15R16
                                R17R18E 1E 4E19E21
  21383666.690   112371926.872    21383666.011    87562536.471    21383665.814  
  21383669.692    83914112.346  
  21708785.540   114080437.794    21708783.324    88893837.347    21708783.002  
                                
  20687057.625   108711222.113    20687058.644    84710044.056    20687057.947  
  20687057.179    81180455.054  
  20489102.623   107670960.224    20489102.302    83899447.321    20489102.016  
  20489102.302    80403638.092  
  23664788.708   124359303.532                    96903341.653    23664785.831  
                                
  21550585.683   113249092.177    21550585.629    88246043.952    21550585.147  
  21550585.058    84569124.336  
  24135569.722   126833275.017    24135570.473    98831124.099    24135569.847  
  24135570.490    94713162.194  
  22279575.169   119097097.235    22279576.026    92631078.522    22279576.116  
                                
  22353726.342   119661247.669    22353726.325    93069858.822    22353726.200  
                                
  22283306.828   118991615.448    22283307.614    92549037.250    22283307.650  
                                
  22286416.306   119091851.122    22286417.253    92626999.207    22286417.342  
                                
  20290849.280   108390075.046    20290848.780    84303388.921    20290849.923  
                                
  22139524.735   118473068.994    22139524.789    92145720.135    22139524.861  
                                
  21718345.914   115934005.172    21718348.290    90170903.307    21718348.290  
                                
  25132390.684   132071604.899                                                  
  25132392.864    98624907.607  
  26146210.520   137399264.043                                                  
  26146211.681   102603350.694  
  23599506.252   124016242.437                                                  
  23599507.199    92609534.219  
  23976573.103   125997742.898                                                  
  23976575.677    94089232.336  
 21  8 28  6  7 49.0000000  0 18G 4G 7G 8G 9G16G27G30R 5R 7R 9R15R16
                                R17R18E 1E 4E19E21
  21384153.728   112374486.228    21384153.049    87564530.772    21384152.853  
  21384156.730    83916023.548  
  21708435.682   114078599.280    21708433.466    88892404.741    21708433.145  
                                
  20686930.898   108710556.161    20686931.917    84709525.136    20686931.220  
  20686930.451    81179957.752  
  20489180.979   107671372.050    20489180.657    83899768.220    20489180.371  
  20489180.657    80403945.622  
  23665415.089   124362595.161                    96905906.541    23665412.212  
                                
  21550850.252   113250482.562    21550850.216    88247127.371    21550849.716  
  21550849.644    84570162.631  
  24135070.730   126830652.703    24135071.462    98829080.737    24135070.837  
  24135071.480    94711203.970  
  22280372.359   119101358.626    22280373.217    92634392.979    22280373.324  
                                
  22353216.164   119658516.629    22353216.146    93067734.679    22353216.021  
                                
  22282954.451   118989733.830    22282955.255    92547573.783    22282955.273  
                                
  22286822.844   119094023.571    22286823.791    92628688.908    22286823.898  
                                
  20290864.522   108390156.492    20290864.022    84303452.265    20290865.166  
                                
  22139612.526   118473538.742    22139612.580    92146085.503    22139612.615  
                                
  21717841.042   115931310.209    21717843.437    90168807.232    21717843.437  
                                
  25132192.124   132070561.401                                                  
  25132194.304    98624128.358  
  26145849.994   137397369.554                                                  
  26145851.156   102601935.980  
  23599693.466   124017226.223                                                  
  23599694.413    92610268.877  
  23976724.472   125998538.348                                                  
  23976727.063    94089826.338  
 21  8 28  6  7 50.0000000  0 18G 4G 7G 8G 9G16G27G30R 5R 7R 9R15R16
                                R17R18E 1E 4E19E21
  21384640.873   112377046.235    21384640.194    87566525.584    21384640.016  
  21384643.875    83917935.242  
  21708085.896   114076761.057    21708083.645    88890972.356    21708083.341  
                                
  20686804.332   108709891.091    20686805.350    84709006.900    20686804.671  
  20686803.885    81179461.111  
  20489259.495   107671784.713    20489259.174    83900089.773    20489258.906  
  20489259.210    80404253.780  
  23666041.506   124365887.031                    96908471.634    23666038.629  
                                
  21551115.017   113251873.866    21551114.981    88248211.505    21551114.481  
  21551114.392    84571201.583  
  24134571.755   126828030.556    24134572.488    98827037.506    24134571.880  
  24134572.541    94709245.854  
  22281169.639   119105620.479    22281170.497    92637707.752    22281170.568  
                                
  22352706.146   119655786.438    22352706.111    93065611.197    22352706.003  
                                
  22282602.145   118987852.532    22282602.949    92546110.549    22282602.967  
                                
  22287229.436   119096196.185    22287230.383    92630378.716    22287230.472  
                                
  20290879.836   108390238.289    20290879.336    84303515.887    20290880.479  
                                
  22139700.513   118474009.555    22139700.567    92146451.693    22139700.602  
                                
  21717336.332   115928616.015    21717338.708    90166711.743    21717338.708  
                                
  25131993.617   132069518.251                                                  
  25131995.779    98623349.383  
  26145489.594   137395475.603                                                  
  26145490.755   102600521.659  
  23599880.805   124018210.642                                                  
  23599881.734    92611003.991  
  23976875.912   125999334.102                                                  
  23976878.467    94090420.575  
 21  8 28  6  7 51.0000000  0 18G 4G 7G 8G 9G16G27G30R 5R 7R 9R15R16
                                R17R18E 1E 4E19E21
  21385128.126   112379606.714    21385127.447    87568520.761    21385127.233  
  21385131.128    83919847.290  
  21707736.092   114074922.927    21707733.876    88889540.050    21707733.555  
                                
  20686677.926   108709226.735    20686678.945    84708489.220    20686678.248  
  20686677.480    81178964.999  
  20489338.173   107672198.042    20489337.851    83900411.852    20489337.565  
  20489337.851    80404562.432  
  23666667.922   124369178.931                    96911036.751    23666665.063  
                                
  21551379.890   113253265.843    21551379.854    88249296.164    21551379.371  
  21551379.300    84572241.052  
  24134072.745   126825408.368    24134073.513    98824994.240    24134072.888  
  24134073.531    94707287.740  
  22281966.919   119109882.514    22281967.795    92641022.666    22281967.884  
                                
  22352196.254   119653056.931    22352196.218    93063488.248    22352196.111  
                                
  22282249.875   118985971.388    22282250.662    92544647.437    22282250.679  
                                
  22287635.992   119098368.801    22287636.939    92632068.529    22287637.046  
                                
  20290895.168   108390320.283    20290894.685    84303579.661    20290895.829  
                                
  22139788.643   118474481.199    22139788.697    92146818.529    22139788.732  
                                
  21716831.728   115925922.396    21716834.123    90164616.706    21716834.105  
                                
  25131795.146   132068475.293                                                  
  25131797.308    98622570.555  
  26145129.247   137393581.962                                                  
  26145130.409   102599107.581  
  23600068.215   124019195.525                                                  
  23600069.162    92611739.447  
  23977027.352   126000129.998                                                  
  23977029.925    94091014.913  
 21  8 28  6  7 52.0000000  0 18G 4G 7G 8G 9G16G27G30R 5R 7R 9R15R16
                                R17R18E 1E 4E19E21
  21385615.432   112382167.563    21385614.753    87570516.225    21385614.557  
  21385618.434    83921759.615  
  21707386.324   114073084.788    21707384.072    88888107.732    21707383.786  
                                
  20686551.592   108708562.948    20686552.611    84707971.986    20686551.932  
  20686551.181    81178469.312  
  20489416.922   107672611.934    20489416.600    83900734.363    20489416.332  
  20489416.600    80404871.510  
  23667294.356   124372470.751                    96913601.803    23667291.497  
                                
  21551644.887   113254658.379    21551644.851    88250381.259    21551644.351  
  21551644.262    84573280.929  
  24133573.734   126822786.057    24133574.485    98822950.885    24133573.859  
  24133574.521    94705329.527  
  22282764.235   119114144.633    22282765.111    92644337.647    22282765.200  
                                
  22351686.468   119650328.031    22351686.433    93061365.770    22351686.343  
                                
  22281897.605   118984090.275    22281898.392    92543184.349    22281898.410  
                                
  22288042.566   119100541.322    22288043.495    92633758.268    22288043.602  
                                
  20290910.553   108390402.379    20290910.071    84303643.511    20290911.178  
                                
  22139876.898   118474953.562    22139876.970    92147185.923    22139877.023  
                                
  21716327.197   115923229.242    21716329.609    90162522.028    21716329.609  
                                
  25131596.692   132067432.407                                                  
  25131598.854    98621791.777  
  26144768.936   137391688.577                                                  
  26144770.098   102597693.687  
  23600255.697   124020180.740                                                  
  23600256.644    92612475.159  
  23977178.810   126000925.915                                                  
  23977181.383    94091609.266  
 21  8 28  6  7 53.0000000  0 18G 4G 7G 8G 9G16G27G30R 5R 7R 9R15R16
                                R17R18E 1E 4E19E21
  21386102.845   112384728.935    21386102.166    87572512.099    21386101.970  
  21386105.830    83923672.327  
  21707036.556   114071246.785    21707034.322    88886675.524    21707034.000  
                                
  20686425.419   108707899.907    20686426.456    84707455.328    20686425.741  
  20686424.990    81177974.188  
  20489495.813   107673026.525    20489495.492    83901057.421    20489495.206  
  20489495.510    80405181.102  
  23667920.773   124375762.621                    96916166.894    23667917.914  
                                
  21551910.028   113256051.644    21551909.974    88251466.918    21551909.492  
  21551909.402    84574321.360  
  24133074.760   126820163.784    24133075.492    98820907.558    24133074.867  
  24133075.510    94703371.336  
  22283561.622   119118407.053    22283562.480    92647652.865    22283562.570  
                                
  22351176.844   119647599.854    22351176.790    93059243.857    22351176.701  
                                
  22281545.353   118982209.349    22281546.157    92541721.411    22281546.157  
                                
  22288449.122   119102713.924    22288450.069    92635448.069    22288450.176  
                                
  20290925.956   108390484.695    20290925.456    84303707.537    20290926.599  
                                
  22139965.350   118475426.834    22139965.421    92147554.021    22139965.457  
                                
  21715822.790   115920536.690    21715825.202    90160427.822    21715825.202  
                                
  25131398.292   132066389.762                                                  
  25131400.472    98621013.176  
  26144408.715   137389795.558                                                  
  26144409.876   102596280.072  
  23600443.268   124021166.453                                                  
  23600444.233    92613211.246  
  23977330.303   126001722.004                                                  
  23977332.876    94092203.744  
 21  8 28  6  7 54.0000000  0 18G 4G 7G 8G 9G16G27G30R 5R 7R 9R15R16
                                R17R18E 1E 4E19E21
  21386590.366   112387290.846    21386589.687    87574508.401    21386589.490  
  21386593.350    83925585.452  
  21706686.841   114069408.955    21706684.589    88885243.448    21706684.268  
                                
  20686299.407   108707237.666    20686300.425    84706939.296    20686299.746  
  20686298.978    81177479.649  
  20489574.848   107673441.843    20489574.544    83901381.046    20489574.258  
  20489574.544    80405491.245  
  23668547.225   124379054.617                    96918732.079    23668544.348  
                                
  21552175.311   113257445.694    21552175.240    88252553.189    21552174.757  
  21552174.686    84575362.361  
  24132575.749   126817541.558    24132576.482    98818864.272    24132575.874  
  24132576.518    94701413.183  
  22284359.028   119122669.739    22284359.903    92650968.288    22284359.993  
                                
  22350667.327   119644872.404    22350667.273    93057122.509    22350667.184  
                                
  22281193.173   118980328.659    22281193.959    92540258.652    22281193.977  
                                
  22288855.714   119104886.600    22288856.679    92637137.931    22288856.768  
                                
  20290941.413   108390567.265    20290940.930    84303771.760    20290942.056  
                                
  22140053.962   118475901.017    22140054.016    92147922.830    22140054.069  
                                
  21715318.508   115917844.756    21715320.903    90158334.102    21715320.903  
                                
  25131199.928   132065347.370                                                  
  25131202.091    98620234.766  
  26144048.547   137387902.950                                                  
  26144049.708   102594866.759  
  23600630.946   124022152.686                                                  
  23600631.893    92613947.725  
  23977481.833   126002518.290                                                  
  23977484.406    94092798.375  
 21  8 28  6  7 55.0000000  0 18G 4G 7G 8G 9G16G27G30R 5R 7R 9R15R16
                                R17R18E 1E 4E19E21
  21387077.958   112389853.203    21387077.279    87576505.041    21387077.082  
  21387080.942    83927498.905  
  21706337.108   114067571.183    21706334.875    88883811.420    21706334.553  
                                
  20686173.484   108706576.051    20686174.538    84706423.750    20686173.841  
  20686173.073    81176985.590  
  20489654.008   107673857.798    20489653.686    83901705.166    20489653.400  
  20489653.686    80405801.865  
  23669173.677   124382346.578                    96921297.239    23669170.782  
                                
  21552440.684   113258840.341    21552440.648    88253639.926    21552440.166  
  21552440.077    84576403.831  
  24132076.739   126814919.288    24132077.472    98816820.945    24132076.864  
  24132077.525    94699455.000  
  22285156.504   119126932.655    22285157.362    92654283.889    22285157.469  
                                
  22350157.916   119642145.552    22350157.881    93055001.622    22350157.791  
                                
  22280840.992   118978448.049    22280841.778    92538795.956    22280841.778  
                                
  22289262.305   119107059.267    22289263.252    92638827.781    22289263.360  
                                
  20290956.905   108390650.002    20290956.405    84303836.106    20290957.549  
                                
  22140142.736   118476376.010    22140142.789    92148292.269    22140142.825  
                                
  21714814.316   115915153.358    21714816.728    90156240.794    21714816.710  
                                
  25131001.600   132064305.130                                                  
  25131003.762    98619456.472  
  26143688.468   137386010.648                                                  
  26143689.629   102593453.678  
  23600818.696   124023139.344                                                  
  23600819.643    92614684.516  
  23977633.380   126003314.673                                                  
  23977635.935    94093393.079  
 21  8 28  6  7 56.0000000  0 18G 4G 7G 8G 9G16G27G30R 5R 7R 9R15R16
                                R17R18E 1E 4E19E21
  21387565.675   112392416.156    21387564.978    87578502.147    21387564.800  
  21387568.659    83929412.796  
  21705987.429   114065733.640    21705985.214    88882379.562    21705984.892  
                                
  20686047.757   108705915.269    20686048.794    84705908.855    20686048.079  
  20686047.329    81176492.146  
  20489733.310   107674274.534    20489732.989    83902029.898    20489732.703  
  20489732.989    80406113.066  
  23669800.129   124385638.701                    96923862.532    23669797.270  
                                
  21552706.236   113260235.821    21552706.182    88254727.315    21552705.700  
  21552705.610    84577445.902  
  24131577.764   126812297.132    24131578.515    98814777.704    24131577.890  
  24131578.551    94697496.888  
  22285954.017   119131195.852    22285954.892    92657599.706    22285954.999  
                                
  22349648.667   119639419.498    22349648.631    93052881.352    22349648.524  
                                
  22280488.865   118976567.699    22280489.651    92537333.463    22280489.651  
                                
  22289668.933   119109232.069    22289669.862    92640517.737    22289669.969  
                                
  20290972.469   108390733.073    20290971.969    84303900.720    20290973.095  
                                
  22140231.670   118476851.975    22140231.741    92148662.466    22140231.777  
                                
  21714310.249   115912462.666    21714312.661    90154148.034    21714312.661  
                                
  25130803.325   132063263.193                                                  
  25130805.488    98618678.404  
  26143328.461   137384118.806                                                  
  26143329.622   102592040.936  
  23601006.571   124024126.569                                                  
  23601007.518    92615421.731  
  23977784.963   126004111.311                                                  
  23977787.554    94093987.967  
 21  8 28  6  7 57.0000000  0 18G 4G 7G 8G 9G16G27G30R 5R 7R 9R15R16
                                R17R18E 1E 4E19E21
  21388053.428   112394979.321    21388052.749    87580499.418    21388052.552  
  21388056.412    83931326.839  
  21705637.733   114063895.915    21705635.499    88880947.571    21705635.177  
                                
  20685922.103   108705254.886    20685923.121    84705394.270    20685922.424  
  20685921.656    81175999.012  
  20489812.685   107674691.666    20489812.363    83902354.931    20489812.095  
  20489812.363    80406424.552  
  23670426.546   124388930.571                    96926427.625    23670423.687  
                                
  21552971.859   113261631.670    21552971.823    88255814.993    21552971.323  
  21552971.233    84578488.268  
  24131078.754   126809674.692    24131079.487    98812734.242    24131078.861  
  24131079.522    94695538.560  
  22286751.529   119135459.006    22286752.405    92660915.491    22286752.512  
                                
  22349139.489   119636693.865    22349139.471    93050761.414    22349139.364  
                                
  22280136.703   118974687.211    22280137.489    92535870.864    22280137.507  
                                
  22290075.471   119111404.587    22290076.436    92642207.474    22290076.525  
                                
  20290987.997   108390816.052    20290987.497    84303965.258    20290988.641  
                                
  22140320.729   118477328.548    22140320.783    92149033.130    22140320.854  
                                
  21713806.271   115909772.302    21713808.647    90152055.531    21713808.647  
                                
  25130605.033   132062221.176                                                  
  25130607.195    98617900.275  
  26142968.471   137382227.029                                                  
  26142969.633   102590628.248  
  23601194.464   124025113.979                                                  
  23601195.411    92616159.071  
  23977936.546   126004907.800                                                  
  23977939.119    94094582.745  
 21  8 28  6  7 58.0000000  0 18G 4G 7G 8G 9G16G27G30R 5R 7R 9R15R16
                                R17R18E 1E 4E19E21
  21388541.270   112397543.019    21388540.591    87582497.103    21388540.412  
  21388544.272    83933241.291  
  21705288.072   114062058.349    21705285.820    88879515.697    21705285.498  
                                
  20685796.573   108704595.275    20685797.591    84704880.285    20685796.894  
  20685796.126    81175506.441  
  20489892.184   107675109.522    20489891.862    83902680.534    20489891.594  
  20489891.898    80406736.594  
  23671052.998   124392222.532                    96928992.788    23671050.139  
                                
  21553237.643   113263028.298    21553237.571    88256903.276    21553237.089  
  21553237.017    84579531.193  
  24130579.726   126807052.284    24130580.459    98810690.807    24130579.833  
  24130580.476    94693580.277  
  22287549.095   119139722.424    22287549.988    92664231.480    22287550.078  
                                
  22348630.472   119633968.979    22348630.437    93048642.060    22348630.329  
                                
  22279784.593   118972806.935    22279785.380    92534408.428    22279785.398  
                                
  22290482.045   119113577.165    22290482.992    92643897.259    22290483.099  
                                
  20291003.579   108390899.275    20291003.079    84304029.985    20291004.222  
                                
  22140409.949   118477806.061    22140410.038    92149404.526    22140410.074  
                                
  21713302.382   115907082.600    21713304.776    90149963.541    21713304.776  
                                
  25130406.776   132061179.412                                                  
  25130408.956    98617122.338  
  26142608.536   137380335.639                                                  
  26142609.679   102589215.862  
  23601382.464   124026101.902                                                  
  23601383.393    92616896.806  
  23978088.129   126005704.482                                                  
  23978090.720    94095177.670  
 21  8 28  6  7 59.0000000  0 18G 4G 7G 8G 9G16G27G30R 5R 7R 9R15R16
                                R17R18E 1E 4E19E21
  21389029.220   112400107.193    21389028.541    87584495.156    21389028.344  
  21389032.222    83935156.094  
  21704938.393   114060220.894    21704936.177    88878083.921    21704935.855  
                                
  20685671.186   108703936.353    20685672.204    84704366.847    20685671.507  
  20685670.757    81175014.393  
  20489971.826   107675528.054    20489971.522    83903006.662    20489971.254  
  20489971.540    80407049.125  
  23671679.432   124395514.505                    96931557.977    23671676.573  
                                
  21553503.516   113264425.576    21553503.480    88257992.060    21553502.998  
  21553502.908    84580574.620  
  24130080.698   126804429.864    24130081.430    98808647.365    24130080.805  
  24130081.466    94691621.972  
  22288346.697   119143986.077    22288347.590    92667547.645    22288347.679  
                                
  22348121.563   119631244.775    22348121.545    93046523.240    22348121.437  
                                
  22279432.520   118970926.800    22279433.288    92532946.102    22279433.306  
                                
  22290888.619   119115749.766    22290889.566    92645587.060    22290889.673  
                                
  20291019.197   108390982.671    20291018.696    84304094.847    20291019.822  
                                
  22140499.366   118478284.412    22140499.419    92149776.577    22140499.473  
                                
  21712798.636   115904393.479    21712801.013    90147872.005    21712801.013  
                                
  25130208.591   132060137.856                                                  
  25130210.771    98616344.544  
  26142248.707   137378444.636                                                  
  26142249.869   102587803.732  
  23601570.535   124027090.286                                                  
  23601571.500    92617634.885  
  23978239.765   126006501.308                                                  
  23978242.338    94095772.705  
 21  8 28  6  8  0.0000000  0 18G 4G 7G 8G 9G16G27G30R 5R 7R 9R15R16
                                R17R18E 1E 4E19E21
  21389517.258   112402671.693    21389516.544    87586493.465    21389516.365  
  21389520.225    83937071.136  
  21704588.714   114058383.366    21704586.498    88876652.076    21704586.176  
                                
  20685545.888   108703277.965    20685546.907    84703853.818    20685546.210  
  20685545.477    81174522.743  
  20490051.576   107675947.067    20490051.254    83903333.166    20490050.986  
  20490051.272    80407362.026  
  23672305.867   124398806.372                    96934123.064    23672302.990  
                                
  21553769.514   113265823.392    21553769.478    88259081.265    21553768.996  
  21553768.906    84581618.430  
  24129581.634   126801807.260    24129582.366    98806603.777    24129581.741  
  24129582.384    94689663.542  
  22289144.298   119148249.733    22289145.192    92670863.824    22289145.281  
                                
  22347612.742   119628521.055    22347612.724    93044404.793    22347612.635  
                                
  22279080.429   118969046.658    22279081.197    92531483.768    22279081.233  
                                
  22291295.175   119117922.222    22291296.104    92647276.747    22291296.211  
                                
  20291034.814   108391066.079    20291034.314    84304159.722    20291035.440  
                                
  22140588.871   118478763.404    22140588.943    92150149.130    22140588.997  
                                
  21712294.926   115901704.713    21712297.321    90145780.742    21712297.321  
                                
  25130010.388   132059096.302                                                  
  25130012.550    98615566.761  
  26141888.879   137376553.780                                                  
  26141890.040   102586391.727  
  23601758.678   124028078.954                                                  
  23601759.625    92618373.172  
  23978391.402   126007298.093                                                  
  23978393.975    94096367.704  
 21  8 28  6  8  1.0000000  0 18G 4G 7G 8G 9G16G27G30R 5R 7R 9R15R16
                                R17R18E 1E 4E19E21
  21390005.279   112405236.339    21390004.582    87588491.897    21390004.404  
  21390008.263    83938986.303  
  21704239.017   114056545.624    21704236.783    88875220.073    21704236.462  
                                
  20685420.680   108702619.983    20685421.698    84703341.106    20685421.001  
  20685420.251    81174031.392  
  20490131.379   107676366.449    20490131.057    83903659.955    20490130.789  
  20490131.075    80407675.202  
  23672932.248   124402097.943                    96936687.917    23672929.353  
                                
  21554035.584   113267221.574    21554035.530    88260170.758    21554035.048  
  21554034.976    84582662.538  
  24129082.498   126799184.338    24129083.249    98804559.945    24129082.606  
  24129083.267    94687704.869  
  22289941.900   119152513.327    22289942.776    92674179.950    22289942.883  
                                
  22347104.011   119625797.680    22347103.975    93042286.612    22347103.868  
                                
  22278728.302   118967166.344    22278729.070    92530021.306    22278729.106  
                                
  22291701.659   119120094.387    22291702.606    92648966.205    22291702.696  
                                
  20291050.378   108391149.389    20291049.913    84304224.514    20291051.021  
                                
  22140678.485   118479242.960    22140678.556    92150522.114    22140678.610  
                                
  21711791.270   115899016.183    21711793.683    90143689.665    21711793.683  
                                
  25129812.166   132058054.635                                                  
  25129814.347    98614788.897  
  26141529.068   137374662.951                                                  
  26141530.212   102584979.750  
  23601946.839   124029067.775                                                  
  23601947.804    92619111.575  
  23978542.985   126008094.699                                                  
  23978545.540    94096962.575  
 21  8 28  6  8  2.0000000  0 18G 4G 7G 8G 9G16G27G30R 5R 7R 9R15R16
                                R17R18E 1E 4E19E21
  21390493.425   112407801.590    21390492.746    87590490.794    21390492.550  
  21390496.409    83940901.908  
  21703889.338   114054708.104    21703887.122    88873788.240    21703886.801  
                                
  20685295.615   108701962.796    20685296.633    84702829.012    20685295.936  
  20685295.204    81173540.635  
  20490211.343   107676786.613    20490211.021    83903987.359    20490210.753  
  20490211.039    80407988.958  
  23673558.628   124405389.649                    96939252.890    23673555.751  
                                
  21554301.796   113268620.555    21554301.743    88261260.872    21554301.260  
  21554301.189    84583707.229  
  24128583.399   126796561.537    24128584.131    98802516.204    24128583.524  
  24128584.185    94685746.273  
  22290739.555   119156777.228    22290740.449    92677496.318    22290740.520  
                                
  22346595.405   119623075.078    22346595.369    93040169.035    22346595.262  
                                
  22278376.211   118965286.259    22278376.997    92528559.020    22278377.015  
                                
  22292108.162   119122266.694    22292109.127    92650655.776    22292109.234  
                                
  20291066.049   108391233.015    20291065.567    84304289.558    20291066.675  
                                
  22140768.294   118479723.502    22140768.348    92150895.871    22140768.419  
                                
  21711287.775   115896328.329    21711290.151    90141599.114    21711290.151  
                                
  25129613.999   132057013.273                                                  
  25129616.161    98614011.252  
  26141169.347   137372772.582                                                  
  26141170.490   102583568.111  
  23602135.107   124030057.157                                                  
  23602136.072    92619850.406  
  23978694.621   126008891.548                                                  
  23978697.194    94097557.624  
 21  8 28  6  8  3.0000000  0 18G 4G 7G 8G 9G16G27G30R 5R 7R 9R15R16
                                R17R18E 1E 4E19E21
  21390981.732   112410367.636    21390981.053    87592490.310    21390980.856  
  21390984.716    83942818.109  
  21703539.749   114052870.990    21703537.533    88872356.725    21703537.211  
                                
  20685170.746   108701306.632    20685171.764    84702317.718    20685171.085  
  20685170.335    81173050.645  
  20490291.485   107677207.750    20490291.164    83904315.518    20490290.895  
  20490291.164    80408303.445  
  23674185.063   124408681.695                    96941818.123    23674182.204  
                                
  21554568.206   113270020.525    21554568.152    88262351.762    21554567.670  
  21554567.580    84584752.659  
  24128084.353   126793939.020    24128085.085    98800472.686    24128084.478  
  24128085.103    94683787.907  
  22291537.282   119161041.630    22291538.176    92680813.077    22291538.283  
                                
  22346086.996   119620353.480    22346086.942    93038052.233    22346086.853  
                                
  22278024.227   118963406.657    22278024.995    92527097.112    22278025.031  
                                
  22292514.753   119124439.337    22292515.701    92652345.610    22292515.790  
                                
  20291081.792   108391317.145    20291081.309    84304354.993    20291082.435  
                                
  22140858.301   118480205.242    22140858.390    92151270.558    22140858.426  
                                
  21710784.404   115893641.387    21710786.799    90139509.271    21710786.799  
                                
  25129415.939   132055972.412                                                  
  25129418.101    98613233.986  
  26140809.733   137370882.853                                                  
  26140810.876   102582156.957  
  23602323.554   124031047.313                                                  
  23602324.483    92620589.804  
  23978846.329   126009688.852                                                  
  23978848.920    94098153.014  
 21  8 28  6  8  4.0000000  0 18G 4G 7G 8G 9G16G27G30R 5R 7R 9R15R16
                                R17R18E 1E 4E19E21
  21391470.146   112412934.219    21391469.449    87594490.243    21391469.253  
  21391473.112    83944734.711  
  21703190.195   114051034.025    21703187.961    88870925.324    21703187.639  
                                
  20685046.038   108700651.238    20685047.056    84701807.024    20685046.360  
  20685045.609    81172561.234  
  20490371.753   107677629.612    20490371.431    83904644.235    20490371.145  
  20490371.449    80408618.472  
  23674811.533   124411973.814                    96944383.409    23674808.674  
                                
  21554834.740   113271421.251    21554834.704    88263443.235    21554834.204  
  21554834.133    84585798.656  
  24127585.307   126791316.530    24127586.021    98798429.192    24127585.414  
  24127586.075    94681829.569  
  22292335.080   119165306.325    22292335.992    92684130.048    22292336.081  
                                
  22345578.693   119617632.648    22345578.676    93035936.018    22345578.550  
                                
  22277672.278   118961527.279    22277673.047    92525635.375    22277673.082  
                                
  22292921.345   119126612.034    22292922.292    92654035.479    22292922.382  
                                
  20291097.588   108391401.487    20291097.106    84304420.592    20291098.213  
                                
  22140948.486   118480687.885    22140948.575    92151645.949    22140948.611  
                                
  21710281.177   115890955.098    21710283.571    90137419.944    21710283.571  
                                
  25129217.896   132054931.801                                                  
  25129220.076    98612456.915  
  26140450.190   137368993.541                                                  
  26140451.351   102580746.102  
  23602512.054   124032037.968                                                  
  23602513.001    92621329.583  
  23978998.091   126010486.336                                                  
  23979000.664    94098748.540  
 21  8 28  6  8  5.0000000  0 18G 4G 7G 8G 9G16G27G30R 5R 7R 9R15R16
                                R17R18E 1E 4E19E21
  21391958.631   112415501.239    21391957.935    87596490.516    21391957.738  
  21391961.598    83946651.637  
  21702840.659   114049197.149    21702838.407    88869493.991    21702838.086  
                                
  20684921.455   108699996.516    20684922.474    84701296.851    20684921.777  
  20684921.026    81172072.309  
  20490452.163   107678052.114    20490451.842    83904973.460    20490451.556  
  20490451.860    80408933.975  
  23675438.021   124415265.951                    96946948.708    23675435.144  
                                
  21555101.435   113272822.615    21555101.364    88264535.207    21555100.881  
  21555100.810    84586845.129  
  24127086.260   126788694.052    24127086.993    98796385.693    24127086.386  
  24127087.047    94679871.201  
  22293132.914   119169571.190    22293133.808    92687447.168    22293133.915  
                                
  22345070.534   119614912.474    22345070.516    93033820.327    22345070.409  
                                
  22277320.348   118959648.026    22277321.134    92524173.734    22277321.152  
                                
  22293327.937   119128784.692    22293328.884    92655725.324    22293328.973  
                                
  20291113.402   108391485.974    20291112.920    84304486.305    20291114.045  
                                
  22141038.849   118481171.322    22141038.921    92152021.951    22141038.956  
                                
  21709778.039   115888269.340    21709780.433    90135331.019    21709780.433  
                                
  25129019.908   132053891.339                                                  
  25129022.088    98611679.944  
  26140090.737   137367104.522                                                  
  26140091.898   102579335.467  
  23602700.662   124033029.058                                                  
  23602701.609    92622069.678  
  23979149.852   126011283.922                                                  
  23979152.443    94099344.139  
 21  8 28  6  8  6.0000000  0 18G 4G 7G 8G 9G16G27G30R 5R 7R 9R15R16
                                R17R18E 1E 4E19E21
  21392447.206   112418068.749    21392446.509    87598491.176    21392446.331  
  21392450.190    83948568.945  
  21702491.123   114047360.363    21702488.889    88868062.730    21702488.568  
                                
  20684796.979   108699342.503    20684797.998    84700787.237    20684797.301  
  20684796.568    81171583.930  
  20490532.681   107678475.303    20490532.360    83905303.219    20490532.074  
  20490532.377    80409249.995  
  23676064.491   124418558.106                    96949514.023    23676061.614  
                                
  21555368.220   113274224.688    21555368.184    88265627.730    21555367.684  
  21555367.612    84587892.123  
  24126587.214   126786071.538    24126587.965    98794342.176    24126587.339  
  24126588.001    94677912.834  
  22293930.784   119173836.333    22293931.678    92690764.499    22293931.785  
                                
  22344562.536   119612192.990    22344562.482    93031705.170    22344562.393  
                                
  22276968.453   118957768.910    22276969.240    92522712.200    22276969.240  
                                
  22293734.529   119130957.374    22293735.458    92657415.190    22293735.565  
                                
  20291129.252   108391570.665    20291128.752    84304552.178    20291129.895  
                                
  22141129.356   118481655.647    22141129.427    92152398.649    22141129.481  
                                
  21709275.026   115885584.148    21709277.402    90133242.536    21709277.402  
                                
  25128821.955   132052851.101                                                  
  25128824.135    98610903.143  
  26139731.337   137365215.870                                                  
  26139732.499   102577925.118  
  23602889.341   124034020.617                                                  
  23602890.306    92622810.123  
  23979301.667   126012081.660                                                  
  23979304.258    94099939.853  
 21  8 28  6  8  7.0000000  0 18G 4G 7G 8G 9G16G27G30R 5R 7R 9R15R16
                                R17R18E 1E 4E19E21
  21392935.853   112420636.632    21392935.156    87600492.124    21392934.977  
  21392938.837    83950486.522  
  21702141.587   114045523.589    21702139.353    88866631.477    21702139.032  
                                
  20684672.665   108698689.084    20684673.683    84700278.077    20684672.986  
  20684672.218    81171095.989  
  20490613.324   107678899.034    20490613.002    83905633.397    20490612.717  
  20490613.002    80409566.415  
  23676690.961   124421850.199                    96952079.284    23676688.084  
                                
  21555635.129   113275627.305    21555635.094    88266720.677    21555634.611  
  21555634.522    84588939.538  
  24126088.150   126783448.907    24126088.901    98792298.570    24126088.258  
  24126088.919    94675954.376  
  22294728.672   119178101.502    22294729.601    92694081.851    22294729.672  
                                
  22344054.591   119609474.038    22344054.555    93029590.432    22344054.466  
                                
  22276616.559   118955889.827    22276617.327    92521250.688    22276617.345  
                                
  22294141.103   119133129.970    22294142.032    92659104.982    22294142.139  
                                
  20291145.138   108391655.437    20291144.637    84304618.109    20291145.763  
                                
  22141220.005   118482140.720    22141220.095    92152775.925    22141220.130  
                                
  21708772.066   115882899.403    21708774.443    90131154.401    21708774.443  
                                
  25128624.019   132051810.933                                                  
  25128626.182    98610126.394  
  26139371.991   137363327.455                                                  
  26139373.135   102576514.934  
  23603078.091   124035012.522                                                  
  23603079.056    92623550.834  
  23979453.483   126012879.422                                                  
  23979456.038    94100535.585  
 21  8 28  6  8  8.0000000  0 18G 4G 7G 8G 9G16G27G30R 5R 7R 9R15R16
                                R17R18E 1E 4E19E21
  21393424.570   112423204.838    21393423.891    87602493.321    21393423.695  
  21393427.555    83952404.322  
  21701792.051   114043686.739    21701789.817    88865200.163    21701789.496  
                                
  20684548.404   108698036.187    20684549.422    84699769.328    20684548.725  
  20684547.993    81170608.438  
  20490694.056   107679323.267    20490693.735    83905963.969    20490693.449  
  20490693.753    80409883.210  
  23677317.395   124425142.131                    96954644.423    23677314.536  
                                
  21555902.146   113277030.450    21555902.110    88267814.037    21555901.610  
  21555901.521    84589987.337  
  24125589.051   126780826.097    24125589.783    98790254.820    24125589.176  
  24125589.819    94673995.780  
  22295526.577   119182366.743    22295527.506    92697399.253    22295527.578  
                                
  22343546.771   119606755.573    22343546.735    93027476.073    22343546.628  
                                
  22276264.664   118954010.714    22276265.450    92519789.154    22276265.468  
                                
  22294547.623   119135302.410    22294548.588    92660794.663    22294548.677  
                                
  20291161.005   108391740.235    20291160.523    84304684.067    20291161.631  
                                
  22141310.780   118482626.467    22141310.851    92153153.728    22141310.905  
                                
  21708269.196   115880215.045    21708271.573    90129066.565    21708271.573  
                                
  25128426.084   132050770.779                                                  
  25128428.246    98609349.656  
  26139012.663   137361439.197                                                  
  26139013.806   102575104.873  
  23603266.895   124036004.700                                                  
  23603267.860    92624291.751  
  23979605.280   126013677.141                                                  
  23979607.853    94101131.283  
 21  8 28  6  8  9.0000000  0 18G 4G 7G 8G 9G16G27G30R 5R 7R 9R15R16
                                R17R18E 1E 4E19E21
  21393913.324   112425773.214    21393912.627    87604494.650    21393912.448  
  21393916.308    83954322.268  
  21701442.479   114041849.674    21701440.228    88863768.687    21701439.924  
                                
  20684424.250   108697383.700    20684425.268    84699260.893    20684424.553  
  20684423.821    81170121.183  
  20490774.860   107679747.888    20490774.538    83906294.837    20490774.253  
  20490774.556    80410200.291  
  23677943.794   124428433.846                    96957209.391    23677940.917  
                                
  21556169.234   113278433.982    21556169.181    88268907.703    21556168.698  
  21556168.627    84591035.435  
  24125089.880   126778202.973    24125090.630    98788210.834    24125089.987  
  24125090.648    94672036.967  
  22296324.465   119186631.883    22296325.394    92700716.582    22296325.483  
                                
  22343039.023   119604037.458    22343038.969    93025361.981    22343038.880  
                                
  22275912.734   118952131.440    22275913.520    92518327.499    22275913.538  
                                
  22294954.143   119137474.591    22294955.072    92662484.132    22294955.180  
                                
  20291176.855   108391824.952    20291176.373    84304749.957    20291177.498  
                                
  22141401.644   118483112.761    22141401.733    92153531.950    22141401.787  
                                
  21707766.380   115877530.995    21707768.774    90126978.966    21707768.774  
                                
  25128228.131   132049730.523                                                  
  25128230.311    98608572.844  
  26138653.353   137359551.002                                                  
  26138654.514   102573694.860  
  23603455.753   124036997.066                                                  
  23603456.700    92625032.796  
  23979757.060   126014474.697                                                  
  23979759.633    94101726.872  
 21  8 28  6  8 10.0000000  0 18G 4G 7G 8G 9G16G27G30R 5R 7R 9R15R16
                                R17R18E 1E 4E19E21
  21394402.131   112428341.925    21394401.452    87606496.241    21394401.255  
  21394405.115    83956240.458  
  21701092.890   114040012.595    21701090.656    88862337.196    21701090.334  
                                
  20684300.185   108696731.763    20684301.221    84698752.892    20684300.507  
  20684299.756    81169634.349  
  20490855.753   107680173.004    20490855.432    83906626.099    20490855.163  
  20490855.432    80410517.757  
  23678570.139   124431725.384                    96959774.233    23678567.280  
                                
  21556436.412   113279838.051    21556436.376    88270001.783    21556435.894  
  21556435.805    84592083.924  
  24124590.673   126775579.688    24124591.423    98786166.722    24124590.798  
  24124591.459    94670078.024  
  22297122.353   119190897.094    22297123.300    92704033.966    22297123.371  
                                
  22342531.346   119601319.899    22342531.310    93023248.329    22342531.203  
                                
  22275560.803   118950252.161    22275561.589    92516865.837    22275561.589  
                                
  22295360.610   119139646.626    22295361.557    92664173.492    22295361.646  
                                
  20291192.723   108391909.673    20291192.240    84304815.853    20291193.366  
                                
  22141492.669   118483599.767    22141492.740    92153910.730    22141492.776  
                                
  21707263.635   115874847.347    21707266.047    90124891.686    21707266.029  
                                
  25128030.196   132048690.326                                                  
  25128032.358    98607796.069  
  26138294.078   137357662.990                                                  
  26138295.239   102572284.987  
  23603644.646   124037989.725                                                  
  23603645.593    92625774.070  
  23979908.803   126015272.245                                                  
  23979911.394    94102322.448  
 21  8 28  6  8 11.0000000  0 18G 4G 7G 8G 9G16G27G30R 5R 7R 9R15R16
                                R17R18E 1E 4E19E21
  21394891.045   112430911.243    21394890.366    87608498.309    21394890.170  
  21394894.029    83958159.109  
  21700743.336   114038175.736    21700741.102    88860905.875    21700740.798  
                                
  20684176.281   108696080.673    20684177.300    84698245.547    20684176.603  
  20684175.870    81169148.148  
  20490936.807   107680598.939    20490936.485    83906957.992    20490936.199  
  20490936.503    80410835.821  
  23679196.519   124435017.107                    96962339.219    23679193.660  
                                
  21556703.751   113281242.932    21556703.715    88271096.491    21556703.232  
  21556703.143    84593133.024  
  24124091.519   126772956.523    24124092.234    98784122.695    24124091.609  
  24124092.270    94668119.178  
  22297920.329   119195162.676    22297921.259    92707351.631    22297921.366  
                                
  22342023.830   119598603.189    22342023.794    93021135.335    22342023.687  
                                
  22275208.926   118948373.149    22275209.713    92515404.393    22275209.730  
                                
  22295767.094   119141818.792    22295768.041    92665862.957    22295768.149  
                                
  20291208.644   108391994.689    20291208.144    84304881.972    20291209.287  
                                
  22141583.854   118484087.788    22141583.926    92154290.300    22141583.997  
                                
  21706761.033   115872164.417    21706763.427    90122804.963    21706763.410  
                                
  25127832.314   132047650.439                                                  
  25127834.477    98607019.537  
  26137934.893   137355775.473                                                  
  26137936.054   102570875.476  
  23603833.647   124038982.974                                                  
  23603834.612    92626515.780  
  23980060.636   126016070.063                                                  
  23980063.227    94102918.217  
 21  8 28  6  8 12.0000000  0 18G 4G 7G 8G 9G16G27G30R 5R 7R 9R15R16
                                R17R18E 1E 4E19E21
  21395380.121   112433481.315    21395379.442    87610500.960    21395379.245  
  21395383.105    83960078.319  
  21700393.871   114036339.256    21700391.638    88859474.851    21700391.316  
                                
  20684052.574   108695430.546    20684053.575    84697738.955    20684052.878  
  20684052.163    81168662.663  
  20491018.040   107681025.808    20491017.718    83907290.617    20491017.450  
  20491017.718    80411154.586  
  23679822.990   124438309.159                    96964904.455    23679820.113  
                                
  21556971.268   113282648.762    21556971.232    88272191.945    21556970.749  
  21556970.678    84594182.834  
  24123592.384   126770333.639    24123593.117    98782078.888    24123592.491  
  24123593.152    94666160.532  
  22298718.396   119199428.732    22298719.307    92710669.673    22298719.414  
                                
  22341516.511   119595887.412    22341516.457    93019023.063    22341516.368  
                                
  22274857.139   118946494.585    22274857.889    92513943.290    22274857.925  
                                
  22296173.650   119143991.265    22296174.597    92667552.656    22296174.687  
                                
  20291224.637   108392080.188    20291224.136    84304948.471    20291225.280  
                                
  22141675.272   118484576.939    22141675.344    92154670.750    22141675.397  
                                
  21706258.610   115869482.367    21706260.986    90120718.924    21706260.986  
                                
  25127634.522   132046611.026                                                  
  25127636.684    98606243.349  
  26137575.815   137353888.553                                                  
  26137576.976   102569466.416  
  23604022.791   124039976.942                                                  
  23604023.756    92627258.033  
  23980212.541   126016868.283                                                  
  23980215.096    94103514.284  
 21  8 28  6  8 13.0000000  0 18G 4G 7G 8G 9G16G27G30R 5R 7R 9R15R16
                                R17R18E 1E 4E19E21
  21395869.249   112436051.642    21395868.535    87612503.810    21395868.338  
  21395872.198    83961997.724  
  21700044.389   114034502.649    21700042.137    88858043.729    21700041.834  
                                
  20683928.956   108694780.909    20683929.974    84697232.744    20683929.260  
  20683928.527    81168177.540  
  20491099.344   107681453.125    20491099.022    83907623.591    20491098.754  
  20491099.040    80411473.682  
  23680449.406   124441600.989                    96967469.512    23680446.547  
                                
  21557238.892   113284055.050    21557238.856    88273287.753    21557238.356  
  21557238.284    84595232.990  
  24123093.249   126767710.518    24123093.963    98780034.902    24123093.356  
  24123094.017    94664201.694  
  22299516.426   119203694.791    22299517.373    92713987.712    22299517.481  
                                
  22341009.280   119593172.106    22341009.227    93016911.157    22341009.138  
                                
  22274505.316   118944615.928    22274506.084    92512482.117    22274506.102  
                                
  22296580.153   119146163.509    22296581.082    92669242.179    22296581.207  
                                
  20291240.647   108392165.672    20291240.147    84305014.961    20291241.291  
                                
  22141766.797   118485066.738    22141766.869    92155051.705    22141766.940  
                                
  21705756.240   115866800.671    21705758.617    90118633.159    21705758.617  
                                
  25127436.712   132045571.571                                                  
  25127438.892    98605467.139  
  26137216.772   137352001.761                                                  
  26137217.934   102568057.449  
  23604211.970   124040971.163                                                  
  23604212.935    92628000.471  
  23980364.410   126017666.415                                                  
  23980367.001    94104110.298  
 21  8 28  6  8 14.0000000  0 18G 4G 7G 8G 9G16G27G30R 5R 7R 9R15R16
                                R17R18E 1E 4E19E21
  21396358.467   112438622.536    21396357.771    87614507.104    21396357.556  
  21396361.416    83963917.545  
  21699694.924   114032666.242    21699692.673    88856612.765    21699692.351  
                                
  20683805.481   108694132.059    20683806.482    84696727.144    20683805.803  
  20683805.052    81167693.013  
  20491180.809   107681881.182    20491180.487    83907957.142    20491180.219  
  20491180.487    80411793.342  
  23681075.840   124444892.894                    96970034.628    23681072.963  
                                
  21557506.624   113285462.123    21557506.588    88274384.175    21557506.105  
  21557506.034    84596283.730  
  24122594.077   126765087.488    24122594.810    98777990.973    24122594.185  
  24122594.846    94662242.931  
  22300314.546   119207961.146    22300315.475    92717305.999    22300315.583  
                                
  22340502.175   119590457.543    22340502.122    93014799.830    22340502.032  
                                
  22274153.546   118942737.513    22274154.332    92511021.113    22274154.332  
                                
  22296986.673   119148335.860    22296987.620    92670931.785    22296987.709  
                                
  20291256.712   108392251.449    20291256.211    84305081.676    20291257.337  
                                
  22141858.483   118485557.425    22141858.591    92155433.353    22141858.626  
                                
  21705253.978   115864119.614    21705256.372    90116547.892    21705256.372  
                                
  25127238.974   132044532.391                                                  
  25127241.136    98604691.129  
  26136857.819   137350115.407                                                  
  26136858.981   102566648.805  
  23604401.292   124041965.912                                                  
  23604402.257    92628743.300  
  23980516.332   126018464.761                                                  
  23980518.905    94104706.459  
 21  8 28  6  8 15.0000000  0 18G 4G 7G 8G 9G16G27G30R 5R 7R 9R15R16
                                R17R18E 1E 4E19E21
  21396847.793   112441193.955    21396847.096    87616510.810    21396846.881  
  21396850.741    83965837.762  
  21699345.496   114030829.978    21699343.244    88855181.910    21699342.940  
                                
  20683682.149   108693483.968    20683683.168    84696222.140    20683682.471  
  20683681.738    81167209.050  
  20491262.416   107682309.972    20491262.095    83908291.262    20491261.809  
  20491262.095    80412113.536  
  23681702.293   124448184.931                    96972599.847    23681699.433  
                                
  21557774.534   113286869.919    21557774.498    88275481.158    21557774.016  
  21557773.926    84597335.008  
  24122094.942   126762464.458    24122095.657    98775947.056    24122095.031  
  24122095.710    94660284.188  
  22301112.702   119212227.757    22301113.649    92720624.468    22301113.738  
                                
  22339995.196   119587743.717    22339995.178    93012689.076    22339995.053  
                                
  22273801.812   118940859.283    22273802.599    92509560.268    22273802.599  
                                
  22297393.211   119150508.291    22297394.158    92672621.456    22297394.265  
                                
  20291272.812   108392337.476    20291272.311    84305148.586    20291273.437  
                                
  22141950.366   118486049.035    22141950.455    92155815.714    22141950.509  
                                
  21704751.840   115861439.188    21704754.235    90114463.114    21704754.217  
                                
  25127041.253   132043493.462                                                  
  25127043.433    98603915.302  
  26136498.920   137348229.437                                                  
  26136500.082   102565240.446  
  23604590.668   124042961.174                                                  
  23604591.651    92629486.511  
  23980668.290   126019263.294                                                  
  23980670.863    94105302.766  
 21  8 28  6  8 16.0000000  0 18G 4G 7G 8G 9G16G27G30R 5R 7R 9R15R16
                                R17R18E 1E 4E19E21
  21397337.207   112443765.899    21397336.511    87618514.920    21397336.332  
  21397340.174    83967758.368  
  21698996.085   114028993.850    21698993.851    88853751.166    21698993.530  
                                
  20683558.960   108692836.620    20683559.978    84695717.711    20683559.282  
  20683558.549    81166725.645  
  20491344.131   107682739.455    20491343.828    83908625.927    20491343.542  
  20491343.846    80412434.258  
  23682328.763   124451477.036                    96975165.126    23682325.904  
                                
  21558042.551   113288278.428    21558042.516    88276578.698    21558042.033  
  21558041.962    84598386.814  
  24121595.789   126759841.449    24121596.503    98773903.159    24121595.878  
  24121596.539    94658325.465  
  22301910.911   119216494.613    22301911.840    92723943.131    22301911.948  
                                
  22339488.376   119585030.570    22339488.323    93010578.846    22339488.233  
                                
  22273450.114   118938981.232    22273450.883    92508099.559    22273450.918  
                                
  22297799.767   119152680.779    22297800.696    92674311.165    22297800.821  
                                
  20291288.930   108392423.688    20291288.465    84305215.640    20291289.573  
                                
  22142042.409   118486541.557    22142042.499    92156198.791    22142042.552  
                                
  21704249.828   115858759.379    21704252.204    90112378.818    21704252.204  
                                
  25126843.604   132042454.752                                                  
  25126845.766    98603139.647  
  26136140.110   137346343.848                                                  
  26136141.272   102563832.379  
  23604780.151   124043956.923                                                  
  23604781.116    92630230.090  
  23980820.284   126020061.999                                                  
  23980822.857    94105899.199  
 21  8 28  6  8 17.0000000  0 18G 4G 7G 8G 9G16G27G30R 5R 7R 9R15R16
                                R17R18E 1E 4E19E21
  21397826.711   112446338.289    21397826.032    87620519.382    21397825.836  
  21397829.696    83969679.300  
  21698646.710   114027157.807    21698644.458    88852320.478    21698644.137  
                                
  20683435.914   108692189.950    20683436.915    84695213.814    20683436.218  
  20683435.485    81166242.740  
  20491425.989   107683169.575    20491425.668    83908961.085    20491425.382  
  20491425.686    80412755.449  
  23682955.233   124454769.115                    96977730.375    23682952.374  
                                
  21558310.712   113289687.603    21558310.676    88277676.756    21558310.194  
  21558310.122    84599439.116  
  24121096.653   126757218.457    24121097.386    98771859.276    24121096.760  
  24121097.422    94656366.713  
  22302709.156   119220761.681    22302710.085    92727261.964    22302710.193  
                                
  22338981.647   119582318.060    22338981.629    93008469.116    22338981.522  
                                
  22273098.452   118937103.288    22273099.220    92506638.936    22273099.220  
                                
  22298206.323   119154853.252    22298207.252    92676000.869    22298207.360  
                                
  20291305.119   108392510.076    20291304.619    84305282.833    20291305.744  
                                
  22142134.613   118487034.939    22142134.685    92156582.533    22142134.756  
                                
  21703747.923   115856080.119    21703750.299    90110294.949    21703750.281  
                                
  25126645.972   132041416.207                                                  
  25126648.134    98602364.110  
  26135781.354   137344458.568                                                  
  26135782.497   102562424.538  
  23604969.724   124044953.101                                                  
  23604970.689    92630973.989  
  23980972.278   126020860.796                                                  
  23980974.851    94106495.708  
 21  8 28  6  8 18.0000000  0 18G 4G 7G 8G 9G16G27G30R 5R 7R 9R15R16
                                R17R18E 1E 4E19E21
  21398316.341   112448911.240    21398315.661    87622524.279    21398315.447  
  21398319.307    83971600.659  
  21698297.352   114025321.948    21698295.101    88850889.939    21698294.797  
                                
  20683313.011   108691544.083    20683314.011    84694710.542    20683313.297  
  20683312.582    81165760.437  
  20491507.990   107683600.460    20491507.669    83909296.840    20491507.383  
  20491507.669    80413077.214  
  23683581.721   124458061.331                    96980295.739    23683578.862  
                                
  21558579.015   113291097.535    21558578.979    88278775.404    21558578.497  
  21558578.425    84600491.994  
  24120597.518   126754595.482    24120598.233    98769815.393    24120597.607  
  24120598.268    94654408.014  
  22303507.455   119225029.042    22303508.402    92730581.020    22303508.491  
                                
  22338475.078   119579606.327    22338475.042    93006359.991    22338474.935  
                                
  22272746.789   118935225.559    22272747.576    92505178.480    22272747.594  
                                
  22298612.897   119157025.827    22298613.826    92677690.647    22298613.933  
                                
  20291321.344   108392596.756    20291320.844    84305350.246    20291321.969  
                                
  22142226.978   118487529.233    22142227.068    92156966.983    22142227.121  
                                
  21703246.125   115853401.538    21703248.501    90108211.609    21703248.501  
                                
  25126448.394   132040377.949                                                  
  25126450.557    98601588.785  
  26135422.687   137342573.727                                                  
  26135423.848   102561017.027  
  23605159.403   124045949.827                                                  
  23605160.368    92631718.296  
  23981124.326   126021659.823                                                  
  23981126.917    94107092.384  
 21  8 28  6  8 19.0000000  0 18G 4G 7G 8G 9G16G27G30R 5R 7R 9R15R16
                                R17R18E 1E 4E19E21
  21398806.005   112451484.391    21398805.291    87624529.326    21398805.112  
  21398808.954    83973522.170  
  21697947.977   114023485.908    21697945.708    88849459.256    21697945.404  
                                
  20683190.179   108690898.649    20683191.198    84694207.606    20683190.501  
  20683189.750    81165278.456  
  20491590.045   107684031.748    20491589.723    83909632.908    20491589.455  
  20491589.759    80413399.280  
  23684208.173   124461353.292                    96982860.901    23684205.278  
                                
  21558847.408   113292507.896    21558847.354    88279874.382    21558846.890  
  21558846.800    84601545.174  
  24120098.329   126751972.267    24120099.061    98767771.332    24120098.418  
  24120099.097    94652449.126  
  22304305.735   119229296.304    22304306.683    92733900.006    22304306.772  
                                
  22337968.562   119576895.000    22337968.545    93004251.200    22337968.419  
                                
  22272395.145   118933347.725    22272395.931    92503717.961    22272395.931  
                                
  22299019.399   119159198.121    22299020.347    92679380.211    22299020.454  
                                
  20291337.551   108392683.377    20291337.069    84305417.616    20291338.194  
                                
  22142319.433   118488024.061    22142319.540    92157351.864    22142319.594  
                                
  21702744.398   115850723.244    21702746.775    90106128.498    21702746.757  
                                
  25126250.799   132039339.603                                                  
  25126252.961    98600813.397  
  26135064.038   137340688.952                                                  
  26135065.199   102559609.558  
  23605349.083   124046946.733                                                  
  23605350.066    92632462.745  
  23981276.355   126022458.721                                                  
  23981278.928    94107688.957  
 21  8 28  6  8 20.0000000  0 18G 4G 7G 8G 9G16G27G30R 5R 7R 9R15R16
                                R17R18E 1E 4E19E21
  21399295.777   112454058.195    21399295.081    87626534.889    21399294.902  
  21399298.744    83975444.160  
  21697598.620   114021650.137    21697596.386    88848028.788    21697596.065  
                                
  20683067.508   108690254.076    20683068.527    84693705.342    20683067.830  
  20683067.115    81164797.122  
  20491672.278   107684463.854    20491671.957    83909969.612    20491671.671  
  20491671.974    80413721.954  
  23684834.643   124464645.444                    96985426.209    23684831.784  
                                
  21559115.944   113293919.089    21559115.908    88280974.014    21559115.425  
  21559115.354    84602598.988  
  24119599.176   126749349.190    24119599.890    98765727.378    24119599.265  
  24119599.926    94650490.333  
  22305104.088   119233563.951    22305105.035    92737219.285    22305105.142  
                                
  22337462.226   119574184.532    22337462.208    93002143.055    22337462.083  
                                
  22272043.536   118931470.214    22272044.322    92502257.674    22272044.340  
                                
  22299425.938   119161370.574    22299426.885    92681069.896    22299426.974  
                                
  20291353.830   108392770.347    20291353.365    84305485.259    20291354.473  
                                
  22142412.102   118488519.929    22142412.209    92157737.539    22142412.244  
                                
  21702242.779   115848045.692    21702245.191    90104045.962    21702245.156  
                                
  25126053.292   132038301.618                                                  
  25126055.455    98600038.272  
  26134705.460   137338804.681                                                  
  26134706.621   102558202.477  
  23605538.924   124047944.255                                                  
  23605539.889    92633207.645  
  23981428.421   126023257.903                                                  
  23981431.012    94108285.742  
 21  8 28  6  8 21.0000000  0 18G 4G 7G 8G 9G16G27G30R 5R 7R 9R15R16
                                R17R18E 1E 4E19E21
  21399785.675   112456632.695    21399784.996    87628540.990    21399784.799  
  21399788.659    83977366.677  
  21697249.334   114019814.684    21697247.101    88846598.566    21697246.779  
                                
  20682945.034   108689610.429    20682946.035    84693203.798    20682945.338  
  20682944.623    81164316.478  
  20491754.672   107684896.847    20491754.351    83910307.011    20491754.083  
  20491754.351    80414045.297  
  23685461.167   124467937.851                    96987991.719    23685458.308  
                                
  21559384.640   113295331.187    21559384.604    88282074.349    21559384.122  
  21559384.050    84603653.476  
  24119100.076   126746726.325    24119100.791    98763683.587    24119100.165  
  24119100.826    94648531.693  
  22305902.511   119237832.019    22305903.458    92740538.891    22305903.566  
                                
  22336956.050   119571474.966    22336956.014    93000035.620    22336955.907  
                                
  22271692.017   118929593.072    22271692.803    92500797.680    22271692.821  
                                
  22299832.529   119163543.304    22299833.476    92682759.793    22299833.584  
                                
  20291370.198   108392857.719    20291369.698    84305553.220    20291370.823  
                                
  22142504.985   118489016.921    22142505.056    92158124.091    22142505.128  
                                
  21701741.356   115845368.962    21701743.733    90101964.056    21701743.733  
                                
  25125855.840   132037264.036                                                  
  25125858.002    98599263.454  
  26134346.989   137336920.979                                                  
  26134348.151   102556795.810  
  23605728.871   124048942.457                                                  
  23605729.836    92633953.050  
  23981580.575   126024057.435                                                  
  23981583.149    94108882.804  
 21  8 28  6  8 22.0000000  0 18G 4G 7G 8G 9G16G27G30R 5R 7R 9R15R16
                                R17R18E 1E 4E19E21
  21400275.661   112459207.527    21400274.982    87630547.353    21400274.785  
  21400278.627    83979289.438  
  21696900.066   114017979.189    21696897.815    88845168.313    21696897.493  
                                
  20682822.649   108688967.333    20682823.668    84692702.689    20682822.971  
  20682822.256    81163836.244  
  20491837.156   107685330.368    20491836.834    83910644.817    20491836.566  
  20491836.870    80414369.028  
  23686087.655   124471230.126                    96990557.133    23686084.796  
                                
  21559653.480   113296743.819    21559653.426    88283175.101    21559652.943  
  21559652.872    84604708.357  
  24118600.923   126744103.295    24118601.619    98761639.674    24118601.012  
  24118601.673    94646572.943  
  22306700.953   119242100.164    22306701.900    92743858.558    22306702.007  
                                
  22336449.981   119568765.947    22336449.946    92997928.603    22336449.856  
                                
  22271340.497   118927715.903    22271341.248    92499337.660    22271341.266  
                                
  22300239.139   119165715.944    22300240.050    92684449.622    22300240.157  
                                
  20291386.548   108392945.107    20291386.066    84305621.185    20291387.191  
                                
  22142597.975   118489514.642    22142598.082    92158511.209    22142598.136  
                                
  21701239.987   115842692.644    21701242.382    90099882.473    21701242.364  
                                
  25125658.405   132036226.506                                                  
  25125660.567    98598488.675  
  26133988.573   137335037.471                                                  
  26133989.734   102555389.303  
  23605918.891   124049940.974                                                  
  23605919.855    92634698.693  
  23981732.712   126024856.964                                                  
  23981735.303    94109479.848  
 21  8 28  6  8 23.0000000  0 18G 4G 7G 8G 9G16G27G30R 5R 7R 9R15R16
                                R17R18E 1E 4E19E21
  21400765.701   112461782.708    21400765.022    87632553.985    21400764.826  
  21400768.667    83981212.459  
  21696550.781   114016143.663    21696548.529    88843738.033    21696548.207  
                                
  20682700.371   108688324.809    20682701.408    84692202.018    20682700.693  
  20682699.978    81163356.437  
  20491919.764   107685764.417    20491919.442    83910983.039    20491919.174  
  20491919.460    80414693.153  
  23686714.142   124474522.325                    96993122.476    23686711.283  
                                
  21559922.373   113298156.993    21559922.337    88284276.277    21559921.872  
  21559921.783    84605763.656  
  24118101.751   126741480.109    24118102.448    98759595.631    24118101.823  
  24118102.484    94644614.079  
  22307499.412   119246368.373    22307500.377    92747178.275    22307500.467  
                                
  22335944.020   119566057.445    22335943.984    92995821.992    22335943.877  
                                
  22270988.960   118925838.785    22270989.728    92497877.681    22270989.746  
                                
  22300645.695   119167888.462    22300646.606    92686139.360    22300646.714  
                                
  20291402.916   108393032.533    20291402.434    84305689.183    20291403.559  
                                
  22142691.108   118490013.042    22142691.216    92158898.851    22142691.269  
                                
  21700738.708   115840016.752    21700741.084    90097801.219    21700741.084  
                                
  25125460.970   132035189.025                                                  
  25125463.150    98597713.938  
  26133630.209   137333154.189                                                  
  26133631.371   102553982.948  
  23606108.963   124050939.804                                                  
  23606109.928    92635444.577  
  23981884.849   126025656.486                                                  
  23981887.440    94110076.896  
 21  8 28  6  8 24.0000000  0 18G 4G 7G 8G 9G16G27G30R 5R 7R 9R15R16
                                R17R18E 1E 4E19E21
  21401255.813   112464358.165    21401255.098    87634560.837    21401254.901  
  21401258.761    83983135.694  
  21696201.477   114014308.065    21696199.225    88842307.690    21696198.904  
                                
  20682578.219   108687682.825    20682579.237    84691701.776    20682578.522  
  20682577.808    81162877.036  
  20492002.444   107686198.956    20492002.122    83911321.641    20492001.854  
  20492002.158    80415017.649  
  23687340.595   124477814.350                    96995687.706    23687337.736  
                                
  21560191.391   113299570.661    21560191.355    88285377.843    21560190.872  
  21560190.801    84606819.324  
  24117602.545   126738856.768    24117603.241    98757551.464    24117602.616  
  24117603.277    94642655.084  
  22308297.872   119250636.638    22308298.837    92750498.028    22308298.926  
                                
  22335438.130   119563349.455    22335438.112    92993715.778    22335438.005  
                                
  22270637.423   118923961.614    22270638.191    92496417.659    22270638.227  
                                
  22301052.215   119170060.762    22301053.144    92687828.920    22301053.252  
                                
  20291419.284   108393119.971    20291418.802    84305757.195    20291419.927  
                                
  22142784.385   118490512.107    22142784.492    92159287.018    22142784.546  
                                
  21700237.499   115837341.263    21700239.894    90095720.299    21700239.876  
                                
  25125263.571   132034151.569                                                  
  25125265.715    98596939.205  
  26133271.864   137331271.054                                                  
  26133273.025   102552576.708  
  23606299.072   124051938.919                                                  
  23606300.055    92636190.663  
  23982037.004   126026455.965                                                  
  23982039.577    94110673.910  
 21  8 28  6  8 25.0000000  0 18G 4G 7G 8G 9G16G27G30R 5R 7R 9R15R16
                                R17R18E 1E 4E19E21
  21401745.960   112466934.077    21401745.281    87636568.038    21401745.084  
  21401748.926    83985059.275  
  21695852.191   114012472.530    21695849.922    88840877.410    21695849.600  
                                
  20682456.173   108687041.495    20682457.210    84691202.041    20682456.477  
  20682455.762    81162398.123  
  20492085.267   107686634.140    20492084.963    83911660.744    20492084.677  
  20492084.981    80415342.616  
  23687967.047   124481106.385                    96998252.928    23687964.188  
                                
  21560460.516   113300984.995    21560460.480    88286479.921    21560459.998  
  21560459.926    84607875.488  
  24117103.320   126736233.368    24117104.052    98755507.259    24117103.409  
  24117104.070    94640696.045  
  22309096.367   119254905.097    22309097.332    92753817.942    22309097.421  
                                
  22334932.401   119560642.107    22334932.347    92991610.065    22334932.258  
                                
  22270285.921   118922084.546    22270286.672    92494957.720    22270286.690  
                                
  22301458.718   119172233.036    22301459.665    92689518.471    22301459.772  
                                
  20291435.688   108393207.603    20291435.205    84305825.349    20291436.331  
                                
  22142877.804   118491012.015    22142877.911    92159675.835    22142877.965  
                                
  21699736.398   115834666.322    21699738.793    90093639.787    21699738.775  
                                
  25125066.172   132033114.265                                                  
  25125068.334    98596164.597  
  26132913.572   137329388.244                                                  
  26132914.734   102551170.718  
  23606489.288   124052938.466                                                  
  23606490.288    92636937.080  
  23982189.159   126027255.552                                                  
  23982191.732    94111271.002  
 21  8 28  6  8 26.0000000  0 18G 4G 7G 8G 9G16G27G30R 5R 7R 9R15R16
                                R17R18E 1E 4E19E21
  21402236.250   112469510.475    21402235.571    87638575.624    21402235.375  
  21402239.199    83986983.203  
  21695502.905   114010637.103    21695500.672    88839447.204    21695500.350  
                                
  20682334.271   108686400.846    20682335.271    84690702.832    20682334.575  
  20682333.860    81161919.719  
  20492168.197   107687069.967    20492167.876    83912000.347    20492167.607  
  20492167.893    80415668.077  
  23688593.499   124484398.434                    97000818.168    23688590.640  
                                
  21560729.802   113302400.009    21560729.766    88287582.529    21560729.284  
  21560729.195    84608932.151  
  24116604.095   126733609.948    24116604.810    98753463.038    24116604.184  
  24116604.846    94638737.006  
  22309894.916   119259173.747    22309895.863    92757138.004    22309895.970  
                                
  22334426.761   119557935.417    22334426.726    92989504.864    22334426.636  
                                
  22269934.402   118920207.604    22269935.188    92493497.883    22269935.188  
                                
  22301865.220   119174405.303    22301866.167    92691208.010    22301866.256  
                                
  20291452.145   108393295.452    20291451.663    84305893.679    20291452.788  
                                
  22142971.384   118491512.799    22142971.473    92160065.334    22142971.545  
                                
  21699235.387   115831991.953    21699237.799    90091559.723    21699237.781  
                                
  25124868.791   132032077.143                                                  
  25124870.971    98595390.125  
  26132555.352   137327505.760                                                  
  26132556.513   102549764.965  
  23606679.575   124053938.449                                                  
  23606680.558    92637683.819  
  23982341.331   126028055.263                                                  
  23982343.904    94111868.186  
 21  8 28  6  8 27.0000000  0 18G 4G 7G 8G 9G16G27G30R 5R 7R 9R15R16
                                R17R18E 1E 4E19E21
  21402726.594   112472087.276    21402725.915    87640583.521    21402725.701  
  21402729.560    83988907.439  
  21695153.637   114008801.705    21695151.404    88838017.027    21695151.082  
                                
  20682212.475   108685760.837    20682213.476    84690204.126    20682212.779  
  20682212.064    81161441.788  
  20492251.270   107687506.405    20492250.949    83912340.428    20492250.663  
  20492250.966    80415993.989  
  23689219.951   124487690.439                    97003383.369    23689217.092  
                                
  21560999.178   113303815.631    21560999.124    88288685.614    21560998.642  
  21560998.570    84609989.271  
  24116104.870   126730986.448    24116105.585    98751418.752    24116104.942  
  24116105.621    94636777.897  
  22310693.464   119263442.534    22310694.447    92760458.172    22310694.537  
                                
  22333921.247   119555229.342    22333921.211    92987400.141    22333921.104  
                                
  22269582.936   118918330.743    22269583.704    92492038.102    22269583.722  
                                
  22302271.740   119176577.558    22302272.687    92692897.539    22302272.777  
                                
  20291468.603   108393383.427    20291468.138    84305962.106    20291469.246  
                                
  22143065.107   118492014.372    22143065.214    92160455.448    22143065.268  
                                
  21698734.500   115829318.100    21698736.877    90089480.061    21698736.877  
                                
  25124671.463   132031040.141                                                  
  25124673.643    98594615.740  
  26132197.185   137325623.564                                                  
  26132198.347   102548359.420  
  23606869.951   124054938.823                                                  
  23606870.934    92638430.853  
  23982493.504   126028855.023                                                  
  23982496.095    94112465.414  
 21  8 28  6  8 28.0000000  0 18G 4G 7G 8G 9G16G27G30R 5R 7R 9R15R16
                                R17R18E 1E 4E19E21
  21403217.045   112474664.588    21403216.348    87642591.813    21403216.152  
  21403220.011    83990832.055  
  21694804.405   114006966.445    21694802.154    88836586.949    21694801.850  
                                
  20682090.841   108685121.562    20682091.842    84689705.987    20682091.127  
  20682090.412    81160964.411  
  20492334.451   107687943.547    20492334.129    83912681.058    20492333.843  
  20492334.147    80416320.424  
  23689846.421   124490982.512                    97005948.616    23689843.562  
                                
  21561268.696   113305231.954    21561268.660    88289789.245    21561268.178  
  21561268.089    84611046.919  
  24115605.645   126728362.963    24115606.342    98749374.488    24115605.699  
  24115606.360    94634818.815  
  22311492.067   119267711.563    22311493.050    92763778.530    22311493.157  
                                
  22333415.857   119552523.976    22333415.821    92985295.972    22333415.714  
                                
  22269231.488   118916454.075    22269232.256    92490578.474    22269232.274  
                                
  22302678.278   119178749.891    22302679.190    92694587.134    22302679.315  
                                
  20291485.114   108393471.620    20291484.631    84306030.700    20291485.757  
                                
  22143159.009   118492516.817    22143159.116    92160846.241    22143159.170  
                                
  21698233.721   115826644.858    21698236.115    90087400.873    21698236.097  
                                
  25124474.189   132030003.371                                                  
  25124476.351    98593841.529  
  26131839.090   137323741.732                                                  
  26131840.251   102546954.158  
  23607060.399   124055939.685                                                  
  23607061.400    92639178.250  
  23982645.748   126029654.966                                                  
  23982648.321    94113062.770  
 21  8 28  6  8 29.0000000  0 18G 4G 7G 8G 9G16G27G30R 5R 7R 9R15R16
                                R17R18E 1E 4E19E21
  21403707.603   112477242.565    21403706.924    87644600.622    21403706.728  
  21403710.570    83992757.162  
  21694455.227   114005131.476    21694452.975    88835157.103    21694452.653  
                                
  20681969.350   108684483.161    20681970.350    84689208.531    20681969.635  
  20681968.921    81160487.679  
  20492417.792   107688381.525    20492417.470    83913022.340    20492417.184  
  20492417.488    80416647.483  
  23690472.909   124494274.769                    97008514.004    23690470.032  
                                
  21561538.376   113306649.146    21561538.340    88290893.545    21561537.857  
  21561537.786    84612105.208  
  24115106.439   126725739.634    24115107.135    98747330.335    24115106.528  
  24115107.189    94632859.828  
  22312290.741   119271980.992    22312291.723    92767099.197    22312291.831  
                                
  22332910.610   119549819.447    22332910.575    92983192.450    22332910.485  
                                
  22268880.112   118914577.724    22268880.898    92489119.080    22268880.898  
                                
  22303084.834   119180922.418    22303085.782    92696276.882    22303085.871  
                                
  20291501.696   108393560.156    20291501.214    84306099.557    20291502.321  
                                
  22143253.089   118493020.314    22143253.214    92161237.839    22143253.268  
                                
  21697733.067   115823972.367    21697735.461    90085322.279    21697735.443  
                                
  25124276.969   132028966.968                                                  
  25124279.113    98593067.589  
  26131481.066   137321860.416                                                  
  26131482.246   102545549.286  
  23607250.973   124056941.174                                                  
  23607251.973    92639926.119  
  23982798.028   126030455.207                                                  
  23982800.601    94113660.357  
 21  8 28  6  8 30.0000000  0 18G 4G 7G 8G 9G16G27G30R 5R 7R 9R15R16
                                R17R18E 1E 4E19E21
  21404198.251   112479820.906    21404197.572    87646609.719    21404197.375  
  21404201.199    83994682.551  
  21694106.048   114003296.498    21694103.797    88833727.250    21694103.475  
                                
  20681847.983   108683845.353    20681848.966    84688711.540    20681848.269  
  20681847.554    81160011.393  
  20492501.240   107688820.081    20492500.918    83913364.068    20492500.632  
  20492500.936    80416974.981  
  23691099.379   124497566.956                    97011079.343    23691096.520  
                                
  21561808.162   113308066.910    21561808.126    88291998.299    21561807.644  
  21561807.572    84613163.932  
  24114607.214   126723116.272    24114607.929    98745286.159    24114607.303  
  24114607.964    94630900.829  
  22313089.450   119276250.523    22313090.433    92770419.943    22313090.522  
                                
  22332405.489   119547115.480    22332405.453    92981089.364    22332405.364  
                                
  22268528.753   118912701.417    22268529.503    92487659.730    22268529.521  
                                
  22303491.373   119183094.844    22303492.320    92697966.541    22303492.409  
                                
  20291518.278   108393648.757    20291517.796    84306168.471    20291518.922  
                                
  22143347.330   118493524.570    22143347.438    92161630.040    22143347.473  
                                
  21697232.502   115821300.356    21697234.896    90083244.046    21697234.896  
                                
  25124079.748   132027930.656                                                  
  25124081.928    98592293.722  
  26131123.114   137319979.358                                                  
  26131124.275   102544144.602  
  23607441.635   124057943.035                                                  
  23607442.618    92640674.254  
  23982950.308   126031255.481                                                  
  23982952.881    94114257.969  
 21  8 28  6  8 31.0000000  0 18G 4G 7G 8G 9G16G27G30R 5R 7R 9R15R16
                                R17R18E 1E 4E19E21
  21404689.024   112482399.937    21404688.345    87648619.356    21404688.148  
  21404691.990    83996608.439  
  21693756.923   114001461.822    21693754.654    88832297.637    21693754.332  
                                
  20681726.760   108683208.457    20681727.778    84688215.258    20681727.081  
  20681726.367    81159535.796  
  20492584.867   107689259.494    20492584.545    83913706.467    20492584.259  
  20492584.563    80417303.107  
  23691725.921   124500859.387                    97013644.878    23691723.062  
                                
  21562078.127   113309485.578    21562078.091    88293103.754    21562077.609  
  21562077.538    84614223.320  
  24114108.043   126720493.042    24114108.740    98743242.084    24114108.114  
  24114108.775    94628941.915  
  22313888.231   119280520.430    22313889.196    92773740.986    22313889.303  
                                
  22331900.528   119544412.406    22331900.492    92978986.974    22331900.385  
                                
  22268177.448   118910825.450    22268178.198    92486200.647    22268178.216  
                                
  22303897.946   119185267.439    22303898.894    92699656.338    22303899.001  
                                
  20291534.950   108393737.773    20291534.450    84306237.704    20291535.594  
                                
  22143441.732   118494029.854    22143441.858    92162023.039    22143441.911  
                                
  21696732.098   115818629.129    21696734.474    90081166.427    21696734.474  
                                
  25123882.617   132026894.722                                                  
  25123884.779    98591520.142  
  26130765.251   137318098.828                                                  
  26130766.413   102542740.315  
  23607632.387   124058945.528                                                  
  23607633.370    92641422.875  
  23983102.677   126032056.093                                                  
  23983105.250    94114855.823  
 21  8 28  6  8 32.0000000  0 18G 4G 7G 8G 9G16G27G30R 5R 7R 9R15R16
                                R17R18E 1E 4E19E21
  21405179.868   112484979.297    21405179.171    87650629.244    21405178.975  
  21405182.834    83998534.598  
  21693407.780   113999627.126    21693405.547    88830868.001    21693405.225  
                                
  20681605.679   108682572.148    20681606.698    84687719.433    20681606.001  
  20681605.268    81159060.630  
  20492668.583   107689699.453    20492668.262    83914049.297    20492667.976  
  20492668.280    80417631.652  
  23692352.427   124504151.709                    97016210.323    23692349.550  
                                
  21562348.200   113310904.792    21562348.146    88294209.633    21562347.681  
  21562347.592    84615283.118  
  24113608.836   126717869.672    24113609.533    98741197.897    24113608.925  
  24113609.568    94626982.907  
  22314687.030   119284790.459    22314687.995    92777062.120    22314688.102  
                                
  22331395.692   119541709.922    22331395.657    92976885.044    22331395.550  
                                
  22267826.125   118908949.519    22267826.893    92484741.590    22267826.911  
                                
  22304304.503   119187439.934    22304305.432    92701346.053    22304305.557  
                                
  20291551.622   108393826.879    20291551.140    84306307.010    20291552.265  
                                
  22143536.313   118494535.885    22143536.420    92162416.618    22143536.474  
                                
  21696231.765   115815958.346    21696234.159    90079089.156    21696234.141  
                                
  25123685.504   132025858.867                                                  
  25123687.666    98590746.614  
  26130407.460   137316218.539                                                  
  26130408.621   102541336.201  
  23607823.228   124059948.364                                                  
  23607824.229    92642171.744  
  23983255.010   126032856.704                                                  
  23983257.583    94115453.689  
 21  8 28  6  8 33.0000000  0 18G 4G 7G 8G 9G16G27G30R 5R 7R 9R15R16
                                R17R18E 1E 4E19E21
  21405670.784   112487559.135    21405670.105    87652639.508    21405669.908  
  21405673.750    84000461.094  
  21693058.655   113997792.508    21693056.422    88829438.430    21693056.100  
                                
  20681484.724   108681936.532    20681485.742    84687224.147    20681485.045  
  20681484.331    81158585.978  
  20492752.425   107690140.070    20492752.103    83914392.630    20492751.835  
  20492752.121    80417960.684  
  23692978.915   124507444.039                    97018775.776    23692976.056  
                                
  21562618.379   113312324.669    21562618.344    88295316.030    21562617.861  
  21562617.772    84616343.416  
  24113109.629   126715246.275    24113110.326    98739153.692    24113109.682  
  24113110.344    94625023.879  
  22315485.865   119289060.694    22315486.848    92780383.412    22315486.937  
                                
  22330890.964   119539008.122    22330890.928    92974783.642    22330890.839  
                                
  22267474.856   118907073.719    22267475.624    92483282.634    22267475.624  
                                
  22304711.076   119189612.449    22304711.988    92703035.785    22304712.113  
                                
  20291568.330   108393916.148    20291567.847    84306376.442    20291568.973  
                                
  22143631.037   118495042.747    22143631.126    92162810.844    22143631.198  
                                
  21695731.557   115813288.145    21695733.934    90077012.335    21695733.934  
                                
  25123488.426   132024823.183                                                  
  25123490.589    98589973.205  
  26130049.704   137314338.565                                                  
  26130050.865   102539932.321  
  23608014.141   124060951.640                                                  
  23608015.141    92642920.935  
  23983407.379   126033657.439                                                  
  23983409.970    94116051.632  
 21  8 28  6  8 34.0000000  0 18G 4G 7G 8G 9G16G27G30R 5R 7R 9R15R16
                                R17R18E 1E 4E19E21
  21406161.807   112490139.428    21406161.127    87654650.119    21406160.931  
  21406164.755    84002387.927  
  21692709.584   113995957.976    21692707.315    88828008.924    21692706.993  
                                
  20681363.911   108681301.576    20681364.912    84686729.377    20681364.215  
  20681363.500    81158111.820  
  20492836.391   107690581.323    20492836.070    83914736.463    20492835.784  
  20492836.088    80418290.187  
  23693605.438   124510736.397                    97021341.254    23693602.579  
                                
  21562888.702   113313745.200    21562888.666    88296422.938    21562888.184  
  21562888.112    84617404.205  
  24112610.404   126712622.834    24112611.083    98737109.457    24112610.458  
  24112611.119    94623064.824  
  22316284.735   119293331.111    22316285.718    92783704.833    22316285.825  
                                
  22330386.396   119536306.989    22330386.343    92972682.748    22330386.254  
                                
  22267123.604   118905198.041    22267124.355    92481823.774    22267124.391  
                                
  22305117.615   119191784.964    22305118.562    92704725.517    22305118.669  
                                
  20291585.091   108394005.570    20291584.590    84306445.990    20291585.698  
                                
  22143725.886   118495550.430    22143726.011    92163205.695    22143726.046  
                                
  21695231.439   115810618.510    21695233.816    90074935.950    21695233.798  
                                
  25123291.385   132023787.666                                                  
  25123293.529    98589199.933  
  26129692.038   137312458.915                                                  
  26129693.199   102538528.683  
  23608205.143   124061955.357                                                  
  23608206.143    92643670.461  
  23983559.784   126034458.288                                                  
  23983562.375    94116649.668  
 21  8 28  6  8 35.0000000  0 18G 4G 7G 8G 9G16G27G30R 5R 7R 9R15R16
                                R17R18E 1E 4E19E21
  21406652.883   112492720.067    21406652.204    87656661.006    21406652.007  
  21406655.849    84004315.027  
  21692360.459   113994123.427    21692358.225    88826579.405    21692357.904  
                                
  20681243.188   108680667.198    20681244.207    84686235.056    20681243.510  
  20681242.795    81157638.096  
  20492920.483   107691023.121    20492920.161    83915080.722    20492919.875  
  20492920.179    80418620.099  
  23694231.926   124514028.616                    97023906.624    23694229.049  
                                
  21563159.132   113315166.304    21563159.096    88297530.291    21563158.613  
  21563158.524    84618465.412  
  24112111.144   126709999.276    24112111.840    98735065.123    24112111.215  
  24112111.876    94621105.669  
  22317083.606   119297601.591    22317084.606    92787026.315    22317084.714  
                                
  22329881.882   119533606.402    22329881.847    92970582.292    22329881.740  
                                
  22266772.335   118903322.372    22266773.121    92480364.925    22266773.121  
                                
  22305524.153   119193957.365    22305525.100    92706415.162    22305525.189  
                                
  20291601.834   108394095.060    20291601.334    84306515.596    20291602.459  
                                
  22143820.913   118496058.861    22143821.002    92163601.143    22143821.074  
                                
  21694731.410   115807949.310    21694733.787    90072859.908    21694733.769  
                                
  25123094.325   132022752.211                                                  
  25123096.487    98588426.708  
  26129334.389   137310579.495                                                  
  26129335.551   102537125.219  
  23608396.198   124062959.393                                                  
  23608397.199    92644420.235  
  23983712.189   126035259.140                                                  
  23983714.762    94117247.709  
 21  8 28  6  8 36.0000000  0 18G 4G 7G 8G 9G16G27G30R 5R 7R 9R15R16
                                R17R18E 1E 4E19E21
  21407144.085   112495301.252    21407143.388    87658672.319    21407143.173  
  21407147.015    84006242.538  
  21692011.405   113992289.038    21692009.136    88825150.011    21692008.814  
                                
  20681122.626   108680033.577    20681123.609    84685741.330    20681122.912  
  20681122.197    81157164.947  
  20493004.682   107691465.648    20493004.360    83915425.550    20493004.074  
  20493004.378    80418950.564  
  23694858.432   124517320.929                    97026472.063    23694855.573  
                                
  21563429.704   113316588.126    21563429.651    88298638.205    21563429.186  
  21563429.097    84619527.169  
  24111611.919   126707375.779    24111612.616    98733020.838    24111612.008  
  24111612.669    94619146.556  
  22317882.548   119301872.337    22317883.548    92790348.004    22317883.656  
                                
  22329377.529   119530906.554    22329377.511    92968482.413    22329377.386  
                                
  22266421.137   118901446.921    22266421.888    92478906.238    22266421.906  
                                
  22305930.727   119196129.836    22305931.638    92708104.859    22305931.763  
                                
  20291618.631   108394184.801    20291618.131    84306585.397    20291619.274  
                                
  22143916.084   118496568.235    22143916.209    92163997.324    22143916.262  
                                
  21694231.489   115805280.742    21694233.865    90070784.357    21694233.847  
                                
  25122897.337   132021717.023                                                  
  25122899.499    98587653.678  
  26128976.812   137308700.471                                                  
  26128977.973   102535722.056  
  23608587.379   124063963.954                                                  
  23608588.380    92645170.397  
  23983864.612   126036060.183                                                  
  23983867.185    94117845.897  
 21  8 28  6  8 37.0000000  0 18G 4G 7G 8G 9G16G27G30R 5R 7R 9R15R16
                                R17R18E 1E 4E19E21
  21407635.358   112497882.938    21407634.661    87660684.023    21407634.482  
  21407638.306    84008170.416  
  21691662.334   113990454.767    21691660.083    88823720.709    21691659.779  
                                
  20681002.189   108679400.696    20681003.189    84685248.171    20681002.492  
  20681001.760    81156692.338  
  20493089.024   107691908.864    20493088.684    83915770.914    20493088.416  
  20493088.720    80419281.541  
  23695484.938   124520613.298                    97029037.547    23695482.079  
                                
  21563700.402   113318010.679    21563700.366    88299746.690    21563699.884  
  21563699.777    84620589.465  
  24111112.694   126704752.283    24111113.391    98730976.555    24111112.766  
  24111113.427    94617187.447  
  22318681.525   119306143.339    22318682.526    92793669.892    22318682.633  
                                
  22328873.301   119528207.379    22328873.265    92966383.054    22328873.176  
                                
  22266069.940   118899571.628    22266070.708    92477447.682    22266070.726  
                                
  22306337.283   119198302.360    22306338.194    92709794.598    22306338.319  
                                
  20291635.464   108394274.751    20291634.981    84306655.358    20291636.107  
                                
  22144011.433   118497078.474    22144011.558    92164394.173    22144011.629  
                                
  21693731.692   115802612.779    21693734.051    90068709.272    21693734.051  
                                
  25122700.385   132020682.040                                                  
  25122702.547    98586880.803  
  26128619.324   137306821.819                                                  
  26128620.468   102534319.167  
  23608778.631   124064969.006                                                  
  23608779.614    92645920.912  
  23984017.088   126036861.393                                                  
  23984019.679    94118444.197  
 21  8 28  6  8 38.0000000  0 18G 4G 7G 8G 9G16G27G30R 5R 7R 9R15R16
                                R17R18E 1E 4E19E21
  21408126.702   112500465.015    21408126.023    87662696.031    21408125.809  
  21408129.651    84010098.599  
  21691313.298   113988620.535    21691311.047    88822291.437    21691310.725  
                                
  20680881.877   108678768.469    20680882.877    84684755.532    20680882.180  
  20680881.466    81156220.221  
  20493173.491   107692352.693    20493173.169    83916116.755    20493172.883  
  20493173.187    80419612.959  
  23696111.462   124523905.603                    97031602.977    23696108.603  
                                
  21563971.207   113319433.796    21563971.172    88300855.610    21563970.689  
  21563970.618    84621652.197  
  24110613.451   126702128.707    24110614.148    98728932.207    24110613.505  
  24110614.166    94615228.285  
  22319480.521   119310414.482    22319481.521    92796991.895    22319481.629  
                                
  22328369.180   119525508.795    22328369.145    92964284.158    22328369.055  
                                
  22265718.760   118897696.407    22265719.546    92475989.181    22265719.546  
                                
  22306743.821   119200474.842    22306744.768    92711484.308    22306744.857  
                                
  20291652.332   108394364.834    20291651.832    84306725.423    20291652.957  
                                
  22144106.943   118497589.507    22144107.068    92164791.644    22144107.121  
                                
  21693231.985   115799945.311    21693234.361    90066634.575    21693234.343  
                                
  25122503.468   132019647.177                                                  
  25122505.630    98586108.012  
  26128261.890   137304943.435                                                  
  26128263.034   102532916.473  
  23608969.955   124065974.412                                                  
  23608970.955    92646671.707  
  23984169.547   126037662.653                                                  
  23984172.138    94119042.540  
 21  8 28  6  8 39.0000000  0 18G 4G 7G 8G 9G16G27G30R 5R 7R 9R15R16
                                R17R18E 1E 4E19E21
  21408618.154   112503047.676    21408617.475    87664708.498    21408617.278  
  21408621.120    84012027.208  
  21690964.299   113986786.502    21690962.047    88820862.320    21690961.725  
                                
  20680761.707   108678137.040    20680762.708    84684263.509    20680762.011  
  20680761.314    81155748.704  
  20493258.065   107692797.251    20493257.761    83916463.158    20493257.475  
  20493257.779    80419944.938  
  23696737.985   124527198.054                    97034168.512    23696735.126  
                                
  21564242.155   113320857.725    21564242.120    88301965.172    21564241.655  
  21564241.566    84622715.523  
  24110114.209   126699505.198    24110114.906    98726887.927    24110114.280  
  24110114.941    94613269.178  
  22320279.570   119314685.908    22320280.588    92800314.122    22320280.696  
                                
  22327865.202   119522810.965    22327865.167    92962185.853    22327865.077  
                                
  22265367.633   118895821.412    22265368.402    92474530.854    22265368.420  
                                
  22307150.377   119202647.390    22307151.324    92713174.072    22307151.431  
                                
  20291669.254   108394455.181    20291668.753    84306795.692    20291669.879  
                                
  22144202.613   118498101.487    22144202.738    92165189.860    22144202.792  
                                
  21692732.403   115797278.504    21692734.779    90064560.399    21692734.779  
                                
  25122306.569   132018612.590                                                  
  25122308.749    98585335.437  
  26127904.510   137303065.485                                                  
  26127905.671   102531514.121  
  23609161.386   124066980.379                                                  
  23609162.386    92647422.909  
  23984322.077   126038464.139                                                  
  23984324.650    94119641.055  
 21  8 28  6  8 40.0000000  0 18G 4G 7G 8G 9G16G27G30R 5R 7R 9R15R16
                                R17R18E 1E 4E19E21
  21409109.695   112505630.674    21409109.016    87666721.224    21409108.802  
  21409112.643    84013956.068  
  21690615.281   113984952.427    21690613.029    88819433.174    21690612.708  
                                
  20680641.663   108677506.163    20680642.664    84683771.919    20680641.949  
  20680641.234    81155277.594  
  20493342.782   107693242.351    20493342.460    83916809.992    20493342.174  
  20493342.478    80420277.320  
  23697364.509   124530490.390                    97036733.965    23697361.650  
                                
  21564513.228   113322282.200    21564513.193    88303075.150    21564512.710  
  21564512.621    84623779.250  
  24109614.930   126696881.534    24109615.627    98724843.515    24109615.002  
  24109615.663    94611309.958  
  22321078.655   119318957.387    22321079.655    92803636.386    22321079.745  
                                
  22327361.332   119520113.685    22327361.314    92960087.968    22327361.189  
                                
  22265016.507   118893946.435    22265017.276    92473072.541    22265017.293  
                                
  22307556.933   119204819.821    22307557.862    92714863.746    22307557.969  
                                
  20291686.158   108394545.563    20291685.658    84306865.987    20291686.783  
                                
  22144298.427   118498614.176    22144298.552    92165588.615    22144298.624  
                                
  21692232.910   115794612.151    21692235.269    90062486.569    21692235.269  
                                
  25122109.724   132017578.059                                                  
  25122111.886    98584562.898  
  26127547.201   137301187.746                                                  
  26127548.362   102530111.907  
  23609352.870   124067986.669                                                  
  23609353.871    92648174.357  
  23984474.571   126039265.619                                                  
  23984477.162    94120239.565  
 21  8 28  6  8 41.0000000  0 18G 4G 7G 8G 9G16G27G30R 5R 7R 9R15R16
                                R17R18E 1E 4E19E21
  21409601.290   112508214.040    21409600.611    87668734.236    21409600.414  
  21409604.238    84015885.208  
  21690266.263   113983118.359    21690264.012    88818004.032    21690263.690  
                                
  20680521.726   108676875.882    20680522.727    84683280.793    20680522.030  
  20680521.315    81154806.930  
  20493427.588   107693688.029    20493427.266    83917157.271    20493426.998  
  20493427.284    80420610.123  
  23697990.997   124533782.654                    97039299.367    23697988.120  
                                
  21564784.409   113323707.233    21564784.373    88304185.565    21564783.890  
  21564783.783    84624843.398  
  24109115.652   126694257.785    24109116.349    98722799.031    24109115.724  
  24109116.385    94609350.660  
  22321877.740   119323228.981    22321878.740    92806958.737    22321878.847  
                                
  22326857.568   119517416.990    22326857.532    92957990.534    22326857.425  
                                
  22264665.399   118892071.508    22264666.167    92471614.265    22264666.185  
                                
  22307963.471   119206992.193    22307964.382    92716553.371    22307964.507  
                                
  20291703.098   108394636.049    20291702.615    84306936.366    20291703.741  
                                
  22144394.366   118499127.600    22144394.491    92165987.947    22144394.562  
                                
  21691733.506   115791946.283    21691735.883    90060413.119    21691735.865  
                                
  25121912.879   132016543.622                                                  
  25121915.023    98583790.429  
  26127189.928   137299310.248                                                  
  26127191.071   102528709.883  
  23609544.426   124068993.302                                                  
  23609545.427    92648926.073  
  23984627.119   126040067.137                                                  
  23984629.692    94120838.101  
 21  8 28  6  8 42.0000000  0 18G 4G 7G 8G 9G16G27G30R 5R 7R 9R15R16
                                R17R18E 1E 4E19E21
  21410092.938   112510797.710    21410092.259    87670747.486    21410092.062  
  21410095.886    84017814.568  
  21689917.245   113981284.211    21689914.994    88816574.826    21689914.672  
                                
  20680401.879   108676246.117    20680402.880    84682790.067    20680402.183  
  20680401.450    81154336.653  
  20493512.484   107694134.185    20493512.162    83917504.923    20493511.894  
  20493512.180    80420943.294  
  23698617.449   124537074.762                    97041864.646    23698614.590  
                                
  21565055.678   113325132.791    21565055.643    88305296.392    21565055.160  
  21565055.071    84625907.931  
  24108616.338   126691633.837    24108617.035    98720754.398    24108616.409  
  24108617.071    94607391.220  
  22322676.842   119327500.601    22322677.843    92810281.105    22322677.932  
                                
  22326353.894   119514720.813    22326353.876    92955893.510    22326353.769  
                                
  22264314.290   118890196.523    22264315.041    92470155.938    22264315.059  
                                
  22308369.955   119209164.401    22308370.902    92718242.866    22308370.992  
                                
  20291720.055   108394726.563    20291719.555    84307006.767    20291720.681  
                                
  22144490.448   118499641.696    22144490.573    92166387.800    22144490.626  
                                
  21691234.174   115789280.803    21691236.551    90058339.965    21691236.533  
                                
  25121716.034   132015509.200                                                  
  25121718.196    98583017.968  
  26126832.672   137297432.917                                                  
  26126833.834   102527307.985  
  23609736.036   124070000.226                                                  
  23609737.036    92649677.992  
  23984779.613   126040868.602                                                  
  23984782.204    94121436.589  
 21  8 28  6  8 43.0000000  0 18G 4G 7G 8G 9G16G27G30R 5R 7R 9R15R16
                                R17R18E 1E 4E19E21
  21410584.676   112513381.814    21410583.997    87672761.069    21410583.800  
  21410587.624    84019744.255  
  21689568.228   113979450.131    21689565.976    88815145.673    21689565.654  
                                
  20680282.174   108675617.042    20680283.175    84682299.881    20680282.460  
  20680281.763    81153866.884  
  20493597.505   107694580.970    20493597.183    83917853.069    20493596.915  
  20493597.219    80421276.934  
  23699243.937   124540366.855                    97044429.913    23699241.060  
                                
  21565327.073   113326558.989    21565327.019    88306407.717    21565326.573  
  21565326.465    84626972.943  
  24108117.024   126689009.844    24108117.721    98718709.731    24108117.095  
  24108117.739    94605431.741  
  22323475.945   119331772.370    22323476.963    92813603.593    22323477.071  
                                
  22325850.363   119512025.299    22325850.309    92953797.002    22325850.220  
                                
  22263963.182   118888321.665    22263963.950    92468697.713    22263963.950  
                                
  22308776.458   119211336.582    22308777.405    92719932.335    22308777.494  
                                
  20291737.013   108394817.217    20291736.531    84307077.273    20291737.656  
                                
  22144586.672   118500156.610    22144586.797    92166788.289    22144586.851  
                                
  21690734.932   115786615.866    21690737.308    90056267.241    21690737.290  
                                
  25121519.207   132014474.921                                                  
  25121521.387    98582245.617  
  26126475.488   137295555.888                                                  
  26126476.632   102525906.312  
  23609927.734   124071007.552                                                  
  23609928.735    92650430.222  
  23984932.143   126041670.159                                                  
  23984934.716    94122035.163  
 21  8 28  6  8 44.0000000  0 18G 4G 7G 8G 9G16G27G30R 5R 7R 9R15R16
                                R17R18E 1E 4E19E21
  21411076.467   112515966.215    21411075.788    87674774.891    21411075.591  
  21411079.415    84021674.171  
  21689219.192   113977615.975    21689216.940    88813716.455    21689216.637  
                                
  20680162.559   108674988.504    20680163.578    84681810.106    20680162.863  
  20680162.166    81153397.515  
  20493682.633   107695028.259    20493682.311    83918201.606    20493682.043  
  20493682.329    80421610.951  
  23699870.371   124543658.786                    97046995.050    23699867.512  
                                
  21565598.557   113327985.653    21565598.539    88307519.401    21565598.057  
  21565597.950    84628038.313  
  24107617.638   126686385.664    24107618.335    98716664.920    24107617.728  
  24107618.353    94603472.137  
  22324275.083   119336044.229    22324276.102    92816926.145    22324276.209  
                                
  22325346.921   119509330.303    22325346.885    92951700.900    22325346.778  
                                
  22263612.073   118886446.768    22263612.860    92467239.472    22263612.860  
                                
  22309182.924   119213508.577    22309183.872    92721621.672    22309183.961  
                                
  20291753.989   108394907.900    20291753.506    84307147.805    20291754.632  
                                
  22144683.040   118500672.254    22144683.147    92167189.364    22144683.219  
                                
  21690235.778   115783951.346    21690238.137    90054194.841    21690238.137  
                                
  25121322.397   132013440.669                                                  
  25121324.559    98581473.293  
  26126118.322   137293679.068                                                  
  26126119.484   102524504.775  
  23610119.487   124072015.183                                                  
  23610120.488    92651182.667  
  23985084.691   126042471.689                                                  
  23985087.246    94122633.701  
 21  8 28  6  8 45.0000000  0 18G 4G 7G 8G 9G16G27G30R 5R 7R 9R15R16
                                R17R18E 1E 4E19E21
  21411568.419   112518551.280    21411567.704    87676789.229    21411567.508  
  21411571.349    84023604.574  
  21688870.246   113975782.103    21688867.958    88812287.464    21688867.655  
                                
  20680043.122   108674360.828    20680044.123    84681321.006    20680043.426  
  20680042.711    81152928.798  
  20493767.904   107695476.390    20493767.582    83918550.797    20493767.296  
  20493767.600    80421945.588  
  23700496.842   124546950.938                    97049560.363    23700493.983  
                                
  21565870.220   113329413.209    21565870.184    88308631.781    21565869.702  
  21565869.594    84629104.343  
  24107118.306   126683761.630    24107118.985    98714620.216    24107118.360  
  24107119.021    94601512.646  
  22325074.293   119340316.434    22325075.312    92820248.967    22325075.419  
                                
  22324843.622   119506636.137    22324843.586    92949605.440    22324843.479  
                                
  22263261.036   118884572.176    22263261.787    92465781.453    22263261.805  
                                
  22309589.409   119215680.752    22309590.356    92723311.141    22309590.445  
                                
  20291771.054   108394998.935    20291770.553    84307218.610    20291771.661  
                                
  22144779.586   118501188.935    22144779.711    92167591.227    22144779.765  
                                
  21689736.768   115781287.571    21689739.127    90052123.018    21689739.127  
                                
  25121125.659   132012406.781                                                  
  25121127.821    98580701.231  
  26125761.281   137291802.740                                                  
  26125762.443   102523103.625  
  23610311.329   124073023.436                                                  
  23610312.347    92651935.579  
  23985237.274   126043273.518                                                  
  23985239.830    94123232.472  
 21  8 28  6  8 46.0000000  0 18G 4G 7G 8G 9G16G27G30R 5R 7R 9R15R16
                                R17R18E 1E 4E19E21
  21412060.442   112521136.978    21412059.763    87678804.056    21412059.567  
  21412063.391    84025535.452  
  21688521.299   113973948.501    21688519.048    88810858.686    21688518.726  
                                
  20679923.829   108673734.003    20679924.830    84680832.574    20679924.133  
  20679923.436    81152460.721  
  20493853.335   107695925.346    20493853.032    83918900.631    20493852.746  
  20493853.049    80422280.849  
  23701123.365   124550243.272                    97052125.820    23701120.488  
                                
  21566142.026   113330841.590    21566141.990    88309744.803    21566141.507  
  21566141.436    84630170.998  
  24106619.010   126681137.790    24106619.707    98712575.661    24106619.064  
  24106619.725    94599553.274  
  22325873.557   119344588.986    22325874.593    92823572.058    22325874.700  
                                
  22324340.466   119503942.788    22324340.448    92947510.611    22324340.341  
                                
  22262910.035   118882697.891    22262910.804    92464323.680    22262910.821  
                                
  22309995.947   119217853.124    22309996.876    92725000.762    22309997.001  
                                
  20291788.136   108395090.287    20291787.636    84307289.659    20291788.762  
                                
  22144876.311   118501706.614    22144876.454    92167993.866    22144876.508  
                                
  21689237.883   115778624.574    21689240.277    90050051.798    21689240.259  
                                
  25120928.975   132011373.242                                                  
  25120931.155    98579929.439  
  26125404.330   137289926.917                                                  
  26125405.491   102521702.847  
  23610503.296   124074032.293                                                  
  23610504.314    92652688.957  
  23985389.894   126044075.649                                                  
  23985392.467    94123831.464  
 21  8 28  6  8 47.0000000  0 18G 4G 7G 8G 9G16G27G30R 5R 7R 9R15R16
                                R17R18E 1E 4E19E21
  21412552.591   112523723.239    21412551.894    87680819.325    21412551.698  
  21412555.522    84027466.754  
  21688172.407   113972115.084    21688170.155    88809430.052    21688169.851  
                                
  20679804.714   108673107.997    20679805.733    84680344.777    20679805.000  
  20679804.303    81151993.243  
  20493938.910   107696375.065    20493938.588    83919251.061    20493938.303  
  20493938.606    80422616.683  
  23701749.889   124553535.735                    97054691.374    23701747.030  
                                
  21566413.992   113332270.766    21566413.956    88310858.449    21566413.474  
  21566413.384    84631238.238  
  24106119.714   126678513.988    24106120.393    98710531.140    24106119.767  
  24106120.429    94597593.951  
  22326672.892   119348861.830    22326673.910    92826895.381    22326674.018  
                                
  22323837.471   119501250.198    22323837.453    92945416.374    22323837.346  
                                
  22262559.088   118880823.832    22262559.856    92462866.079    22262559.856  
                                
  22310402.503   119220025.627    22310403.432    92726690.482    22310403.540  
                                
  20291805.273   108395181.877    20291804.808    84307360.898    20291805.916  
                                
  22144973.233   118502225.213    22144973.376    92168397.218    22144973.429  
                                
  21688739.158   115775962.254    21688741.535    90047981.103    21688741.517  
                                
  25120732.362   132010339.987                                                  
  25120734.524    98579157.848  
  26125047.450   137288051.526                                                  
  26125048.593   102520302.394  
  23610695.388   124075041.705                                                  
  23610696.406    92653442.735  
  23985542.585   126044877.995                                                  
  23985545.158    94124430.614  
 21  8 28  6  8 48.0000000  0 18G 4G 7G 8G 9G16G27G30R 5R 7R 9R15R16
                                R17R18E 1E 4E19E21
  21413044.811   112526309.867    21413044.114    87682834.877    21413043.918  
  21413047.760    84029398.324  
  21687823.532   113970281.658    21687821.262    88808001.410    21687820.959  
                                
  20679685.688   108672482.578    20679686.689    84679857.437    20679685.992  
  20679685.295    81151526.216  
  20494024.592   107696825.327    20494024.270    83919601.915    20494023.985  
  20494024.288    80422952.915  
  23702376.395   124556828.092                    97057256.847    23702373.536  
                                
  21566686.048   113333700.488    21566686.030    88311972.518    21566685.548  
  21566685.440    84632305.894  
  24105620.418   126675890.096    24105621.097    98708486.552    24105620.471  
  24105621.132    94595634.541  
  22327472.245   119353134.796    22327473.263    92830218.792    22327473.370  
                                
  22323334.601   119498558.202    22323334.547    92943322.597    22323334.458  
                                
  22262208.140   118878949.816    22262208.908    92461408.513    22262208.908  
                                
  22310809.041   119222198.041    22310809.988    92728380.132    22310810.078  
                                
  20291822.445   108395273.548    20291821.962    84307432.198    20291823.070  
                                
  22145070.297   118502744.565    22145070.405    92168801.154    22145070.476  
                                
  21688240.505   115773300.378    21688242.864    90045910.754    21688242.864  
                                
  25120535.749   132009306.803                                                  
  25120537.929    98578386.313  
  26124690.623   137286176.370                                                  
  26124691.767   102518902.111  
  23610887.533   124076051.461                                                  
  23610888.570    92654196.764  
  23985695.258   126045680.355                                                  
  23985697.849    94125029.786  
 21  8 28  6  8 49.0000000  0 18G 4G 7G 8G 9G16G27G30R 5R 7R 9R15R16
                                R17R18E 1E 4E19E21
  21413537.085   112528896.830    21413536.388    87684850.687    21413536.191  
  21413540.033    84031330.147  
  21687474.639   113968448.206    21687472.352    88806572.740    21687472.066  
                                
  20679566.788   108671857.720    20679567.806    84679370.539    20679567.092  
  20679566.395    81151059.603  
  20494110.381   107697276.120    20494110.060    83919953.182    20494109.774  
  20494110.077    80423289.544  
  23703002.901   124560120.341                    97059822.240    23703000.042  
                                
  21566958.229   113335130.782    21566958.193    88313087.030    21566957.711  
  21566957.639    84633373.962  
  24105121.050   126673266.047    24105121.729    98706441.844    24105121.121  
  24105121.782    94593675.031  
  22328271.598   119357407.837    22328272.634    92833542.275    22328272.741  
                                
  22322831.820   119495866.769    22322831.785    92941229.251    22322831.677  
                                
  22261857.210   118877075.823    22261857.979    92459950.970    22261857.997  
                                
  22311215.544   119224370.299    22311216.491    92730069.669    22311216.598  
                                
  20291839.635   108395365.341    20291839.135    84307503.592    20291840.260  
                                
  22145167.469   118503264.610    22145167.612    92169205.632    22145167.666  
                                
  21687741.924   115770638.931    21687744.283    90043840.745    21687744.283  
                                
  25120339.154   132008273.672                                                  
  25120341.316    98577614.814  
  26124333.832   137284301.418                                                  
  26124334.976   102517501.987  
  23611079.750   124077061.527                                                  
  23611080.769    92654951.043  
  23985847.948   126046482.707                                                  
  23985850.521    94125628.938  
 21  8 28  6  8 50.0000000  0 18G 4G 7G 8G 9G16G27G30R 5R 7R 9R15R16
                                R17R18E 1E 4E19E21
  21414029.502   112531484.480    21414028.823    87686867.035    21414028.626  
  21414032.450    84033262.476  
  21687125.782   113966615.050    21687123.531    88805144.306    21687123.209  
                                
  20679448.048   108671233.751    20679449.049    84678884.327    20679448.352  
  20679447.655    81150593.652  
  20494196.313   107697727.784    20494195.992    83920305.130    20494195.724  
  20494196.045    80423626.826  
  23703629.442   124563412.818                    97062387.807    23703626.583  
                                
  21567230.571   113336561.936    21567230.553    88314202.217    21567230.070  
  21567229.963    84634442.683  
  24104621.754   126670642.187    24104622.433    98704397.277    24104621.825  
  24104622.486    94591715.651  
  22329071.040   119361681.305    22329072.076    92836866.081    22329072.183  
                                
  22322329.200   119493176.241    22322329.183    92939136.618    22322329.075  
                                
  22261506.334   118875202.184    22261507.102    92458493.693    22261507.102  
                                
  22311622.100   119226542.781    22311623.047    92731759.377    22311623.136  
                                
  20291856.896   108395457.549    20291856.396    84307575.312    20291857.522  
                                
  22145264.855   118503785.750    22145264.998    92169610.964    22145265.052  
                                
  21687243.485   115767978.286    21687245.844    90041771.357    21687245.844  
                                
  25120142.631   132007240.931                                                  
  25120144.775    98576843.614  
  26123977.149   137282427.010                                                  
  26123978.274   102516102.262  
  23611272.075   124078072.251                                                  
  23611273.093    92655705.805  
  23986000.693   126047285.387                                                  
  23986003.266    94126228.348  
 21  8 28  6  8 51.0000000  0 18G 4G 7G 8G 9G16G27G30R 5R 7R 9R15R16
                                R17R18E 1E 4E19E21
  21414521.990   112534072.449    21414521.293    87688883.639    21414521.096  
  21414524.920    84035195.053  
  21686776.943   113964781.850    21686774.674    88803715.841    21686774.370  
                                
  20679329.434   108670610.348    20679330.434    84678398.558    20679329.720  
  20679329.023    81150128.121  
  20494282.388   107698179.971    20494282.067    83920657.481    20494281.781  
  20494282.085    80423964.496  
  23704255.966   124566705.187                    97064953.287    23704253.107  
                                
  21567503.020   113337993.618    21567502.984    88315317.816    21567502.501  
  21567502.412    84635511.801  
  24104122.422   126668018.144    24104123.101    98702352.569    24104122.457  
  24104123.119    94589756.149  
  22329870.500   119365954.824    22329871.536    92840189.927    22329871.644  
                                
  22321826.688   119490486.236    22321826.670    92937044.388    22321826.563  
                                
  22261155.458   118873328.528    22261156.226    92457036.405    22261156.244  
                                
  22312028.638   119228715.153    22312029.567    92733449.002    22312029.656  
                                
  20291874.158   108395549.801    20291873.675    84307647.066    20291874.801  
                                
  22145362.367   118504307.591    22145362.509    92170016.836    22145362.581  
                                
  21686745.154   115765318.085    21686747.513    90039702.309    21686747.513  
                                
  25119946.107   132006208.237                                                  
  25119948.269    98576072.442  
  26123620.501   137280552.813                                                  
  26123621.627   102514702.708  
  23611464.488   124079083.295                                                  
  23611465.507    92656460.796  
  23986153.437   126048088.067                                                  
  23986156.010    94126827.748  
 21  8 28  6  8 52.0000000  0 18G 4G 7G 8G 9G16G27G30R 5R 7R 9R15R16
                                R17R18E 1E 4E19E21
  21415014.567   112536661.073    21415013.888    87690900.744    21415013.692  
  21415017.516    84037128.116  
  21686428.158   113962948.926    21686425.870    88802287.589    21686425.585  
                                
  20679210.980   108669987.834    20679211.981    84677913.483    20679211.248  
  20679210.551    81149663.257  
  20494368.589   107698633.006    20494368.267    83921010.491    20494367.981  
  20494368.285    80424302.794  
  23704882.525   124569997.767                    97067518.934    23704879.666  
                                
  21567775.612   113339426.149    21567775.594    88316434.074    21567775.111  
  21567775.004    84636581.556  
  24103623.108   126665394.298    24103623.787    98700308.018    24103623.161  
  24103623.822    94587796.782  
  22330670.014   119370228.698    22330671.050    92843514.053    22330671.139  
                                
  22321324.336   119487797.078    22321324.318    92934952.822    22321324.211  
                                
  22260804.635   118871455.195    22260805.422    92455579.366    22260805.422  
                                
  22312435.212   119230887.719    22312436.141    92735138.773    22312436.230  
                                
  20291891.491   108395642.397    20291890.991    84307719.082    20291892.116  
                                
  22145460.092   118504830.475    22145460.235    92170423.528    22145460.289  
                                
  21686246.948   115762658.632    21686249.307    90037633.846    21686249.307  
                                
  25119749.673   132005175.912                                                  
  25119751.835    98575301.552  
  26123263.942   137278679.130                                                  
  26123265.086   102513303.522  
  23611657.009   124080094.958                                                  
  23611658.028    92657216.265  
  23986306.235   126048891.053                                                  
  23986308.826    94127427.382  
 21  8 28  6  8 53.0000000  0 18G 4G 7G 8G 9G16G27G30R 5R 7R 9R15R16
                                R17R18E 1E 4E19E21
  21415507.288   112539250.242    21415506.591    87692918.279    21415506.394  
  21415510.218    84039061.582  
  21686079.408   113961116.179    21686077.121    88800859.471    21686076.817  
                                
  20679092.651   108669366.077    20679093.652    84677428.994    20679092.937  
  20679092.240    81149198.958  
  20494454.932   107699086.763    20494454.610    83921364.072    20494454.342  
  20494454.628    80424641.645  
  23705509.085   124573290.403                    97070084.629    23705506.226  
                                
  21568048.364   113340859.451    21568048.329    88317550.932    21568047.864  
  21568047.757    84637651.877  
  24103123.829   126662770.494    24103124.508    98698263.497    24103123.883  
  24103124.526    94585837.445  
  22331469.581   119374502.825    22331470.599    92846838.375    22331470.707  
                                
  22320822.109   119485108.637    22320822.073    92932861.813    22320821.984  
                                
  22260453.849   118869582.048    22260454.635    92454122.474    22260454.653  
                                
  22312841.786   119233060.323    22312842.697    92736828.581    22312842.822  
                                
  20291908.877   108395735.231    20291908.377    84307791.284    20291909.503  
                                
  22145557.979   118505354.315    22145558.122    92170830.960    22145558.175  
                                
  21685748.867   115759999.823    21685751.208    90035565.886    21685751.208  
                                
  25119553.274   132004143.844                                                  
  25119555.419    98574530.854  
  26122907.473   137276805.860                                                  
  26122908.617   102511904.659  
  23611849.619   124081107.146                                                  
  23611850.638    92657972.120  
  23986459.087   126049694.235                                                  
  23986461.660    94128027.159  
 21  8 28  6  8 54.0000000  0 18G 4G 7G 8G 9G16G27G30R 5R 7R 9R15R16
                                R17R18E 1E 4E19E21
  21416000.062   112541839.884    21415999.383    87694936.184    21415999.186  
  21416003.010    84040995.408  
  21685730.658   113959283.530    21685728.389    88799431.432    21685728.067  
                                
  20678974.483   108668745.048    20678975.466    84676945.080    20678974.769  
  20678974.072    81148735.207  
  20494541.418   107699541.203    20494541.096    83921718.179    20494540.810  
  20494541.114    80424981.002  
  23706135.680   124576583.122                    97072650.374    23706132.821  
                                
  21568321.224   113342293.422    21568321.206    88318668.310    21568320.724  
  21568320.617    84638722.693  
  24102624.515   126660146.674    24102625.194    98696218.965    24102624.569  
  24102625.212    94583878.112  
  22332269.184   119378777.177    22332270.202    92850162.868    22332270.328  
                                
  22320320.007   119482420.877    22320319.990    92930771.340    22320319.882  
                                
  22260103.115   118867709.063    22260103.884    92452665.713    22260103.902  
                                
  22313248.377   119235232.982    22313249.289    92738518.420    22313249.396  
                                
  20291926.282   108395828.253    20291925.799    84307863.637    20291926.925  
                                
  22145656.044   118505879.034    22145656.169    92171239.082    22145656.240  
                                
  21685250.893   115757341.587    21685253.234    90033498.366    21685253.234  
                                
  25119356.912   132003111.954                                                  
  25119359.074    98573760.297  
  26122551.058   137274932.937                                                  
  26122552.219   102510506.047  
  23612042.319   124082119.800                                                  
  23612043.337    92658728.321  
  23986611.956   126050497.549                                                  
  23986614.529    94128627.041  
 21  8 28  6  8 55.0000000  0 18G 4G 7G 8G 9G16G27G30R 5R 7R 9R15R16
                                R17R18E 1E 4E19E21
  21416492.961   112544429.978    21416492.282    87696954.436    21416492.085  
  21416495.891    84042929.565  
  21685381.944   113957450.964    21685379.657    88798003.456    21685379.353  
                                
  20678856.423   108668124.679    20678857.423    84676461.678    20678856.709  
  20678856.012    81148271.947  
  20494627.993   107699996.263    20494627.689    83922072.771    20494627.404  
  20494627.707    80425320.819  
  23706762.239   124579875.807                    97075216.108    23706759.380  
                                
  21568594.227   113343728.047    21568594.192    88319786.198    21568593.709  
  21568593.638    84639793.997  
  24102125.219   126657522.834    24102125.898    98694174.412    24102125.272  
  24102125.916    94581918.740  
  22333068.805   119383051.725    22333069.859    92853487.517    22333069.948  
                                
  22319818.031   119479733.781    22319818.013    92928681.379    22319817.906  
                                
  22259752.382   118865836.198    22259753.169    92451209.037    22259753.169  
                                
  22313654.933   119237405.607    22313655.863    92740208.239    22313655.970  
                                
  20291943.740   108395921.436    20291943.240    84307936.115    20291944.365  
                                
  22145754.234   118506404.509    22145754.377    92171647.787    22145754.431  
                                
  21684752.990   115754683.887    21684755.349    90031431.271    21684755.331  
                                
  25119160.585   132002080.237                                                  
  25119162.747    98572989.860  
  26122194.714   137273060.315                                                  
  26122195.857   102509107.665  
  23612235.090   124083132.866                                                  
  23612236.108    92659484.833  
  23986764.826   126051300.963                                                  
  23986767.417    94129226.997  
 21  8 28  6  8 56.0000000  0 18G 4G 7G 8G 9G16G27G30R 5R 7R 9R15R16
                                R17R18E 1E 4E19E21
  21416985.842   112547020.139    21416985.145    87698972.742    21416984.949  
  21416988.773    84044863.781  
  21685033.141   113955618.099    21685030.889    88796575.251    21685030.568  
                                
  20678738.434   108667504.618    20678739.434    84675978.516    20678738.720  
  20678738.005    81147808.915  
  20494714.658   107700451.604    20494714.354    83922427.583    20494714.068  
  20494714.372    80425660.843  
  23707388.763   124583168.127                    97077781.544    23707385.904  
                                
  21568867.284   113345162.940    21568867.248    88320904.298    21568866.783  
  21568866.694    84640865.514  
  24101625.851   126654898.569    24101626.512    98692129.537    24101625.887  
  24101626.548    94579959.070  
  22333868.426   119387326.100    22333869.462    92856812.029    22333869.552  
                                
  22319316.126   119477047.005    22319316.108    92926591.664    22319316.001  
                                
  22259401.596   118863963.054    22259402.382    92449752.150    22259402.400  
                                
  22314061.454   119239577.851    22314062.365    92741897.764    22314062.490  
                                
  20291961.144   108396014.428    20291960.662    84308008.440    20291961.788  
                                
  22145852.496   118506930.426    22145852.639    92172056.833    22145852.693  
                                
  21684255.159   115752026.383    21684257.500    90029364.324    21684257.500  
                                
  25118964.204   132001048.317                                                  
  25118966.366    98572219.266  
  26121838.352   137271187.656                                                  
  26121839.513   102507709.260  
  23612427.879   124084145.996                                                  
  23612428.897    92660241.382  
  23986917.659   126052104.124                                                  
  23986920.233    94129826.758  
 21  8 28  6  8 57.0000000  0 18G 4G 7G 8G 9G16G27G30R 5R 7R 9R15R16
                                R17R18E 1E 4E19E21
  21417478.831   112549610.791    21417478.152    87700991.431    21417477.937  
  21417481.761    84046798.356  
  21684684.391   113953785.345    21684682.122    88795147.129    21684681.818  
                                
  20678620.570   108666885.268    20678621.570    84675495.906    20678620.855  
  20678620.159    81147346.417  
  20494801.430   107700907.620    20494801.108    83922782.920    20494800.858  
  20494801.144    80426001.368  
  23708015.269   124586460.475                    97080347.015    23708012.410  
                                
  21569140.465   113346598.522    21569140.430    88322022.931    21569139.965  
  21569139.858    84641937.542  
  24101126.466   126652274.332    24101127.145    98690084.677    24101126.537  
  24101127.162    94577999.400  
  22334668.065   119391600.646    22334669.101    92860136.680    22334669.208  
                                
  22318814.346   119474360.916    22318814.310    92924502.488    22318814.239  
                                
  22259050.862   118862090.087    22259051.613    92448295.400    22259051.631  
                                
  22314467.956   119241750.103    22314468.867    92743587.292    22314468.992  
                                
  20291978.584   108396107.599    20291978.084    84308080.902    20291979.210  
                                
  22145950.936   118507457.231    22145951.079    92172466.577    22145951.151  
                                
  21683757.436   115749369.512    21683759.777    90027297.868    21683759.777  
                                
  25118767.877   132000016.583                                                  
  25118770.039    98571448.817  
  26121482.079   137269315.340                                                  
  26121483.223   102506311.095  
  23612620.757   124085159.581                                                  
  23612621.793    92660998.285  
  23987070.529   126052907.406                                                  
  23987073.102    94130426.609  
 21  8 28  6  8 58.0000000  0 18G 4G 7G 8G 9G16G27G30R 5R 7R 9R15R16
                                R17R18E 1E 4E19E21
  21417971.908   112552202.008    21417971.229    87703010.562    21417971.033  
  21417974.839    84048733.360  
  21684335.659   113951952.785    21684333.408    88793719.163    21684333.086  
                                
  20678502.848   108666266.715    20678503.849    84675013.919    20678503.152  
  20678502.455    81146884.517  
  20494888.363   107701364.379    20494888.041    83923138.838    20494887.755  
  20494888.059    80426342.462  
  23708641.810   124589752.947                    97082912.582    23708638.951  
                                
  21569413.790   113348034.899    21569413.772    88323142.191    21569413.290  
  21569413.182    84643010.159  
  24100627.098   126649650.143    24100627.777    98688039.857    24100627.151  
  24100627.795    94576039.794  
  22335467.757   119395875.481    22335468.793    92863461.551    22335468.901  
                                
  22318312.691   119471675.595    22318312.673    92922413.903    22318312.584  
                                
  22258700.129   118860217.347    22258700.915    92446838.831    22258700.933  
                                
  22314874.494   119243922.469    22314875.406    92745276.912    22314875.513  
                                
  20291996.060   108396201.045    20291995.578    84308153.584    20291996.704  
                                
  22146049.591   118507985.027    22146049.716    92172877.086    22146049.788  
                                
  21683259.837   115746713.350    21683262.178    90025231.965    21683262.178  
                                
  25118571.604   131998985.136                                                  
  25118573.766    98570678.585  
  26121125.860   137267443.491                                                  
  26121127.004   102504913.283  
  23612813.742   124086173.726                                                  
  23612814.779    92661755.605  
  23987223.434   126053710.925                                                  
  23987226.007    94131026.642  
 21  8 28  6  8 59.0000000  0 18G 4G 7G 8G 9G16G27G30R 5R 7R 9R15R16
                                R17R18E 1E 4E19E21
  21418465.076   112554793.546    21418464.397    87705029.946    21418464.182  
  21418467.988    84050668.604  
  21683986.928   113950120.172    21683984.658    88792291.157    21683984.354  
                                
  20678385.252   108665648.721    20678386.253    84674532.365    20678385.538  
  20678384.841    81146423.023  
  20494975.385   107701821.671    20494975.045    83923495.168    20494974.777  
  20494975.081    80426683.949  
  23709268.316   124593045.280                    97085478.030    23709265.439  
                                
  21569687.222   113349471.775    21569687.186    88324261.837    21569686.721  
  21569686.614    84644083.160  
  24100127.712   126647025.816    24100128.373    98685994.927    24100127.766  
  24100128.409    94574080.062  
  22336267.449   119400150.390    22336268.504    92866786.472    22336268.593  
                                
  22317811.161   119468990.762    22317811.125    92920325.697    22317811.054  
                                
  22258349.432   118858344.603    22258350.218    92445382.248    22258350.236  
                                
  22315280.997   119246094.707    22315281.908    92746966.421    22315282.015  
                                
  20292013.572   108396294.526    20292013.090    84308226.292    20292014.215  
                                
  22146148.336   118508513.520    22146148.461    92173288.117    22146148.550  
                                
  21682762.328   115744057.567    21682764.686    90023166.344    21682764.668  
                                
  25118375.331   131997953.736                                                  
  25118377.493    98569908.377  
  26120769.695   137265571.808                                                  
  26120770.838   102503515.599  
  23613006.799   124087188.168                                                  
  23613007.818    92662513.145  
  23987376.322   126054514.421                                                  
  23987378.895    94131626.658  
 21  8 28  6  9  0.0000000  0 18G 4G 7G 8G 9G16G27G30R 5R 7R 9R15R16
                                R17R18E 1E 4E19E21
  21418958.314   112557385.606    21418957.635    87707049.729    21418957.439  
  21418961.245    84052604.224  
  21683638.214   113948287.721    21683635.962    88790863.271    21683635.640  
                                
  20678267.781   108665031.465    20678268.782    84674051.386    20678268.085  
  20678267.388    81145962.084  
  20495062.532   107702279.668    20495062.211    83923852.049    20495061.925  
  20495062.228    80427025.960  
  23709894.822   124596337.693                    97088043.549    23709891.963  
                                
  21569960.797   113350909.385    21569960.743    88325382.054    21569960.278  
  21569960.171    84645156.687  
  24099628.327   126644401.492    24099628.988    98683949.997    24099628.362  
  24099629.006    94572120.344  
  22337067.195   119404425.500    22337068.250    92870111.564    22337068.339  
                                
  22317309.738   119466306.643    22317309.720    92918238.042    22317309.631  
                                
  22257998.770   118856472.038    22257999.521    92443925.809    22257999.556  
                                
  22315687.499   119248266.977    22315688.428    92748655.962    22315688.553  
                                
  20292031.119   108396388.223    20292030.637    84308299.169    20292031.745  
                                
  22146247.258   118509042.871    22146247.384    92173699.832    22146247.473  
                                
  21682264.926   115741402.392    21682267.266    90021101.207    21682267.266  
                                
  25118179.111   131996922.553                                                  
  25118181.255    98569138.336  
  26120413.619   137263700.514                                                  
  26120414.745   102502118.199  
  23613199.928   124088203.100                                                  
  23613200.964    92663271.044  
  23987529.263   126055318.085                                                  
  23987531.854    94132226.791  
 21  8 28  6  9  1.0000000  0 18G 4G 7G 8G 9G16G27G30R 5R 7R 9R15R16
                                R17R18E 1E 4E19E21
  21419451.606   112559977.842    21419450.927    87709069.660    21419450.731  
  21419454.537    84054539.989  
  21683289.482   113946455.076    21683287.212    88789435.235    21683286.909  
                                
  20678150.418   108664414.621    20678151.418    84673570.728    20678150.704  
  20678150.007    81145501.453  
  20495149.751   107702738.044    20495149.429    83924209.224    20495149.143  
  20495149.447    80427368.251  
  23710521.310   124599629.845                    97090608.860    23710518.451  
                                
  21570234.425   113352347.376    21570234.407    88326502.567    21570233.925  
  21570233.817    84646230.518  
  24099128.887   126641776.904    24099129.566    98681904.856    24099128.923  
  24099129.566    94570160.409  
  22337866.941   119408700.565    22337867.996    92873436.612    22337868.085  
                                
  22316808.405   119463622.910    22316808.387    92916150.692    22316808.280  
                                
  22257648.073   118854599.313    22257648.823    92442469.249    22257648.841  
                                
  22316093.984   119250438.979    22316094.895    92750345.297    22316095.002  
                                
  20292048.631   108396481.835    20292048.149    84308371.977    20292049.274  
                                
  22146346.271   118509572.792    22146346.432    92174111.993    22146346.485  
                                
  21681767.595   115738747.497    21681769.936    90019036.289    21681769.918  
                                
  25117982.855   131995891.277                                                  
  25117985.018    98568368.231  
  26120057.525   137261829.283                                                  
  26120058.669   102500720.849  
  23613393.092   124089218.205                                                  
  23613394.110    92664029.071  
  23987682.168   126056121.598                                                  
  23987684.759    94132826.816  
 21  8 28  6  9  2.0000000  0 18G 4G 7G 8G 9G16G27G30R 5R 7R 9R15R16
                                R17R18E 1E 4E19E21
  21419945.006   112562570.706    21419944.327    87711090.071    21419944.130  
  21419947.936    84056476.221  
  21682940.803   113944622.677    21682938.516    88788007.392    21682938.195  
                                
  20678033.197   108663798.630    20678034.180    84673090.738    20678033.483  
  20678032.786    81145041.467  
  20495237.130   107703197.244    20495236.809    83924567.042    20495236.541  
  20495236.844    80427711.156  
  23711147.816   124602922.188                    97093174.326    23711144.957  
                                
  21570508.214   113353786.204    21570508.196    88327623.731    21570507.714  
  21570507.607    84647304.965  
  24098629.466   126639152.430    24098630.109    98679859.814    24098629.502  
  24098630.145    94568200.588  
  22338666.759   119412976.003    22338667.795    92876761.957    22338667.902  
                                
  22316307.215   119460940.035    22316307.197    92914064.011    22316307.089  
                                
  22257297.393   118852726.885    22257298.179    92441012.919    22257298.197  
                                
  22316500.468   119252611.174    22316501.397    92752034.778    22316501.487  
                                
  20292066.232   108396575.818    20292065.732    84308445.077    20292066.857  
                                
  22146445.497   118510103.729    22146445.640    92174524.942    22146445.694  
                                
  21681270.371   115736093.329    21681272.712    90016971.936    21681272.694  
                                
  25117786.671   131994860.340                                                  
  25117788.834    98567598.368  
  26119701.538   137259958.543                                                  
  26119702.682   102499323.877  
  23613586.381   124090233.914                                                  
  23613587.418    92664787.559  
  23987835.127   126056925.385                                                  
  23987837.700    94133427.048  
 21  8 28  6  9  3.0000000  0 18G 4G 7G 8G 9G16G27G30R 5R 7R 9R15R16
                                R17R18E 1E 4E19E21
  21420438.530   112565164.148    21420437.851    87713110.935    21420437.637  
  21420441.461    84058412.880  
  21682592.125   113942790.481    21682589.874    88786579.709    21682589.552  
                                
  20677916.119   108663183.429    20677917.120    84672611.360    20677916.423  
  20677915.726    81144582.061  
  20495324.653   107703657.195    20495324.331    83924925.444    20495324.081  
  20495324.385    80428054.624  
  23711774.357   124606214.627                    97095739.863    23711771.498  
                                
  21570782.164   113355225.809    21570782.146    88328745.502    21570781.664  
  21570781.557    84648379.995  
  24098130.045   126636528.044    24098130.724    98677814.840    24098130.098  
  24098130.742    94566240.821  
  22339466.612   119417251.727    22339467.666    92880087.521    22339467.756  
                                
  22315806.185   119458257.975    22315806.167    92911977.970    22315806.060  
                                
  22256946.803   118850854.687    22256947.571    92439556.765    22256947.607  
                                
  22316906.988   119254783.466    22316907.900    92753724.338    22316908.025  
                                
  20292083.887   108396670.087    20292083.386    84308518.397    20292084.512  
                                
  22146544.903   118510635.614    22146545.046    92174938.629    22146545.099  
                                
  21680773.273   115733439.844    21680775.614    90014908.115    21680775.614  
                                
  25117590.541   131993829.686                                                  
  25117592.703    98566828.727  
  26119345.623   137258088.252                                                  
  26119346.767   102497927.224  
  23613779.778   124091250.175                                                  
  23613780.796    92665546.449  
  23987988.103   126057729.400                                                  
  23987990.694    94134027.449  
