     2.11           OBSERVATION DATA    M (MIXED)           RINEX VERSION / TYPE
CONVBIN 2.4.3                           20210901 191213 UTC PGM / RUN BY / DATE 
log: logs/21_09_01_10_12_33_pin1_SNCA.rtcm                  COMMENT             
format: RTCM 3, station ID: 2369                            COMMENT             
2369                                                        MARKER NAME         
                                                            MARKER NUMBER       
                                                            OBSERVER / AGENCY   
                    TRIMBLE NETR9                           REC # / TYPE / VERS 
                    GPPNULLANTENNA                          ANT # / TYPE        
 -2369043.6199 -4760271.1192  3510700.5672                  APPROX POSITION XYZ 
        0.0083        0.0000        0.0000                  ANTENNA: DELTA H/E/N
     1     1                                                WAVELENGTH FACT L1/2
     5    C1    L1    P2    L2    P1                        # / TYPES OF OBSERV 
  2021     9     1    10    12   40.0000000     GPS         TIME OF FIRST OBS   
  2021     9     1    10    42   37.0000000     GPS         TIME OF LAST OBS    
                                                            END OF HEADER       
 21  9  1 10 12 40.0000000  0  9G 1G 6G13G14G15G17G19G24G30
  23598662.709   124011809.821    23598668.945    96632604.430                  
  22885677.132   120265045.964    22885684.672    93713052.763                  
  22296383.629   117168284.873    22296388.150    91299982.670                  
  21420162.007   112563709.738    21420167.100    87712004.208                  
  23522426.971   123611184.784    23522432.617    96320428.908                  
  20752604.793   109055675.433    20752610.172    84978469.417                  
  20174183.394   106016049.843    20174186.182    82609920.029                  
  23373348.393   122827776.075    23373356.380    95709986.204                  
  22321142.876   117298397.316    22321150.506    91401379.909                  
 21  9  1 10 12 41.0000000  0  9G 1G 6G13G14G15G17G19G24G30
  23599105.450   124014140.424    23599112.544    96634420.508                  
  22885042.245   120261711.301    22885050.197    93710454.324                  
  22296811.646   117170533.688    22296816.024    91301735.002                  
  21420396.538   112564941.012    21420401.470    87712963.640                  
  23522694.631   123612588.316    23522699.759    96321522.553                  
  20752892.735   109057186.498    20752897.702    84979646.877                  
  20174068.961   106015447.647    20174071.641    82609450.785                  
  23372755.606   122824657.986    23372762.985    95707556.547                  
  22321697.798   117301315.384    22321705.607    91403653.728                  
 21  9  1 10 12 42.0000000  0  9G 1G 6G13G14G15G17G19G24G30
  23599549.174   124016471.535    23599556.125    96636236.949                  
  22884408.074   120258376.832    22884415.704    93707856.032                  
  22297238.894   117172782.896    22297244.184    91303487.624                  
  21420630.801   112566172.436    21420635.876    87713923.191                  
  23522960.844   123613992.306    23522966.830    96322616.591                  
  20753180.176   109058697.909    20753185.322    84980824.595                  
  20173954.474   106014845.985    20173957.208    82608981.963                  
  23372161.586   122821540.126    23372169.537    95705127.011                  
  22322253.257   117304233.813    22322260.780    91405927.834                  
 21  9  1 10 12 43.0000000  0  9G 1G 6G13G14G15G17G19G24G30
  23599992.629   124018803.268    23599999.777    96638053.897                  
  22883773.437   120255042.588    22883781.318    93705257.922                  
  22297667.304   117175032.561    22297672.129    91305240.610                  
  21420865.153   112567404.086    21420870.264    87714882.918                  
  23523229.147   123615396.703    23523233.972    96323710.914                  
  20753468.332   109060209.731    20753473.013    84982002.643                  
  20173839.916   106014244.914    20173842.900    82608513.590                  
  23371568.477   122818422.559    23371576.232    95702697.741                  
  22322808.680   117307152.627    22322816.203    91408202.232                  
 21  9  1 10 12 44.0000000  0 14G 1G 6G13G14G15G17G19G24G30R13R14R15
                                R17R24
  23600435.566   124021135.477    23600443.429    96639871.201                  
  22883139.123   120251708.474    22883146.842    93702659.906                  
  22298094.642   117177282.608    22298100.342    91306993.885                  
  21421099.166   112568635.853    21421104.598    87715842.734                  
  23523496.289   123616801.547    23523501.346    96324805.599                  
  20753755.451   109061721.876    20753760.883    84983180.938                  
  20173725.715   106013644.373    20173728.520    82608045.641                  
  23370975.315   122815305.189    23370983.016    95700268.637                  
  22323363.799   117310071.772    22323371.840    91410476.886                  
                 121382824.299    22731108.135    94408881.211    22731104.025  
                 105486187.676    19788944.628    82044830.406    19788940.321  
                 113179791.425    21180057.947    88028739.484    21180054.874  
                 105506171.676    19716353.241    82060368.958    19716350.006  
                 106510820.228    19918062.667    82841757.980    19918060.648  
 21  9  1 10 12 45.0000000  0 14G 1G 6G13G14G15G17G19G24G30R13R14R15
                                R17R24
  23600880.505   124023468.299    23600887.295    96641688.970                  
  22882504.272   120248374.618    22882512.313    93700062.103                  
  22298523.338   117179533.087    22298528.591    91308747.500                  
  21421333.679   112569867.848    21421338.986    87716802.729                  
  23523763.681   123618206.846    23523768.791    96325900.644                  
  20754043.017   109063234.408    20754048.628    84984359.539                  
  20173611.675   106013044.410    20173614.462    82607578.135                  
  23370381.902   122812188.097    23370389.908    95697839.728                  
  22323919.508   117312991.302    22323927.442    91412751.844                  
                 121385472.198    22731604.001    94410940.716    22731600.069  
                 105486175.412    19788942.305    82044820.860    19788938.052  
                 113177100.785    21179554.416    88026646.764    21179551.182  
                 105503721.842    19715895.383    82058463.534    19715892.327  
                 106512595.027    19918394.459    82843138.373    19918392.279  
 21  9  1 10 12 46.0000000  0 14G 1G 6G13G14G15G17G19G24G30R13R14R15
                                R17R24
  23601323.603   124025801.632    23601331.484    96643507.144                  
  22881869.832   120245040.932    22881877.963    93697464.419                  
  22298951.819   117181783.976    22298956.965    91310501.448                  
  21421568.836   112571100.047    21421573.571    87717762.883                  
  23524031.538   123619612.614    23524036.309    96326996.050                  
  20754331.638   109064747.328    20754336.498    84985538.430                  
  20173497.563   106012445.011    20173500.297    82607111.076                  
  23369789.026   122809071.235    23369796.728    95695410.997                  
  22324475.199   117315911.198    22324483.132    91415027.088                  
                 121388120.482    22732099.991    94413000.506    22732096.006  
                 105486163.583    19788940.035    82044811.662    19788935.800  
                 113174410.255    21179050.956    88024554.129    21179047.793  
                 105501272.738    19715437.650    82056558.687    19715434.541  
                 106514370.642    19918726.573    82844519.408    19918724.536  
 21  9  1 10 12 47.0000000  0 14G 1G 6G13G14G15G17G19G24G30R13R14R15
                                R17R24
  23601768.810   124028135.516    23601775.672    96645325.749                  
  22881235.804   120241707.445    22881243.648    93694866.902                  
  22299379.871   117184035.270    22299385.375    91312255.694                  
  21421803.027   112572332.395    21421808.102    87718723.152                  
  23524298.822   123621018.822    23524303.915    96328091.803                  
  20754619.079   109066260.584    20754624.547    84986717.591                  
  20173383.487   106011846.158    20173386.257    82606644.430                  
  23369196.454   122805954.610    23369203.780    95692982.469                  
  22325031.015   117318831.453    22325038.788    91417302.609                  
                 121390769.008    22732595.928    94415060.459    22732591.782  
                 105486152.171    19788937.802    82044802.781    19788933.692  
                 113171719.778    21178547.532    88022461.555    21178544.423  
                 105498824.377    19714980.167    82054654.395    19714977.147  
                 106516147.033    19919058.687    82845901.046    19919056.775  
 21  9  1 10 12 48.0000000  0 14G 1G 6G13G14G15G17G19G24G30R13R14R15
                                R17R24
  23602212.534   124030470.007    23602220.092    96647144.835                  
  22880601.650   120238374.179    22880609.441    93692269.547                  
  22299808.692   117186286.975    22299813.856    91314010.274                  
  21422038.183   112573564.928    21422042.597    87719683.570                  
  23524566.268   123622425.464    23524571.593    96329187.877                  
  20754907.270   109067774.232    20754912.560    84987897.059                  
  20173269.733   106011247.876    20173272.467    82606178.241                  
  23368602.898   122802838.217    23368610.814    95690554.109                  
  22325587.009   117321752.068    22325594.407    91419578.413                  
                 121393417.930    22733091.901    94417120.734    22733087.987  
                 105486141.220    19788935.729    82044794.271    19788931.726  
                 113169029.442    21178043.947    88020369.058    21178040.910  
                 105496376.764    19714522.774    82052750.700    19714519.825  
                 106517924.230    19919391.104    82847283.310    19919389.174  
 21  9  1 10 12 49.0000000  0 14G 1G 6G13G14G15G17G19G24G30R13R14R15
                                R17R24
  23602657.222   124032804.966    23602664.548    96648964.292                  
  22879967.139   120235041.068    22879975.162    93689672.327                  
  22300236.441   117188539.044    22300242.373    91315765.140                  
  21422272.768   112574797.619    21422277.217    87720644.120                  
  23524833.982   123623832.591    23524839.307    96330284.337                  
  20755195.283   109069288.205    20755200.626    84989076.778                  
  20173156.193   106010650.120    20173158.641    82605712.453                  
  23368010.719   122799722.026    23368017.866    95688125.906                  
  22326142.182   117324673.021    22326150.330    91421854.485                  
                 121396067.052    22733588.034    94419181.193    22733583.728  
                 105486130.680    19788933.924    82044786.066    19788929.582  
                 113166339.192    21177540.666    88018276.634    21177537.468  
                 105493929.865    19714065.559    82050847.559    19714062.468  
                 106519702.147    19919723.504    82848666.137    19919721.592  
 21  9  1 10 12 50.0000000  0 14G 1G 6G13G14G15G17G19G24G30R13R14R15
                                R17R24
  23603101.482   124035140.496    23603108.987    96650784.179                  
  22879332.860   120231708.212    22879340.973    93687075.292                  
  22300665.673   117190791.582    22300670.944    91317520.362                  
  21422507.102   112576030.519    21422511.820    87721604.816                  
  23525102.303   123625240.126    23525107.235    96331381.129                  
  20755483.689   109070802.582    20755488.800    84990256.815                  
  20173042.278   106010052.957    20173045.084    82605247.128                  
  23367417.146   122796606.158    23367424.954    95685697.955                  
  22326698.409   117327594.382    22326706.128    91424130.870                  
                 121398716.607    22734084.150    94421241.943    22734080.093  
                 105486120.613    19788931.994    82044778.245    19788927.777  
                 113163649.092    21177037.171    88016184.330    21177034.222  
                 105491483.775    19713608.505    82048945.036    19713605.324  
                 106521480.873    19920055.993    82850049.584    19920054.188  
 21  9  1 10 12 51.0000000  0 14G 1G 6G13G14G15G17G19G24G30R13R14R15
                                R17R24
  23603546.349   124037476.587    23603553.586    96652604.503                  
  22878698.510   120228375.509    22878706.622    93684478.378                  
  22301093.975   117193044.511    22301099.818    91319275.891                  
  21422741.419   112577263.600    21422746.297    87722565.659                  
  23525369.516   123626648.112    23525375.127    96332478.261                  
  20755771.577   109072317.315    20755777.134    84991437.126                  
  20172928.685   106009456.343    20172931.669    82604782.239                  
  23366824.269   122793490.470    23366832.078    95683270.141                  
  22327254.511   117330516.083    22327262.105    91426407.522                  
                 121401366.447    22734580.194    94423302.940    22734576.370  
                 105486110.966    19788930.154    82044770.733    19788925.919  
                 113160959.048    21176533.586    88014092.085    21176530.870  
                 105489038.379    19713151.505    82047043.075    19713148.503  
                 106523260.328    19920388.893    82851433.615    19920387.070  
 21  9  1 10 12 52.0000000  0 14G 1G 6G13G14G15G17G19G24G30R13R14R15
                                R17R24
  23603990.823   124039813.253    23603998.078    96654425.312                  
  22878064.517   120225043.021    22878072.540    93681881.647                  
  22301522.778   117195297.844    22301528.586    91321031.742                  
  21422976.414   112578496.846    21422981.114    87723526.644                  
  23525637.873   123628056.545    23525643.055    96333575.730                  
  20756060.144   109073832.418    20756065.380    84992617.730                  
  20172815.360   106008860.271    20172818.111    82604317.765                  
  23366230.839   122790375.048    23366239.309    95680842.542                  
  22327810.702   117333438.128    22327818.064    91428684.433                  
                 121404016.574    22735076.613    94425364.191    22735072.771  
                 105486101.756    19788928.349    82044763.570    19788924.078  
                 113158269.139    21176030.269    88011999.926    21176027.303  
                 105486593.757    19712694.612    82045141.702    19712691.503  
                 106525040.562    19920721.792    82852818.244    19920720.041  
 21  9  1 10 12 53.0000000  0 14G 1G 6G13G14G15G17G19G24G30R13R14R15
                                R17R24
  23604435.458   124042150.394    23604442.802    96656246.456                  
  22877430.452   120221710.702    22877438.404    93679285.026                  
  22301951.349   117197551.574    22301957.371    91322787.889                  
  21423210.731   112579730.274    21423215.823    87724487.752                  
  23525906.248   123629465.391    23525911.073    96334673.546                  
  20756347.943   109075347.885    20756353.625    84993798.611                  
  20172702.124   106008264.766    20172704.840    82603853.735                  
  23365639.499   122787259.867    23365646.451    95678415.130                  
  22328366.571   117336360.551    22328374.344    91430961.648                  
                 121406667.077    22735572.961    94427425.638    22735569.030  
                 105486092.957    19788926.723    82044756.726    19788922.434  
                 113155579.349    21175527.006    88009907.872    21175523.843  
                 105484149.873    19712237.969    82043240.903    19712234.913  
                 106526821.590    19921054.853    82854203.489    19921053.102  
 21  9  1 10 12 54.0000000  0 14G 1G 6G13G14G15G17G19G24G30R13R14R15
                                R17R24
  23604880.182   124044488.137    23604887.616    96658068.042                  
  22876797.067   120218378.577    22876804.322    93676688.556                  
  22302380.080   117199805.735    22302386.388    91324544.371                  
  21423445.798   112580963.864    21423450.569    87725448.976                  
  23526174.873   123630874.686    23526179.287    96335771.677                  
  20756636.795   109076863.700    20756642.263    84994979.764                  
  20172589.084   106007669.812    20172591.568    82603390.137                  
  23365045.873   122784144.918    23365053.735    95675987.902                  
  22328922.477   117339283.308    22328930.500    91433239.117                  
                 121409317.797    22736069.452    94429487.314    22736064.841  
                 105486084.608    19788925.275    82044750.232    19788920.772  
                 113152889.648    21175023.636    88007815.880    21175020.669  
                 105481706.730    19711781.469    82041340.676    19711778.253  
                 106528603.452    19921388.093    82855589.381    19921386.324  
 21  9  1 10 12 55.0000000  0 14G 1G 6G13G14G15G17G19G24G30R13R14R15
                                R17R24
  23605326.014   124046826.438    23605332.554    96659890.095                  
  22876161.841   120215046.693    22876170.097    93674092.280                  
  22302810.223   117202060.313    22302815.423    91326301.173                  
  21423680.489   112582197.673    21423685.368    87726410.384                  
  23526442.623   123632284.469    23526447.697    96336870.209                  
  20756925.183   109078379.918    20756930.776    84996161.226                  
  20172475.777   106007075.434    20172478.475    82602926.983                  
  23364453.264   122781030.200    23364460.966    95673560.838                  
  22329478.972   117342206.471    22329486.763    91435516.908                  
                 121411968.905    22736565.907    94431549.317    22736561.672  
                 105486076.749    19788923.721    82044744.125    19788919.325  
                 113150200.088    21174520.194    88005723.998    21174517.371  
                 105479264.334    19711324.951    82039441.046    19711321.896  
                 106530386.155    19921721.529    82856975.914    19921719.563  
 21  9  1 10 12 56.0000000  0 14G 1G 6G13G14G15G17G19G24G30R13R14R15
                                R17R24
  23605770.828   124049165.229    23605777.707    96661712.531                  
  22875528.366   120211714.979    22875536.086    93671496.146                  
  22303239.044   117204315.287    22303244.726    91328058.298                  
  21423915.092   112583431.647    21423920.042    87727371.924                  
  23526710.908   123633694.659    23526716.054    96337969.079                  
  20757213.643   109079896.479    20757219.379    84997342.961                  
  20172362.541   106006481.598    20172365.561    82602464.252                  
  23363860.745   122777915.735    23363868.340    95671134.000                  
  22330035.038   117345129.974    22330043.168    91437794.963                  
                 121414620.347    22737062.415    94433611.512    22737058.645  
                 105486069.305    19788922.291    82044738.337    19788917.913  
                 113147510.617    21174016.913    88003632.194    21174014.125  
                 105476822.718    19710868.594    82037542.014    19710865.610  
                 106532169.608    19922054.947    82858363.053    19922053.106  
 21  9  1 10 12 57.0000000  0 14G 1G 6G13G14G15G17G19G24G30R13R14R15
                                R17R24
  23606215.266   124051504.706    23606222.968    96663535.487                  
  22874894.284   120208383.532    22874902.075    93668900.218                  
  22303667.758   117206570.722    22303673.762    91329815.780                  
  21424149.998   112584665.852    21424154.894    87728333.641                  
  23526979.480   123635105.342    23526984.483    96339068.304                  
  20757502.442   109081413.469    20757507.910    84998525.036                  
  20172249.984   106005888.379    20172252.610    82602002.007                  
  23363268.655   122774801.566    23363275.642    95668707.387                  
  22330592.015   117348053.876    22330599.467    91440073.326                  
                 121417272.141    22737559.031    94435674.049    22737554.564  
                 105486062.348    19788920.951    82044732.926    19788916.627  
                 113144821.314    21173513.685    88001540.511    21173511.005  
                 105474381.896    19710412.648    82035643.590    19710409.628  
                 106533953.873    19922388.633    82859750.818    19922386.810  
 21  9  1 10 12 58.0000000  0 14G 1G 6G13G14G15G17G19G24G30R13R14R15
                                R17R24
  23606660.830   124053844.529    23606668.228    96665358.735                  
  22874260.595   120205052.161    22874268.332    93666304.340                  
  22304097.758   117208826.467    22304102.976    91331573.504                  
  21424385.297   112585900.128    21424389.836    87729295.412                  
  23527247.658   123636516.375    23527253.019    96340167.810                  
  20757791.760   109082930.708    20757796.727    84999707.302                  
  20172136.766   106005295.597    20172139.678    82601540.095                  
  23362675.636   122771687.536    23362683.070    95666280.858                  
  22331148.135   117350978.057    22331155.854    91442351.908                  
                 121419924.164    22738055.719    94437736.713    22738051.216  
                 105486055.719    19788919.718    82044727.766    19788915.376  
                 113142131.983    21173010.333    87999448.810    21173007.742  
                 105471941.673    19709956.559    82033745.643    19709953.414  
                 106535738.769    19922722.408    82861139.069    19922720.657  
 21  9  1 10 12 59.0000000  0 13G 1G 6G13G14G15G17G19G24G30R14R15R17
                                R24
  23607105.912   124056185.010    23607113.667    96667182.509                  
  22873626.816   120201721.069    22873634.464    93663708.682                  
  22304527.043   117211082.688    22304532.565    91333331.596                  
  21424620.007   112587134.683    21424624.867    87730257.407                  
  23527516.783   123637927.930    23527521.733    96341267.713                  
  20758080.058   109084448.416    20758085.383    85000889.928                  
  20172024.298   106004703.481    20172027.157    82601078.710                  
  23362083.081   122768573.827    23362090.533    95663854.573                  
  22331705.202   117353902.675    22331712.332    91444630.836                  
                 105486049.620    19788918.610    82044723.020    19788914.179  
                 113139442.865    21172507.123    87997357.266    21172504.747  
                 105469502.286    19709500.613    82031848.345    19709497.558  
                 106537524.488    19923056.416    82862527.953    19923054.343  
 21  9  1 10 13  0.0000000  0 13G 1G 6G13G14G15G17G19G24G30R14R15R17
                                R24
  23607551.494   124058526.002    23607559.213    96669006.651                  
  22872992.895   120198390.150    22873000.561    93661113.163                  
  22304956.239   117213339.323    22304962.047    91335090.013                  
  21424855.074   112588369.384    21424859.934    87731219.512                  
  23527785.122   123639339.922    23527790.394    96342367.969                  
  20758369.179   109085966.433    20758374.397    85002072.805                  
  20171911.455   106004111.888    20171914.564    82600617.726                  
  23361491.724   122765460.325    23361498.014    95661428.463                  
  22332261.161   117356827.630    22332269.077    91446910.017                  
                 105486043.944    19788917.556    82044718.612    19788913.071  
                 113136753.824    21172003.824    87995265.797    21172001.305  
                 105467063.634    19709044.953    82029951.613    19709041.916  
                 106539310.963    19923390.460    82863917.433    19923388.458  
 21  9  1 10 13  1.0000000  0 13G 1G 6G13G14G15G17G19G24G30R14R15R17
                                R24
  23607996.575   124060867.598    23608004.652    96670831.278                  
  22872358.491   120195059.443    22872366.747    93658517.807                  
  22305385.578   117215596.343    22305391.475    91336848.731                  
  21425090.069   112589604.259    21425094.715    87732181.750                  
  23528054.087   123640752.324    23528059.090    96343468.545                  
  20758657.907   109087484.837    20758663.285    85003255.965                  
  20171799.309   106003520.852    20171802.061    82600157.183                  
  23360898.222   122762347.054    23360905.691    95659002.547                  
  22332817.834   117359752.938    22332825.840    91449189.480                  
                 105486038.708    19788916.573    82044714.537    19788912.124  
                 113134064.908    21171500.722    87993174.418    21171498.435  
                 105464625.726    19708589.311    82028055.460    19708586.255  
                 106541098.259    19923724.592    82865307.562    19923723.038  
 21  9  1 10 13  2.0000000  0 13G 1G 6G13G14G15G17G19G24G30R14R15R17
                                R24
  23608443.498   124063209.722    23608450.484    96672656.297                  
  22871724.659   120191728.926    22871733.075    93655922.606                  
  22305815.936   117217853.784    22305820.975    91338607.772                  
  21425325.083   112590839.324    21425329.854    87733144.141                  
  23528322.408   123642165.173    23528327.983    96344569.466                  
  20758947.153   109089003.590    20758952.335    85004439.423                  
  20171686.663   106002930.376    20171689.665    82599697.065                  
  23360306.025   122759234.068    23360313.333    95656576.839                  
  22333375.044   117362678.627    22333382.549    91451469.247                  
                 105486033.913    19788915.769    82044710.805    19788911.177  
                 113131376.126    21170997.477    87991083.143    21170995.118  
                 105462188.589    19708133.990    82026159.912    19708130.738  
                 106542886.415    19924059.011    82866698.348    19924057.189  
 21  9  1 10 13  3.0000000  0 13G 1G 6G13G14G15G17G19G24G30R14R15R17
                                R24
  23608888.722   124065552.398    23608896.084    96674481.747                  
  22871091.452   120188398.600    22871099.422    93653327.537                  
  22306244.382   117220111.622    22306250.546    91340367.124                  
  21425559.971   112592074.557    21425565.046    87734106.657                  
  23528591.802   123643578.492    23528597.073    96345670.751                  
  20759236.095   109090522.698    20759241.313    85005623.141                  
  20171574.713   106002340.434    20171577.394    82599237.377                  
  23359714.167   122756121.270    23359721.082    95654151.286                  
  22333931.664   117365604.653    22333939.223    91453749.258                  
                 105486029.546    19788914.858    82044707.406    19788910.337  
                 113128687.425    21170494.303    87988991.931    21170491.730  
                 105459752.193    19707678.759    82024264.935    19707675.436  
                 106544675.345    19924393.537    82868089.726    19924391.697  
 21  9  1 10 13  4.0000000  0 13G 1G 6G13G14G15G17G19G24G30R14R15R17
                                R24
  23609333.643   124067895.605    23609341.988    96676307.652                  
  22870457.245   120185068.521    22870465.733    93650732.659                  
  22306674.650   117222369.924    22306680.368    91342126.842                  
  21425794.842   112593310.007    21425800.149    87735069.357                  
  23528860.945   123644992.262    23528866.252    96346772.392                  
  20759524.912   109092042.211    20759530.630    85006807.180                  
  20171462.335   106001751.097    20171465.230    82598778.156                  
  23359121.791   122753008.733    23359128.814    95651725.937                  
  22334489.124   117368531.073    22334496.057    91456029.595                  
                 105486025.650    19788914.125    82044704.374    19788909.569  
                 113125998.838    21169991.147    87986900.812    21169988.931  
                 105457316.560    19707223.599    82022370.553    19707220.383  
                 106546465.062    19924728.188    82869481.742    19924726.383  
 21  9  1 10 13  5.0000000  0 13G 1G 6G13G14G15G17G19G24G30R14R15R17
                                R24
  23609779.404   124070239.343    23609788.159    96678133.935                  
  22869824.074   120181738.550    22869832.151    93648137.885                  
  22307104.972   117224628.563    22307110.279    91343886.823                  
  21426030.016   112594545.597    21426035.180    87736032.155                  
  23529129.713   123646406.434    23529135.324    96347874.345                  
  20759814.712   109093562.044    20759819.733    85007991.465                  
  20171350.028   106001162.271    20171353.209    82598319.326                  
  23358529.147   122749896.454    23358536.456    95649300.771                  
  22335045.691   117371457.827    22335053.160    91458310.180                  
                 105486022.137    19788913.518    82044701.651    19788908.979  
                 113123310.328    21169487.955    87984809.740    21169485.632  
                 105454881.604    19706768.493    82020476.703    19706765.366  
                 106548255.491    19925063.000    82870874.288    19925061.142  
 21  9  1 10 13  6.0000000  0 13G 1G 6G13G14G15G17G19G24G30R14R15R17
                                R24
  23610225.468   124072583.650    23610234.349    96679960.647                  
  22869190.188   120178408.851    22869198.479    93645543.322                  
  22307534.829   117226887.654    22307540.243    91345647.151                  
  21426265.583   112595781.393    21426270.318    87736995.106                  
  23529398.749   123647821.088    23529404.574    96348976.677                  
  20760104.011   109095082.267    20760108.997    85009176.059                  
  20171238.508   106000574.031    20171241.242    82597860.957                  
  23357937.450   122746784.392    23357944.366    95646875.799                  
  22335602.507   117374384.946    22335610.119    91460591.049                  
                 105486019.089    19788912.874    82044699.264    19788908.479  
                 113120621.931    21168984.764    87982718.776    21168982.423  
                 105452447.425    19706313.709    82018583.456    19706310.528  
                 106550046.704    19925398.009    82872267.462    19925396.257  
 21  9  1 10 13  7.0000000  0 13G 1G 6G13G14G15G17G19G24G30R14R15R17
                                R24
  23610671.658   124074928.500    23610680.521    96681787.826                  
  22868556.856   120175079.315    22868564.790    93642948.873                  
  22307964.364   117229147.109    22307970.261    91347407.770                  
  21426500.561   112597017.354    21426505.600    87737958.198                  
  23529668.696   123649236.196    23529673.771    96350079.361                  
  20760393.150   109096602.852    20760398.457    85010360.921                  
  20171126.540   105999986.335    20171129.471    82597403.012                  
  23357344.717   122743672.615    23357352.007    95644451.033                  
  22336159.699   117377312.433    22336167.115    91462872.206                  
                 105486016.482    19788912.428    82044697.245    19788908.014  
                 113117933.678    21168481.822    87980627.910    21168479.231  
                 105450014.018    19705858.978    82016690.803    19705855.762  
                 106551838.709    19925733.124    82873661.243    19925731.194  
 21  9  1 10 13  8.0000000  0 13G 1G 6G13G14G15G17G19G24G30R14R15R17
                                R24
  23611118.240   124077273.890    23611126.656    96683615.403                  
  22867922.881   120171749.978    22867931.369    93640354.587                  
  22308394.454   117231407.001    22308400.297    91349168.727                  
  21426735.646   112598253.478    21426740.774    87738921.408                  
  23529937.786   123650651.710    23529942.968    96351182.361                  
  20760682.592   109098123.791    20760687.685    85011546.071                  
  20171014.948   105999399.175    20171017.646    82596945.489                  
  23356752.913   122740561.034    23356760.060    95642026.439                  
  22336716.730   117380240.265    22336724.307    91465153.633                  
                 105486014.309    19788911.999    82044695.555    19788907.478  
                 113115245.520    21167978.809    87978537.114    21167976.325  
                 105447581.351    19705404.283    82014798.733    19705401.191  
                 106553631.488    19926068.436    82875055.629    19926066.489  
 21  9  1 10 13  9.0000000  0 14G 1G 6G13G14G15G17G19G24G30R13R14R15
                                R17R24
  23611564.519   124079619.797    23611572.953    96685443.380                  
  22867289.282   120168420.861    22867297.877    93637760.479                  
  22308824.686   117233667.280    22308830.369    91350929.977                  
  21426971.016   112599489.805    21426976.145    87739884.775                  
  23530206.464   123652067.666    23530212.343    96352285.697                  
  20760972.535   109099645.100    20760977.378    85012731.502                  
  20170903.374   105998812.605    20170906.019    82596488.417                  
  23356159.965   122737449.691    23356167.917    95639602.025                  
  22337273.368   117383168.457    22337281.606    91467435.348                  
                 121449118.431    22743522.871    94460443.388    22743518.082  
                 105486012.597    19788911.802    82044694.222    19788907.371  
                 113112557.494    21167475.903    87976446.431    21167473.563  
                 105445149.440    19704949.945    82012907.252    19704946.782  
                 106555425.061    19926403.909    82876450.644    19926401.801  
 21  9  1 10 13 10.0000000  0 14G 1G 6G13G14G15G17G19G24G30R13R14R15
                                R17R24
  23612010.905   124081966.273    23612019.500    96687271.786                  
  22866656.128   120165091.911    22866664.420    93635166.478                  
  22309255.401   117235927.985    22309260.530    91352691.558                  
  21427205.905   112600726.314    21427211.373    87740848.286                  
  23530476.501   123653484.110    23530481.683    96353389.419                  
  20761262.120   109101166.776    20761266.838    85013917.225                  
  20170791.585   105998226.581    20170794.534    82596031.780                  
  23355568.697   122734338.604    23355575.719    95637177.796                  
  22337830.989   117386097.010    22337838.905    91469717.333                  
                 121451774.345    22744020.452    94462509.113    22744016.074  
                 105486011.314    19788911.516    82044693.228    19788906.978  
                 113109869.569    21166972.837    87974355.825    21166970.335  
                 105442718.241    19704495.607    82011016.321    19704492.355  
                 106557219.380    19926739.347    82877846.216    19926737.435  
 21  9  1 10 13 11.0000000  0 14G 1G 6G13G14G15G17G19G24G30R13R14R15
                                R17R24
  23612457.077   124084313.330    23612466.101    96689100.692                  
  22866022.457   120161763.184    22866031.052    93632572.668                  
  22309685.348   117238189.075    22309690.744    91354453.451                  
  21427441.204   112601962.997    21427446.654    87741811.930                  
  23530745.537   123654900.958    23530751.219    96354493.461                  
  20761551.956   109102688.810    20761556.495    85015103.233                  
  20170680.208   105997641.100    20170683.067    82595575.563                  
  23354977.250   122731227.763    23354983.701    95634753.760                  
  22338388.627   117389025.930    22338396.132    91471999.611                  
                 121454430.639    22744517.818    94464575.114    22744513.548  
                 105486010.469    19788911.266    82044692.571    19788906.906  
                 113107181.730    21166469.806    87972265.284    21166467.519  
                 105440287.792    19704041.520    82009125.977    19704038.250  
                 106559014.470    19927074.963    82879242.390    19927073.140  
 21  9  1 10 13 12.0000000  0 14G 1G 6G13G14G15G17G19G24G30R13R14R15
                                R17R24
  23612905.268   124086660.900    23612913.076    96690929.945                  
  22865389.536   120158434.654    22865397.792    93629979.017                  
  22310115.491   117240450.587    22310121.066    91356215.675                  
  21427676.753   112603199.855    21427682.078    87742775.725                  
  23531015.574   123656318.259    23531020.863    96355597.858                  
  20761841.345   109104211.219    20761846.187    85016289.521                  
  20170568.795   105997056.191    20170571.850    82595119.785                  
  23354384.284   122728117.183    23354391.879    95632329.936                  
  22338946.266   117391955.208    22338953.521    91474282.165                  
                 121457087.200    22745015.435    94466641.317    22745011.129  
                 105486010.085    19788911.195    82044692.270    19788906.710  
                 113104493.993    21165966.882    87970174.824    21165964.381  
                 105437858.131    19703587.396    82007236.227    19703584.341  
                 106560810.354    19927410.865    82880639.203    19927409.060  
 21  9  1 10 13 13.0000000  0 14G 1G 6G13G14G15G17G19G24G30R13R14R15
                                R17R24
  23613352.029   124089009.037    23613359.963    96692759.678                  
  22864755.240   120155106.347    22864764.406    93627385.531                  
  22310546.295   117242712.521    22310551.459    91357978.223                  
  21427912.214   112604436.916    21427917.521    87743739.664                  
  23531285.324   123657736.023    23531290.739    96356702.584                  
  20762131.109   109105733.995    20762135.987    85017476.105                  
  20170457.631   105996471.843    20170460.580    82594664.449                  
  23353792.677   122725006.826    23353799.949    95629906.290                  
  22339503.637   117394884.864    22339510.999    91476565.014                  
                 121459744.093    22745512.944    94468707.847    22745508.495  
                 105486010.141    19788911.230    82044692.314    19788906.924  
                 113101806.366    21165463.923    87968084.448    21165461.564  
                 105435429.227    19703133.523    82005347.090    19703130.092  
                 106562607.077    19927746.927    82882036.649    19927745.069  
 21  9  1 10 13 14.0000000  0 14G 1G 6G13G14G15G17G19G24G30R13R14R15
                                R17R24
  23613798.665   124091357.699    23613806.921    96694589.815                  
  22864122.676   120151778.183    22864131.093    93624792.148                  
  22310977.099   117244974.860    22310982.013    91359741.076                  
  21428147.709   112605674.123    21428152.927    87744703.719                  
  23531554.325   123659154.206    23531560.686    96357807.660                  
  20762421.230   109107257.132    20762425.894    85018662.960                  
  20170346.361   105995888.028    20170349.452    82594209.531                  
  23353200.444   122721896.721    23353208.110    95627482.830                  
  22340061.222   117397814.849    22340068.619    91478848.117                  
                 121462401.445    22746010.775    94470774.630    22746006.201  
                 105486010.597    19788911.302    82044692.661    19788906.924  
                 113099118.853    21164960.981    87965994.158    21164958.658  
                 105433001.045    19702679.739    82003458.491    19702676.487  
                 106564404.537    19928083.008    82883434.665    19928081.221  
 21  9  1 10 13 15.0000000  0 14G 1G 6G13G14G15G17G19G24G30R13R14R15
                                R17R24
  23614245.587   124093706.910    23614254.004    96696420.346                  
  22863489.398   120148450.258    22863497.743    93622198.975                  
  22311407.403   117247237.628    22311412.514    91361504.267                  
  21428383.187   112606911.536    21428388.512    87745667.944                  
  23531825.040   123660572.839    23531830.794    96358913.111                  
  20762711.209   109108780.645    20762715.873    85019850.111                  
  20170235.466   105995304.801    20170238.414    82593755.068                  
  23352608.604   122718786.858    23352616.538    95625059.548                  
  22340619.003   117400745.234    22340626.151    91481131.531                  
                 121465059.077    22746508.410    94472841.636    22746503.692  
                 105486011.505    19788911.552    82044693.374    19788907.031  
                 113096431.516    21164458.111    87963904.002    21164455.610  
                 105430573.617    19702226.134    82001570.493    19702222.846  
                 106566202.774    19928419.285    82884833.298    19928417.641  
 21  9  1 10 13 16.0000000  0 14G 1G 6G13G14G15G17G19G24G30R13R14R15
                                R17R24
  23614693.582   124096056.667    23614701.051    96698251.325                  
  22862855.888   120145122.532    22862864.358    93619605.925                  
  22311837.993   117249500.748    22311843.193    91363267.744                  
  21428618.094   112608149.119    21428624.026    87746632.290                  
  23532095.202   123661991.906    23532100.849    96360018.866                  
  20763001.330   109110304.487    20763005.690    85021037.527                  
  20170124.517   105994722.116    20170127.644    82593301.023                  
  23352017.389   122715677.217    23352024.894    95622636.463                  
  22341176.392   117403675.949    22341183.897    91483415.201                  
                 121467716.910    22747006.151    94474908.894    22747001.255  
                 105486012.835    19788911.802    82044694.404    19788907.371  
                 113093744.256    21163955.170    87961813.913    21163952.525  
                 105428146.897    19701772.654    81999683.058    19701769.473  
                 106568001.731    19928755.669    82886232.480    19928753.811  
 21  9  1 10 13 17.0000000  0 14G 1G 6G13G14G15G17G19G24G30R13R14R15
                                R17R24
  23615139.985   124098407.028    23615148.330    96700082.783                  
  22862223.199   120141795.017    22862231.151    93617013.057                  
  22312268.815   117251764.314    22312273.890    91365031.569                  
  21428853.661   112609386.905    21428859.433    87747596.801                  
  23532365.185   123663411.419    23532370.868    96361124.966                  
  20763291.577   109111828.751    20763295.669    85022225.253                  
  20170013.711   105994140.010    20170016.910    82592847.441                  
  23351425.067   122712567.849    23351433.322    95620213.558                  
  22341734.459   117406607.061    22341741.607    91485699.185                  
                 121470375.159    22747504.215    94476976.394    22747499.211  
                 105486014.642    19788912.052    82044695.810    19788907.817  
                 113091057.119    21163452.318    87959723.913    21163449.691  
                 105425720.971    19701319.299    81997796.227    19701316.136  
                 106569801.517    19929092.232    82887632.316    19929090.463  
 21  9  1 10 13 18.0000000  0 14G 1G 6G13G14G15G17G19G24G30R13R14R15
                                R17R24
  23615587.354   124100757.867    23615595.610    96701914.601                  
  22861589.689   120138467.663    22861598.105    93614420.318                  
  22312699.780   117254028.262    22312704.569    91366795.679                  
  21429089.496   112610624.840    21429095.125    87748561.423                  
  23532634.900   123664831.361    23532641.172    96362231.419                  
  20763581.609   109113353.332    20763585.880    85023413.238                  
  20169903.459   105993558.426    20169906.193    82592394.253                  
  23350833.388   122709458.692    23350841.608    95617790.852                  
  22342292.401   117409538.470    22342299.317    91487983.403                  
                 121473033.674    22748002.189    94479044.139    22747996.810  
                 105486016.871    19788912.463    82044697.553    19788908.139  
                 113088370.011    21162949.430    87957633.952    21162947.035  
                 105423295.760    19700866.033    81995909.952    19700862.746  
                 106571602.060    19929429.046    82889032.745    19929427.259  
 21  9  1 10 13 19.0000000  0 14G 1G 6G13G14G15G17G19G24G30R13R14R15
                                R17R24
  23616036.153   124103109.259    23616043.104    96703746.856                  
  22860956.571   120135140.568    22860964.970    93611827.779                  
  22313130.674   117256292.667    22313135.624    91368560.142                  
  21429325.457   112611862.992    21429330.657    87749526.222                  
  23532905.634   123666251.783    23532911.513    96363338.239                  
  20763871.784   109114878.315    20763876.126    85024601.541                  
  20169792.814   105992977.458    20169795.655    82591941.556                  
  23350241.941   122706349.814    23350249.911    95615368.350                  
  22342849.808   117412470.309    22342857.348    91490267.961                  
                 121475692.573    22748500.216    94481112.198    22748494.909  
                 105486019.571    19788912.910    82044699.653    19788908.818  
                 113085683.110    21162446.506    87955544.133    21162444.272  
                 105420871.376    19700412.964    81994024.318    19700409.605  
                 106573403.450    19929765.877    82890433.838    19929764.126  
 21  9  1 10 13 20.0000000  0 14G 1G 6G13G14G15G17G19G24G30R13R14R15
                                R17R24
  23616482.860   124105461.213    23616490.544    96705579.518                  
  22860324.115   120131813.646    22860331.977    93609235.374                  
  22313561.264   117258557.457    22313566.392    91370324.915                  
  21429561.078   112613101.321    21429566.278    87750491.151                  
  23533175.313   123667672.608    23533181.817    96364445.378                  
  20764161.834   109116403.653    20764166.391    85025790.121                  
  20169681.937   105992397.024    20169685.171    82591489.267                  
  23349650.244   122703241.192    23349658.160    95612946.051                  
  22343408.197   117415402.492    22343415.398    91492552.772                  
                 121478351.813    22748998.136    94483180.472    22748993.133  
                 105486022.715    19788913.607    82044702.086    19788909.318  
                 113082996.331    21161943.743    87953454.413    21161941.527  
                 105418447.713    19699960.038    81992139.247    19699956.661  
                 106575205.640    19930102.940    82891835.518    19930101.046  
 21  9  1 10 13 21.0000000  0 14G 1G 6G13G14G15G17G19G24G30R13R14R15
                                R17R24
  23616930.658   124107813.716    23616938.270    96707412.651                  
  22859691.087   120128486.941    22859698.842    93606643.125                  
  22313992.443   117260822.663    22313997.429    91372090.004                  
  21429796.877   112614339.831    21429802.095    87751456.221                  
  23533445.886   123669093.911    23533452.426    96365552.905                  
  20764452.259   109117929.372    20764456.655    85026978.989                  
  20169572.203   105991817.150    20169574.884    82591037.420                  
  23349059.298   122700132.813    23349066.767    95610523.951                  
  22343966.086   117418335.036    22343973.305    91494837.873                  
                 121481011.291    22749496.235    94485248.978    22749491.357  
                 105486026.287    19788914.179    82044704.871    19788909.980  
                 113080309.641    21161441.070    87951364.761    21161438.836  
                 105416024.782    19699507.309    81990254.747    19699503.896  
                 106577008.580    19930440.111    82893237.809    19930438.252  
 21  9  1 10 13 22.0000000  0 14G 1G 6G13G14G15G17G19G24G30R13R14R15
                                R17R24
  23617379.135   124110166.751    23617385.979    96709246.189                  
  22859057.612   120125160.430    22859065.850    93604051.048                  
  22314423.069   117263088.266    22314428.608    91373855.409                  
  21430032.641   112615578.520    21430037.698    87752421.441                  
  23533716.655   123670515.619    23533722.963    96366660.729                  
  20764742.399   109119455.447    20764747.152    85028168.138                  
  20169461.380   105991237.834    20169464.614    82590586.008                  
  23348468.208   122697024.648    23348475.302    95608101.984                  
  22344524.421   117421267.935    22344531.479    91497123.249                  
                 121483671.172    22749994.317    94487317.721    22749989.563  
                 105486030.320    19788915.019    82044708.004    19788910.730  
                 113077623.056    21160938.307    87949275.188    21160935.805  
                 105413602.592    19699054.561    81988370.817    19699051.309  
                 106578812.270    19930777.442    82894640.684    19930775.691  
 21  9  1 10 13 23.0000000  0 14G 1G 6G13G14G15G17G19G24G30R13R14R15
                                R17R24
  23617826.879   124112520.337    23617833.812    96711080.136                  
  22858424.638   120121834.121    22858432.876    93601459.126                  
  22314854.338   117265354.276    22314859.913    91375621.136                  
  21430268.905   112616817.392    21430273.373    87753386.795                  
  23533987.371   123671937.811    23533993.679    96367768.940                  
  20765033.145   109120981.879    20765037.577    85029357.568                  
  20169351.557   105990659.070    20169354.434    82590135.025                  
  23347876.333   122693916.765    23347883.981    95605680.250                  
  22345082.381   117424201.192    22345089.636    91499408.902                  
                 121486331.288    22750492.451    94489386.737    22750487.609  
                 105486034.770    19788915.841    82044711.469    19788911.695  
                 113074936.554    21160435.562    87947185.705    21160433.132  
                 105411181.173    19698602.100    81986487.497    19698598.705  
                 106580616.748    19931114.863    82896044.159    19931112.897  
 21  9  1 10 13 24.0000000  0 14G 1G 6G13G14G15G17G19G24G30R13R14R15
                                R17R24
  23618274.784   124114874.536    23618281.914    96712914.619                  
  22857791.306   120118507.979    22857799.937    93598867.322                  
  22315285.893   117267620.668    22315291.271    91377387.155                  
  21430504.026   112618056.424    21430509.119    87754352.275                  
  23534258.355   123673360.417    23534264.305    96368877.421                  
  20765323.553   109122508.687    20765328.056    85030547.293                  
  20169241.394   105990080.869    20169244.450    82589684.467                  
  23347285.225   122690809.049    23347292.623    95603258.681                  
  22345640.949   117427134.796    22345647.882    91501694.835                  
                 121488991.702    22750990.622    94491455.909    22750985.958  
                 105486039.649    19788916.806    82044715.255    19788912.517  
                 113072250.207    21159932.728    87945096.322    21159930.458  
                 105408760.521    19698149.763    81984604.766    19698146.297  
                 106582421.984    19931452.498    82897448.244    19931450.658  
 21  9  1 10 13 25.0000000  0 14G 1G 6G13G14G15G17G19G24G30R13R14R15
                                R17R24
  23618722.403   124117229.170    23618730.015    96714749.407                  
  22857158.242   120115182.075    22857166.891    93596275.711                  
  22315716.768   117269887.465    22315722.558    91379153.493                  
  21430739.754   112619295.648    21430744.918    87755317.901                  
  23534529.124   123674783.446    23534535.146    96369986.279                  
  20765613.978   109124035.836    20765618.642    85031737.279                  
  20169131.660   105989503.194    20169134.430    82589234.344                  
  23346692.778   122687701.594    23346701.409    95600837.281                  
  22346199.213   117430068.757    22346206.164    91503981.037                  
                 121491652.465    22751488.828    94493525.403    22751484.039  
                 105486044.938    19788917.878    82044719.373    19788913.536  
                 113069563.959    21159430.001    87943007.004    21159427.588  
                 105406340.596    19697697.391    81982722.607    19697694.085  
                 106584228.011    19931790.205    82898852.923    19931788.400  
 21  9  1 10 13 26.0000000  0 14G 1G 6G13G14G15G17G19G24G30R13R14R15
                                R17R24
  23619171.559   124119584.455    23619178.295    96716584.685                  
  22856526.483   120111856.365    22856534.006    93593684.242                  
  22316148.162   117272154.717    22316153.898    91380920.182                  
  21430975.196   112620535.082    21430980.754    87756283.697                  
  23534799.947   123676206.967    23534806.004    96371095.525                  
  20765904.653   109125563.390    20765909.317    85032927.578                  
  20169021.444   105988926.129    20169024.589    82588784.681                  
  23346102.868   122684594.436    23346110.283    95598416.134                  
  22346757.799   117433003.115    22346764.607    91506267.547                  
                 121494313.592    22751987.124    94495595.145    22751982.835  
                 105486050.701    19788918.825    82044723.856    19788914.590  
                 113066877.828    21158927.470    87940917.795    21158925.004  
                 105403921.430    19697245.305    81980841.031    19697242.053  
                 106586034.824    19932128.090    82900258.221    19932126.017  
 21  9  1 10 13 27.0000000  0 14G 1G 6G13G14G15G17G19G24G30R13R14R15
                                R17R24
  23619619.589   124121940.221    23619626.736    96718420.345                  
  22855893.455   120108530.855    22855901.460    93591092.940                  
  22316580.521   117274422.359    22316585.382    91382687.176                  
  21431211.675   112621774.661    21431216.607    87757249.602                  
  23535071.413   123677630.896    23535077.042    96372205.081                  
  20766195.883   109127091.286    20766200.261    85034118.150                  
  20168911.925   105988349.586    20168915.070    82588335.427                  
  23345511.475   122681487.539    23345519.158    95595995.153                  
  22347316.206   117435937.807    22347323.139    91508554.320                  
                 121496974.979    22752485.544    94497665.147    22752481.399  
                 105486056.907    19788919.986    82044728.683    19788915.912  
                 113064191.803    21158424.797    87938828.670    21158422.259  
                 105401502.990    19696793.522    81978960.029    19696789.966  
                 106587842.387    19932466.208    82901664.117    19932464.260  
 21  9  1 10 13 28.0000000  0 14G 1G 6G13G14G15G17G19G24G30R13R14R15
                                R17R24
  23620068.351   124124296.519    23620075.195    96720256.453                  
  22855260.284   120105205.529    22855268.611    93588501.784                  
  22317011.969   117276690.367    22317017.026    91384454.465                  
  21431447.278   112623014.421    21431452.657    87758215.643                  
  23535342.504   123679055.245    23535348.240    96373314.968                  
  20766486.165   109128619.527    20766490.882    85035308.986                  
  20168802.209   105987773.586    20168805.319    82587886.595                  
  23344920.457   122678380.809    23344928.230    95593574.340                  
  22347874.756   117438872.827    22347881.528    91510841.351                  
                 121499636.711    22752984.001    94499735.349    22752979.516  
                 105486063.560    19788921.255    82044733.852    19788916.949  
                 113061505.889    21157922.195    87936739.623    21157919.639  
                 105399085.297    19696341.633    81977079.606    19696338.202  
                 106589650.710    19932804.343    82903070.589    19932802.449  
 21  9  1 10 13 29.0000000  0 14G 1G 6G13G14G15G17G19G24G30R13R14R15
                                R17R24
  23620516.524   124126653.380    23620523.618    96722092.932                  
  22854627.971   120101880.447    22854635.851    93585910.788                  
  22317444.042   117278958.834    22317448.741    91386222.078                  
  21431683.757   112624254.376    21431688.599    87759181.847                  
  23535613.398   123680480.105    23535619.367    96374425.232                  
  20766777.591   109130148.160    20766781.772    85036500.129                  
  20168692.815   105987198.170    20168695.889    82587438.217                  
  23344328.420   122675274.393    23344337.015    95591153.747                  
  22348432.948   117441808.279    22348440.114    91513128.721                  
                 121502298.759    22753482.493    94501805.824    22753477.829  
                 105486070.695    19788922.595    82044739.390    19788918.271  
                 113058820.131    21157419.700    87934650.700    21157417.019  
                 105396668.366    19695889.975    81975199.775    19695886.562  
                 106591459.864    19933142.550    82904477.706    19933140.620  
 21  9  1 10 13 30.0000000  0 14G 1G 6G13G14G15G17G19G24G30R13R14R15
                                R17R24
  23620965.358   124129010.766    23620972.238    96723929.854                  
  22853995.139   120098555.526    22854003.091    93583319.945                  
  22317875.096   117281227.667    22317880.457    91387990.009                  
  21431919.896   112625494.497    21431924.703    87760148.173                  
  23535884.811   123681905.334    23535890.654    96375535.809                  
  20767068.177   109131677.125    20767072.716    85037691.530                  
  20168583.332   105986623.297    20168586.423    82586990.264                  
  23343737.956   122672168.153    23343745.872    95588733.294                  
  22348991.730   117444744.030    22348998.699    91515416.322                  
                 121504961.160    22753981.128    94503876.549    22753976.321  
                 105486078.214    19788924.007    82044745.259    19788919.700  
                 113056134.447    21156917.151    87932561.827    21156914.507  
                 105394252.176    19695438.389    81973320.512    19695434.994  
                 106593269.750    19933481.097    82905885.388    19933479.024  
 21  9  1 10 13 31.0000000  0 14G 1G 6G13G14G15G17G19G24G30R13R14R15
                                R17R24
  23621414.157   124131368.739    23621420.965    96725767.235                  
  22853362.433   120095230.825    22853370.456    93580729.267                  
  22318307.134   117283496.932    22318312.316    91389758.256                  
  21432155.803   112626734.800    21432160.699    87761114.648                  
  23536155.205   123683331.062    23536161.995    96376646.757                  
  20767359.245   109133206.492    20767363.713    85038883.245                  
  20168473.937   105986048.972    20168477.136    82586542.736                  
  23343146.867   122669062.201    23343154.801    95586313.073                  
  22349550.441   117447680.163    22349557.446    91517704.215                  
                 121507623.790    22754479.834    94505947.514    22754474.992  
                 105486086.191    19788925.544    82044751.454    19788921.148  
                 113053448.843    21156414.496    87930473.039    21156411.958  
                 105391836.778    19694986.928    81971441.873    19694983.569  
                 106595080.445    19933819.840    82907293.709    19933817.678  
 21  9  1 10 13 32.0000000  0 14G 1G 6G13G14G15G17G19G24G30R13R14R15
                                R17R24
  23621862.258   124133727.208    23621869.817    96727604.994                  
  22852730.281   120091906.350    22852737.929    93578138.771                  
  22318738.956   117285766.628    22318744.174    91391526.853                  
  21432392.067   112627975.306    21432396.784    87762081.271                  
  23536426.242   123684757.178    23536433.229    96377758.021                  
  20767650.082   109134736.226    20767654.853    85040075.248                  
  20168364.704   105985475.238    20168367.903    82586095.675                  
  23342555.760   122665956.518    23342563.818    95583893.068                  
  22350109.706   117450616.680    22350116.246    91519992.406                  
                 121510286.831    22754978.434    94508018.789    22754973.556  
                 105486094.624    19788927.134    82044758.018    19788922.702  
                 113050763.374    21155911.912    87928384.336    21155909.374  
                 105389422.130    19694535.700    81969563.818    19694532.412  
                 106596891.958    19934158.511    82908702.670    19934156.314  
 21  9  1 10 13 33.0000000  0 14G 1G 6G13G14G15G17G19G24G30R13R14R15
                                R17R24
  23622311.950   124136086.276    23622318.758    96729443.238                  
  22852097.592   120088582.040    22852105.437    93575548.406                  
  22319171.262   117288036.688    22319176.301    91393295.733                  
  21432627.777   112629215.985    21432632.727    87763048.032                  
  23536698.566   123686183.789    23536704.820    96378869.661                  
  20767941.240   109136266.312    20767946.028    85041267.513                  
  20168255.614   105984902.058    20168258.794    82585649.046                  
  23341964.670   122662851.053    23341972.872    95581473.221                  
  22350668.274   117453553.529    22350675.207    91522280.866                  
                 121512950.188    22755477.265    94510090.285    22755472.066  
                 105486103.500    19788928.814    82044764.915    19788924.364  
                 113048078.030    21155409.381    87926295.726    21155407.094  
                 105387008.205    19694084.561    81967686.312    19694081.273  
                 106598704.250    19934497.362    82910112.226    19934495.307  
 21  9  1 10 13 34.0000000  0 14G 1G 6G13G14G15G17G19G24G30R13R14R15
                                R17R24
  23622760.445   124138445.857    23622767.932    96731281.888                  
  22851464.796   120085257.900    22851472.855    93572958.170                  
  22319602.888   117290307.126    22319608.356    91395064.920                  
  21432864.274   112630456.808    21432869.045    87764014.909                  
  23536970.354   123687610.732    23536976.465    96379981.592                  
  20768232.362   109137796.729    20768237.365    85042460.051                  
  20168146.684   105984329.380    20168149.936    82585202.798                  
  23341373.759   122659745.808    23341381.926    95579053.545                  
  22351226.841   117456490.707    22351234.043    91524569.567                  
                 121515613.874    22755976.204    94512162.063    22755971.237  
                 105486112.763    19788930.493    82044772.122    19788926.151  
                 113045392.758    21154906.779    87924207.197    21154904.688  
                 105384594.973    19693633.564    81965809.356    19693630.419  
                 106600517.265    19934836.498    82911522.347    19934834.407  
 21  9  1 10 13 35.0000000  0 14G 1G 6G13G14G15G17G19G24G30R13R14R15
                                R17R24
  23623210.387   124140805.984    23623216.837    96733120.948                  
  22850832.823   120081934.003    22850840.381    93570368.116                  
  22320035.104   117292578.020    22320040.393    91396834.431                  
  21433099.627   112631697.853    21433105.220    87764981.955                  
  23537241.767   123689038.192    23537248.200    96381093.899                  
  20768523.680   109139327.543    20768528.469    85043652.891                  
  20168037.826   105983757.300    20168041.060    82584757.024                  
  23340783.009   122656640.807    23340791.104    95576634.074                  
  22351786.035   117459428.266    22351792.968    91526858.576                  
                 121518277.855    22756475.054    94514234.046    22756470.068  
                 105486122.509    19788932.387    82044779.706    19788927.849  
                 113042707.652    21154404.302    87922118.777    21154402.140  
                 105382182.554    19693182.782    81963933.037    19693179.780  
                 106602331.113    19935175.652    82912933.113    19935173.543  
 21  9  1 10 13 36.0000000  0 14G 1G 6G13G14G15G17G19G24G30R13R14R15
                                R17R24
  23623659.596   124143166.663    23623666.047    96734960.422                  
  22850199.830   120078610.327    22850207.925    93567778.245                  
  22320467.623   117294849.330    22320472.645    91398604.283                  
  21433335.962   112632939.072    21433341.341    87765949.141                  
  23537513.179   123690466.115    23537519.987    96382206.559                  
  20768815.464   109140858.744    20768819.913    85044846.039                  
  20167928.861   105983185.805    20167932.220    82584311.699                  
  23340192.009   122653536.096    23340200.229    95574214.810                  
  22352345.121   117462366.212    22352352.125    91529147.889                  
                 121520942.214    22756974.082    94516306.281    22756969.097  
                 105486132.731    19788934.335    82044787.650    19788929.868  
                 113040022.643    21153902.040    87920030.427    21153899.538  
                 105379770.909    19692732.179    81962057.318    19692729.124  
                 106604145.740    19935514.931    82914344.494    19935512.751  
 21  9  1 10 13 37.0000000  0 14G 1G 6G13G14G15G17G19G24G30R13R14R15
                                R17R24
  23624108.287   124145527.905    23624115.524    96736800.358                  
  22849567.106   120075286.849    22849575.362    93565188.520                  
  22320899.964   117297121.027    22320905.021    91400374.441                  
  21433572.102   112634180.499    21433577.534    87766916.487                  
  23537785.217   123691894.449    23537791.900    96383319.551                  
  20769106.818   109142390.297    20769111.393    85046039.455                  
  20167820.289   105982614.855    20167823.505    82583866.803                  
  23339602.189   122650431.637    23339609.604    95571795.756                  
  22352904.242   117465304.519    22352911.211    91531437.477                  
                 121523606.877    22757473.057    94518378.800    22757468.321  
                 105486143.387    19788936.247    82044795.940    19788931.762  
                 113037337.722    21153399.438    87917942.169    21153397.365  
                 105377360.029    19692281.576    81960182.173    19692278.288  
                 106605961.096    19935854.550    82915756.438    19935852.370  
 21  9  1 10 13 38.0000000  0 14G 1G 6G13G14G15G17G19G24G30R13R14R15
                                R17R24
  23624557.175   124147889.663    23624564.894    96738640.708                  
  22848935.132   120071963.563    22848942.941    93562598.953                  
  22321332.073   117299393.132    22321337.219    91402144.901                  
  21433808.598   112635422.068    21433813.887    87767883.943                  
  23538057.541   123693323.232    23538063.795    96384432.888                  
  20769397.940   109143922.191    20769402.908    85047233.138                  
  20167712.074   105982044.445    20167715.058    82583422.323                  
  23339011.171   122647327.384    23339018.747    95569376.837                  
  22353463.686   117468243.164    22353470.297    91533727.344                  
                 121526271.869    22757972.192    94520451.538    22757967.475  
                 105486154.490    19788938.445    82044804.569    19788933.763  
                 113034652.957    21152896.979    87915854.007    21152894.799  
                 105374949.857    19691831.080    81958307.597    19691828.078  
                 106607777.184    19936194.186    82917168.950    19936191.738  
 21  9  1 10 13 39.0000000  0 14G 1G 6G13G14G15G17G19G24G30R13R14R15
                                R17R24
  23625007.010   124150251.959    23625014.390    96740481.430                  
  22848303.713   120068640.476    22848310.646    93560009.519                  
  22321764.807   117301665.613    22321769.721    91403915.675                  
  21434045.077   112636663.829    21434050.366    87768851.547                  
  23538329.329   123694752.461    23538335.762    96385546.548                  
  20769689.491   109145454.481    20769694.494    85048427.125                  
  20167603.448   105981474.605    20167606.718    82582978.301                  
  23338419.599   122644223.351    23338427.979    95566958.116                  
  22354022.647   117471182.184    22354029.562    91536017.464                  
                 121528937.165    22758471.238    94522524.588    22758466.396  
                 105486166.030    19788940.607    82044813.549    19788935.979  
                 113031968.321    21152394.555    87913765.961    21152392.482  
                 105372540.441    19691380.924    81956433.612    19691377.672  
                 106609594.087    19936533.966    82918582.102    19936531.661  
 21  9  1 10 13 40.0000000  0 14G 1G 6G13G14G15G17G19G24G30R13R14R15
                                R17R24
  23625456.237   124152614.847    23625464.064    96742322.642                  
  22847670.327   120065317.583    22847678.297    93557420.256                  
  22322196.845   117303938.523    22322202.205    91405686.768                  
  21434280.930   112637905.767    21434286.469    87769819.293                  
  23538600.795   123696182.118    23538607.871    96386660.560                  
  20769981.292   109146987.111    20769986.099    85049621.390                  
  20167495.466   105980905.325    20167498.199    82582534.703                  
  23337829.814   122641119.593    23337837.498    95564539.602                  
  22354581.786   117474121.533    22354588.880    91538307.873                  
                 121531602.729    22758970.338    94524597.823    22758965.638  
                 105486177.987    19788942.805    82044822.854    19788938.427  
                 113029283.773    21151892.293    87911677.989    21151890.381  
                 105370131.770    19690930.714    81954560.203    19690927.676  
                 106611411.787    19936873.727    82919995.868    19936871.655  
 21  9  1 10 13 41.0000000  0 14G 1G 6G13G14G15G17G19G24G30R13R14R15
                                R17R24
  23625906.947   124154978.258    23625913.898    96744164.242                  
  22847037.496   120061994.943    22847046.019    93554831.181                  
  22322630.150   117306211.866    22322634.922    91407458.214                  
  21434517.677   112639147.931    21434522.716    87770787.208                  
  23538873.012   123697612.207    23538879.981    96387774.924                  
  20770273.129   109148520.128    20770277.847    85050815.949                  
  20167386.786   105980336.617    20167390.056    82582091.550                  
  23337238.492   122638016.115    23337246.873    95562121.305                  
  22355141.122   117477061.284    22355148.306    91540598.593                  
                 121534268.671    22759469.563    94526671.334    22759465.149  
                 105486190.406    19788945.128    82044832.508    19788940.446  
                 113026599.360    21151389.816    87909590.108    21151388.100  
                 105367723.899    19690480.790    81952687.414    19690477.591  
                 106613230.320    19937213.971    82921410.278    19937211.684  
 21  9  1 10 13 42.0000000  0 14G 1G 6G13G14G15G17G19G24G30R13R14R15
                                R17R24
  23626356.353   124157342.208    23626363.876    96746006.288                  
  22846405.558   120058672.478    22846413.778    93552242.247                  
  22323062.706   117308485.571    22323067.638    91409229.927                  
  21434754.102   112640390.238    21434759.212    87771755.238                  
  23539145.586   123699042.765    23539152.412    96388889.656                  
  20770564.948   109150053.492    20770569.666    85052010.768                  
  20167279.018   105979768.446    20167281.841    82581648.822                  
  23336647.671   122634912.845    23336656.230    95559703.177                  
  22355701.155   117480001.372    22355707.678    91542889.566                  
                 121536934.847    22759968.877    94528745.079    22759964.499  
                 105486203.241    19788947.612    82044842.489    19788942.984  
                 113023915.025    21150887.553    87907502.289    21150885.623  
                 105365316.727    19690030.830    81950815.167    19690027.792  
                 106615049.588    19937554.144    82922825.262    19937552.000  
 21  9  1 10 13 43.0000000  0 14G 1G 6G13G14G15G17G19G24G30R13R14R15
                                R17R24
  23626806.242   124159706.699    23626813.711    96747848.778                  
  22845773.852   120055350.198    22845781.482    93549653.456                  
  22323495.458   117310759.671    22323500.551    91411001.954                  
  21434990.312   112641632.701    21434995.691    87772723.384                  
  23539418.321   123700473.690    23539424.736    96390004.654                  
  20770857.178   109151587.179    20770861.485    85053205.858                  
  20167171.196   105979200.806    20167173.859    82581206.503                  
  23336056.814   122631809.845    23336065.730    95557285.259                  
  22356260.492   117482941.798    22356267.246    91545180.814                  
                 121539601.439    22760468.227    94530819.086    22760464.081  
                 105486216.484    19788949.970    82044852.784    19788945.521  
                 113021230.788    21150385.184    87905414.544    21150383.164  
                 105362910.293    19689581.263    81948943.501    19689578.118  
                 106616869.557    19937894.442    82924240.801    19937892.333  
 21  9  1 10 13 44.0000000  0 14G 1G 6G13G14G15G17G19G24G30R13R14R15
                                R17R24
  23627255.826   124162071.726    23627263.814    96749691.638                  
  22845141.485   120052028.118    22845149.205    93547064.824                  
  22323928.389   117313034.215    22323933.320    91412774.326                  
  21435227.148   112642875.379    21435232.259    87773691.711                  
  23539690.162   123701905.164    23539696.970    96391120.090                  
  20771148.497   109153121.252    20771153.357    85054401.233                  
  20167063.089   105978633.762    20167065.912    82580764.657                  
  23335467.297   122628707.061    23335475.195    95554867.513                  
  22356820.400   117485882.615    22356826.832    91547472.361                  
                 121542268.429    22760967.630    94532893.432    22760963.556  
                 105486230.152    19788952.651    82044863.371    19788947.987  
                 113018546.629    21149883.046    87903326.819    21149880.973  
                 105360504.589    19689131.678    81947072.349    19689128.587  
                 106618690.252    19938234.864    82925656.848    19938232.792  
 21  9  1 10 13 45.0000000  0 14G 1G 6G13G14G15G17G19G24G30R13R14R15
                                R17R24
  23627705.750   124164437.241    23627714.006    96751534.894                  
  22844509.315   120048706.225    22844517.017    93544476.343                  
  22324360.873   117315309.111    22324366.198    91414546.967                  
  21435462.805   112644118.200    21435468.755    87774660.143                  
  23539963.022   123703336.993    23539969.402    96392235.799                  
  20771440.512   109154655.652    20771445.283    85055596.869                  
  20166955.071   105978067.223    20166958.126    82580323.196                  
  23334876.350   122625604.501    23334884.910    95552449.924                  
  22357379.628   117488823.736    22357386.633    91549764.144                  
                 121544935.648    22761466.980    94534967.945    22761462.745  
                 105486244.297    19788955.295    82044874.380    19788950.650  
                 113015862.616    21149380.676    87901239.269    21149378.604  
                 105358099.649    19688682.183    81945201.838    19688679.056  
                 106620511.783    19938575.555    82927073.597    19938573.447  
 21  9  1 10 13 46.0000000  0 14G 1G 6G13G14G15G17G19G24G30R13R14R15
                                R17R24
  23628156.890   124166803.389    23628164.198    96753378.651                  
  22843877.609   120045384.577    22843885.043    93541888.045                  
  22324794.286   117317584.462    22324799.092    91416319.961                  
  21435699.677   112645361.238    21435705.466    87775628.744                  
  23540234.810   123704769.294    23540241.994    96393351.891                  
  20771732.439   109156190.451    20771737.371    85056792.819                  
  20166847.177   105977501.297    20166850.430    82579882.212                  
  23334286.440   122622502.235    23334294.606    95550032.585                  
  22357939.662   117491765.265    22357946.452    91552056.242                  
                 121547603.141    22761966.491    94537042.667    22761962.077  
                 105486258.948    19788958.047    82044885.775    19788953.366  
                 113013178.770    21148878.521    87899151.829    21148876.216  
                 105355695.460    19688232.920    81943331.929    19688229.811  
                 106622334.165    19938916.371    82928491.003    19938914.334  
 21  9  1 10 13 47.0000000  0 14G 1G 6G13G14G15G17G19G24G30R13R14R15
                                R17R24
  23628606.975   124169170.025    23628614.497    96755222.792                  
  22843245.296   120042063.110    22843252.944    93539299.887                  
  22325227.342   117319860.185    22325232.005    91418093.257                  
  21435936.602   112646604.432    21435941.873    87776597.469                  
  23540508.099   123706202.021    23540514.675    96394468.293                  
  20772024.758   109157725.602    20772029.511    85057989.038                  
  20166739.749   105976935.899    20166742.876    82579441.647                  
  23333696.101   122619400.191    23333704.285    95547615.408                  
  22358499.301   117494707.132    22358506.378    91554348.615                  
                 121550271.055    22762466.091    94539117.679    22762461.784  
                 105486274.004    19788960.871    82044897.487    19788956.350  
                 113010495.025    21148376.205    87897064.472    21148374.186  
                 105353292.011    19687783.800    81941462.575    19687780.691  
                 106624157.318    19939257.241    82929909.022    19939255.096  
 21  9  1 10 13 48.0000000  0 14G 1G 6G13G14G15G17G19G24G30R13R14R15
                                R17R24
  23629056.970   124171537.274    23629064.958    96757067.362                  
  22842613.698   120038741.866    22842620.952    93536711.895                  
  22325660.719   117322136.326    22325665.150    91419866.877                  
  21436173.313   112647847.834    21436178.567    87777566.349                  
  23540780.566   123707635.168    23540787.285    96395585.033                  
  20772317.310   109159261.131    20772321.795    85059185.552                  
  20166632.803   105976371.082    20166635.322    82579001.523                  
  23333105.637   122616298.406    23333113.982    95545198.451                  
  22359058.924   117497649.368    22359066.357    91556641.267                  
                 121552939.204    22762965.708    94541192.934    22762961.599  
                 105486289.509    19788963.765    82044909.547    19788959.334  
                 113007811.379    21147874.032    87894977.189    21147871.941  
                 105350889.381    19687334.805    81939593.849    19687331.589  
                 106625981.259    19939598.360    82931327.627    19939596.091  
 21  9  1 10 13 49.0000000  0 14G 1G 6G13G14G15G17G19G24G30R13R14R15
                                R17R24
  23629507.252   124173904.969    23629515.579    96758912.370                  
  22841981.277   120035420.812    22841989.139    93534124.078                  
  22326093.667   117324412.876    22326098.385    91421640.808                  
  21436410.060   112649091.409    21436415.117    87778535.371                  
  23541053.479   123709068.801    23541060.162    96396702.143                  
  20772609.290   109160797.010    20772614.043    85060382.354                  
  20166525.052   105975806.800    20166528.054    82578561.827                  
  23332515.531   122613196.849    23332523.679    95542781.624                  
  22359619.135   117500591.972    22359626.408    91558934.193                  
                 121555607.687    22763465.362    94543268.453    22763461.020  
                 105486305.461    19788966.714    82044921.949    19788962.264  
                 113005127.837    21147371.805    87892889.988    21147369.768  
                 105348487.505    19686885.882    81937725.735    19686882.951  
                 106627805.922    19939939.551    82932746.826    19939937.443  
 21  9  1 10 13 50.0000000  0 14G 1G 6G13G14G15G17G19G24G30R13R14R15
                                R17R24
  23629958.641   124176273.295    23629966.307    96760757.812                  
  22841349.071   120032099.959    22841357.184    93531536.397                  
  22326526.080   117326689.812    22326531.673    91423415.048                  
  21436646.306   112650335.157    21436651.935    87779504.521                  
  23541326.447   123710502.855    23541333.165    96397819.589                  
  20772901.484   109162333.264    20772906.344    85061579.428                  
  20166417.820   105975243.075    20166420.608    82578122.561                  
  23331924.834   122610095.548    23331933.519    95540365.035                  
  22360179.258   117503534.930    22360186.370    91561227.417                  
                 121558276.510    22763965.159    94545344.190    22763961.013  
                 105486321.844    19788969.787    82044934.694    19788965.266  
                 113002444.421    21146869.632    87890802.872    21146867.649  
                 105346086.357    19686437.208    81935858.171    19686434.135  
                 106629631.350    19940281.046    82934166.594    19940278.795  
 21  9  1 10 13 51.0000000  0 14G 1G 6G13G14G15G17G19G24G30R13R14R15
                                R17R24
  23630408.637   124178642.102    23630417.142    96762603.642                  
  22840717.330   120028779.311    22840725.156    93528948.879                  
  22326960.083   117328967.161    22326965.193    91425189.608                  
  21436882.981   112651579.085    21436888.556    87780473.822                  
  23541598.896   123711937.339    23541606.150    96398937.374                  
  20773193.928   109163869.864    20773198.771    85062776.786                  
  20166310.517   105974679.916    20166313.465    82577683.733                  
  23331335.139   122606994.494    23331343.519    95537948.606                  
  22360739.094   117506478.229    22360746.349    91563520.892                  
                 121560945.611    22764465.009    94547420.209    22764460.131  
                 105486338.659    19788972.968    82044947.765    19788968.447  
                 112999761.112    21146367.459    87888715.868    21146365.493  
                 105343685.950    19685988.589    81933991.183    19685985.730  
                 106631457.546    19940622.523    82935586.965    19940620.343  
 21  9  1 10 13 52.0000000  0 14G 1G 6G13G14G15G17G19G24G30R13R14R15
                                R17R24
  23630859.383   124181011.484    23630867.942    96764449.893                  
  22840085.803   120025458.876    22840093.343    93526361.539                  
  22327393.156   117331244.918    22327398.749    91426964.488                  
  21437119.782   112652823.194    21437125.250    87781443.258                  
  23541872.292   123713372.284    23541879.279    96400055.511                  
  20773486.069   109165406.846    20773491.179    85063974.428                  
  20166203.589   105974117.320    20166206.412    82577245.349                  
  23330744.568   122603893.688    23330753.574    95535532.389                  
  22361299.324   117509421.915    22361306.507    91565814.671                  
                 121563615.105    22764964.770    94549496.431    22764960.159  
                 105486355.927    19788976.149    82044961.193    19788971.699  
                 112997077.935    21145865.339    87886628.952    21145863.070  
                 105341286.294    19685540.166    81932124.781    19685537.199  
                 106633284.574    19940964.108    82937007.988    19940961.963  
 21  9  1 10 13 53.0000000  0 14G 1G 6G13G14G15G17G19G24G30R13R14R15
                                R17R24
  23631310.915   124183381.424    23631319.063    96766296.632                  
  22839453.722   120022138.627    22839461.566    93523774.328                  
  22327826.730   117333523.071    22327832.413    91428739.666                  
  21437356.064   112654067.488    21437362.014    87782412.835                  
  23542144.919   123714807.646    23542152.353    96401173.972                  
  20773779.442   109166944.180    20773783.856    85065172.348                  
  20166096.553   105973555.262    20166099.430    82576807.382                  
  23330155.194   122600793.130    23330163.378    95533116.374                  
  22361860.072   117512365.935    22361866.808    91568108.715                  
                 121566284.835    22765464.638    94551572.903    22765460.027  
                 105486373.635    19788979.490    82044974.971    19788975.184  
                 112994394.835    21145363.184    87884542.097    21145361.093  
                 105338887.369    19685091.778    81930258.958    19685088.919  
                 106635112.400    19941306.049    82938429.630    19941303.601  
 21  9  1 10 13 54.0000000  0 14G 1G 6G13G14G15G17G19G24G30R13R14R15
                                R17R24
  23631761.107   124185751.901    23631770.131    96768143.713                  
  22838822.070   120018818.639    22838829.592    93521187.324                  
  22328260.269   117335801.659    22328265.969    91430515.198                  
  21437593.239   112655311.985    21437598.850    87783382.571                  
  23542418.619   123716243.493    23542425.535    96402292.820                  
  20774072.226   109168481.904    20774076.354    85066370.579                  
  20165989.571   105972993.790    20165992.699    82576369.876                  
  23329565.105   122597692.867    23329573.271    95530700.615                  
  22362420.158   117515310.329    22362427.216    91570403.045                  
                 121568955.024    22765964.667    94553649.763    22765959.467  
                 105486391.807    19788982.903    82044989.095    19788978.472  
                 112991711.881    21144861.172    87882455.341    21144859.081  
                 105336489.264    19684643.587    81928393.760    19684640.782  
                 106636941.032    19941647.919    82939851.894    19941645.704  
 21  9  1 10 13 55.0000000  0 14G 1G 6G13G14G15G17G19G24G30R13R14R15
                                R17R24
  23632213.998   124188122.923    23632221.235    96769991.270                  
  22838190.239   120015498.792    22838197.869    93518600.421                  
  22328694.164   117338080.598    22328699.453    91432290.985                  
  21437830.057   112656556.628    21437835.811    87784352.434                  
  23542692.373   123717679.755    23542698.734    96403411.982                  
  20774364.367   109170019.969    20774368.995    85067569.069                  
  20165882.929   105972432.847    20165885.895    82575932.773                  
  23328975.016   122594592.799    23328983.343    95528284.956                  
  22362980.549   117518255.050    22362987.482    91572697.638                  
                 121571625.424    22766464.803    94555726.749    22766459.799  
                 105486410.396    19788986.370    82045003.551    19788982.081  
                 112989029.043    21144359.052    87880368.690    21144356.944  
                 105334091.851    19684195.539    81926529.113    19684192.877  
                 106638770.375    19941990.093    82941274.721    19941987.752  
 21  9  1 10 13 56.0000000  0 14G 1G 6G13G14G15G17G19G24G30R13R14R15
                                R17R24
  23632665.369   124190494.474    23632672.660    96771839.223                  
  22837558.319   120012179.180    22837566.199    93516013.712                  
  22329127.702   117340359.952    22329133.170    91434067.103                  
  21438066.840   112657801.465    21438072.683    87785322.432                  
  23542965.429   123719116.441    23542972.130    96404531.472                  
  20774657.633   109171558.395    20774661.779    85068767.849                  
  20165776.197   105971872.473    20165779.271    82575496.123                  
  23328385.088   122591492.953    23328393.540    95525869.501                  
  22363541.100   117521200.145    22363547.997    91574992.522                  
                 121574296.171    22766964.921    94557803.977    22766959.953  
                 105486429.428    19788990.015    82045018.361    19788985.548  
                 112986346.340    21143857.022    87878282.145    21143854.681  
                 105331695.213    19683747.742    81924665.059    19683744.954  
                 106640600.473    19942332.267    82942698.119    19942329.926  
 21  9  1 10 13 57.0000000  0 14G 1G 6G13G14G15G17G19G24G30R13R14R15
                                R17R24
  23633115.704   124192866.565    23633123.942    96773687.616                  
  22836927.221   120008859.770    22836934.547    93513427.166                  
  22329561.687   117342639.730    22329567.102    91435843.556                  
  21438303.604   112659046.490    21438309.358    87786292.581                  
  23543238.790   123720553.581    23543245.615    96405651.333                  
  20774950.096   109173097.190    20774954.635    85069966.906                  
  20165669.948   105971312.645    20165672.718    82575059.900                  
  23327795.160   122588393.374    23327803.559    95523454.239                  
  22364101.097   117524145.595    22364108.549    91577287.673                  
                 121576967.197    22767465.021    94559881.461    22767460.000  
                 105486448.913    19788993.571    82045033.514    19788989.282  
                 112983663.739    21143354.956    87876195.677    21143352.615  
                 105329299.315    19683299.998    81922801.576    19683297.121  
                 106642431.326    19942674.673    82944122.119    19942672.422  
 21  9  1 10 13 58.0000000  0 14G 1G 6G13G14G15G17G19G24G30R13R14R15
                                R17R24
  23633568.094   124195239.222    23633575.260    96775536.419                  
  22836294.997   120005540.577    22836302.841    93510840.768                  
  22329995.797   117344919.902    22330000.908    91437620.309                  
  21438540.869   112660291.697    21438546.409    87787262.868                  
  23543512.489   123721991.141    23543519.297    96406771.494                  
  20775243.201   109174636.364    20775247.597    85071166.265                  
  20165563.217   105970753.410    20165566.219    82574624.125                  
  23327205.107   122585294.095    23327213.881    95521039.220                  
  22364661.952   117527091.441    22364669.100    91579583.132                  
                 121579638.588    22767965.300    94561959.198    22767960.118  
                 105486468.860    19788997.198    82045049.021    19788993.106  
                 112980981.232    21142852.962    87874109.290    21142850.710  
                 105326904.183    19682852.325    81920938.709    19682849.502  
                 106644262.971    19943017.097    82945546.727    19943014.953  
 21  9  1 10 13 59.0000000  0 14G 1G 6G13G14G15G17G19G24G30R13R14R15
                                R17R24
  23634019.180   124197612.378    23634026.756    96777385.671                  
  22835663.327   120002221.555    22835671.225    93508254.519                  
  22330429.640   117347200.479    22330434.839    91439397.389                  
  21438777.419   112661537.091    21438783.370    87788233.317                  
  23543786.261   123723429.138    23543793.033    96407892.011                  
  20775535.753   109176175.864    20775540.453    85072365.872                  
  20165457.039   105970194.696    20165460.005    82574188.766                  
  23326616.663   122582194.971    23326624.167    95518624.335                  
  22365222.521   117530037.597    22365229.776    91581878.848                  
                 121582310.298    22768465.722    94564037.164    22768460.540  
                 105486489.241    19789001.094    82045064.873    19788996.984  
                 112978298.795    21142351.003    87872022.941    21142348.733  
                 105324509.791    19682404.867    81919076.393    19682402.294  
                 106646095.366    19943359.807    82946971.934    19943357.520  
 21  9  1 10 14  0.0000000  0 14G 1G 6G13G14G15G17G19G24G30R13R14R15
                                R17R24
  23634470.123   124199986.065    23634478.432    96779235.304                  
  22835031.853   119998902.746    22835039.734    93505668.435                  
  22330863.231   117349481.450    22330868.824    91441174.770                  
  21439014.952   112662782.659    21439020.384    87789203.884                  
  23544060.407   123724867.578    23544066.697    96409012.864                  
  20775828.787   109177715.748    20775833.540    85073565.784                  
  20165350.790   105969636.553    20165353.881    82573753.849                  
  23326026.752   122579096.123    23326034.579    95516209.650                  
  22365783.358   117532984.130    22365790.631    91584174.845                  
                 121584982.332    22768966.055    94566115.362    22768960.408  
                 105486510.104    19789005.007    82045081.097    19789000.754  
                 112975616.494    21141849.026    87869936.709    21141846.793  
                 105322116.165    19681957.552    81917214.686    19681954.710  
                 106647928.593    19943702.678    82948397.771    19943700.552  
 21  9  1 10 14  1.0000000  0 14G 1G 6G13G14G15G17G19G24G30R13R14R15
                                R17R24
  23634921.887   124202360.386    23634930.214    96781085.422                  
  22834401.077   119995584.223    22834408.332    93503082.572                  
  22331297.502   117351762.866    22331302.934    91442952.493                  
  21439251.788   112664028.441    21439257.506    87790174.623                  
  23544333.678   123726306.497    23544340.540    96410134.115                  
  20776121.839   109179256.025    20776126.485    85074765.994                  
  20165244.934   105969079.002    20165247.685    82573319.391                  
  23325437.611   122575997.598    23325445.080    95513795.213                  
  22366343.588   117535931.044    22366351.450    91586471.149                  
                 121587654.653    22769466.495    94568193.880    22769460.848  
                 105486531.425    19789009.063    82045097.678    19789004.757  
                 112972934.367    21141347.175    87867850.601    21141345.066  
                 105319723.342    19681510.308    81915353.597    19681507.699  
                 106649762.624    19944045.656    82949824.241    19944043.458  
 21  9  1 10 14  2.0000000  0 14G 1G 6G13G14G15G17G19G24G30R13R14R15
                                R17R24
  23635373.777   124204735.191    23635382.086    96782935.908                  
  22833769.478   119992265.807    22833776.876    93500496.801                  
  22331731.773   117354044.643    22331737.044    91444730.496                  
  21439488.910   112665274.367    21439494.664    87791145.475                  
  23544607.986   123727745.806    23544614.293    96411255.643                  
  20776415.642   109180796.628    20776419.698    85075966.468                  
  20165138.970   105968521.982    20165141.794    82572885.350                  
  23324847.879   122572899.255    23324855.563    95511380.919                  
  22366904.890   117538878.313    22366912.234    91588767.720                  
                 121590327.332    22769966.988    94570272.603    22769961.413  
                 105486553.134    19789013.012    82045114.565    19789008.885  
                 112970252.344    21140845.252    87865764.588    21140843.090  
                 105317331.225    19681063.278    81913493.070    19681060.723  
                 106651597.374    19944388.706    82951251.272    19944386.383  
 21  9  1 10 14  3.0000000  0 14G 1G 6G13G14G15G17G19G24G30R13R14R15
                                R17R24
  23635825.917   124207110.509    23635834.244    96784786.826                  
  22833137.790   119988947.648    22833145.474    93497911.220                  
  22332166.205   117356326.831    22332171.297    91446508.836                  
  21439726.336   112666520.492    21439731.732    87792116.477                  
  23544882.221   123729185.546    23544888.261    96412377.530                  
  20776708.300   109182337.595    20776712.911    85077167.221                  
  20165032.900   105967965.519    20165035.741    82572451.741                  
  23324257.934   122569801.182    23324265.939    95508966.822                  
  22367465.280   117541825.919    22367473.232    91591064.554                  
                 121593000.288    22770467.499    94572351.582    22770461.531  
                 105486575.265    19789017.069    82045131.785    19789012.995  
                 112967570.429    21140343.400    87863678.659    21140341.220  
                 105314939.890    19680616.356    81911633.139    19680613.855  
                 106653432.874    19944731.916    82952678.888    19944729.629  
 21  9  1 10 14  4.0000000  0 14G 1G 6G13G14G15G17G19G24G30R13R14R15
                                R17R24
  23636278.093   124209486.459    23636286.473    96786638.190                  
  22832506.156   119985629.676    22832514.090    93495325.780                  
  22332600.190   117358609.424    22332605.801    91448287.471                  
  21439963.047   112667766.773    21439968.872    87793087.609                  
  23545155.993   123730625.779    23545162.426    96413499.778                  
  20777001.692   109183878.929    20777006.177    85078368.254                  
  20164927.365   105967409.623    20164930.063    82572018.575                  
  23323668.292   122566703.322    23323676.404    95506552.899                  
  22368026.743   117544773.925    22368034.266    91593361.703                  
                 121595673.536    22770967.975    94574430.794    22770962.775  
                 105486597.855    19789021.357    82045149.355    19789017.212  
                 112964888.624    21139841.567    87861592.813    21139839.261  
                 105312549.306    19680169.559    81909773.793    19680167.093  
                 106655269.178    19945075.323    82954107.128    19945073.197  
 21  9  1 10 14  5.0000000  0 14G 1G 6G13G14G15G17G19G24G30R13R14R15
                                R17R24
  23636730.769   124211862.893    23636738.774    96788489.973                  
  22831875.130   119982311.921    22831882.760    93492740.519                  
  22333034.586   117360892.422    22333040.232    91450066.433                  
  21440200.866   112669013.262    21440206.155    87794058.897                  
  23545429.889   123732066.417    23545436.393    96414622.358                  
  20777295.280   109185420.612    20777299.747    85079569.565                  
  20164821.795   105966854.285    20164824.350    82571585.846                  
  23323079.061   122563605.745    23323087.012    95504139.207                  
  22368587.455   117547722.244    22368595.371    91595659.086                  
                 121598347.160    22771468.754    94576510.286    22771463.251  
                 105486620.900    19789025.735    82045167.276    19789021.411  
                 112962206.932    21139339.751    87859507.052    21139337.339  
                 105310159.465    19679723.048    81907915.033    19679720.511  
                 106657106.275    19945418.891    82955535.986    19945416.621  
 21  9  1 10 14  6.0000000  0 14G 1G 6G13G14G15G17G19G24G30R13R14R15
                                R17R24
  23637182.480   124214239.857    23637191.057    96790342.162                  
  22831243.263   119978994.368    22831251.465    93490155.411                  
  22333469.482   117363175.828    22333474.807    91451845.719                  
  21440437.934   112670259.918    21440443.384    87795030.313                  
  23545704.661   123733507.475    23545710.433    96415745.247                  
  20777588.636   109186962.656    20777593.157    85080771.162                  
  20164716.350   105966299.486    20164718.923    82571153.540                  
  23322490.080   122560508.417    23322497.477    95501725.721                  
  22369148.757   117550670.922    22369156.565    91597956.759                  
                 121601021.079    22771969.409    94578590.004    22771963.869  
                 105486644.397    19789030.059    82045185.557    19789025.860  
                 112959525.348    21138837.881    87857421.381    21138835.612  
                 105307770.363    19679276.448    81906056.842    19679274.196  
                 106658944.158    19945762.601    82956965.444    19945760.189  
 21  9  1 10 14  7.0000000  0 14G 1G 6G13G14G15G17G19G24G30R13R14R15
                                R17R24
  23637635.441   124216617.389    23637643.482    96792194.782                  
  22830612.272   119975677.010    22830620.170    93487570.458                  
  22333904.146   117365459.627    22333909.256    91453625.294                  
  21440675.717   112671506.754    21440680.631    87796001.873                  
  23545978.986   123734948.996    23545984.687    96416868.524                  
  20777882.295   109188505.049    20777886.602    85081973.023                  
  20164610.690   105965745.257    20164613.371    82570721.668                  
  23321900.420   122557411.324    23321907.889    95499312.395                  
  22369710.219   117553619.972    22369717.706    91600254.722                  
                 121603695.318    22772470.224    94580669.981    22772464.667  
                 105486668.350    19789034.580    82045204.185    19789030.417  
                 112956843.886    21138336.137    87855335.790    21138333.850  
                 105305382.025    19678830.133    81904199.237    19678827.721  
                 106660782.811    19946106.455    82958395.507    19946104.132  
 21  9  1 10 14  8.0000000  0 14G 1G 6G13G14G15G17G19G24G30R13R14R15
                                R17R24
  23638088.385   124218995.477    23638096.015    96794047.840                  
  22829980.155   119972359.906    22829988.983    93484985.709                  
  22334338.881   117367743.852    22334343.903    91455405.200                  
  21440912.678   112672753.818    21440918.110    87796973.605                  
  23546253.133   123736390.975    23546259.173    96417992.146                  
  20778176.080   109190047.855    20778180.136    85083175.212                  
  20164504.977   105965191.617    20164507.872    82570290.259                  
  23321312.225   122554314.495    23321318.604    95496899.293                  
  22370271.342   117556569.404    22370279.008    91602552.976                  
                 121606369.950    22772971.200    94582750.240    22772966.018  
                 105486692.770    19789039.173    82045223.171    19789034.973  
                 112954162.571    21137834.232    87853250.324    21137831.855  
                 105302994.507    19678383.926    81902342.287    19678381.603  
                 106662622.279    19946450.398    82959826.207    19946448.039  
 21  9  1 10 14  9.0000000  0 13G 1G 6G13G14G15G17G19G24G30R14R15R17
                                R24
  23638540.543   124221374.088    23638548.674    96795901.280                  
  22829350.272   119969042.961    22829357.849    93482401.075                  
  22334773.796   117370028.472    22334778.745    91457185.430                  
  21441149.568   112674001.017    21441155.304    87797945.453                  
  23546527.619   123737833.327    23546533.605    96419116.063                  
  20778469.418   109191590.976    20778473.796    85084377.641                  
  20164400.140   105964638.486    20164402.713    82569859.249                  
  23320722.690   122551217.936    23320729.338    95494486.387                  
  22370832.340   117559519.167    22370840.203    91604851.493                  
                 105486717.557    19789043.819    82045242.440    19789039.584  
                 112951481.348    21137332.541    87851164.922    21137330.379  
                 105300607.687    19677938.040    81900485.872    19677935.592  
                 106664462.458    19946794.484    82961257.455    19946792.161  
 21  9  1 10 14 10.0000000  0 13G 1G 6G13G14G15G17G19G24G30R14R15R17
                                R24
  23638993.166   124223753.219    23639001.367    96797755.164                  
  22828718.942   119965726.263    22828726.697    93479816.625                  
  22335208.442   117372313.492    22335213.463    91458965.965                  
  21441387.172   112675248.419    21441392.658    87798917.461                  
  23546802.445   123739276.184    23546808.198    96420240.360                  
  20778763.184   109193134.467    20778767.402    85085580.361                  
  20164294.695   105964085.929    20164297.625    82569428.683                  
  23320132.977   122548121.620    23320140.089    95492073.653                  
  22371393.982   117562469.286    22371401.665    91607150.282                  
                 105486742.804    19789048.607    82045262.080    19789044.176  
                 112948800.271    21136830.797    87849079.642    21136828.581  
                 105298221.609    19677492.065    81898630.031    19677489.903  
                 106666303.459    19947138.820    82962689.328    19947136.354  
 21  9  1 10 14 11.0000000  0 13G 1G 6G13G14G15G17G19G24G30R14R15R17
                                R24
  23639445.377   124226132.922    23639454.097    96799609.476                  
  22828087.594   119962409.708    22828095.456    93477232.290                  
  22335643.374   117374598.887    22335648.359    91460746.784                  
  21441624.616   112676495.973    21441629.994    87799889.575                  
  23547077.127   123740719.433    23547082.917    96421364.971                  
  20779057.005   109194678.312    20779061.204    85086783.356                  
  20164189.625   105963533.906    20164192.484    82568998.538                  
  23319544.228   122545025.507    23319550.822    95489661.102                  
  22371955.462   117565419.747    22371963.092    91609449.345                  
                 105486768.499    19789053.343    82045282.064    19789049.126  
                 112946119.289    21136329.088    87846994.434    21136326.873  
                 105295836.239    19677046.251    81896774.739    19677043.874  
                 106668145.178    19947483.210    82964121.788    19947481.030  
 21  9  1 10 14 12.0000000  0 13G 1G 6G13G14G15G17G19G24G30R14R15R17
                                R24
  23639898.643   124228513.129    23639907.130    96801464.190                  
  22827456.370   119959093.385    22827464.483    93474648.149                  
  22336078.449   117376884.685    22336083.273    91462527.934                  
  21441861.899   112677743.704    21441867.474    87800861.830                  
  23547351.542   123742163.109    23547357.707    96422489.906                  
  20779350.807   109196222.510    20779355.078    85087986.633                  
  20164085.037   105962982.450    20164087.682    82568568.832                  
  23318954.247   122541929.647    23318961.841    95487248.732                  
  22372516.674   117568370.564    22372524.644    91611748.674                  
                 105486794.645    19789058.239    82045302.405    19789053.807  
                 112943438.398    21135827.416    87844909.294    21135825.021  
                 105293451.636    19676600.633    81894920.057    19676598.346  
                 106669987.657    19947827.724    82965554.829    19947825.366  
 21  9  1 10 14 13.0000000  0 13G 1G 6G13G14G15G17G19G24G30R14R15R17
                                R24
  23640350.711   124230893.823    23640360.164    96803319.304                  
  22826824.915   119955777.235    22826833.420    93472064.129                  
  22336513.166   117379170.855    22336518.402    91464309.372                  
  21442099.449   112678991.599    21442105.025    87801834.220                  
  23547626.850   123743607.206    23547632.729    96423615.188                  
  20779644.681   109197767.028    20779649.041    85089190.149                  
  20163979.789   105962431.522    20163982.844    82568139.542                  
  23318365.588   122538834.021    23318372.682    95484836.554                  
  22373077.744   117571321.713    22373086.267    91614048.282                  
                 105486821.197    19789063.135    82045323.063    19789058.882  
                 112940757.580    21135325.814    87842824.223    21135323.384  
                 105291067.847    19676155.140    81893065.994    19676152.764  
                 106671830.849    19948172.471    82966988.428    19948170.148  
 21  9  1 10 14 14.0000000  0 13G 1G 6G13G14G15G17G19G24G30R14R15R17
                                R24
  23640804.298   124233275.219    23640813.268    96805174.891                  
  22826194.674   119952461.367    22826202.501    93469480.352                  
  22336948.491   117381457.489    22336953.405    91466091.148                  
  21442336.643   112680239.728    21442342.575    87802806.786                  
  23547901.407   123745051.788    23547907.429    96424740.829                  
  20779938.305   109199311.938    20779942.969    85090393.973                  
  20163875.076   105961881.216    20163878.043    82567710.727                  
  23317776.285   122535738.624    23317783.647    95482424.583                  
  22373640.368   117574273.266    22373647.980    91616348.186                  
                 105486848.227    19789068.317    82045344.085    19789064.028  
                 112938076.933    21134824.177    87840739.264    21134821.836  
                 105288684.867    19675709.880    81891212.558    19675707.736  
                 106673674.871    19948517.254    82968422.658    19948514.824  
 21  9  1 10 14 15.0000000  0 13G 1G 6G13G14G15G17G19G24G30R14R15R17
                                R24
  23641257.671   124235657.061    23641266.516    96807030.854                  
  22825563.612   119949145.652    22825571.492    93466896.675                  
  22337383.959   117383744.498    22337388.677    91467873.234                  
  21442574.891   112681488.007    21442580.180    87803779.476                  
  23548176.269   123746496.808    23548182.183    96425866.825                  
  20780232.411   109200857.219    20780237.129    85091598.093                  
  20163770.775   105961331.436    20163773.437    82567282.332                  
  23317188.037   122532643.523    23317194.702    95480012.823                  
  22374201.938   117577225.160    22374209.603    91618648.366                  
                 105486875.711    19789073.392    82045365.453    19789069.139  
                 112935396.396    21134322.540    87838654.406    21134320.164  
                 105286302.569    19675264.673    81889359.662    19675262.422  
                 106675519.678    19948862.287    82969857.511    19948860.000  
 21  9  1 10 14 16.0000000  0 13G 1G 6G13G14G15G17G19G24G30R14R15R17
                                R24
  23641710.812   124238039.484    23641719.818    96808887.298                  
  22824932.639   119945830.174    22824940.483    93464313.195                  
  22337819.338   117386031.927    22337824.056    91469655.643                  
  21442812.281   112682736.504    21442817.713    87804752.321                  
  23548452.095   123747942.279    23548457.438    96426993.166                  
  20780526.500   109202402.860    20780531.003    85092802.491                  
  20163665.669   105960782.227    20163669.011    82566854.377                  
  23316598.305   122529548.689    23316605.650    95477601.253                  
  22374763.722   117580177.426    22374771.495    91620948.831                  
                 105486903.670    19789078.592    82045387.209    19789074.339  
                 112932715.991    21133820.939    87836569.653    21133818.652  
                 105283921.003    19674819.717    81887507.335    19674817.555  
                 106677365.286    19949207.374    82971292.985    19949205.122  
 21  9  1 10 14 17.0000000  0 13G 1G 6G13G14G15G17G19G24G30R14R15R17
                                R24
  23642164.649   124240422.459    23642173.244    96810744.155                  
  22824301.255   119942514.931    22824309.707    93461729.880                  
  22338254.485   117388319.770    22338259.345    91471438.373                  
  21443049.974   112683985.199    21443055.174    87805725.330                  
  23548726.206   123749388.181    23548732.656    96428119.835                  
  20780821.088   109203948.892    20780825.431    85094007.191                  
  20163561.547   105960233.588    20163564.620    82566426.864                  
  23316009.289   122526454.132    23316016.830    95475189.919                  
  22375325.542   117583130.071    22375333.333    91623249.595                  
                 105486932.121    19789083.970    82045409.333    19789079.646  
                 112930035.746    21133319.427    87834485.007    21133317.104  
                 105281540.210    19674374.635    81885655.615    19674372.562  
                 106679211.667    19949552.728    82972729.053    19949550.334  
 21  9  1 10 14 18.0000000  0 13G 1G 6G13G14G15G17G19G24G30R14R15R17
                                R24
  23642617.807   124242805.941    23642626.849    96812601.416                  
  22823670.711   119939199.867    22823678.948    93459146.711                  
  22338690.489   117390607.991    22338694.867    91473221.412                  
  21443287.454   112685234.045    21443292.832    87806698.457                  
  23549001.710   123750834.518    23549007.929    96429246.850                  
  20781115.481   109205495.253    20781119.626    85095212.154                  
  20163457.102   105959685.503    20163460.318    82565999.782                  
  23315421.041   122523359.759    23315428.010    95472778.730                  
  22375887.916   117586083.059    22375895.242    91625550.623                  
                 105486961.006    19789089.313    82045431.794    19789085.060  
                 112927355.607    21132817.879    87832400.456    21132815.467  
                 105279160.216    19673929.947    81883804.505    19673927.892  
                 106681058.798    19949898.190    82974165.724    19949895.546  
 21  9  1 10 14 19.0000000  0 13G 1G 6G13G14G15G17G19G24G30R14R15R17
                                R24
  23643071.931   124245189.899    23643080.579    96814459.084                  
  22823039.523   119935884.994    22823048.047    93456563.702                  
  22339126.082   117392896.599    22339130.567    91475004.741                  
  21443525.540   112686483.063    21443530.472    87807671.718                  
  23549277.376   123752281.266    23549283.147    96430374.182                  
  20781409.837   109207041.980    20781413.929    85096417.385                  
  20163353.069   105959137.938    20163356.124    82565573.115                  
  23314831.095   122520265.650    23314839.207    95470367.741                  
  22376449.914   117589036.373    22376457.241    91627851.902                  
                 105486990.278    19789094.781    82045454.566    19789090.689  
                 112924675.523    21132316.439    87830315.949    21132313.705  
                 105276780.983    19673485.347    81881953.987    19673483.292  
                 106682906.687    19950243.759    82975602.955    19950241.204  
 21  9  1 10 14 20.0000000  0 13G 1G 6G13G14G15G17G19G24G30R14R15R17
                                R24
  23643525.983   124247574.475    23643534.328    96816317.208                  
  22822409.301   119932570.338    22822417.288    93453980.853                  
  22339561.407   117395185.625    22339566.339    91476788.397                  
  21443763.163   112687732.252    21443768.220    87808645.117                  
  23549552.898   123753728.448    23549558.491    96431501.849                  
  20781703.943   109208589.071    20781708.410    85097622.915                  
  20163248.892   105958590.945    20163252.037    82565146.892                  
  23314242.507   122517171.802    23314250.441    95467956.937                  
  22377011.770   117591990.063    22377019.275    91630153.474                  
                 105487019.988    19789100.428    82045477.664    19789096.157  
                 112921995.565    21131814.927    87828231.535    21131812.318  
                 105274402.453    19673040.730    81880104.026    19673038.961  
                 106684755.364    19950589.471    82977040.819    19950586.970  
 21  9  1 10 14 21.0000000  0 13G 1G 6G13G14G15G17G19G24G30R14R15R17
                                R24
  23643979.570   124249959.563    23643988.093    96818175.699                  
  22821778.327   119929255.911    22821786.637    93451398.178                  
  22339996.947   117397475.046    22340001.950    91478572.357                  
  21444000.588   112688981.647    21444005.895    87809618.670                  
  23549827.634   123755176.099    23549833.978    96432629.900                  
  20781997.942   109210136.517    20782002.874    85098828.719                  
  20163145.198   105958044.522    20163148.075    82564721.098                  
  23313653.937   122514078.163    23313661.853    95465546.295                  
  22377573.733   117594944.107    22377581.542    91632455.338                  
                 105487050.126    19789106.146    82045501.112    19789101.768  
                 112919315.703    21131313.486    87826147.196    21131310.681  
                 105272024.631    19672596.399    81878254.608    19672594.505  
                 106686604.830    19950935.273    82978479.295    19950933.039  
 21  9  1 10 14 22.0000000  0 13G 1G 6G13G14G15G17G19G24G30R14R15R17
                                R24
  23644433.443   124252345.261    23644442.110    96820034.696                  
  22821147.372   119925941.683    22821155.824    93448815.672                  
  22340432.665   117399764.890    22340437.490    91480356.649                  
  21444238.514   112690231.229    21444243.786    87810592.373                  
  23550103.568   123756624.194    23550109.608    96433758.284                  
  20782293.013   109211684.357    20782297.338    85100034.825                  
  20163041.165   105957498.662    20163044.292    82564295.757                  
  23313065.081   122510984.838    23313073.158    95463135.926                  
  22378136.071   117597898.536    22378143.701    91634757.477                  
                 105487080.752    19789111.810    82045524.919    19789107.522  
                 112916636.014    21130812.046    87824062.998    21130809.437  
                 105269647.627    19672152.247    81876405.826    19672150.335  
                 106688455.063    19951281.199    82979918.363    19951278.912  
 21  9  1 10 14 23.0000000  0 13G 1G 6G13G14G15G17G19G24G30R14R15R17
                                R24
  23644888.192   124254731.440    23644896.019    96821894.038                  
  22820517.704   119922627.611    22820525.048    93446233.274                  
  22340868.901   117402055.092    22340873.369    91482141.222                  
  21444476.262   112691480.949    21444481.622    87811566.174                  
  23550379.180   123758072.670    23550385.237    96434886.971                  
  20782587.709   109213232.510    20782591.962    85101241.181                  
  20162937.417   105956953.324    20162940.526    82563870.818                  
  23312476.190   122507891.700    23312484.570    95460725.693                  
  22378698.713   117600853.250    22378705.896    91637059.853                  
                 105487111.787    19789117.618    82045549.066    19789113.115  
                 112913956.420    21130310.694    87821978.862    21130308.139  
                 105267271.383    19671708.309    81874557.631    19671706.486  
                 106690306.013    19951627.358    82981357.990    19951624.981  
 21  9  1 10 14 24.0000000  0 14G 1G 6G13G14G15G17G19G24G30R13R14R15
                                R17R24
  23645341.547   124257118.156    23645350.124    96823753.791                  
  22819885.855   119919313.829    22819894.486    93443651.088                  
  22341304.602   117404345.734    22341309.194    91483926.147                  
  21444714.259   112692730.897    21444719.477    87812540.167                  
  23550655.524   123759521.633    23550660.885    96436016.033                  
  20782882.119   109214781.054    20782886.462    85102447.836                  
  20162833.634   105956408.581    20162836.725    82563446.346                  
  23311888.138   122504798.856    23311896.001    95458315.676                  
  22379260.819   117603808.398    22379268.395    91639362.571                  
                 121649206.992    22780992.979    94616067.947    22780987.583  
                 105487143.330    19789123.657    82045573.599    19789119.351  
                 112911276.972    21129809.272    87819894.852    21129806.502  
                 105264895.915    19671264.335    81872710.050    19671262.548  
                 106692157.766    19951973.606    82982798.238    19951971.408  
 21  9  1 10 14 25.0000000  0 14G 1G 6G13G14G15G17G19G24G30R13R14R15
                                R17R24
  23645796.617   124259505.406    23645804.337    96825613.997                  
  22819256.490   119916000.203    22819263.906    93441069.062                  
  22341741.178   117406636.746    22341745.288    91485711.361                  
  21444951.989   112693981.002    21444957.439    87813514.272                  
  23550931.851   123760971.022    23550936.622    96437145.422                  
  20783176.815   109216329.964    20783181.265    85103654.777                  
  20162730.190   105955864.359    20162733.371    82563022.274                  
  23311299.300   122501706.238    23311307.449    95455905.843                  
  22379823.211   117606763.875    22379830.787    91641665.535                  
                 121651887.093    22781494.974    94618152.472    22781489.506  
                 105487175.302    19789129.590    82045598.471    19789125.409  
                 112908597.614    21129307.867    87817810.902    21129305.115  
                 105262521.189    19670820.683    81870863.040    19670818.628  
                 106694010.277    19952320.140    82984239.085    19952317.692  
 21  9  1 10 14 26.0000000  0 14G 1G 6G13G14G15G17G19G24G30R13R14R15
                                R17R24
  23646251.545   124261893.237    23646258.728    96827474.666                  
  22818626.125   119912686.826    22818633.415    93438487.203                  
  22342177.093   117408928.201    22342181.167    91487496.903                  
  21445189.790   112695231.329    21445195.293    87814488.548                  
  23551208.052   123762420.842    23551212.573    96438275.168                  
  20783471.815   109217879.241    20783476.282    85104861.997                  
  20162626.961   105955320.740    20162629.856    82562598.682                  
  23310710.981   122498613.893    23310718.950    95453496.215                  
  22380386.049   117609719.710    22380393.232    91643968.783                  
                 121654567.498    22781996.950    94620237.174    22781991.572  
                 105487207.738    19789135.630    82045623.692    19789131.234  
                 112905918.390    21128806.516    87815727.066    21128803.889  
                 105260147.251    19670377.049    81869016.647    19670374.976  
                 106695863.616    19952666.656    82985680.566    19952664.297  
 21  9  1 10 14 27.0000000  0 14G 1G 6G13G14G15G17G19G24G30R13R14R15
                                R17R24
  23646705.293   124264281.602    23646713.173    96829335.732                  
  22817994.794   119909373.655    22818002.960    93435905.514                  
  22342612.525   117411220.055    22342617.296    91489282.757                  
  21445427.859   112696481.818    21445433.166    87815462.960                  
  23551483.503   123763871.110    23551488.560    96439405.236                  
  20783766.868   109219428.882    20783771.103    85106069.516                  
  20162523.678   105954777.691    20162526.644    82562175.529                  
  23310122.625   122495521.832    23310130.577    95451086.821                  
  22380948.137   117612675.926    22380955.767    91646272.335                  
                 121657248.209    22782499.016    94622322.230    22782493.709  
                 105487240.603    19789141.794    82045649.254    19789137.649  
                 112903239.301    21128305.236    87813643.336    21128302.627  
                 105257774.058    19669933.557    81867170.832    19669931.556  
                 106697717.763    19953013.386    82987122.676    19953011.063  
 21  9  1 10 14 28.0000000  0 14G 1G 6G13G14G15G17G19G24G30R13R14R15
                                R17R24
  23647159.791   124266670.469    23647167.833    96831197.184                  
  22817364.536   119906060.663    22817372.541    93433323.957                  
  22343048.869   117413512.285    22343053.497    91491068.910                  
  21445666.071   112697732.468    21445671.217    87816437.495                  
  23551759.472   123765321.787    23551764.708    96440535.645                  
  20784061.993   109220978.855    20784066.049    85107277.292                  
  20162420.413   105954235.132    20162423.308    82561752.751                  
  23309534.967   122492429.991    23309542.061    95448677.611                  
  22381510.493   117615632.456    22381518.302    91648576.124                  
                 121659929.234    22783001.154    94624407.462    22782996.258  
                 105487273.888    19789147.995    82045675.147    19789143.635  
                 112900560.301    21127803.921    87811559.672    21127801.240  
                 105255401.564    19669490.281    81865325.563    19669488.261  
                 106699572.640    19953360.331    82988565.363    19953357.990  
 21  9  1 10 14 29.0000000  0 14G 1G 6G13G14G15G17G19G24G30R13R14R15
                                R17R24
  23647615.058   124269059.908    23647622.438    96833059.064                  
  22816734.599   119902747.879    22816742.122    93430742.560                  
  22343484.998   117415804.890    22343489.751    91492855.358                  
  21445903.979   112698983.286    21445909.357    87817412.155                  
  23552035.799   123766772.901    23552040.820    96441666.363                  
  20784356.850   109222529.168    20784361.031    85108485.330                  
  20162317.452   105953693.154    20162320.203    82561330.426                  
  23308946.700   122489338.353    23308953.687    95446268.519                  
  22382073.475   117618589.324    22382081.140    91650880.170                  
                 121662610.516    22783503.291    94626492.910    22783498.288  
                 105487307.628    19789154.428    82045701.377    19789150.068  
                 112897881.420    21127302.480    87809476.094    21127299.943  
                 105253029.825    19669047.039    81863480.873    19669045.092  
                 106701428.275    19953707.276    82990008.643    19953705.096  
 21  9  1 10 14 30.0000000  0 14G 1G 6G13G14G15G17G19G24G30R13R14R15
                                R17R24
  23648069.575   124271449.873    23648077.473    96834921.395                  
  22816103.751   119899435.318    22816111.578    93428161.343                  
  22343921.413   117418097.918    22343926.059    91494642.133                  
  21446142.262   112700234.305    21446147.355    87818386.978                  
  23552312.322   123768224.467    23552317.039    96442797.456                  
  20784652.010   109224079.872    20784656.138    85109693.671                  
  20162214.276   105953151.731    20162217.028    82560908.547                  
  23308357.595   122486246.980    23308365.350    95443859.664                  
  22382636.224   117621546.593    22382643.854    91653184.541                  
                 121665292.176    22784005.250    94628578.650    22784000.622  
                 105487341.796    19789160.825    82045727.955    19789156.483  
                 112895202.647    21126801.182    87807392.608    21126798.591  
                 105250658.828    19668604.013    81861636.769    19668601.886  
                 106703284.668    19954054.525    82991452.498    19954052.095  
 21  9  1 10 14 31.0000000  0 14G 1G 6G13G14G15G17G19G24G30R13R14R15
                                R17R24
  23648524.163   124273840.395    23648532.454    96836784.137                  
  22815473.082   119896122.954    22815481.391    93425580.283                  
  22344357.864   117420391.351    22344362.438    91496429.218                  
  21446380.278   112701485.531    21446385.388    87819361.950                  
  23552588.631   123769676.482    23552593.187    96443928.900                  
  20784946.974   109225630.948    20784951.263    85110902.297                  
  20162111.207   105952610.865    20162114.048    82560487.093                  
  23307769.686   122483155.887    23307776.941    95441451.011                  
  22383199.116   117624504.188    22383206.746    91655489.161                  
                 121667974.125    22784507.530    94630664.639    22784502.759  
                 105487376.420    19789167.383    82045754.887    19789162.951  
                 112892523.999    21126299.956    87805309.213    21126297.062  
                 105248288.632    19668161.093    81859793.276    19668159.003  
                 106705141.829    19954401.809    82992896.966    19954399.361  
 21  9  1 10 14 32.0000000  0 14G 1G 6G13G14G15G17G19G24G30R13R14R15
                                R17R24
  23648980.502   124276231.465    23648987.524    96838647.302                  
  22814842.913   119892810.777    22814851.204    93422999.366                  
  22344794.154   117422685.165    22344799.068    91498216.618                  
  21446618.615   112702736.885    21446623.404    87820337.034                  
  23552864.457   123771128.876    23552869.550    96445060.633                  
  20785242.081   109227182.349    20785246.441    85112111.184                  
  20162008.639   105952070.542    20162011.427    82560066.058                  
  23307181.473   122480065.006    23307188.817    95439042.555                  
  22383761.901   117627462.136    22383769.620    91657794.050                  
                 121670656.462    22785009.668    94632750.852    22785005.022  
                 105487411.473    19789173.941    82045782.146    19789169.527  
                 112889845.449    21125798.820    87803225.885    21125795.853  
                 105245919.168    19667718.263    81857950.366    19667716.244  
                 106706999.772    19954749.183    82994342.030    19954746.807  
 21  9  1 10 14 33.0000000  0 14G 1G 6G13G14G15G17G19G24G30R13R14R15
                                R17R24
  23649434.232   124278623.061    23649442.666    96840510.890                  
  22814212.440   119889498.877    22814220.964    93420418.669                  
  22345231.302   117424979.417    22345235.662    91500004.339                  
  21446856.487   112703988.471    21446861.580    87821312.300                  
  23553141.391   123772581.762    23553145.948    96446192.769                  
  20785537.474   109228734.150    20785541.763    85113320.377                  
  20161905.839   105951530.815    20161908.608    82559645.491                  
  23306593.672   122476974.425    23306600.819    95436634.301                  
  22384325.079   117630420.488    22384332.584    91660099.260                  
                 121673339.083    22785512.020    94634837.325    22785507.713  
                 105487447.014    19789180.624    82045809.798    19789176.103  
                 112887167.076    21125297.540    87801142.710    21125294.717  
                 105243550.513    19667275.558    81856108.072    19667273.575  
                 106708858.572    19955096.879    82995787.759    19955094.609  
 21  9  1 10 14 34.0000000  0 14G 1G 6G13G14G15G17G19G24G30R13R14R15
                                R17R24
  23649890.375   124281015.197    23649897.790    96842374.869                  
  22813582.235   119886187.131    22813590.705    93417838.095                  
  22345667.699   117427274.059    22345672.452    91501792.372                  
  21447094.878   112705240.234    21447099.685    87822287.693                  
  23553417.896   123774035.077    23553422.399    96447325.208                  
  20785832.724   109230286.306    20785837.173    85114529.847                  
  20161803.235   105950991.631    20161806.022    82559225.348                  
  23306005.281   122473884.052    23306012.750    95434226.209                  
  22384888.239   117633379.161    22384895.565    91662404.723                  
                 121676022.019    22786014.407    94636924.128    22786010.530  
                 105487482.972    19789187.378    82045837.754    19789182.786  
                 112884488.801    21124796.421    87799059.607    21124793.348  
                 105241182.576    19666833.193    81854266.346    19666831.138  
                 106710718.151    19955444.610    82997234.098    19955442.358  
 21  9  1 10 14 35.0000000  0 14G 1G 6G13G14G15G17G19G24G30R13R14R15
                                R17R24
  23650345.338   124283407.826    23650353.182    96844239.260                  
  22812952.174   119882875.598    22812960.536    93415257.670                  
  22346104.221   117429569.056    22346109.082    91503580.677                  
  21447333.143   112706492.131    21447338.111    87823263.193                  
  23553694.527   123775488.800    23553699.208    96448457.997                  
  20786128.242   109231838.776    20786132.512    85115739.570                  
  20161700.934   105950452.957    20161703.561    82558805.600                  
  23305417.515   122470793.954    23305424.805    95431818.336                  
  22385451.310   117636338.182    22385458.743    91664710.459                  
                 121678705.268    22786516.902    94639011.067    22786513.292  
                 105487519.346    19789194.169    82045866.045    19789189.737  
                 112881810.600    21124295.070    87796976.574    21124292.354  
                 105238815.350    19666390.934    81852425.167    19666388.629  
                 106712578.450    19955792.555    82998681.000    19955790.125  
 21  9  1 10 14 36.0000000  0 14G 1G 6G13G14G15G17G19G24G30R13R14R15
                                R17R24
  23650801.731   124285801.027    23650808.646    96846104.088                  
  22812321.719   119879564.281    22812330.439    93412677.439                  
  22346540.940   117431864.493    22346545.961    91505369.331                  
  21447571.302   112707744.240    21447576.269    87824238.868                  
  23553970.960   123776942.981    23553975.928    96449591.123                  
  20786424.010   109233391.654    20786428.048    85116949.605                  
  20161598.474   105949914.876    20161601.047    82558386.316                  
  23304829.606   122467704.068    23304836.932    95429410.641                  
  22386014.041   117639297.588    22386021.957    91667016.489                  
                 121681388.843    22787019.558    94641098.289    22787015.573  
                 105487556.188    19789201.191    82045894.704    19789196.492  
                 112879132.549    21123793.969    87794893.639    21123791.253  
                 105236448.894    19665948.605    81850584.596    19665946.353  
                 106714439.517    19956140.537    83000128.491    19956138.178  
 21  9  1 10 14 37.0000000  0 14G 1G 6G13G14G15G17G19G24G30R13R14R15
                                R17R24
  23651257.194   124288194.766    23651264.038    96847969.331                  
  22811691.782   119876253.170    22811700.520    93410097.345                  
  22346977.695   117434160.317    22346982.877    91507158.290                  
  21447809.925   112708996.527    21447814.624    87825214.675                  
  23554247.484   123778397.569    23554252.809    96450724.564                  
  20786718.992   109234944.872    20786723.727    85118159.907                  
  20161496.191   105949377.332    20161498.889    82557967.452                  
  23304241.394   122464614.478    23304249.024    95427003.146                  
  22386577.755   117642257.314    22386585.117    91669322.762                  
                 121684072.689    22787522.088    94643185.758    22787518.532  
                 105487593.476    19789208.178    82045923.704    19789203.460  
                 112876454.608    21123292.904    87792810.801    21123290.348  
                 105234083.228    19665506.543    81848744.638    19665504.398  
                 106716301.288    19956488.697    83001576.545    19956486.249  
 21  9  1 10 14 38.0000000  0 14G 1G 6G13G14G15G17G19G24G30R13R14R15
                                R17R24
  23651711.711   124290589.032    23651719.644    96849835.009                  
  22811062.024   119872942.287    22811070.512    93407517.437                  
  22347414.503   117436456.532    22347419.792    91508947.548                  
  21448047.904   112710249.009    21448052.782    87826190.639                  
  23554524.632   123779852.621    23554529.975    96451858.373                  
  20787015.046   109236498.460    20787019.370    85119370.495                  
  20161393.998   105948840.351    20161396.643    82557549.035                  
  23303652.645   122461525.100    23303661.222    95424595.861                  
  22387140.808   117645217.412    22387148.188    91671629.342                  
                 121686756.925    22788024.601    94645273.448    22788021.098  
                 105487631.243    19789215.218    82045953.078    19789210.537  
                 112873776.790    21122791.678    87790728.053    21122788.944  
                 105231718.350    19665064.588    81846905.295    19665062.390  
                 106718163.824    19956836.982    83003025.179    19956834.713  
 21  9  1 10 14 39.0000000  0 14G 1G 6G13G14G15G17G19G24G30R13R14R15
                                R17R24
  23652168.479   124292983.865    23652175.358    96851701.127                  
  22810431.891   119869631.581    22810440.611    93404937.675                  
  22347852.044   117438753.152    22347856.762    91510737.115                  
  21448286.491   112711501.651    21448291.173    87827166.726                  
  23554802.406   123781308.125    23554806.855    96452992.534                  
  20787310.635   109238052.409    20787314.959    85120581.362                  
  20161291.805   105948303.940    20161294.629    82557131.043                  
  23303066.309   122458436.032    23303073.403    95422188.827                  
  22387704.057   117648177.860    22387711.509    91673936.177                  
                 121689441.486    22788527.399    94647361.413    22788524.094  
                 105487669.472    19789222.384    82045982.802    19789217.702  
                 112871099.079    21122290.559    87788645.386    21122287.717  
                 105229354.226    19664622.937    81845066.532    19664620.579  
                 106720027.145    19957185.410    83004474.427    19957183.123  
 21  9  1 10 14 40.0000000  0 14G 1G 6G13G14G15G17G19G24G30R13R14R15
                                R17R24
  23652623.263   124295379.272    23652631.197    96853567.694                  
  22809802.276   119866321.142    22809810.657    93402358.103                  
  22348288.656   117441050.188    22348293.963    91512527.011                  
  21448524.686   112712754.508    21448529.635    87828142.974                  
  23555078.840   123782764.037    23555083.772    96454127.006                  
  20787606.475   109239606.731    20787610.763    85121792.522                  
  20161190.113   105947768.098    20161192.614    82556713.504                  
  23302478.614   122455347.200    23302485.405    95419781.938                  
  22388267.628   117651138.686    22388274.990    91676243.315                  
                 121692126.406    22789030.001    94649449.660    22789026.624  
                 105487708.156    19789229.639    82046012.899    19789224.868  
                 112868421.520    21121789.475    87786562.841    21121786.724  
                 105226990.819    19664181.287    81843228.336    19664178.946  
                 106721891.281    19957534.035    83005924.310    19957531.640  
 21  9  1 10 14 41.0000000  0 14G 1G 6G13G14G15G17G19G24G30R13R14R15
                                R17R24
  23653079.960   124297775.188    23653087.036    96855434.623                  
  22809171.928   119863010.896    22809180.523    93399778.700                  
  22348726.393   117443347.623    22348731.236    91514317.218                  
  21448763.005   112714007.544    21448768.258    87829119.370                  
  23555355.613   123784220.398    23555360.920    96455261.849                  
  20787902.421   109241161.416    20787906.692    85123003.970                  
  20161087.956   105947232.819    20161090.743    82556296.404                  
  23301890.366   122452258.613    23301897.764    95417375.236                  
  22388831.110   117654099.879    22388838.615    91678550.735                  
                 121694811.599    22789533.014    94651538.105    22789529.226  
                 105487747.293    19789236.983    82046043.337    19789232.247  
                 112865744.084    21121288.464    87784480.392    21121285.426  
                 105224628.188    19663739.850    81841390.727    19663737.313  
                 106723756.184    19957882.820    83007374.793    19957880.515  
 21  9  1 10 14 42.0000000  0 14G 1G 6G13G14G15G17G19G24G30R13R14R15
                                R17R24
  23653535.477   124300171.623    23653542.857    96857301.973                  
  22808542.635   119859700.835    22808550.605    93397199.434                  
  22349163.773   117445645.440    22349168.544    91516107.723                  
  21449001.395   112715260.744    21449006.774    87830095.894                  
  23555633.727   123785677.182    23555638.122    96456396.991                  
  20788198.297   109242716.448    20788202.692    85124215.680                  
  20160986.209   105946698.081    20160989.140    82555879.724                  
  23301303.833   122449170.262    23301310.159    95414968.717                  
  22389394.503   117657061.377    22389402.097    91680858.399                  
                 121697497.076    22790035.867    94653626.857    22790032.257  
                 105487786.834    19789244.327    82046074.091    19789239.752  
                 112863066.728    21120787.416    87782398.002    21120784.468  
                 105222266.305    19663298.432    81839553.705    19663295.984  
                 106725621.828    19958231.784    83008825.847    19958229.497  
 21  9  1 10 14 43.0000000  0 14G 1G 6G13G14G15G17G19G24G30R13R14R15
                                R17R24
  23653991.119   124302568.574    23653998.820    96859169.736                  
  22807911.948   119856390.968    22807920.900    93394620.312                  
  22349600.885   117447943.630    22349605.924    91517898.517                  
  21449240.143   112716514.094    21449245.236    87831072.526                  
  23555910.518   123787134.376    23555915.414    96457532.470                  
  20788494.315   109244271.791    20788498.603    85125427.634                  
  20160884.695   105946163.847    20160887.537    82555463.438                  
  23300715.121   122446082.122    23300722.733    95412562.385                  
  22389958.109   117660023.222    22389965.704    91683166.327                  
                 121700182.893    22790538.772    94655715.824    22790534.966  
                 105487826.775    19789251.868    82046105.161    19789247.132  
                 112860389.459    21120286.333    87780315.689    21120283.492  
                 105219905.145    19662857.264    81837717.244    19662854.780  
                 106727488.195    19958580.677    83010277.464    19958578.425  
 21  9  1 10 14 44.0000000  0 13G 1G 6G13G14G15G17G19G24G30R14R15R17
                                R24
  23654449.031   124304966.083    23654455.017    96861037.909                  
  22807282.851   119853081.374    22807291.267    93392041.399                  
  22350038.194   117450242.254    22350043.305    91519689.664                  
  21449478.498   112717767.682    21449483.859    87832049.336                  
  23556187.077   123788592.019    23556192.884    96458668.289                  
  20788790.315   109245827.559    20788794.657    85126639.923                  
  20160783.039   105945630.223    20160785.915    82555047.634                  
  23300127.498   122442994.287    23300135.235    95410156.287                  
  22390521.806   117662985.480    22390529.525    91685474.571                  
                 105487867.218    19789259.462    82046136.619    19789254.780  
                 112857712.383    21119785.393    87778233.521    21119782.606  
                 105217544.803    19662416.202    81835881.421    19662413.540  
                 106729355.395    19958929.873    83011729.728    19958927.622  
 21  9  1 10 14 45.0000000  0 13G 1G 6G13G14G15G17G19G24G30R14R15R17
                                R24
  23654904.834   124307364.150    23654911.284    96862906.541                  
  22806652.557   119849771.935    22806661.509    93389462.611                  
  22350475.896   117452541.250    22350480.756    91521481.092                  
  21449717.264   112719021.413    21449722.410    87833026.269                  
  23556464.761   123790050.082    23556470.176    96459804.453                  
  20789086.262   109247383.638    20789090.765    85127852.448                  
  20160681.828   105945097.137    20160684.348    82554632.235                  
  23299539.911   122439906.657    23299547.845    95407750.331                  
  22391085.627   117665948.034    22391093.346    91687783.060                  
                 105487908.081    19789267.110    82046168.404    19789262.392  
                 112855035.388    21119284.399    87776151.419    21119281.719  
                 105215185.167    19661975.213    81834046.155    19661972.693  
                 106731223.327    19959279.195    83013182.573    19959276.872  
 21  9  1 10 14 46.0000000  0 13G 1G 6G13G14G15G17G19G24G30R14R15R17
                                R24
  23655360.869   124309762.759    23655367.766    96864775.578                  
  22806022.888   119846462.734    22806031.716    93386884.008                  
  22350913.383   117454840.666    22350918.208    91523272.838                  
  21449955.887   112720275.320    21449961.051    87834003.342                  
  23556742.696   123791508.617    23556747.539    96460940.965                  
  20789382.673   109248940.105    20789386.890    85129065.276                  
  20160580.154   105944564.622    20160583.066    82554217.298                  
  23298952.985   122436819.309    23298960.347    95405344.607                  
  22391649.824   117668910.982    22391657.096    91690091.852                  
                 105487949.411    19789274.829    82046200.542    19789270.255  
                 112852358.531    21118783.477    87774069.409    21118781.029  
                 105212826.314    19661534.473    81832211.496    19661531.882  
                 106733092.073    19959628.642    83014636.038    19959626.354  
 21  9  1 10 14 47.0000000  0 13G 1G 6G13G14G15G17G19G24G30R14R15R17
                                R24
  23655818.620   124312161.902    23655824.356    96866645.043                  
  22805393.899   119843153.748    22805402.047    93384305.593                  
  22351351.013   117457140.473    22351355.909    91525064.898                  
  21450194.135   112721529.439    21450199.549    87834980.580                  
  23557020.023   123792967.557    23557025.027    96462077.815                  
  20789678.852   109250496.921    20789683.195    85130278.387                  
  20160479.122   105944032.668    20160481.856    82553802.782                  
  23298365.469   122433732.205    23298372.742    95402939.085                  
  22392213.305   117671874.288    22392221.060    91692400.922                  
                 105487991.176    19789282.638    82046233.036    19789277.939  
                 112849681.805    21118282.608    87771987.509    21118280.214  
                 105210468.246    19661093.841    81830377.439    19661091.197  
                 106734961.584    19959978.249    83016090.109    19959976.069  
 21  9  1 10 14 48.0000000  0 13G 1G 6G13G14G15G17G19G24G30R14R15R17
                                R24
  23656275.548   124314561.559    23656281.088    96868514.924                  
  22804763.015   119839844.943    22804772.289    93381727.294                  
  22351788.501   117459440.664    22351793.683    91526857.252                  
  21450433.347   112722783.722    21450438.315    87835957.939                  
  23557298.155   123794426.958    23557302.729    96463214.995                  
  20789974.978   109252054.080    20789979.552    85131491.750                  
  20160377.823   105943501.243    20160380.789    82553388.684                  
  23297777.489   122430645.350    23297785.316    95400533.748                  
  22392776.984   117674837.911    22392784.971    91694710.236                  
                 105488033.364    19789290.590    82046265.851    19789285.908  
                 112847005.171    21117781.632    87769905.687    21117779.291  
                 105208110.935    19660653.370    81828543.979    19660650.707  
                 106736831.827    19960327.946    83017544.740    19960325.533  
 21  9  1 10 14 49.0000000  0 13G 1G 6G13G14G15G17G19G24G30R14R15R17
                                R24
  23656732.227   124316961.794    23656737.945    96870385.234                  
  22804133.829   119836536.376    22804142.888    93379149.206                  
  22352226.167   117461741.245    22352231.349    91528649.906                  
  21450671.899   112724038.199    21450677.009    87836935.460                  
  23557575.267   123795886.788    23557580.539    96464352.517                  
  20790271.568   109253611.615    20790275.839    85132705.412                  
  20160277.041   105942970.398    20160279.740    82552975.037                  
  23297190.349   122427558.777    23297197.800    95398128.576                  
  22393341.127   117677801.933    22393349.043    91697019.861                  
                 105488076.049    19789298.524    82046299.036    19789293.985  
                 112844328.668    21117280.710    87767823.960    21117278.333  
                 105205754.376    19660212.880    81826711.103    19660210.307  
                 106738702.852    19960677.768    83018999.972    19960675.731  
 21  9  1 10 14 50.0000000  0 13G 1G 6G13G14G15G17G19G24G30R14R15R17
                                R24
  23657188.548   124319362.525    23657194.892    96872255.945                  
  22803504.660   119833227.988    22803513.291    93376571.241                  
  22352664.315   117464042.228    22352669.193    91530442.877                  
  21450910.790   112725292.837    21450915.704    87837913.095                  
  23557853.095   123797347.025    23557858.331    96465490.385                  
  20790568.069   109255169.487    20790572.357    85133919.336                  
  20160175.885   105942440.090    20160178.833    82552561.810                  
  23296603.709   122424472.418    23296610.499    95395723.642                  
  22393905.484   117680766.274    22393913.114    91699329.735                  
                 105488119.156    19789306.618    82046332.571    19789302.115  
                 112841652.252    21116779.895    87765742.304    21116777.465  
                 105203398.514    19659772.588    81824878.765    19659769.979  
                 106740574.626    19961027.822    83020455.810    19961025.856  
 21  9  1 10 14 51.0000000  0 13G 1G 6G13G14G15G17G19G24G30R14R15R17
                                R24
  23657645.870   124321763.820    23657651.803    96874127.056                  
  22802875.153   119829919.843    22802883.766    93373993.459                  
  22353102.374   117466343.625    22353107.181    91532236.171                  
  21451149.556   112726547.672    21451154.666    87838890.893                  
  23558131.727   123798807.714    23558136.122    96466628.575                  
  20790864.587   109256727.744    20790868.929    85135133.566                  
  20160074.764   105941910.355    20160078.106    82552149.029                  
  23296016.104   122421386.344    23296023.305    95393318.906                  
  22394469.984   117683730.988    22394477.239    91701639.907                  
                 105488162.746    19789314.784    82046366.472    19789310.281  
                 112838975.995    21116278.990    87763660.767    21116276.542  
                 105201043.414    19659332.599    81823047.030    19659329.758  
                 106742447.240    19961378.001    83021912.281    19961375.821  
 21  9  1 10 14 52.0000000  0 13G 1G 6G13G14G15G17G19G24G30R14R15R17
                                R24
  23658101.709   124324165.619    23658109.071    96875998.590                  
  22802245.252   119826611.875    22802254.276    93371415.817                  
  22353540.326   117468645.380    22353545.186    91534029.751                  
  21451388.125   112727802.656    21451393.521    87839868.808                  
  23558409.340   123800268.820    23558414.254    96467767.093                  
  20791160.766   109258286.332    20791165.430    85136348.051                  
  20159974.537   105941381.151    20159977.342    82551736.664                  
  23295428.928   122418300.472    23295436.147    95390914.331                  
  22395033.162   117686696.040    22395041.436    91703950.339                  
                 105488206.735    19789322.968    82046400.678    19789318.591  
                 112836299.808    21115778.140    87761579.292    21115775.709  
                 105198689.084    19658892.610    81821215.887    19658889.751  
                 106744320.597    19961728.341    83023369.338    19961726.072  
 21  9  1 10 14 53.0000000  0 13G 1G 6G13G14G15G17G19G24G30R14R15R17
                                R24
  23658559.281   124326567.975    23658566.268    96877870.566                  
  22801616.459   119823304.176    22801624.786    93368838.403                  
  22353978.617   117470947.590    22353983.317    91535823.681                  
  21451627.159   112729057.878    21451632.359    87840846.894                  
  23558687.507   123801730.393    23558692.367    96468905.982                  
  20791457.785   109259845.305    20791462.127    85137562.839                  
  20159873.827   105940852.548    20159876.775    82551324.766                  
  23294842.734   122415214.926    23294849.060    95388510.011                  
  22395597.931   117689661.474    22395605.704    91706261.062                  
                 105488251.187    19789331.403    82046435.250    19789326.900  
                 112833623.783    21115277.396    87759497.927    21115274.841  
                 105196335.592    19658452.782    81819385.386    19658450.066  
                 106746194.736    19962078.878    83024827.002    19962076.626  
 21  9  1 10 14 54.0000000  0 13G 1G 6G13G14G15G17G19G24G30R14R15R17
                                R24
  23659016.764   124328970.889    23659023.322    96879742.950                  
  22800986.701   119819996.680    22800995.492    93366261.117                  
  22354416.212   117473250.193    22354421.501    91537617.922                  
  21451865.818   112730313.285    21451871.285    87841825.131                  
  23558965.620   123803192.411    23558970.588    96470045.213                  
  20791754.697   109261404.644    20791758.896    85138777.902                  
  20159773.474   105940324.497    20159776.155    82550913.302                  
  23294254.432   122412129.617    23294262.080    95386105.861                  
  22396162.056   117692627.262    22396170.097    91708572.073                  
                 105488296.075    19789339.622    82046470.174    19789335.316  
                 112830947.842    21114776.634    87757416.660    21114774.043  
                 105193982.864    19658013.132    81817555.489    19658010.237  
                 106748069.610    19962429.396    83026285.240    19962427.324  
 21  9  1 10 14 55.0000000  0 13G 1G 6G13G14G15G17G19G24G30R14R15R17
                                R24
  23659474.711   124331374.323    23659480.626    96881615.738                  
  22800356.961   119816689.290    22800366.056    93363683.926                  
  22354854.789   117475553.121    22354859.721    91539412.405                  
  21452104.583   112731568.795    21452110.105    87842803.450                  
  23559243.716   123804654.779    23559248.916    96471184.725                  
  20792050.912   109262964.268    20792055.718    85139993.191                  
  20159672.818   105939796.930    20159675.892    82550502.211                  
  23293666.649   122409044.462    23293675.065    95383701.864                  
  22396726.949   117695593.367    22396734.508    91710883.317                  
                 105488341.370    19789348.307    82046505.399    19789343.822  
                 112828271.990    21114275.944    87755335.437    21114273.425  
                 105191630.794    19657573.590    81815726.106    19657570.785  
                 106749945.159    19962780.237    83027744.007    19962778.182  
 21  9  1 10 14 56.0000000  0 13G 1G 6G13G14G15G17G19G24G30R14R15R17
                                R24
  23659932.051   124333778.270    23659938.091    96883488.938                  
  22799728.168   119813382.207    22799736.745    93361106.978                  
  22355292.795   117477856.499    22355298.012    91541207.240                  
  21452343.993   112732824.521    21452349.050    87843781.943                  
  23559521.865   123806117.637    23559527.351    96472324.612                  
  20792347.913   109264524.297    20792352.541    85141208.801                  
  20159572.716   105939269.976    20159575.718    82550091.596                  
  23293080.545   122405959.626    23293087.800    95381298.100                  
  22397291.360   117698559.836    22397299.044    91713194.851                  
                 105488387.172    19789356.848    82046541.027    19789352.506  
                 112825596.305    21113775.254    87753254.351    21113772.592  
                 105189279.488    19657134.209    81813897.317    19657131.242  
                 106751821.547    19963131.113    83029203.413    19963128.933  
 21  9  1 10 14 57.0000000  0 13G 1G 6G13G14G15G17G19G24G30R14R15R17
                                R24
  23660389.391   124336182.792    23660395.770    96885362.583                  
  22799098.553   119810075.351    22799107.416    93358530.219                  
  22355731.604   117480160.302    22355736.340    91543002.420                  
  21452582.562   112734080.474    21452588.101    87844760.605                  
  23559800.729   123807580.949    23559805.733    96473464.865                  
  20792644.503   109266084.702    20792649.667    85142424.705                  
  20159472.417   105938743.592    20159475.437    82549681.428                  
  23292493.226   122402875.057    23292500.874    95378894.536                  
  22397856.093   117701526.696    22397863.455    91715506.687                  
                 105488433.467    19789365.479    82046577.035    19789361.298  
                 112822920.775    21113274.529    87751173.386    21113271.830  
                 105186928.951    19656694.952    81812069.117    19656692.111  
                 106753698.765    19963482.096    83030663.465    19963480.041  
 21  9  1 10 14 58.0000000  0 13G 1G 6G13G14G15G17G19G24G30R14R15R17
                                R24
  23660846.409   124338587.884    23660853.378    96887236.715                  
  22798469.670   119806768.697    22798478.051    93355953.596                  
  22356170.378   117482464.475    22356174.917    91544797.873                  
  21452821.632   112735336.574    21452827.100    87845739.381                  
  23560079.129   123809044.690    23560084.275    96474605.421                  
  20792942.111   109267645.459    20792946.561    85143640.872                  
  20159372.297   105938217.765    20159375.442    82549271.696                  
  23291906.139   122399790.740    23291913.966    95376491.177                  
  22398420.289   117704493.910    22398428.187    91717818.802                  
                 105488480.191    19789374.306    82046613.373    19789370.053  
                 112820245.353    21112773.910    87749092.505    21112771.301  
                 105184579.209    19656255.767    81810241.539    19656252.855  
                 106755576.742    19963833.258    83032124.115    19963831.329  
 21  9  1 10 14 59.0000000  0 13G 1G 6G13G14G15G17G19G24G30R14R15R17
                                R24
  23661305.107   124340993.439    23661311.039    96889111.162                  
  22797840.287   119803462.231    22797848.936    93353377.136                  
  22356608.848   117484769.050    22356613.423    91546593.659                  
  21453060.826   112736592.881    21453066.169    87846718.327                  
  23560357.528   123810508.851    23560362.746    96475746.342                  
  20793238.898   109269206.579    20793243.544    85144857.339                  
  20159272.230   105937692.487    20159275.429    82548862.388                  
  23291318.874   122396706.682    23291327.183    95374088.017                  
  22398985.611   117707461.439    22398992.902    91720131.167                  
                 105488527.365    19789383.205    82046650.066    19789378.952  
                 112817570.059    21112273.256    87747011.716    21112270.504  
                 105182230.255    19655816.743    81808414.580    19655813.974  
                 106757455.471    19964184.653    83033585.356    19964182.526  
 21  9  1 10 15  0.0000000  0 13G 1G 6G13G14G15G17G19G24G30R14R15R17
                                R24
  23661762.929   124343399.558    23661768.843    96890986.082                  
  22797211.083   119800155.994    22797219.750    93350800.847                  
  22357047.586   117487074.024    22357051.911    91548389.745                  
  21453300.003   112737849.348    21453305.114    87847697.387                  
  23560636.088   123811973.437    23560641.502    96476887.585                  
  20793536.042   109270768.049    20793540.759    85146074.060                  
  20159172.772   105937167.764    20159175.595    82548453.508                  
  23290732.001   122393622.890    23290740.382    95371685.046                  
  22399549.343   117710429.360    22399557.563    91722443.826                  
                 105488574.940    19789391.996    82046687.067    19789387.797  
                 112814894.875    21111772.512    87744931.008    21111769.778  
                 105179882.030    19655377.934    81806588.186    19655375.128  
                 106759334.964    19964535.993    83035047.182    19964533.885  
 21  9  1 10 15  1.0000000  0 13G 1G 6G13G14G15G17G19G24G30R14R15R17
                                R24
  23662220.697   124345806.225    23662226.862    96892861.403                  
  22796582.362   119796849.959    22796590.707    93348224.716                  
  22357486.092   117489379.385    22357490.684    91550186.124                  
  21453538.984   112739106.016    21453544.344    87848676.607                  
  23560915.274   123813438.493    23560920.527    96478029.184                  
  20793833.329   109272329.877    20793837.957    85147291.075                  
  20159072.383   105936643.598    20159075.868    82548045.069                  
  23290145.576   122390539.325    23290153.706    95369282.277                  
  22400114.880   117713397.619    22400122.528    91724756.764                  
                 105488622.983    19789401.056    82046724.431    19789396.857  
                 112812219.802    21111271.947    87742850.405    21111268.999  
                 105177534.553    19654939.357    81804762.372    19654936.444  
                 106761215.255    19964887.781    83036509.619    19964885.726  
 21  9  1 10 15  2.0000000  0 13G 1G 6G13G14G15G17G19G24G30R14R15R17
                                R24
  23662678.734   124348213.465    23662685.060    96894737.151                  
  22795952.765   119793544.127    22795961.610    93345648.741                  
  22357924.580   117491685.125    22357929.512    91551982.807                  
  21453778.125   112740362.847    21453783.682    87849655.958                  
  23561193.834   123814903.930    23561199.498    96479171.081                  
  20794130.580   109273892.043    20794135.190    85148508.347                  
  20158973.389   105936119.969    20158976.302    82547637.049                  
  23289559.650   122387456.009    23289566.762    95366879.705                  
  22400679.202   117716366.237    22400687.457    91727069.973                  
                 105488671.445    19789410.169    82046762.124    19789405.916  
                 112809544.842    21110771.525    87740769.871    21110768.416  
                 105175187.802    19654500.618    81802937.128    19654497.884  
                 106763096.280    19965239.443    83037972.648    19965237.406  
 21  9  1 10 15  3.0000000  0 13G 1G 6G13G14G15G17G19G24G30R14R15R17
                                R24
  23663137.182   124350621.182    23663143.347    96896613.309                  
  22795323.757   119790238.547    22795332.442    93343072.962                  
  22358363.890   117493991.267    22358368.286    91553779.803                  
  21454017.480   112741619.864    21454022.716    87850635.455                  
  23561473.020   123816369.801    23561478.434    96480313.325                  
  20794427.742   109275454.572    20794432.674    85149725.898                  
  20158873.626   105935596.901    20158876.718    82547229.457                  
  23288972.028   122384372.934    23288980.051    95364477.315                  
  22401244.202   117719335.185    22401252.458    91729383.444                  
                 105488720.381    19789419.390    82046800.192    19789415.190  
                 112806870.014    21110270.960    87738689.454    21110267.923  
                 105172841.842    19654062.273    81801112.476    19654059.539  
                 106764978.076    19965591.302    83039436.262    19965589.265  
 21  9  1 10 15  4.0000000  0 13G 1G 6G13G14G15G17G19G24G30R14R15R17
                                R24
  23663594.736   124353029.467    23663601.741    96898489.914                  
  22794694.928   119786933.149    22794703.452    93340497.327                  
  22358802.306   117496297.802    22358807.363    91555577.089                  
  21454256.425   112742877.023    21454261.964    87851615.057                  
  23561751.330   123817836.139    23561757.459    96481455.919                  
  20794725.190   109277017.459    20794730.032    85150943.732                  
  20158774.346   105935074.384    20158777.241    82546822.303                  
  23288385.155   122381290.164    23288393.482    95362075.125                  
  22401809.257   117722304.504    22401817.405    91731697.180                  
                 105488769.763    19789428.664    82046838.594    19789424.554  
                 112804195.323    21109770.395    87736609.145    21109767.447  
                 105170496.662    19653624.089    81799288.453    19653621.230  
                 106766860.639    19965943.304    83040900.475    19965941.410  
 21  9  1 10 15  5.0000000  0 13G 1G 6G13G14G15G17G19G24G30R14R15R17
                                R24
  23664052.844   124355438.259    23664060.027    96900366.886                  
  22794065.975   119783627.916    22794074.677    93337921.823                  
  22359241.241   117498604.725    22359246.334    91557374.691                  
  21454495.852   112744134.393    21454501.159    87852594.823                  
  23562031.141   123819302.909    23562036.626    96482598.859                  
  20795022.995   109278580.687    20795027.480    85152161.827                  
  20158674.815   105934552.416    20158677.871    82546415.575                  
  23287798.926   122378207.567    23287806.860    95359673.120                  
  22402374.507   117725274.148    22402382.423    91734011.191                  
                 105488819.568    19789437.956    82046877.340    19789433.935  
                 112801520.727    21109269.777    87734528.900    21109266.936  
                 105168152.215    19653185.959    81797464.998    19653183.117  
                 106768743.919    19966295.520    83042365.246    19966293.519  
 21  9  1 10 15  6.0000000  0 13G 1G 6G13G14G15G17G19G24G30R14R15R17
                                R24
  23664511.846   124357847.611    23664518.457    96902244.317                  
  22793437.146   119780322.955    22793445.759    93335346.524                  
  22359680.337   117500912.047    22359685.233    91559172.613                  
  21454734.814   112745391.957    21454740.479    87853574.750                  
  23562310.076   123820770.074    23562315.669    96483742.105                  
  20795320.139   109280144.287    20795324.981    85153380.214                  
  20158575.571   105934031.018    20158578.752    82546009.292                  
  23287213.233   122375125.254    23287220.345    95357271.315                  
  22402939.919   117728244.174    22402947.692    91736325.494                  
                 105488869.837    19789447.390    82046916.431    19789443.066  
                 112798846.248    21108769.337    87732448.749    21108766.478  
                 105165808.526    19652747.882    81795642.127    19652745.148  
                 106770627.966    19966647.772    83043830.625    19966645.932  
 21  9  1 10 15  7.0000000  0 13G 1G 6G13G14G15G17G19G24G30R14R15R17
                                R24
  23664970.615   124360257.515    23664976.905    96904122.155                  
  22792808.138   119777018.217    22792816.930    93332771.409                  
  22360119.736   117503219.782    22360124.400    91560970.846                  
  21454974.545   112746649.706    21454979.942    87854554.814                  
  23562589.280   123822237.706    23562595.069    96484885.705                  
  20795617.819   109281708.260    20795622.572    85154598.899                  
  20158476.827   105933510.168    20158479.579    82545603.438                  
  23286626.075   122372043.239    23286633.812    95354869.742                  
  22403505.509   117731214.557    22403512.746    91738640.074                  
                 105488920.568    19789456.897    82046955.884    19789452.805  
                 112796171.882    21108268.826    87730368.680    21108265.877  
                 105163465.609    19652310.234    81793819.858    19652307.285  
                 106772512.789    19967000.185    83045296.597    19966998.345  
 21  9  1 10 15  8.0000000  0 13G 1G 6G13G14G15G17G19G24G30R14R15R17
                                R24
  23665428.759   124362667.906    23665435.621    96906000.373                  
  22792179.292   119773713.662    22792188.137    93330196.428                  
  22360558.420   117505527.881    22360563.763    91562769.360                  
  21455213.865   112747907.627    21455219.333    87855535.006                  
  23562868.751   123823705.749    23562874.433    96486029.651                  
  20795915.266   109283272.576    20795920.270    85155817.842                  
  20158377.707   105932989.861    20158380.495    82545197.997                  
  23286040.221   122368961.416    23286047.458    95352468.329                  
  22404070.617   117734185.267    22404078.176    91740954.917                  
                 105488971.715    19789466.492    82046995.670    19789462.436  
                 112793497.599    21107768.350    87728288.682    21107765.473  
                 105161123.417    19651872.460    81791998.149    19651869.530  
                 106774398.401    19967352.795    83046763.182    19967350.990  
 21  9  1 10 15  9.0000000  0 13G 1G 6G13G14G15G17G19G24G30R14R15R17
                                R24
  23665887.081   124365078.875    23665894.479    96907879.066                  
  22791550.731   119770409.349    22791559.308    93327621.641                  
  22360998.302   117507836.420    22361002.984    91564568.215                  
  21455452.917   112749165.722    21455458.688    87856515.344                  
  23563148.491   123825174.238    23563153.798    96487173.916                  
  20796212.786   109284837.248    20796218.093    85157037.071                  
  20158278.695   105932470.138    20158281.608    82544793.022                  
  23285453.313   122365879.902    23285461.050    95350067.124                  
  22404635.439   117737156.372    22404643.444    91743270.065                  
                 105489023.338    19789476.320    82047035.819    19789471.978  
                 112790823.508    21107268.000    87726208.831    21107264.926  
                 105158781.982    19651434.848    81790177.046    19651431.900  
                 106776284.837    19967705.583    83048230.407    19967703.760  
 21  9  1 10 15 10.0000000  0 13G 1G 6G13G14G15G17G19G24G30R14R15R17
                                R24
  23666346.315   124367490.358    23666353.320    96909758.139                  
  22790922.474   119767105.225    22790930.694    93325047.006                  
  22361437.416   117510145.324    22361442.365    91566367.370                  
  21455692.844   112750424.014    21455698.169    87857495.826                  
  23563428.391   123826643.150    23563433.341    96488318.516                  
  20796510.680   109286402.268    20796515.862    85158256.566                  
  20158179.808   105931950.969    20158182.971    82544388.471                  
  23284866.477   122362798.593    23284874.678    95347666.109                  
  22405201.226   117740127.818    22405208.820    91745585.482                  
                 105489075.417    19789486.023    82047076.316    19789481.735  
                 112788149.536    21106767.399    87724129.073    21106764.272  
                 105156441.302    19650997.486    81788356.506    19650994.573  
                 106778172.029    19968058.460    83049698.232    19968056.548  
 21  9  1 10 15 11.0000000  0 13G 1G 6G13G14G15G17G19G24G30R14R15R17
                                R24
  23666804.513   124369902.390    23666812.268    96911637.619                  
  22790293.163   119763801.324    22790301.883    93322472.533                  
  22361876.672   117512454.635    22361881.836    91568166.831                  
  21455932.003   112751682.490    21455937.685    87858476.455                  
  23563707.595   123828112.525    23563712.884    96489463.479                  
  20796808.682   109287967.647    20796813.703    85159476.350                  
  20158081.367   105931432.361    20158084.101    82543984.365                  
  23284280.051   122359717.563    23284288.271    95345265.311                  
  22405766.763   117743099.602    22405774.464    91747901.157                  
                 105489127.946    19789495.887    82047117.178    19789491.563  
                 112785475.671    21106266.923    87722049.405    21106263.993  
                 105154101.418    19650560.231    81786536.598    19650557.229  
                 106780059.979    19968411.481    83051166.635    19968409.587  
 21  9  1 10 15 12.0000000  0 13G 1G 6G13G14G15G17G19G24G30R14R15R17
                                R24
  23667263.818   124372314.958    23667271.341    96913517.558                  
  22789664.798   119760497.622    22789673.286    93319898.217                  
  22362316.357   117514764.336    22362321.200    91569966.603                  
  21456171.519   112752941.154    21456177.273    87859457.230                  
  23563986.780   123829582.305    23563992.677    96490608.767                  
  20797106.630   109289533.392    20797111.705    85160696.407                  
  20157982.963   105930914.293    20157985.607    82543580.678                  
  23283694.698   122356636.786    23283701.952    95342864.700                  
  22406332.210   117746071.740    22406340.054    91750217.107                  
                 105489180.918    19789505.876    82047158.381    19789501.409  
                 112782801.908    21105766.626    87719969.818    21105763.553  
                 105151762.313    19650123.119    81784717.294    19650120.117  
                 106781948.642    19968764.644    83052635.601    19968762.679  
 21  9  1 10 15 13.0000000  0 13G 1G 6G13G14G15G17G19G24G30R14R15R17
                                R24
  23667723.409   124374728.055    23667730.539    96915397.894                  
  22789036.041   119757194.175    22789044.672    93317324.108                  
  22362755.613   117517074.460    22362760.742    91571766.697                  
  21456411.411   112754199.992    21456416.790    87860438.144                  
  23564267.485   123831052.537    23564272.506    96491754.386                  
  20797404.650   109291099.504    20797409.760    85161916.759                  
  20157884.308   105930396.812    20157887.113    82543177.441                  
  23283107.968   122353556.275    23283115.563    95340464.319                  
  22406897.997   117749044.260    22406905.681    91752533.361                  
                 105489234.348    19789515.847    82047199.931    19789511.379  
                 112780128.273    21105266.383    87717890.322    21105263.292  
                 105149423.988    19649686.168    81782898.600    19649683.308  
                 106783838.070    19969118.093    83054105.151    19969116.289  
 21  9  1 10 15 14.0000000  0 14G 1G 6G13G14G15G17G19G24G30R13R14R15
                                R17R24
  23668182.947   124377141.738    23668189.845    96917278.691                  
  22788407.034   119753890.949    22788416.022    93314750.160                  
  22363195.406   117519384.969    22363200.445    91573567.098                  
  21456650.856   112755459.020    21456656.378    87861419.203                  
  23564546.760   123832523.200    23564552.388    96492900.376                  
  20797702.562   109292665.980    20797707.851    85163137.380                  
  20157785.689   105929879.882    20157788.887    82542774.642                  
  23282521.596   122350476.040    23282529.316    95338064.113                  
  22407463.605   117752017.117    22407471.503    91754849.864                  
                 121783601.912    22806160.087    94720597.330    22806156.620  
                 105489288.225    19789526.068    82047241.835    19789521.511  
                 112777454.781    21104765.997    87715810.933    21104762.870  
                 105147086.381    19649249.395    81781080.458    19649246.411  
                 106785728.266    19969471.578    83055575.296    19969469.559  
 21  9  1 10 15 15.0000000  0 14G 1G 6G13G14G15G17G19G24G30R13R14R15
                                R17R24
  23668642.556   124379555.933    23668649.204    96919159.879                  
  22787778.866   119750587.887    22787787.390    93312176.344                  
  22363635.127   117521695.885    22363640.344    91575367.805                  
  21456890.229   112756718.218    21456895.948    87862400.398                  
  23564826.571   123833994.277    23564832.289    96494046.681                  
  20798001.153   109294232.788    20798006.067    85164358.265                  
  20157687.802   105929363.490    20157690.518    82542372.265                  
  23281935.528   122347396.032    23281943.158    95335664.110                  
  22408028.999   117754990.333    22408037.290    91757166.655                  
                 121786297.954    22806664.904    94722694.276    22806661.170  
                 105489342.531    19789536.271    82047284.075    19789531.554  
                 112774781.430    21104265.771    87713731.650    21104262.752  
                 105144749.535    19648812.712    81779262.916    19648809.746  
                 106787619.258    19969825.046    83057046.070    19969823.187  
 21  9  1 10 15 16.0000000  0 14G 1G 6G13G14G15G17G19G24G30R13R14R15
                                R17R24
  23669101.611   124381970.631    23669108.688    96921041.462                  
  22787150.716   119747285.080    22787158.775    93309602.728                  
  22364075.151   117524007.191    22364080.316    91577168.830                  
  21457130.282   112757977.613    21457135.643    87863381.747                  
  23565106.542   123835465.812    23565112.332    96495193.320                  
  20798299.548   109295799.965    20798304.248    85165579.447                  
  20157589.040   105928847.667    20157592.364    82541970.320                  
  23281349.638   122344316.255    23281357.072    95333264.291                  
  22408594.571   117757963.906    22408603.077    91759483.728                  
                 121788994.344    22807170.044    94724791.497    22807166.041  
                 105489397.301    19789546.510    82047326.667    19789541.864  
                 112772108.192    21103765.582    87711652.481    21103762.472  
                 105142413.469    19648376.136    81777445.978    19648373.205  
                 106789511.042    19970178.870    83058517.449    19970177.047  
 21  9  1 10 15 17.0000000  0 14G 1G 6G13G14G15G17G19G24G30R13R14R15
                                R17R24
  23669561.667   124384385.867    23669568.207    96922923.482                  
  22786522.138   119743982.470    22786530.357    93307029.256                  
  22364515.015   117526318.853    22364520.269    91578970.115                  
  21457369.459   112759237.166    21457375.356    87864363.217                  
  23565387.086   123836937.720    23565392.625    96496340.259                  
  20798597.818   109297367.477    20798602.464    85166800.882                  
  20157491.404   105928332.395    20157494.281    82541568.812                  
  23280764.214   122341236.765    23280771.057    95330864.689                  
  22409161.091   117760937.805    22409168.846    91761801.054                  
                 121791691.033    22807675.040    94726888.880    22807671.288  
                 105489452.502    19789556.767    82047369.604    19789552.228  
                 112769435.043    21103265.195    87709573.356    21103262.283  
                 105140078.145    19647939.703    81775629.608    19647936.611  
                 106791403.588    19970532.730    83059989.431    19970530.908  
 21  9  1 10 15 18.0000000  0 14G 1G 6G13G14G15G17G19G24G30R13R14R15
                                R17R24
  23670020.365   124386801.661    23670027.977    96924805.896                  
  22785893.273   119740680.059    22785901.975    93304455.956                  
  22364955.022   117528630.949    22364960.115    91580771.755                  
  21457609.207   112760496.913    21457615.015    87865344.834                  
  23565666.701   123838410.126    23565672.758    96497487.600                  
  20798895.855   109298935.368    20798900.823    85168022.615                  
  20157393.446   105927817.690    20157396.305    82541167.741                  
  23280177.645   122338157.493    23280185.311    95328465.256                  
  22409727.217   117763912.074    22409734.758    91764118.666                  
                 121794388.047    22808180.162    94728986.564    22808176.052  
                 105489508.165    19789567.274    82047412.895    19789562.628  
                 112766761.996    21102764.952    87707494.322    21102761.843  
                 105137743.573    19647503.538    81773813.839    19647500.589  
                 106793296.937    19970886.823    83061462.033    19970884.875  
 21  9  1 10 15 19.0000000  0 14G 1G 6G13G14G15G17G19G24G30R13R14R15
                                R17R24
  23670480.546   124389217.982    23670487.837    96926688.739                  
  22785265.248   119737377.901    22785273.450    93301882.853                  
  22365395.368   117530943.435    22365400.211    91582573.686                  
  21457849.206   112761756.848    21457854.728    87866326.608                  
  23565947.387   123839882.955    23565952.927    96498635.250                  
  20799194.465   109300503.602    20799199.218    85169244.615                  
  20157295.613   105927303.545    20157298.508    82540767.111                  
  23279591.666   122335078.511    23279599.332    95326066.061                  
  22410293.397   117766886.701    22410300.902    91766436.557                  
                 121797085.398    22808685.301    94731084.515    22808680.816  
                 105489564.277    19789577.799    82047456.542    19789573.206  
                 112764089.089    21102264.888    87705415.392    21102261.689  
                 105135409.802    19647067.373    81771998.675    19647064.371  
                 106795191.071    19971240.987    83062935.253    19971239.236  
 21  9  1 10 15 20.0000000  0 14G 1G 6G13G14G15G17G19G24G30R13R14R15
                                R17R24
  23670940.298   124391634.844    23670947.696    96928572.008                  
  22784636.974   119734075.930    22784645.122    93299309.875                  
  22365835.036   117533256.332    22365840.236    91584375.941                  
  21458089.491   112763016.956    21458094.637    87867308.517                  
  23566227.395   123841356.166    23566233.238    96499783.192                  
  20799492.806   109302072.199    20799497.845    85170466.906                  
  20157197.887   105926789.946    20157200.675    82540366.901                  
  23279005.133   122331999.770    23279013.496    95323667.060                  
  22410859.202   117769861.660    22410866.975    91768754.711                  
                 121799783.014    22809190.441    94733182.663    22809186.599  
                 105489620.839    19789588.484    82047500.537    19789583.767  
                 112761416.332    21101764.644    87703336.576    21101761.571  
                 105133076.802    19646631.369    81770184.124    19646628.349  
                 106797085.921    19971595.330    83064409.031    19971593.579  
 21  9  1 10 15 21.0000000  0 14G 1G 6G13G14G15G17G19G24G30R13R14R15
                                R17R24
  23671400.711   124394052.205    23671407.645    96930455.700                  
  22784008.055   119730774.174    22784016.776    93296737.087                  
  22366275.400   117535569.584    22366280.367    91586178.482                  
  21458328.757   112764277.243    21458334.583    87868290.554                  
  23566507.456   123842829.869    23566513.692    96500931.537                  
  20799791.254   109303641.137    20799796.347    85171689.455                  
  20157100.233   105926276.896    20157103.163    82539967.122                  
  23278420.030   122328921.267    23278427.624    95321268.206                  
  22411425.221   117772836.997    22411433.155    91771073.146                  
                 121802480.916    22809695.812    94735281.083    22809691.685  
                 105489677.827    19789599.098    82047544.858    19789594.435  
                 112758743.706    21101264.329    87701257.867    21101261.435  
                 105130744.519    19646195.490    81768370.131    19646192.648  
                 106798981.486    19971949.797    83065883.358    19971948.118  
 21  9  1 10 15 22.0000000  0 14G 1G 6G13G14G15G17G19G24G30R13R14R15
                                R17R24
  23671860.285   124396470.152    23671867.861    96932339.797                  
  22783380.013   119727472.612    22783388.429    93294164.438                  
  22366715.728   117537883.221    22366720.660    91587981.311                  
  21458568.828   112765537.697    21458574.367    87869272.726                  
  23566787.946   123844303.916    23566794.254    96502080.136                  
  20800089.720   109305210.422    20800095.099    85172912.270                  
  20157002.936   105925764.392    20157005.563    82539567.777                  
  23277834.176   122325843.039    23277841.771    95318869.596                  
  22411991.580   117775812.645    22411999.406    91773391.838                  
                 121805179.242    22810201.184    94737379.711    22810196.860  
                 105489735.257    19789609.927    82047589.520    19789605.228  
                 112756071.142    21100764.193    87699179.225    21100761.424  
                 105128412.972    19645759.843    81766556.698    19645756.912  
                 106800877.802    19972304.480    83067358.269    19972302.693  
 21  9  1 10 15 23.0000000  0 14G 1G 6G13G14G15G17G19G24G30R13R14R15
                                R17R24
  23672320.609   124398888.630    23672327.935    96934224.328                  
  22782752.078   119724171.310    22782760.279    93291591.998                  
  22367155.860   117540197.277    22367161.096    91589784.481                  
  21458808.308   112766798.353    21458814.330    87870255.059                  
  23567068.793   123845778.491    23567074.976    96503229.158                  
  20800388.723   109306780.096    20800393.637    85174135.397                  
  20156905.389   105925252.477    20156908.087    82539168.876                  
  23277249.144   122322765.061    23277256.113    95316471.167                  
  22412557.706   117778788.710    22412565.604    91775710.849                  
                 121807877.827    22810706.538    94739478.629    22810702.553  
                 105489793.156    19789620.863    82047634.559    19789616.020  
                 112753398.748    21100264.147    87697100.673    21100261.180  
                 105126082.216    19645324.232    81764743.883    19645321.462  
                 106802774.932    19972659.269    83068833.812    19972657.321  
 21  9  1 10 15 24.0000000  0 14G 1G 6G13G14G15G17G19G24G30R13R14R15
                                R17R24
  23672780.557   124401307.605    23672788.223    96936109.224                  
  22782123.356   119720870.182    22782131.933    93289019.683                  
  22367595.688   117542511.735    22367601.478    91591587.939                  
  21459048.182   112768059.201    21459054.132    87871237.532                  
  23567348.890   123847253.427    23567355.681    96504378.454                  
  20800687.189   109308350.102    20800692.460    85175358.776                  
  20156807.914   105924741.106    20156810.862    82538770.400                  
  23276663.005   122319687.315    23276670.367    95314072.909                  
  22413124.529   117781765.053    22413131.945    91778030.073                  
                 121810576.776    22811211.945    94741577.772    22811208.300  
                 105489851.515    19789631.781    82047679.947    19789627.046  
                 112750726.447    21099764.028    87695022.224    21099761.187  
                 105123752.228    19644888.710    81762931.675    19644886.012  
                 106804672.849    19973014.094    83070309.977    19973012.361  
 21  9  1 10 15 25.0000000  0 14G 1G 6G13G14G15G17G19G24G30R13R14R15
                                R17R24
  23673241.292   124403727.113    23673248.583    96937994.537                  
  22781495.474   119717569.306    22781503.819    93286447.579                  
  22368037.035   117544826.569    22368041.985    91593391.710                  
  21459288.163   112769320.212    21459293.988    87872220.132                  
  23567630.453   123848728.838    23567636.510    96505528.134                  
  20800985.709   109309920.470    20800991.338    85176582.439                  
  20156710.992   105924230.268    20156713.672    82538372.349                  
  23276077.240   122316609.835    23276084.799    95311674.880                  
  22413690.995   117784741.802    22413698.304    91780349.618                  
                 121813276.029    22811717.460    94743677.212    22811713.225  
                 105489910.325    19789642.913    82047725.695    19789638.071  
                 112748054.313    21099263.874    87692943.900    21099261.194  
                 105121423.032    19644453.528    81761120.076    19644450.758  
                 106806571.534    19973369.241    83071786.715    19973367.240  
 21  9  1 10 15 26.0000000  0 14G 1G 6G13G14G15G17G19G24G30R13R14R15
                                R17R24
  23673702.117   124406147.203    23673709.068    96939880.319                  
  22780867.682   119714268.606    22780875.777    93283875.601                  
  22368477.364   117547141.781    22368482.403    91595195.778                  
  21459528.287   112770581.397    21459533.987    87873202.871                  
  23567911.550   123850204.634    23567917.322    96506678.096                  
  20801285.194   109311491.180    20801290.233    85177806.372                  
  20156613.945   105923720.000    20156616.447    82537974.740                  
  23275491.386   122313532.629    23275499.159    95309277.064                  
  22414257.693   117787718.890    22414264.752    91782669.427                  
                 121815975.595    22812223.028    94745776.863    22812218.972  
                 105489969.565    19789654.046    82047771.769    19789649.203  
                 112745382.311    21098763.863    87690865.680    21098761.058  
                 105119094.547    19644018.381    81759309.041    19644015.594  
                 106808470.923    19973724.459    83073264.037    19973722.619  
 21  9  1 10 15 27.0000000  0 14G 1G 6G13G14G15G17G19G24G30R13R14R15
                                R17R24
  23674162.548   124408567.800    23674169.731    96941766.506                  
  22780238.603   119710968.150    22780247.823    93281303.823                  
  22368917.621   117549457.401    22368923.053    91597000.151                  
  21459768.572   112771842.773    21459774.022    87874185.761                  
  23568191.897   123851680.911    23568198.205    96507828.451                  
  20801583.660   109313062.246    20801589.039    85179030.576                  
  20156516.809   105923210.295    20156519.543    82537577.565                  
  23274906.319   122310455.686    23274913.627    95306879.435                  
  22414823.873   117790696.317    22414831.253    91784989.497                  
                 121818675.504    22812728.579    94747876.804    22812724.880  
                 105490029.247    19789665.214    82047818.187    19789660.461  
                 112742710.394    21098263.870    87688787.523    21098260.922  
                 105116766.827    19643583.342    81757498.583    19643580.698  
                 106810371.095    19974079.785    83074741.934    19974077.980  
 21  9  1 10 15 28.0000000  0 14G 1G 6G13G14G15G17G19G24G30R13R14R15
                                R17R24
  23674623.711   124410988.911    23674630.484    96943653.097                  
  22779611.204   119707667.905    22779619.781    93278732.204                  
  22369359.236   117551773.444    22369363.792    91598804.869                  
  21460008.445   112773104.342    21460014.199    87875168.809                  
  23568473.227   123853157.608    23568479.249    96508979.114                  
  20801882.966   109314633.690    20801888.220    85180255.085                  
  20156419.798   105922701.145    20156422.675    82537180.827                  
  23274320.787   122307378.950    23274328.077    95304481.980                  
  22415390.643   117793674.119    22415397.826    91787309.874                  
                 121821375.688    22813234.326    94749976.956    22813230.251  
                 105490089.389    19789676.436    82047864.963    19789671.718  
                 112740038.598    21097763.913    87686709.445    21097761.179  
                 105114439.872    19643148.517    81755688.736    19643145.676  
                 106812272.058    19974435.307    83076220.466    19974433.413  
 21  9  1 10 15 29.0000000  0 14G 1G 6G13G14G15G17G19G24G30R13R14R15
                                R17R24
  23675084.661   124413410.617    23675091.308    96945540.152                  
  22778982.947   119704367.880    22778991.881    93276160.754                  
  22369800.118   117554089.830    22369804.657    91600609.840                  
  21460248.480   112774366.079    21460254.216    87876151.981                  
  23568754.218   123854634.703    23568760.293    96510130.105                  
  20802181.933   109316205.480    20802187.472    85181479.845                  
  20156322.948   105922192.537    20156325.861    82536784.509                  
  23273735.826   122304302.524    23273742.635    95302084.788                  
  22415956.770   117796652.255    22415964.650    91789630.498                  
                 121824076.256    22813740.216    94752077.379    22813735.909  
                 105490149.955    19789687.800    82047912.081    19789683.065  
                 112737366.905    21097263.902    87684631.467    21097261.150  
                 105112113.679    19642713.764    81753879.482    19642711.102  
                 106814173.777    19974791.061    83077699.578    19974789.096  
 21  9  1 10 15 30.0000000  0 14G 1G 6G13G14G15G17G19G24G30R13R14R15
                                R17R24
  23675544.627   124415832.828    23675552.275    96947427.583                  
  22778355.351   119701068.046    22778363.964    93273589.461                  
  22370240.089   117556406.633    22370245.414    91602415.136                  
  21460489.033   112775627.994    21460494.519    87877135.289                  
  23569035.726   123856112.251    23569041.444    96511281.436                  
  20802481.132   109317777.602    20802486.475    85182704.878                  
  20156226.080   105921684.487    20156229.029    82536388.629                  
  23273149.883   122301226.312    23273157.370    95299687.738                  
  22416524.218   117799630.753    22416531.384    91791951.402                  
                 121826777.137    22814245.980    94754178.081    22814241.978  
                 105490210.993    19789699.362    82047959.548    19789694.483  
                 112734695.332    21096763.962    87682553.574    21096761.103  
                 105109788.219    19642279.172    81752070.790    19642276.438  
                 106816076.230    19975146.798    83079179.264    19975144.761  
 21  9  1 10 15 31.0000000  0 14G 1G 6G13G14G15G17G19G24G30R13R14R15
                                R17R24
  23676005.434   124418255.570    23676013.350    96949315.461                  
  22777726.862   119697768.455    22777735.975    93271018.342                  
  22370681.651   117558723.803    22370686.332    91604220.714                  
  21460729.014   112776890.092    21460734.500    87878118.739                  
  23569317.074   123857590.221    23569322.524    96512433.092                  
  20802780.634   109319350.082    20802785.763    85183930.191                  
  20156129.820   105921176.980    20156132.536    82535993.162                  
  23272564.601   122298150.385    23272571.981    95297290.909                  
  22417091.077   117802609.582    22417098.314    91794272.566                  
                 121829478.289    22814751.870    94756278.989    22814747.510  
                 105490272.481    19789710.833    82048007.365    19789706.152  
                 112732023.900    21096264.023    87680475.798    21096261.182  
                 105107463.517    19641844.865    81750262.684    19641841.988  
                 106817979.448    19975502.677    83080659.551    19975500.605  
 21  9  1 10 15 32.0000000  0 14G 1G 6G13G14G15G17G19G24G30R13R14R15
                                R17R24
  23676466.794   124420678.847    23676474.460    96951203.692                  
  22777099.051   119694469.079    22777108.057    93268447.409                  
  22371122.873   117561041.442    22371127.215    91606026.667                  
  21460969.173   112778152.418    21460974.749    87879102.368                  
  23569598.386   123859068.646    23569603.979    96513585.111                  
  20803079.637   109320922.967    20803084.998    85185155.818                  
  20156033.220   105920670.090    20156036.079    82535598.189                  
  23271979.641   122295074.716    23271986.646    95294894.289                  
  22417657.615   117805588.816    22417665.513    91796594.049                  
                 121832179.809    22815257.921    94758380.154    22815253.043  
                 105490334.484    19789722.448    82048055.592    19789717.945  
                 112729352.634    21095764.137    87678398.149    21095760.974  
                 105105139.643    19641410.612    81748455.227    19641407.824  
                 106819883.507    19975858.843    83082140.479    19975856.573  
 21  9  1 10 15 33.0000000  0 14G 1G 6G13G14G15G17G19G24G30R13R14R15
                                R17R24
  23676928.512   124423102.681    23676935.570    96953092.412                  
  22776471.455   119691169.943    22776480.301    93265876.645                  
  22371563.559   117563359.430    22371568.401    91607832.891                  
  21461208.958   112779414.900    21461214.998    87880086.125                  
  23569879.609   123860547.497    23569885.380    96514737.465                  
  20803379.032   109322496.183    20803384.393    85186381.697                  
  20155937.102   105920163.730    20155939.765    82535203.623                  
  23271394.234   122291999.297    23271401.507    95292497.863                  
  22418224.688   117808568.381    22418232.568    91798915.786                  
                 121834881.644    22815763.865    94760481.598    22815758.754  
                 105490396.907    19789734.188    82048104.139    19789729.632  
                 112726681.467    21095264.269    87676320.570    21095261.195  
                 105102816.543    19640976.413    81746648.376    19640973.464  
                 106821788.284    19976215.008    83083621.979    19976212.989  
 21  9  1 10 15 34.0000000  0 14G 1G 6G13G14G15G17G19G24G30R13R14R15
                                R17R24
  23677389.461   124425527.025    23677396.787    96954981.518                  
  22775843.860   119687870.989    22775852.669    93263306.036                  
  22372004.423   117565677.820    22372009.409    91609639.438                  
  21461449.564   112780677.558    21461455.264    87881070.019                  
  23570161.421   123862026.787    23570166.835    96515890.175                  
  20803678.892   109324069.767    20803683.878    85187607.865                  
  20155840.878   105919657.925    20155843.397    82534809.489                  
  23270809.470   122288924.159    23270816.385    95290101.638                  
  22418791.958   117811548.302    22418799.660    91801237.809                  
                 121837583.888    22816269.951    94762583.274    22816264.501  
                 105490459.759    19789746.000    82048153.030    19789741.372  
                 112724010.416    21094764.472    87674243.093    21094761.345  
                 105100494.198    19640542.303    81744842.099    19640539.640  
                 106823693.795    19976571.352    83085104.036    19976569.405  
 21  9  1 10 15 35.0000000  0 14G 1G 6G13G14G15G17G19G24G30R13R14R15
                                R17R24
  23677850.768   124427951.877    23677858.344    96956871.006                  
  22775215.585   119684572.235    22775225.109    93260735.578                  
  22372445.842   117567996.583    22372450.738    91611446.273                  
  21461690.296   112781940.383    21461695.603    87882054.027                  
  23570442.626   123863506.462    23570448.415    96517043.161                  
  20803978.395   109325643.670    20803983.398    85188834.286                  
  20155744.314   105919152.654    20155747.494    82534415.771                  
  23270224.224   122285849.227    23270231.354    95287705.587                  
  22419359.032   117814528.534    22419366.608    91803560.067                  
                 121840286.296    22816776.091    94764685.202    22816771.052  
                 105490523.039    19789757.865    82048202.236    19789753.219  
                 112721339.467    21094264.676    87672165.690    21094261.531  
                 105098172.562    19640108.639    81743036.391    19640105.744  
                 106825600.028    19976927.911    83086586.665    19976925.892  
 21  9  1 10 15 36.0000000  0 14G 1G 6G13G14G15G17G19G24G30R13R14R15
                                R17R24
  23678313.200   124430377.301    23678319.937    96958760.954                  
  22774588.686   119681273.741    22774597.370    93258165.326                  
  22372887.153   117570315.775    22372891.995    91613253.431                  
  21461930.509   112783203.417    21461935.905    87883038.213                  
  23570724.474   123864986.619    23570730.156    96518196.530                  
  20804277.630   109327217.969    20804282.901    85190061.008                  
  20155648.643   105918647.985    20155651.198    82534022.520                  
  23269639.067   122282774.568    23269646.233    95285309.748                  
  22419926.516   117817509.176    22419933.949    91805882.648                  
                 121842989.124    22817282.320    94766787.404    22817277.406  
                 105490586.783    19789769.801    82048251.832    19789765.280  
                 112718668.673    21093764.861    87670088.410    21093761.734  
                 105095851.709    19639674.744    81741231.281    19639672.010  
                 106827507.077    19977284.559    83088069.927    19977282.486  
 21  9  1 10 15 37.0000000  0 14G 1G 6G13G14G15G17G19G24G30R13R14R15
                                R17R24
  23678775.150   124432803.254    23678781.690    96960651.316                  
  22773960.947   119677975.454    22773969.667    93255595.231                  
  22373328.196   117572635.318    22373333.503    91615060.870                  
  21462170.865   112784466.612    21462176.333    87884022.532                  
  23571006.197   123866467.168    23571011.826    96519350.203                  
  20804577.561   109328792.582    20804582.582    85191287.979                  
  20155552.793   105918143.817    20155555.349    82533629.667                  
  23269054.053   122279700.179    23269061.129    95282914.114                  
  22420493.714   117820490.112    22420501.112    91808205.455                  
                 121845692.227    22817788.496    94768889.792    22817783.493  
                 105490650.956    19789781.899    82048301.742    19789777.306  
                 112715997.977    21093265.011    87668011.184    21093261.813  
                 105093531.594    19639241.259    81739426.752    19639238.489  
                 106829414.860    19977641.314    83089553.758    19977639.348  
 21  9  1 10 15 38.0000000  0 14G 1G 6G13G14G15G17G19G24G30R13R14R15
                                R17R24
  23679236.582   124435229.723    23679243.408    96962542.069                  
  22773333.548   119674677.357    22773342.089    93253025.290                  
  22373770.222   117574955.267    22373774.993    91616868.617                  
  21462411.293   112785730.000    21462416.743    87885006.991                  
  23571288.688   123867948.158    23571293.674    96520504.227                  
  20804876.992   109330367.565    20804882.228    85192515.241                  
  20155456.694   105917640.228    20155459.499    82533237.257                  
  23268469.665   122276626.027    23268476.169    95280518.666                  
  22421060.984   117823471.438    22421068.454    91810528.574                  
                 121848395.679    22818294.815    94770992.479    22818289.508  
                 105490715.629    19789794.050    82048352.043    19789789.475  
                 112713327.406    21092765.268    87665934.085    21092762.159  
                 105091212.313    19638807.953    81737622.864    19638805.005  
                 106831323.459    19977998.337    83091038.226    19977996.085  
 21  9  1 10 15 39.0000000  0 14G 1G 6G13G14G15G17G19G24G30R13R14R15
                                R17R24
  23679698.067   124437656.770    23679705.161    96964433.268                  
  22772705.487   119671379.494    22772714.458    93250455.530                  
  22374212.123   117577275.617    22374216.501    91618676.690                  
  21462651.596   112786993.574    21462657.117    87885991.585                  
  23571570.679   123869429.576    23571575.540    96521658.563                  
  20805176.763   109331942.901    20805182.052    85193742.775                  
  20155361.077   105917137.207    20155363.864    82532845.296                  
  23267884.758   122273552.172    23267891.226    95278123.466                  
  22421628.594   117826453.105    22421635.849    91812851.941                  
                 121851099.416    22818801.080    94773095.400    22818795.451  
                 105490780.761    19789806.254    82048402.696    19789801.948  
                 112710656.964    21092265.490    87663857.070    21092262.398  
                 105088893.788    19638374.629    81735819.569    19638371.806  
                 106833232.845    19978355.413    83092523.293    19978353.233  
 21  9  1 10 15 40.0000000  0 14G 1G 6G13G14G15G17G19G24G30R13R14R15
                                R17R24
  23680160.410   124440084.319    23680166.986    96966324.816                  
  22772078.249   119668081.873    22772086.969    93247885.948                  
  22374653.488   117579596.355    22374658.152    91620485.052                  
  21462891.970   112788257.332    21462897.652    87886976.325                  
  23571852.456   123870911.452    23571857.477    96522813.272                  
  20805476.677   109333518.600    20805481.841    85194970.586                  
  20155265.281   105916634.733    20155268.122    82532453.755                  
  23267300.048   122270478.516    23267306.481    95275728.405                  
  22422196.007   117829435.115    22422203.262    91815175.578                  
                 121853803.509    22819307.381    94775198.595    22819301.860  
                 105490846.318    19789818.476    82048453.687    19789814.063  
                 112707986.660    21091765.764    87661780.176    21091762.673  
                 105086576.009    19637941.502    81734016.861    19637938.714  
                 106835142.994    19978712.651    83094008.962    19978710.453  
 21  9  1 10 15 41.0000000  0 14G 1G 6G13G14G15G17G19G24G30R13R14R15
                                R17R24
  23680622.718   124442512.402    23680629.115    96968216.863                  
  22771450.117   119664784.418    22771459.409    93245316.493                  
  22375095.371   117581917.466    22375099.749    91622293.703                  
  21463132.737   112789521.228    21463138.330    87887961.179                  
  23572134.340   123872393.695    23572139.575    96523968.262                  
  20805776.608   109335094.615    20805781.773    85196198.657                  
  20155169.985   105916132.799    20155172.612    82532062.637                  
  23266714.891   122267405.121    23266721.610    95273333.552                  
  22422762.777   117832417.471    22422770.978    91817499.495                  
                 121856507.882    22819813.771    94777302.019    22819807.910  
                 105490912.277    19789830.770    82048504.986    19789826.553  
                 112705316.462    21091266.093    87659703.349    21091262.751  
                 105084258.939    19637508.464    81732214.696    19637505.855  
                 106837053.832    19979070.067    83095495.178    19979067.780  
 21  9  1 10 15 42.0000000  0 14G 1G 6G13G14G15G17G19G24G30R13R14R15
                                R17R24
  23681084.596   124444941.048    23681091.261    96970109.290                  
  22770823.057   119661487.216    22770831.885    93242747.250                  
  22375536.915   117584238.987    22375541.417    91624102.683                  
  21463373.379   112790785.350    21463378.758    87888946.209                  
  23572417.046   123873876.419    23572421.692    96525123.638                  
  20806076.469   109336671.001    20806081.829    85197427.005                  
  20155074.636   105915631.430    20155077.174    82531671.963                  
  23266129.895   122264332.014    23266136.899    95270938.923                  
  22423331.083   117835400.197    22423338.517    91819823.694                  
                 121859212.601    22820320.126    94779405.643    22820314.694  
                 105490978.718    19789843.439    82048556.668    19789838.990  
                 112702646.405    21090766.475    87657626.649    21090763.241  
                 105081942.685    19637075.748    81730413.165    19637072.907  
                 106838965.461    19979427.590    83096982.008    19979425.268  
 21  9  1 10 15 43.0000000  0 14G 1G 6G13G14G15G17G19G24G30R13R14R15
                                R17R24
  23681546.635   124447370.196    23681553.193    96972002.119                  
  22770195.908   119658190.237    22770204.325    93240178.173                  
  22375978.798   117586560.896    22375983.354    91625911.958                  
  21463613.807   112792049.658    21463619.310    87889931.386                  
  23572699.072   123875359.592    23572704.076    96526279.359                  
  20806376.740   109338247.765    20806381.904    85198655.657                  
  20154979.233   105915130.608    20154981.842    82531281.710                  
  23265545.917   122261259.166    23265552.207    95268544.514                  
  22423898.156   117838383.269    22423906.108    91822148.164                  
                 121861917.669    22820826.659    94781509.561    22820821.477  
                 105491045.636    19789855.858    82048608.710    19789851.624  
                 112699976.488    21090266.768    87655550.040    21090263.480  
                 105079627.202    19636643.032    81728612.235    19636640.226  
                 106840877.870    19979785.096    83098469.426    19979782.916  
 21  9  1 10 15 44.0000000  0 14G 1G 6G13G14G15G17G19G24G30R13R14R15
                                R17R24
  23682009.372   124449799.890    23682015.519    96973895.416                  
  22769568.223   119654893.467    22769577.086    93237609.274                  
  22376420.359   117588883.213    22376425.327    91627721.557                  
  21463854.753   112793314.138    21463859.863    87890916.702                  
  23572981.278   123876843.105    23572986.317    96527435.334                  
  20806676.546   109339824.850    20806681.925    85199884.551                  
  20154883.938   105914630.352    20154886.654    82530891.904                  
  23264960.617   122258186.575    23264967.515    95266150.274                  
  22424466.266   117841366.705    22424473.896    91824472.931                  
                 121864622.972    22821333.210    94783613.665    22821327.617  
                 105491113.008    19789868.581    82048661.111    19789864.168  
                 112697306.646    21089767.168    87653473.487    21089763.951  
                 105077312.468    19636210.369    81726811.892    19636207.653  
                 106842791.010    19980142.923    83099957.419    19980140.850  
 21  9  1 10 15 45.0000000  0 14G 1G 6G13G14G15G17G19G24G30R13R14R15
                                R17R24
  23682471.089   124452230.121    23682478.005    96975789.096                  
  22768941.699   119651596.910    22768949.883    93235040.522                  
  22376862.492   117591205.934    22376867.192    91629531.482                  
  21464094.751   112794578.815    21464100.523    87891902.162                  
  23573263.323   123878327.106    23573268.665    96528591.701                  
  20806976.674   109341402.318    20806982.142    85201113.743                  
  20154789.214   105914130.651    20154791.591    82530502.524                  
  23264375.871   122255114.234    23264382.840    95263756.235                  
  22425034.108   117844350.497    22425041.774    91826797.965                  
                 121867328.707    22821839.761    94785718.087    22821834.132  
                 105491180.849    19789881.322    82048713.869    19789876.747  
                 112694636.935    21089267.586    87651397.054    21089264.459  
                 105074998.503    19635778.117    81725012.141    19635775.312  
                 106844704.921    19980500.911    83101446.011    19980498.624  
 21  9  1 10 15 46.0000000  0 14G 1G 6G13G14G15G17G19G24G30R13R14R15
                                R17R24
  23682934.040   124454660.857    23682940.652    96977683.201                  
  22768313.299   119648300.568    22768322.484    93232471.949                  
  22377304.590   117593528.996    22377309.307    91631341.651                  
  21464335.876   112795843.650    21464341.130    87892887.755                  
  23573546.046   123879811.531    23573550.996    96529748.392                  
  20807276.767   109342980.109    20807282.377    85202343.202                  
  20154694.008   105913631.481    20154696.599    82530113.558                  
  23263791.197   122252042.098    23263798.345    95261362.367                  
  22425601.932   117847334.625    22425609.669    91829123.253                  
                 121870034.619    22822346.562    94787822.731    22822341.184  
                 105491249.097    19789894.170    82048766.957    19789889.542  
                 112691967.349    21088768.021    87649320.710    21088764.769  
                 105072685.266    19635345.794    81723212.967    19635342.971  
                 106846619.572    19980858.881    83102935.182    19980856.648  
 21  9  1 10 15 47.0000000  0 14G 1G 6G13G14G15G17G19G24G30R13R14R15
                                R17R24
  23683396.741   124457092.150    23683403.424    96979577.713                  
  22767686.275   119645004.443    22767695.246    93229903.537                  
  22377746.705   117595852.484    22377751.619    91633152.161                  
  21464576.768   112797108.670    21464581.968    87893873.478                  
  23573829.217   123881296.365    23573833.505    96530905.421                  
  20807577.413   109344558.264    20807582.702    85203572.931                  
  20154599.231   105913132.888    20154601.697    82529725.045                  
  23263207.291   122248970.291    23263213.777    95258968.754                  
  22426169.595   117850319.100    22426177.618    91831448.823                  
                 121872740.963    22822853.346    94789927.665    22822847.556  
                 105491317.791    19789907.017    82048820.382    19789902.407  
                 112689297.904    21088268.421    87647244.468    21088265.366  
                 105070372.804    19634913.650    81721414.392    19634910.809  
                 106848534.981    19981217.048    83104424.950    19981215.011  
 21  9  1 10 15 48.0000000  0 14G 1G 6G13G14G15G17G19G24G30R13R14R15
                                R17R24
  23683859.566   124459523.945    23683866.142    96981472.632                  
  22767058.501   119641708.541    22767068.079    93227335.297                  
  22378189.089   117598176.350    22378193.788    91634962.963                  
  21464817.625   112798373.872    21464822.628    87894859.350                  
  23574111.458   123882781.683    23574116.068    96532062.807                  
  20807877.452   109346136.784    20807883.080    85204802.941                  
  20154504.454   105912634.851    20154506.937    82529336.966                  
  23262622.116   122245898.731    23262629.246    95256575.328                  
  22426737.777   117853303.930    22426745.621    91833774.667                  
                 121875447.540    22823360.272    94792032.783    22823354.357  
                 105491386.941    19789920.008    82048874.163    19789915.291  
                 112686628.578    21087768.786    87645168.332    21087765.980  
                 105068061.101    19634481.630    81719616.393    19634478.986  
                 106850451.206    19981575.393    83105915.343    19981573.392  
 21  9  1 10 15 49.0000000  0 14G 1G 6G13G14G15G17G19G24G30R13R14R15
                                R17R24
  23684322.749   124461956.292    23684328.967    96983367.953                  
  22766432.120   119638412.871    22766441.001    93224767.242                  
  22378631.686   117600500.609    22378636.100    91636774.079                  
  21465058.607   112799639.277    21465063.503    87895845.377                  
  23574393.628   123884267.392    23574398.828    96533220.506                  
  20808177.866   109347715.649    20808183.566    85206033.221                  
  20154409.623   105912137.362    20154412.196    82528949.315                  
  23262037.978   122242827.423    23262044.929    95254182.114                  
  22427305.708   117856289.109    22427313.588    91836100.773                  
                 121878154.489    22823867.145    94794138.151    22823861.730  
                 105491456.564    19789933.088    82048928.314    19789928.514  
                 112683959.404    21087269.472    87643092.308    21087266.452  
                 105065750.156    19634049.861    81717818.992    19634047.091  
                 106852368.205    19981933.953    83107406.348    19981931.702  
 21  9  1 10 15 50.0000000  0 14G 1G 6G13G14G15G17G19G24G30R13R14R15
                                R17R24
  23684785.682   124464389.219    23684792.043    96985263.711                  
  22765804.417   119635117.427    22765813.816    93222199.364                  
  22379073.444   117602825.255    22379078.626    91638585.496                  
  21465299.213   112800904.857    21465304.270    87896831.546                  
  23574676.262   123885753.546    23574681.569    96534378.531                  
  20808478.905   109349294.893    20808484.016    85207263.808                  
  20154315.113   105911640.451    20154317.686    82528562.102                  
  23261453.411   122239756.393    23261460.576    95251789.086                  
  22427873.835   117859274.661    22427881.787    91838427.175                  
                 121880861.829    22824374.196    94796243.848    22824368.907  
                 105491526.652    19789946.097    82048982.822    19789941.505  
                 112681290.376    21086769.961    87641016.384    21086767.066  
                 105063439.998    19633618.074    81716022.197    19633615.322  
                 106854285.943    19982292.549    83108897.923    19982290.369  
 21  9  1 10 15 51.0000000  0 14G 1G 6G13G14G15G17G19G24G30R13R14R15
                                R17R24
  23685248.347   124466822.649    23685255.119    96987159.874                  
  22765177.768   119631822.170    22765186.774    93219631.641                  
  22379516.364   117605150.295    22379520.956    91640397.211                  
  21465540.409   112802170.602    21465545.144    87897817.836                  
  23574959.843   123887240.102    23574964.311    96535536.886                  
  20808779.462   109350874.456    20808784.716    85208494.637                  
  20154220.282   105911144.060    20154223.213    82528175.316                  
  23260868.343   122236685.575    23260875.991    95249396.257                  
  22428441.909   117862260.521    22428450.040    91840753.824                  
                 121883569.425    22824881.194    94798349.703    22824876.012  
                 105491597.147    19789959.445    82049037.659    19789954.656  
                 112678621.417    21086270.575    87638940.538    21086267.323  
                 105061130.613    19633186.644    81714226.016    19633183.767  
                 106856204.399    19982651.287    83110390.062    19982649.250  
 21  9  1 10 15 52.0000000  0 14G 1G 6G13G14G15G17G19G24G30R13R14R15
                                R17R24
  23685712.173   124469256.592    23685718.212    96989056.473                  
  22764551.388   119628527.128    22764559.732    93217064.064                  
  22379958.569   117607475.710    22379963.357    91642209.223                  
  21465781.266   112803436.521    21465786.037    87898804.273                  
  23575242.656   123888727.093    23575247.302    96536695.582                  
  20809080.376   109352454.378    20809085.308    85209725.738                  
  20154125.952   105910648.232    20154128.882    82527788.956                  
  23260284.723   122233615.048    23260291.745    95247003.652                  
  22429010.698   117865246.748    22429018.293    91843080.754                  
                 121886277.278    22825388.370    94800455.824    22825382.670  
                 105491668.092    19789972.704    82049092.838    19789968.147  
                 112675952.560    21085771.047    87636864.769    21085768.063  
                 105058821.973    19632755.143    81712430.412    19632752.499  
                 106858123.613    19983010.240    83111882.781    19983008.078  
 21  9  1 10 15 53.0000000  0 14G 1G 6G13G14G15G17G19G24G30R13R14R15
                                R17R24
  23686174.355   124471691.078    23686181.431    96990953.457                  
  22763923.524   119625232.315    22763932.780    93214496.686                  
  22380401.220   117609801.560    22380405.955    91644021.562                  
  21466022.140   112804702.662    21466026.911    87899790.874                  
  23575524.808   123890214.553    23575530.276    96537854.654                  
  20809381.219   109354034.672    20809386.044    85210957.138                  
  20154031.889   105910152.988    20154034.588    82527403.047                  
  23259699.655   122230544.740    23259707.357    95244611.202                  
  22429578.308   117868233.353    22429586.599    91845407.979                  
                 121888985.489    22825895.547    94802562.215    22825889.471  
                 105491739.528    19789986.231    82049148.404    19789981.353  
                 112673283.851    21085271.661    87634789.107    21085268.623  
                 105056514.100    19632323.999    81710635.388    19632320.944  
                 106860043.657    19983369.211    83113376.144    19983367.102  
 21  9  1 10 15 54.0000000  0 14G 1G 6G13G14G15G17G19G24G30R13R14R15
                                R17R24
  23686637.824   124474126.069    23686644.846    96992850.889                  
  22763296.732   119621937.727    22763305.702    93211929.477                  
  22380843.603   117612127.765    22380848.607    91645834.205                  
  21466262.997   112805968.944    21466267.964    87900777.583                  
  23575808.961   123891702.377    23575813.500    96539013.999                  
  20809681.598   109355615.287    20809686.887    85212188.790                  
  20153937.434   105909658.264    20153940.507    82527017.548                  
  23259116.535   122227474.741    23259123.076    95242218.969                  
  22430146.579   117871220.261    22430155.066    91847735.437                  
                 121891693.950    22826402.759    94804668.856    22826396.970  
                 105491811.399    19789999.758    82049204.303    19789994.951  
                 112670615.247    21084772.168    87632713.529    21084769.256  
                 105054206.942    19631892.766    81708840.936    19631889.961  
                 106861964.429    19983728.521    83114870.079    19983726.341  
 21  9  1 10 15 55.0000000  0 14G 1G 6G13G14G15G17G19G24G30R13R14R15
                                R17R24
  23687101.722   124476561.626    23687108.297    96994748.710                  
  22762669.672   119618643.351    22762678.857    93209362.436                  
  22381286.898   117614454.363    22381291.222    91647647.145                  
  21466504.068   112807235.428    21466509.071    87901764.454                  
  23576092.150   123893190.671    23576096.688    96540173.709                  
  20809982.333   109357196.285    20809987.712    85213420.737                  
  20153843.496   105909164.117    20153846.373    82526632.494                  
  23258532.862   122224404.932    23258538.919    95239826.902                  
  22430714.796   117874207.550    22430723.534    91850063.201                  
                 121894402.777    22826910.043    94806775.778    22826904.325  
                 105491883.748    19790013.320    82049260.569    19790008.603  
                 112667946.813    21084272.818    87630638.073    21084269.799  
                 105051900.581    19631461.765    81707047.110    19631458.906  
                 106863885.955    19984087.850    83116364.598    19984085.848  
 21  9  1 10 15 56.0000000  0 14G 1G 6G13G14G15G17G19G24G30R13R14R15
                                R17R24
  23687565.369   124478997.717    23687571.927    96996646.969                  
  22762043.560   119615349.192    22762051.904    93206795.554                  
  22381729.549   117616781.354    22381733.856    91649460.378                  
  21466744.674   112808502.065    21466750.053    87902751.453                  
  23576375.338   123894679.372    23576380.055    96541333.722                  
  20810283.551   109358777.607    20810288.537    85214652.933                  
  20153749.737   105908670.499    20153752.489    82526247.861                  
  23257949.134   122221335.411    23257954.852    95237435.074                  
  22431284.013   117877195.167    22431292.037    91852391.215                  
                 121897111.942    22827417.398    94808882.850    22827411.662  
                 105491956.530    19790026.990    82049317.174    19790022.040  
                 112665278.475    21083773.469    87628562.701    21083770.735  
                 105049594.992    19631030.890    81705253.871    19631027.852  
                 106865808.205    19984447.249    83117859.689    19984445.266  
 21  9  1 10 15 57.0000000  0 14G 1G 6G13G14G15G17G19G24G30R13R14R15
                                R17R24
  23688028.624   124481434.295    23688035.646    96998545.586                  
  22761416.285   119612055.244    22761425.095    93204228.846                  
  22382172.219   117619108.724    22382176.883    91651273.924                  
  21466985.673   112809768.925    21466990.909    87903738.607                  
  23576658.848   123896168.505    23576663.440    96542494.097                  
  20810584.626   109360359.292    20810589.487    85215885.415                  
  20153655.711   105908177.453    20153658.695    82525863.671                  
  23257364.853   122218266.119    23257370.660    95235043.413                  
  22431852.302   117880183.158    22431860.843    91854719.515                  
                 121899821.432    22827924.807    94810990.241    22827918.910  
                 105492029.758    19790040.803    82049374.134    19790035.800  
                 112662610.271    21083274.190    87626487.431    21083271.421  
                 105047290.167    19630600.175    81703461.234    19630597.334  
                 106867731.250    19984806.828    83119355.391    19984804.898  
 21  9  1 10 15 58.0000000  0 14G 1G 6G13G14G15G17G19G24G30R13R14R15
                                R17R24
  23688492.539   124483871.472    23688499.365    97000444.689                  
  22760789.279   119608761.537    22760798.446    93201662.323                  
  22382615.156   117621436.507    22382619.927    91653087.775                  
  21467226.691   112811035.970    21467232.141    87904725.911                  
  23576941.947   123897658.049    23576946.968    96543654.782                  
  20810885.630   109361941.353    20810890.580    85217118.192                  
  20153562.309   105907684.970    20153564.990    82525479.921                  
  23256782.055   122215197.155    23256786.611    95232652.013                  
  22432421.019   117883171.500    22432429.525    91857048.093                  
                 121902531.229    22828432.430    94813097.905    22828426.265  
                 105492103.414    19790054.473    82049431.434    19790049.809  
                 112659942.219    21082774.787    87624412.285    21082772.214  
                 105044986.119    19630169.639    81701669.195    19630166.762  
                 106869655.087    19985166.602    83120851.715    19985164.673  
 21  9  1 10 15 59.0000000  0 14G 1G 6G13G14G15G17G19G24G30R13R14R15
                                R17R24
  23688956.598   124486309.135    23688963.209    97002344.186                  
  22760163.184   119605468.062    22760171.619    93199095.981                  
  22383058.165   117623764.678    22383062.972    91654901.934                  
  21467468.012   112812303.177    21467473.265    87905713.351                  
  23577225.028   123899148.088    23577230.424    96544815.854                  
  20811186.348   109363523.754    20811191.691    85218351.235                  
  20153468.747   105907193.031    20153471.284    82525096.587                  
  23256197.077   122212128.424    23256202.634    95230260.775                  
  22432989.701   117886160.189    22432998.189    91859376.942                  
                 121905241.405    22828940.000    94815205.740    22828933.924  
                 105492177.508    19790068.410    82049489.060    19790063.586  
                 112657274.266    21082275.508    87622337.203    21082272.971  
                 105042682.815    19629739.209    81699877.729    19629736.350  
                 106871579.711    19985526.663    83122348.638    19985524.412  
 21  9  1 10 16  0.0000000  0 14G 1G 6G13G14G15G17G19G24G30R13R14R15
                                R17R24
  23689421.407   124488747.325    23689427.214    97004244.055                  
  22759536.053   119602174.766    22759545.006    93196529.776                  
  22383500.906   117626093.225    22383506.177    91656716.379                  
  21467709.190   112813570.556    21467714.444    87906700.922                  
  23577509.503   123900638.480    23577513.970    96545977.196                  
  20811487.959   109365106.499    20811492.873    85219584.531                  
  20153374.756   105906701.640    20153377.847    82524713.689                  
  23255612.992   122209059.927    23255618.603    95227869.773                  
  22433558.865   117889149.227    22433566.906    91861706.062                  
                 121907951.917    22829447.444    94817313.893    22829441.386  
                 105492252.082    19790082.473    82049547.048    19790077.577  
                 112654606.434    21081776.302    87620262.225    21081773.711  
                 105040380.253    19629309.031    81698086.859    19629306.154  
                 106873505.115    19985886.581    83123846.165    19985884.473  
 21  9  1 10 16  1.0000000  0 14G 1G 6G13G14G15G17G19G24G30R13R14R15
                                R17R24
  23689884.750   124491186.080    23689891.398    97006144.389                  
  22758909.619   119598881.716    22758918.446    93193963.763                  
  22383944.397   117628422.150    22383949.293    91658531.135                  
  21467950.404   112814838.135    21467955.676    87907688.648                  
  23577793.620   123902129.341    23577797.659    96547138.906                  
  20811788.999   109366689.613    20811794.127    85220818.133                  
  20153281.265   105906210.830    20153284.375    82524331.240                  
  23255028.174   122205991.720    23255034.679    95225478.946                  
  22434127.493   117892138.620    22434135.731    91864035.466                  
                 121910662.633    22829955.067    94819422.276    22829949.617  
                 105492327.155    19790096.518    82049605.440    19790091.819  
                 112651938.767    21081277.113    87618187.373    21081274.593  
                 105038078.503    19628878.780    81696296.597    19628875.903  
                 106875431.263    19986246.874    83125344.294    19986244.730  
 21  9  1 10 16  2.0000000  0 14G 1G 6G13G14G15G17G19G24G30R13R14R15
                                R17R24
  23690348.809   124493625.361    23690355.474    97008045.113                  
  22758283.095   119595588.883    22758291.797    93191397.915                  
  22384387.602   117630751.494    22384392.516    91660346.197                  
  21468191.654   112816105.884    21468196.764    87908676.502                  
  23578077.434   123903620.634    23578081.615    96548300.964                  
  20812090.485   109368273.071    20812095.434    85222051.999                  
  20153188.007   105905720.563    20153191.080    82523949.211                  
  23254444.983   122202923.766    23254450.951    95223088.349                  
  22434695.960   117895128.371    22434704.770    91866365.142                  
                 121913373.742    22830462.869    94821530.893    22830456.883  
                 105492402.672    19790110.706    82049664.174    19790105.846  
                 112649271.199    21080777.959    87616112.595    21080775.011  
                 105035777.497    19628448.852    81694506.928    19628445.725  
                 106877358.127    19986607.203    83126842.957    19986605.041  
 21  9  1 10 16  3.0000000  0 14G 1G 6G13G14G15G17G19G24G30R13R14R15
                                R17R24
  23690813.582   124496065.152    23690819.658    97009946.252                  
  22757657.376   119592296.233    22757665.381    93188832.209                  
  22384831.201   117633081.194    22384835.811    91662161.559                  
  21468433.011   112817373.810    21468438.014    87909664.498                  
  23578360.622   123905112.299    23578365.483    96549463.300                  
  20812391.631   109369856.860    20812396.849    85223286.123                  
  20153095.338   105905230.824    20153097.876    82523567.601                  
  23253861.113   122199856.014    23253867.349    95220697.905                  
  22435265.410   117898118.418    22435273.719    91868695.047                  
                 121916085.122    22830970.617    94823639.784    22830965.078  
                 105492478.606    19790124.948    82049723.233    19790120.177  
                 112646603.732    21080278.752    87614037.896    21080276.001  
                 105033477.214    19628018.923    81692717.822    19628015.885  
                 106879285.702    19986967.603    83128342.184    19986965.423  
 21  9  1 10 16  4.0000000  0 14G 1G 6G13G14G15G17G19G24G30R13R14R15
                                R17R24
  23691276.569   124498505.484    23691284.002    97011847.827                  
  22757030.405   119589003.843    22757038.822    93186266.713                  
  22385274.317   117635411.316    22385279.231    91663977.229                  
  21468674.618   112818641.943    21468679.389    87910652.654                  
  23578643.846   123906604.448    23578649.546    96550626.007                  
  20812693.046   109371441.037    20812698.317    85224520.546                  
  20153001.794   105904741.672    20153004.921    82523186.441                  
  23253277.260   122196788.592    23253283.640    95218307.700                  
  22435834.092   117901108.871    22435842.741    91871025.268                  
                 121918796.905    22831478.419    94825748.914    22831473.005  
                 105492554.995    19790139.368    82049782.644    19790134.615  
                 112643936.426    21079779.528    87611963.328    21079777.097  
                 105031177.757    19627589.280    81690929.369    19627586.242  
                 106881214.101    19987328.200    83129842.050    19987326.002  
 21  9  1 10 16  5.0000000  0 14G 1G 6G13G14G15G17G19G24G30R13R14R15
                                R17R24
  23691742.057   124500946.358    23691748.507    97013749.823                  
  22756403.310   119585711.680    22756412.351    93183701.397                  
  22385717.594   117637741.835    22385722.829    91665793.216                  
  21468915.653   112819910.268    21468920.692    87911640.950                  
  23578927.964   123908096.994    23578933.700    96551789.030                  
  20812994.121   109373025.577    20812999.893    85225755.244                  
  20152908.964   105904253.083    20152911.788    82522805.723                  
  23252693.444   122193721.421    23252699.948    95215917.695                  
  22436403.185   117904099.672    22436411.851    91873355.762                  
                 121921508.932    22831986.203    94827858.299    22831980.628  
                 105492631.819    19790153.771    82049842.412    19790148.910  
                 112641269.245    21079280.339    87609888.861    21079277.891  
                 105028879.073    19627159.673    81689141.506    19627156.707  
                 106883143.279    19987689.047    83131342.524    19987686.885  
 21  9  1 10 16  6.0000000  0 14G 1G 6G13G14G15G17G19G24G30R13R14R15
                                R17R24
  23692206.723   124503387.769    23692213.102    97015652.223                  
  22755778.073   119582419.716    22755785.935    93181136.240                  
  22386161.085   117640072.734    22386166.535    91667609.499                  
  21469157.028   112821178.739    21469162.103    87912629.376                  
  23579212.832   123909589.977    23579217.781    96552952.398                  
  20813296.286   109374610.441    20813301.486    85226990.204                  
  20152815.956   105903765.023    20152818.976    82522425.419                  
  23252109.681   122190654.470    23252116.239    95213527.845                  
  22436972.420   117907090.779    22436981.015    91875686.495                  
                 121924221.323    22832494.148    94829967.948    22832488.823  
                 105492709.083    19790168.245    82049902.502    19790163.509  
                 112638602.181    21078781.346    87607814.473    21078778.916  
                 105026581.124    19626730.245    81687354.217    19626727.171  
                 106885073.183    19988049.894    83132843.565    19988047.732  
 21  9  1 10 16  7.0000000  0 14G 1G 6G13G14G15G17G19G24G30R13R14R15
                                R17R24
  23692671.657   124505829.717    23692677.643    97017555.040                  
  22755151.388   119579127.989    22755159.519    93178571.249                  
  22386604.648   117642403.989    22386609.830    91669426.066                  
  21469398.688   112822447.406    21469403.674    87913617.946                  
  23579497.432   123911083.391    23579501.899    96554116.102                  
  20813597.540   109376195.659    20813603.133    85228225.444                  
  20152723.251   105903277.526    20152726.182    82522045.551                  
  23251526.346   122187587.784    23251532.636    95211138.240                  
  22437541.924   117910082.294    22437550.322    91878017.543                  
                 121926934.052    22833001.986    94832077.831    22832996.661  
                 105492786.814    19790182.897    82049962.958    19790178.234  
                 112635935.248    21078282.139    87605740.196    21078279.798  
                 105024283.928    19626300.834    81685567.506    19626297.814  
                 106887003.840    19988410.902    83134345.185    19988408.704  
 21  9  1 10 16  8.0000000  0 14G 1G 6G13G14G15G17G19G24G30R13R14R15
                                R17R24
  23693136.126   124508272.144    23693142.470    97019458.230                  
  22754524.900   119575836.442    22754533.084    93176006.403                  
  22387048.550   117644735.623    22387053.625    91671242.921                  
  21469639.885   112823716.230    21469645.102    87914606.641                  
  23579781.102   123912577.181    23579786.213    96555280.089                  
  20813899.473   109377781.212    20813904.870    85229460.933                  
  20152630.958   105902790.551    20152633.585    82521666.090                  
  23250941.708   122184521.353    23250948.962    95208748.811                  
  22438111.570   117913074.111    22438119.558    91880348.829                  
                 121929647.030    22833510.020    94834187.949    22833504.391  
                 105492864.986    19790197.461    82050023.763    19790192.850  
                 112633268.414    21077783.182    87603665.996    21077781.110  
                 105021987.491    19625871.817    81683781.391    19625868.833  
                 106888935.204    19988772.071    83135847.354    19988769.909  
 21  9  1 10 16  9.0000000  0 14G 1G 6G13G14G15G17G19G24G30R13R14R15
                                R17R24
  23693600.578   124510715.166    23693607.475    97021361.879                  
  22753898.519   119572545.171    22753906.829    93173441.780                  
  22387492.077   117647067.705    22387497.384    91673060.130                  
  21469881.492   112824985.299    21469886.674    87915595.529                  
  23580065.452   123914071.504    23580070.527    96556444.493                  
  20814201.406   109379367.185    20814206.534    85230696.753                  
  20152537.950   105902304.210    20152541.023    82521287.121                  
  23250359.267   122181455.253    23250365.557    95206359.640                  
  22438680.216   117916066.312    22438689.115    91882680.419                  
                 121932360.364    22834018.161    94836298.310    22834013.033  
                 105492943.662    19790212.328    82050084.945    19790207.610  
                 112630601.779    21077284.172    87601591.936    21077282.064  
                 105019691.896    19625442.692    81681995.929    19625439.655  
                 106890867.392    19989133.275    83137350.158    19989131.256  
 21  9  1 10 16 10.0000000  0 14G 1G 6G13G14G15G17G19G24G30R13R14R15
                                R17R24
  23694066.531   124513158.652    23694072.660    97023265.875                  
  22753272.925   119569254.057    22753280.698    93170877.276                  
  22387935.890   117649400.119    22387941.269    91674877.593                  
  21470123.152   112826254.483    21470128.263    87916584.497                  
  23580349.641   123915566.177    23580355.055    96557609.178                  
  20814503.196   109380953.421    20814508.342    85231932.791                  
  20152446.014   105901818.345    20152448.462    82520908.527                  
  23249775.665   122178389.336    23249782.205    95203970.622                  
  22439249.595   117919058.810    22439258.547    91885012.235                  
                 121935073.995    22834526.339    94838408.922    22834521.496  
                 105493022.721    19790227.141    82050146.440    19790222.424  
                 112627935.192    21076785.269    87599517.924    21076782.821  
                 105017397.010    19625013.889    81680211.017    19625010.584  
                 106892800.306    19989494.909    83138853.536    19989492.639  
 21  9  1 10 16 11.0000000  0 14G 1G 6G13G14G15G17G19G24G30R13R14R15
                                R17R24
  23694531.411   124515602.730    23694537.773    97025170.359                  
  22752646.097   119565963.217    22752654.353    93168312.983                  
  22388379.399   117651732.962    22388385.260    91676695.390                  
  21470364.581   112827523.888    21470369.888    87917573.648                  
  23580634.330   123917061.285    23580639.709    96558774.192                  
  20814805.290   109382540.057    20814810.418    85233169.135                  
  20152353.148   105901333.081    20152356.257    82520530.397                  
  23249191.490   122175323.688    23249198.745    95201581.797                  
  22439819.760   117922051.703    22439828.122    91887344.365                  
                 121937787.937    22835034.569    94840519.789    22835030.138  
                 105493102.256    19790241.972    82050208.306    19790237.398  
                 112625268.749    21076286.169    87597444.021    21076283.882  
                 105015102.871    19624585.194    81678426.689    19624582.067  
                 106894734.041    19989856.524    83140357.561    19989854.416  
 21  9  1 10 16 12.0000000  0 14G 1G 6G13G14G15G17G19G24G30R13R14R15
                                R17R24
  23694996.703   124518047.352    23695002.832    97027075.266                  
  22752020.217   119562672.583    22752028.169    93165748.841                  
  22388823.820   117654066.177    22388829.341    91678513.489                  
  21470605.527   112828793.468    21470611.227    87918562.929                  
  23580918.894   123918556.835    23580924.291    96559939.565                  
  20815107.115   109384127.054    20815112.405    85234405.751                  
  20152261.016   105900848.360    20152263.928    82520152.694                  
  23248608.460   122172258.325    23248615.536    95199193.205                  
  22440389.549   117925044.949    22440397.858    91889676.762                  
                 121940502.213    22835542.800    94842630.892    22835538.601  
                 105493182.277    19790257.054    82050270.533    19790252.408  
                 112622602.460    21075787.248    87595370.253    21075784.908  
                 105012809.503    19624156.587    81676642.954    19624153.639  
                 106896668.517    19990218.175    83141862.158    19990215.959  
 21  9  1 10 16 13.0000000  0 14G 1G 6G13G14G15G17G19G24G30R13R14R15
                                R17R24
  23695462.352   124520492.446    23695468.195    97028980.522                  
  22751394.390   119559382.171    22751401.895    93163184.895                  
  22389268.115   117656399.768    22389273.333    91680331.867                  
  21470848.045   112830063.239    21470852.923    87919552.363                  
  23581202.887   123920052.788    23581209.123    96561105.233                  
  20815409.441   109385714.385    20815414.534    85235642.635                  
  20152169.044   105900364.173    20152171.831    82519775.406                  
  23248025.894   122169193.203    23248032.398    95196804.800                  
  22440958.892   117928038.527    22440967.433    91892009.415                  
                 121943216.819    22836051.067    94844742.211    22836046.707  
                 105493262.732    19790272.117    82050333.109    19790267.543  
                 112619936.294    21075288.309    87593296.559    21075285.987  
                 105010516.906    19623728.160    81674859.828    19623725.068  
                 106898603.712    19990580.130    83143367.305    19990577.861  
 21  9  1 10 16 14.0000000  0 14G 1G 6G13G14G15G17G19G24G30R13R14R15
                                R17R24
  23695927.679   124522938.071    23695933.576    97030886.213                  
  22750767.134   119556091.976    22750775.693    93160621.107                  
  22389712.053   117658733.769    22389717.503    91682150.558                  
  21471089.545   112831333.174    21471094.441    87920541.918                  
  23581487.987   123921549.177    23581493.795    96562271.251                  
  20815711.267   109387302.065    20815716.574    85236879.786                  
  20152076.572   105899880.558    20152079.734    82519398.568                  
  23247442.310   122166128.336    23247449.314    95194416.585                  
  22441528.610   117931032.471    22441536.991    91894342.366                  
                 121945931.775    22836559.512    94846853.813    22836554.937  
                 105493343.639    19790287.252    82050396.039    19790282.749  
                 112617270.242    21074789.317    87591222.969    21074786.976  
                 105008225.107    19623299.893    81673077.329    19623296.891  
                 106900539.675    19990942.031    83144873.049    19990940.066  
 21  9  1 10 16 15.0000000  0 14G 1G 6G13G14G15G17G19G24G30R13R14R15
                                R17R24
  23696392.845   124525384.265    23696399.081    97032792.323                  
  22750141.593   119552802.011    22750149.598    93158057.488                  
  22390156.509   117661068.155    22390161.477    91683969.565                  
  21471331.170   112832603.277    21471336.209    87921531.606                  
  23581773.034   123923045.966    23581778.663    96563437.584                  
  20816013.325   109388890.098    20816018.847    85238117.214                  
  20151985.046   105899397.492    20151987.905    82519022.148                  
  23246859.011   122163063.724    23246866.159    95192028.571                  
  22442098.757   117934026.739    22442106.744    91896675.561                  
                 121948646.978    22837068.028    94848965.633    22837063.400  
                 105493424.967    19790302.513    82050459.305    19790298.010  
                 112614604.279    21074290.396    87589149.456    21074288.323  
                 105005934.051    19622871.769    81671295.404    19622868.731  
                 106902476.408    19991304.201    83146379.402    19991302.092  
 21  9  1 10 16 16.0000000  0 14G 1G 6G13G14G15G17G19G24G30R13R14R15
                                R17R24
  23696857.493   124527830.982    23696864.873    97034698.860                  
  22749515.248   119549512.262    22749523.539    93155494.050                  
  22390600.447   117663402.935    22390605.808    91685788.878                  
  21471573.098   112833873.588    21471577.869    87922521.457                  
  23582058.098   123924543.204    23582063.584    96564604.252                  
  20816315.544   109390478.497    20816321.030    85239354.930                  
  20151893.253   105898914.990    20151896.041    82518646.172                  
  23246276.034   122159999.371    23246282.967    95189640.768                  
  22442668.958   117937021.367    22442676.480    91899009.033                  
                 121951362.536    22837576.617    94851077.750    22837571.792  
                 105493506.767    19790317.916    82050522.916    19790313.252  
                 112611938.441    21073791.618    87587076.024    21073789.259  
                 105003643.743    19622443.698    81669514.055    19622440.696  
                 106904413.932    19991666.603    83147886.365    19991664.494  
 21  9  1 10 16 17.0000000  0 14G 1G 6G13G14G15G17G19G24G30R13R14R15
                                R17R24
  23697324.482   124530278.236    23697330.540    97036605.829                  
  22748889.975   119546222.751    22748897.552    93152930.793                  
  22391045.011   117665738.127    22391050.228    91687608.497                  
  21471814.580   112835144.110    21471819.691    87923511.474                  
  23582342.698   123926040.911    23582348.613    96565771.305                  
  20816617.888   109392067.260    20816623.356    85240592.925                  
  20151801.835   105898433.051    20151804.283    82518270.633                  
  23245692.557   122156935.319    23245699.794    95187253.193                  
  22443238.658   117940016.361    22443246.341    91901342.795                  
                 121954078.458    22838085.151    94853190.115    22838080.988  
                 105493589.044    19790333.301    82050586.917    19790328.834  
                 112609272.764    21073292.840    87585002.706    21073290.535  
                 105001354.242    19622015.825    81667733.325    19622012.876  
                 106906352.251    19992029.058    83149393.946    19992026.896  
 21  9  1 10 16 18.0000000  0 14G 1G 6G13G14G15G17G19G24G30R13R14R15
                                R17R24
  23697789.667   124532725.982    23697796.403    97038513.141                  
  22748263.469   119542933.426    22748271.618    93150367.688                  
  22391489.556   117668073.655    22391494.577    91689428.396                  
  21472056.170   112836414.762    21472061.405    87924501.599                  
  23582628.620   123927539.015    23582633.749    96566938.654                  
  20816920.178   109393656.346    20816925.646    85241831.172                  
  20151709.935   105897951.640    20151712.740    82517895.512                  
  23245109.634   122153871.506    23245116.638    95184865.804                  
  22443808.519   117943011.691    22443816.435    91903676.816                  
                 121956794.657    22838593.775    94855302.726    22838589.469  
                 105493671.735    19790348.793    82050651.234    19790344.237  
                 112606607.192    21072793.919    87582929.486    21072791.667  
                 104999065.478    19621588.165    81665953.176    19621585.217  
                 106908291.283    19992391.638    83150902.080    19992389.547  
 21  9  1 10 16 19.0000000  0 13G 1G 6G13G14G15G17G19G24G30R14R15R17
                                R24
  23698256.102   124535174.284    23698262.445    97040420.913                  
  22747638.107   119539644.352    22747645.934    93147804.772                  
  22391934.423   117670409.596    22391939.141    91691248.612                  
  21472298.045   112837685.624    21472303.352    87925491.875                  
  23582913.649   123929037.517    23582918.938    96568106.316                  
  20817222.879   109395245.787    20817228.133    85243069.695                  
  20151618.749   105897470.795    20151621.233    82517520.826                  
  23244527.443   122150807.912    23244533.554    95182478.611                  
  22444378.040   117946007.349    22444386.582    91906011.102                  
                 105493754.902    19790364.411    82050715.917    19790359.944  
                 112603941.769    21072295.123    87580856.386    21072292.854  
                 104996777.477    19621160.649    81664173.624    19621157.575  
                 106910231.092    19992754.344    83152410.825    19992752.199  
 21  9  1 10 16 20.0000000  0 13G 1G 6G13G14G15G17G19G24G30R14R15R17
                                R24
  23698721.733   124537623.125    23698728.523    97042329.117                  
  22747012.852   119536355.460    22747020.036    93145242.006                  
  22392378.487   117672745.907    22392383.633    91693069.107                  
  21472540.081   112838956.640    21472545.245    87926482.274                  
  23583198.356   123930536.424    23583204.057    96569274.301                  
  20817525.527   109396835.569    20817530.745    85244308.493                  
  20151526.974   105896990.494    20151529.797    82517146.565                  
  23243944.413   122147744.600    23243950.631    95180091.612                  
  22444948.205   117949003.359    22444956.872    91908345.650                  
                 105493838.524    19790380.064    82050780.959    19790375.508  
                 112601276.453    21071796.345    87578783.365    21071794.004  
                 104994490.241    19620733.186    81662394.667    19620730.274  
                 106912171.587    19993117.406    83153920.102    19993115.137  
 21  9  1 10 16 21.0000000  0 13G 1G 6G13G14G15G17G19G24G30R14R15R17
                                R24
  23699187.185   124540072.471    23699194.779    97044237.682                  
  22746386.614   119533066.809    22746394.173    93142679.416                  
  22392823.515   117675082.600    22392828.393    91694889.909                  
  21472781.974   112840227.840    21472787.084    87927472.824                  
  23583484.350   123932035.801    23583489.300    96570442.649                  
  20817827.763   109398425.685    20817833.303    85245547.542                  
  20151435.717   105896510.726    20151438.558    82516772.722                  
  23243360.632   122144681.541    23243367.690    95177704.820                  
  22445518.495   117951999.695    22445527.072    91910680.458                  
                 105493922.599    19790395.807    82050846.345    19790391.411  
                 112598611.269    21071297.674    87576710.444    21071295.369  
                 104992203.754    19620305.902    81660616.291    19620303.007  
                 106914112.823    19993480.433    83155429.947    19993478.021  
 21  9  1 10 16 22.0000000  0 13G 1G 6G13G14G15G17G19G24G30R14R15R17
                                R24
  23699654.067   124542522.327    23699660.857    97046146.673                  
  22745760.966   119529778.387    22745768.543    93140117.007                  
  22393268.382   117677419.706    22393273.331    91696711.031                  
  21473023.759   112841499.239    21473028.959    87928463.518                  
  23583770.576   123933535.601    23583774.811    96571611.328                  
  20818130.536   109400016.197    20818135.950    85246786.902                  
  20151344.478   105896031.548    20151347.283    82516399.334                  
  23242778.244   122141618.754    23242784.874    95175318.233                  
  22446088.642   117954996.436    22446097.201    91913015.573                  
                 105494007.156    19790411.639    82050912.107    19790407.171  
                 112595946.228    21070798.878    87574637.629    21070796.341  
                 104989918.057    19619878.707    81658838.530    19619875.956  
                 106916054.851    19993843.478    83156940.422    19993841.280  
 21  9  1 10 16 23.0000000  0 13G 1G 6G13G14G15G17G19G24G30R14R15R17
                                R24
  23700119.609   124544972.744    23700127.114    97048056.070                  
  22745135.122   119526490.212    22745142.877    93137554.799                  
  22393712.802   117679757.205    22393718.252    91698532.461                  
  21473265.813   112842770.833    21473271.084    87929454.379                  
  23584055.248   123935035.847    23584060.340    96572780.339                  
  20818433.434   109401607.046    20818438.813    85248026.530                  
  20151253.703   105895552.919    20151256.365    82516026.381                  
  23242196.090   122138556.279    23242202.219    95172931.875                  
  22446658.610   117957993.511    22446667.509    91915350.959                  
                 105494092.144    19790427.631    82050978.219    19790423.164  
                 112593281.312    21070300.207    87572564.915    21070297.813  
                 104987633.133    19619451.620    81657061.358    19619449.047  
                 106917997.675    19994206.738    83158451.508    19994204.540  
 21  9  1 10 16 24.0000000  0 13G 1G 6G13G14G15G17G19G24G30R14R15R17
                                R24
  23700585.007   124547423.754    23700593.674    97049965.941                  
  22744509.599   119523202.224    22744517.211    93134992.724                  
  22394157.848   117682095.095    22394163.209    91700354.184                  
  21473507.777   112844042.596    21473513.085    87930445.355                  
  23584340.794   123936536.550    23584345.994    96573949.732                  
  20818736.510   109403198.254    20818741.389    85249266.429                  
  20151162.589   105895074.842    20151165.305    82515653.851                  
  23241613.148   122135494.029    23241619.599    95170545.715                  
  22447228.668   117960990.939    22447237.870    91917686.622                  
                 105494177.570    19790443.624    82051044.666    19790439.032  
                 112590616.516    21069801.429    87570492.305    21069799.160  
                 104985348.977    19619024.872    81655284.795    19619022.102  
                 106919941.297    19994570.247    83159963.214    19994568.032  
 21  9  1 10 16 25.0000000  0 13G 1G 6G13G14G15G17G19G24G30R14R15R17
                                R24
  23701051.425   124549875.178    23701060.252    97051876.173                  
  22743883.772   119519914.441    22743891.527    93132430.820                  
  22394602.447   117684433.325    22394608.058    91702176.193                  
  21473749.653   112845314.512    21473755.103    87931436.467                  
  23584626.127   123938037.555    23584631.649    96575119.342                  
  20819038.908   109404789.761    20819044.322    85250506.565                  
  20151071.957   105894597.272    20151074.352    82515281.723                  
  23241030.207   122132431.985    23241036.747    95168159.712                  
  22447799.226   117963988.689    22447808.446    91920022.533                  
                 105494263.452    19790459.653    82051111.449    19790455.382  
                 112587951.836    21069302.741    87568419.773    21069300.311  
                 104983065.548    19618598.142    81653508.799    19618595.408  
                 106921885.648    19994933.882    83161475.480    19994931.720  
 21  9  1 10 16 26.0000000  0 13G 1G 6G13G14G15G17G19G24G30R14R15R17
                                R24
  23701518.950   124552327.188    23701526.884    97053786.806                  
  22743258.517   119516626.897    22743266.004    93129869.104                  
  22395047.761   117686771.981    22395053.086    91703998.513                  
  21473992.064   112846586.637    21473997.192    87932427.720                  
  23584912.782   123939539.066    23584917.321    96576289.355                  
  20819342.163   109406381.658    20819347.149    85251747.002                  
  20150980.950   105894120.298    20150983.613    82514910.051                  
  23240447.945   122129370.244    23240453.967    95165773.925                  
  22448369.748   117966986.815    22448379.004    91922358.728                  
                 105494349.807    19790475.967    82051178.616    19790471.518  
                 112585287.302    21068804.088    87566347.361    21068801.550  
                 104980782.904    19618171.590    81651733.412    19618168.856  
                 106923830.736    19995297.570    83162988.331    19995295.372  
 21  9  1 10 16 27.0000000  0 13G 1G 6G13G14G15G17G19G24G30R14R15R17
                                R24
  23701985.027   124554779.753    23701993.676    97055697.902                  
  22742632.583   119513339.628    22742640.463    93127307.588                  
  22395492.771   117689111.038    22395498.257    91705821.155                  
  21474233.939   112847858.978    21474239.335    87933419.159                  
  23585198.007   123941041.043    23585203.136    96577459.724                  
  20819645.579   109407973.946    20819650.118    85252987.741                  
  20150890.265   105893643.911    20150892.981    82514538.838                  
  23239864.397   122126308.783    23239871.437    95163388.367                  
  22448940.609   117969985.290    22448949.437    91924695.207                  
                 105494436.661    19790492.139    82051246.170    19790487.957  
                 112582622.929    21068305.542    87564275.075    21068302.951  
                 104978501.059    19617745.128    81649958.643    19617742.341  
                 106925776.585    19995661.526    83164501.774    19995659.436  
 21  9  1 10 16 28.0000000  0 13G 1G 6G13G14G15G17G19G24G30R14R15R17
                                R24
  23702451.802   124557232.785    23702460.433    97057609.346                  
  22742007.542   119510052.500    22742014.904    93124746.190                  
  22395937.853   117691450.416    22395943.500    91707644.042                  
  21474475.617   112849131.434    21474481.461    87934410.688                  
  23585484.805   123942543.351    23585489.058    96578630.350                  
  20819948.298   109409566.494    20819953.373    85254228.694                  
  20150799.794   105893168.011    20150802.564    82514168.006                  
  23239282.331   122123247.523    23239288.889    95161002.976                  
  22449511.453   117972984.068    22449520.084    91927031.910                  
                 105494523.856    19790508.560    82051313.994    19790504.039  
                 112579958.592    21067806.889    87562202.818    21067804.298  
                 104976219.900    19617318.898    81648184.411    19617316.057  
                 106927723.115    19996025.518    83166015.739    19996023.428  
 21  9  1 10 16 29.0000000  0 13G 1G 6G13G14G15G17G19G24G30R14R15R17
                                R24
  23702919.470   124559686.394    23702927.297    97059521.259                  
  22741381.179   119506765.639    22741389.542    93122185.006                  
  22396382.863   117693790.245    22396388.796    91709467.284                  
  21474718.011   112850404.117    21474723.622    87935402.381                  
  23585770.173   123944046.144    23585775.141    96579801.355                  
  20820251.446   109411159.442    20820256.432    85255469.952                  
  20150709.430   105892692.697    20150711.968    82513797.642                  
  23238699.015   122120186.597    23238706.448    95158617.839                  
  22450082.565   117975983.233    22450090.749    91929368.928                  
                 105494611.529    19790525.018    82051382.192    19790520.390  
                 112577294.437    21067308.343    87560130.691    21067305.806  
                 104973939.590    19616892.615    81646410.830    19616889.988  
                 106929670.461    19996389.743    83167530.337    19996387.545  
 21  9  1 10 16 30.0000000  0 14G 1G 6G13G14G15G17G19G24G30R13R14R15
                                R17R24
  23703386.120   124562140.494    23703394.286    97061433.552                  
  22740755.710   119503478.992    22740764.019    93119623.974                  
  22396828.374   117696130.430    22396834.181    91711290.799                  
  21474959.993   112851676.969    21474965.818    87936394.214                  
  23586055.595   123945549.347    23586061.188    96580972.682                  
  20820554.558   109412752.721    20820559.544    85256711.469                  
  20150618.906   105892217.936    20150621.729    82513427.695                  
  23238118.361   122117125.920    23238123.936    95156232.891                  
  22450652.748   117978982.738    22450661.575    91931706.203                  
                 121989413.651    22844702.479    94880672.964    22844697.655  
                 105494699.679    19790541.529    82051450.753    19790536.883  
                 112574630.414    21066809.815    87558058.672    21066806.885  
                 104971660.045    19616466.635    81644637.855    19616463.901  
                 106931618.568    19996753.967    83169045.529    19996751.787  
 21  9  1 10 16 31.0000000  0 14G 1G 6G13G14G15G17G19G24G30R13R14R15
                                R17R24
  23703853.913   124564595.116    23703861.346    97063346.249                  
  22740130.312   119500192.542    22740138.478    93117063.108                  
  22397274.009   117698470.969    22397279.602    91713114.603                  
  21475202.279   112852949.968    21475208.069    87937386.166                  
  23586342.107   123947052.944    23586347.325    96582144.318                  
  20820857.974   109414346.329    20820862.781    85257953.237                  
  20150528.471   105891743.679    20150531.419    82513058.142                  
  23237534.812   122114065.452    23237541.638    95153848.115                  
  22451224.342   117981982.560    22451232.437    91934043.722                  
                 121992133.935    22845211.961    94882788.778    22845207.118  
                 105494788.257    19790558.236    82051519.642    19790553.572  
                 112571966.465    21066311.270    87555986.712    21066308.607  
                 104969381.214    19616040.781    81642865.436    19616038.190  
                 106933567.403    19997118.388    83170561.299    19997116.101  
 21  9  1 10 16 32.0000000  0 14G 1G 6G13G14G15G17G19G24G30R13R14R15
                                R17R24
  23704320.955   124567050.328    23704328.711    97065259.401                  
  22739504.950   119496906.338    22739513.098    93114502.428                  
  22397719.502   117700811.943    22397725.005    91714938.739                  
  21475444.226   112854223.195    21475450.337    87938378.289                  
  23586628.583   123948556.998    23586633.551    96583316.295                  
  20821161.194   109415940.313    20821166.197    85259195.297                  
  20150438.572   105891270.030    20150441.252    82512689.065                  
  23236952.800   122111005.262    23236959.304    95151463.552                  
  22451794.489   117984982.778    22451803.441    91936381.563                  
                 121994854.637    22845721.460    94884904.837    22845716.707  
                 105494877.336    19790574.819    82051588.923    19790570.280  
                 112569302.680    21065812.688    87553914.889    21065809.990  
                 104967103.176    19615615.051    81641093.621    19615612.299  
                 106935517.069    19997482.987    83172077.703    19997480.736  
 21  9  1 10 16 33.0000000  0 14G 1G 6G13G14G15G17G19G24G30R13R14R15
                                R17R24
  23704787.891   124569506.048    23704795.878    97067172.953                  
  22738880.285   119493620.398    22738887.808    93111941.951                  
  22398164.816   117703153.307    22398170.677    91716763.185                  
  21475686.905   112855496.614    21475692.730    87939370.561                  
  23586915.149   123950061.470    23586919.795    96584488.608                  
  20821464.771   109417534.657    20821469.542    85260437.653                  
  20150348.458   105890796.935    20150351.282    82512320.424                  
  23236370.931   122107945.369    23236377.149    95149079.236                  
  22452365.922   117987983.334    22452374.267    91938719.652                  
                 121997575.610    22846231.156    94887021.168    22846226.099  
                 105494966.861    19790591.651    82051658.563    19790587.005  
                 112566639.050    21065314.214    87551843.160    21065311.426  
                 104964825.908    19615189.590    81639322.419    19615186.677  
                 106937467.523    19997847.801    83173594.714    19997845.407  
 21  9  1 10 16 34.0000000  0 14G 1G 6G13G14G15G17G19G24G30R13R14R15
                                R17R24
  23705255.630   124571962.290    23705263.243    97069086.887                  
  22738254.172   119490334.644    22738262.624    93109381.643                  
  22398610.415   117705495.027    22398616.330    91718587.895                  
  21475929.352   112856770.182    21475935.016    87940362.961                  
  23587201.554   123951566.349    23587206.128    96585661.257                  
  20821768.008   109419129.336    20821772.940    85261680.260                  
  20150258.666   105890324.375    20150261.347    82511952.195                  
  23235787.793   122104885.690    23235794.852    95146695.057                  
  22452937.338   117990984.239    22452945.308    91941058.022                  
                 122000296.857    22846740.638    94889137.747    22846736.224  
                 105495056.808    19790608.537    82051728.508    19790603.802  
                 112563975.534    21064815.865    87549771.543    21064813.006  
                 104962549.384    19614764.075    81637551.787    19614761.448  
                 106939418.694    19998212.687    83175112.305    19998210.417  
 21  9  1 10 16 35.0000000  0 14G 1G 6G13G14G15G17G19G24G30R13R14R15
                                R17R24
  23705722.280   124574419.083    23705730.786    97071001.281                  
  22737629.203   119487049.118    22737637.369    93106821.497                  
  22399055.890   117707837.142    22399062.055    91720412.910                  
  21476172.085   112858043.947    21476177.356    87941355.501                  
  23587488.191   123953071.650    23587492.497    96586834.219                  
  20822071.281   109420724.362    20822076.570    85262923.132                  
  20150168.982   105889852.369    20150171.609    82511584.396                  
  23235206.139   122101826.302    23235212.697    95144311.111                  
  22453508.235   117993985.475    22453516.527    91943396.641                  
                 122003018.489    22847250.405    94891254.572    22847246.188  
                 105495147.193    19790625.370    82051798.817    19790621.010  
                 112561312.122    21064317.623    87547700.006    21064314.782  
                 104960273.637    19614338.792    81635781.762    19614336.112  
                 106941370.593    19998577.679    83176630.449    19998575.374  
 21  9  1 10 16 36.0000000  0 14G 1G 6G13G14G15G17G19G24G30R13R14R15
                                R17R24
  23706190.305   124576876.373    23706198.329    97072916.036                  
  22737004.091   119483763.815    22737012.275    93104261.521                  
  22399501.562   117710179.642    22399507.851    91722238.230                  
  21476414.406   112859317.894    21476419.821    87942348.184                  
  23587774.006   123954577.398    23587778.723    96588007.543                  
  20822374.769   109422319.736    20822380.076    85264166.286                  
  20150079.244   105889380.926    20150081.906    82511217.043                  
  23234624.234   122098767.166    23234630.738    95141927.387                  
  22454079.472   117996987.070    22454087.656    91945735.552                  
                 122005740.452    22847760.173    94893371.659    22847755.580  
                 105495238.064    19790642.435    82051869.483    19790637.914  
                 112558648.865    21063819.095    87545628.570    21063816.039  
                 104957998.690    19613913.581    81634012.368    19613911.097  
                 106943323.242    19998942.690    83178149.178    19998940.403  
 21  9  1 10 16 37.0000000  0 14G 1G 6G13G14G15G17G19G24G30R13R14R15
                                R17R24
  23706658.313   124579334.214    23706665.836    97074831.244                  
  22736379.318   119480478.750    22736386.931    93101701.728                  
  22399947.304   117712522.567    22399953.719    91724063.891                  
  21476656.389   112860592.052    21476662.250    87943341.039                  
  23588060.750   123956083.589    23588065.253    96589181.193                  
  20822678.739   109423915.489    20822683.760    85265409.725                  
  20149989.559   105888910.044    20149992.311    82510850.117                  
  23234041.883   122095708.332    23234048.816    95139543.871                  
  22454651.049   117999989.034    22454658.786    91948074.743                  
                 122008462.749    22848269.976    94895488.983    22848265.759  
                 105495329.404    19790659.554    82051940.539    19790655.015  
                 112555985.734    21063320.674    87543557.250    21063317.762  
                 104955724.542    19613488.620    81632243.593    19613485.886  
                 106945276.679    19999308.111    83179668.518    19999305.914  
 21  9  1 10 16 38.0000000  0 14G 1G 6G13G14G15G17G19G24G30R13R14R15
                                R17R24
  23707126.696   124581792.563    23707133.575    97076746.843                  
  22735754.349   119477193.887    22735761.747    93099142.088                  
  22400393.655   117714865.830    22400399.551    91725889.808                  
  21476899.425   112861866.357    21476904.697    87944334.006                  
  23588347.566   123957590.152    23588351.890    96590355.127                  
  20822982.601   109425511.553    20822987.408    85266653.418                  
  20149900.410   105888439.699    20149902.751    82510483.614                  
  23233461.121   122092649.668    23233466.732    95137160.499                  
  22455221.571   118002991.309    22455230.202    91950414.173                  
                 122011185.329    22848779.690    94897606.526    22848775.366  
                 105495421.174    19790676.886    82052011.911    19790672.312  
                 112553322.713    21062822.397    87541486.014    21062819.591  
                 104953451.090    19613063.784    81630475.348    19613061.050  
                 106947230.842    19999673.676    83181188.422    19999671.264  
 21  9  1 10 16 39.0000000  0 14G 1G 6G13G14G15G17G19G24G30R13R14R15
                                R17R24
  23707593.595   124584251.425    23707601.386    97078662.837                  
  22735129.130   119473909.245    22735136.760    93096582.628                  
  22400839.558   117717209.480    22400845.437    91727716.028                  
  21477141.676   112863140.817    21477147.358    87945327.085                  
  23588634.077   123959097.150    23588638.634    96591529.427                  
  20823286.303   109427107.958    20823291.253    85267897.363                  
  20149810.779   105887969.885    20149813.227    82510117.526                  
  23232878.699   122089591.336    23232884.577    95134777.390                  
  22455793.701   118005993.919    22455801.671    91952753.872                  
                 122013908.211    22849289.404    94899724.335    22849285.347  
                 105495513.360    19790694.112    82052083.604    19790689.448  
                 112550659.814    21062324.083    87539414.882    21062321.224  
                 104951178.367    19612639.180    81628707.679    19612636.392  
                 106949185.742    20000039.169    83182708.889    20000036.900  
 21  9  1 10 16 40.0000000  0 14G 1G 6G13G14G15G17G19G24G30R13R14R15
                                R17R24
  23708062.086   124586710.801    23708069.573    97080579.234                  
  22734503.339   119470624.828    22734511.827    93094023.334                  
  22401285.480   117719553.540    22401291.448    91729542.581                  
  21477384.516   112864415.506    21477390.001    87946320.345                  
  23588921.072   123960604.620    23588925.396    96592704.077                  
  20823589.898   109428704.738    20823595.044    85269141.609                  
  20149721.559   105887500.675    20149723.954    82509751.908                  
  23232296.419   122086533.262    23232302.726    95132394.489                  
  22456365.188   118008996.913    22456372.997    91955093.869                  
                 122016631.471    22849799.439    94901842.414    22849795.204  
                 105495606.037    19790711.481    82052155.696    19790706.799  
                 112547997.098    21061825.859    87537343.876    21061822.982  
                 104948906.460    19612214.612    81626940.645    19612211.735  
                 106951141.427    20000404.894    83184229.982    20000402.625  
 21  9  1 10 16 41.0000000  0 14G 1G 6G13G14G15G17G19G24G30R13R14R15
                                R17R24
  23708530.254   124589170.740    23708537.670    97082496.063                  
  22733879.067   119467340.634    22733886.804    93091464.219                  
  22401732.366   117721897.983    22401737.584    91731369.424                  
  21477627.052   112865690.354    21477632.556    87947313.730                  
  23589207.262   123962112.472    23589212.230    96593879.020                  
  20823894.136   109430301.838    20823899.139    85270386.105                  
  20149632.286   105887031.988    20149634.912    82509386.697                  
  23231715.014   122083475.447    23231720.911    95130011.762                  
  22456936.354   118012000.245    22456944.591    91957434.128                  
                 122019355.032    22850309.439    94903960.744    22850305.293  
                 105495699.161    19790728.993    82052228.123    19790724.364  
                 112545334.465    21061327.617    87535272.943    21061324.722  
                 104946635.321    19611790.062    81625174.194    19611787.185  
                 106953097.841    20000770.709    83185751.640    20000768.600  
 21  9  1 10 16 42.0000000  0 14G 1G 6G13G14G15G17G19G24G30R13R14R15
                                R17R24
  23708998.512   124591631.179    23709005.999    97084413.308                  
  22733253.794   119464056.670    22733262.014    93088905.288                  
  22402178.395   117724242.795    22402183.881    91733196.538                  
  21477869.695   112866965.383    21477875.110    87948307.262                  
  23589494.596   123963620.766    23589499.331    96595054.314                  
  20824197.677   109431899.269    20824203.056    85271630.859                  
  20149543.280   105886563.847    20149545.782    82509021.914                  
  23231133.646   122080417.866    23231139.078    95127629.222                  
  22457508.341   118015003.908    22457516.222    91959774.642                  
                 122022078.871    22850819.492    94906079.320    22850815.776  
                 105495792.752    19790746.558    82052300.909    19790742.001  
                 112542671.945    21060829.375    87533202.095    21060826.427  
                 104944364.919    19611365.905    81623408.331    19611363.189  
                 106955055.014    20001136.756    83187273.892    20001134.558  
 21  9  1 10 16 43.0000000  0 14G 1G 6G13G14G15G17G19G24G30R13R14R15
                                R17R24
  23709467.323   124594092.148    23709474.382    97086330.933                  
  22732629.129   119460772.887    22732637.205    93086346.499                  
  22402624.709   117726587.971    22402630.159    91735023.953                  
  21478112.214   112868240.580    21478117.825    87949300.922                  
  23589781.019   123965129.446    23589786.629    96596229.908                  
  20824502.112   109433497.041    20824507.026    85272875.874                  
  20149454.364   105886096.257    20149456.830    82508657.563                  
  23230552.205   122077360.573    23230557.334    95125246.920                  
  22458079.953   118018007.926    22458087.780    91962115.438                  
                 122024803.055    22851329.653    94908198.123    22851325.954  
                 105495886.804    19790764.212    82052374.070    19790759.566  
                 112540009.566    21060331.044    87531131.355    21060328.310  
                 104942095.325    19610941.766    81621643.091    19610939.014  
                 106957012.954    20001502.999    83188796.734    20001500.819  
 21  9  1 10 16 44.0000000  0 14G 1G 6G13G14G15G17G19G24G30R13R14R15
                                R17R24
  23709934.688   124596553.686    23709942.764    97088249.047                  
  22732003.570   119457489.380    22732012.308    93083787.920                  
  22403070.970   117728933.549    22403076.724    91736851.667                  
  21478354.929   112869515.988    21478360.450    87950294.749                  
  23590068.245   123966638.559    23590073.767    96597405.827                  
  20824806.367   109435095.195    20824811.138    85274121.188                  
  20149365.591   105885629.228    20149367.878    82508293.642                  
  23229970.104   122074303.458    23229975.751    95122864.765                  
  22458651.333   118021012.273    22458659.660    91964456.481                  
                 122027527.451    22851839.903    94910317.033    22851835.990  
                 105495981.324    19790781.903    82052447.588    19790777.435  
                 112537347.332    21059832.891    87529060.729    21059830.068  
                 104939826.499    19610517.805    81619878.439    19610514.928  
                 106958971.638    20001869.136    83190320.148    20001867.063  
 21  9  1 10 16 45.0000000  0 14G 1G 6G13G14G15G17G19G24G30R13R14R15
                                R17R24
  23710403.696   124599015.783    23710411.415    97090167.563                  
  22731379.262   119454206.114    22731387.464    93081229.530                  
  22403517.499   117731279.549    22403523.164    91738679.712                  
  21478597.554   112870791.590    21478603.165    87951288.731                  
  23590355.722   123968148.121    23590360.993    96598582.119                  
  20825110.552   109436693.724    20825115.341    85275366.791                  
  20149276.406   105885162.797    20149279.051    82507930.182                  
  23229388.432   122071246.714    23229394.400    95120482.888                  
  22459223.035   118024017.010    22459231.433    91966797.839                  
                 122030252.286    22852350.242    94912436.386    22852345.936  
                 105496076.317    19790799.772    82052521.469    19790795.108  
                 112534685.248    21059334.792    87526990.208    21059332.094  
                 104937558.434    19610093.934    81618114.398    19610091.236  
                 106960931.092    20002235.594    83191844.175    20002233.342  
