     2.11           OBSERVATION DATA    M (MIXED)           RINEX VERSION / TYPE
CONVBIN 2.4.3                           20210831 054602 UTC PGM / RUN BY / DATE 
log: logs/21_08_31_03_04_49_tn31_SW.rtcm                    COMMENT             
format: RTCM 3, station ID: 2499                            COMMENT             
2499                                                        MARKER NAME         
                                                            MARKER NUMBER       
                                                            OBSERVER / AGENCY   
                    SWFT                                    REC # / TYPE / VERS 
                    NULL                                    ANT # / TYPE        
   284582.8531 -5205312.1833  3662560.2926                  APPROX POSITION XYZ 
        0.0000        0.0000        0.0000                  ANTENNA: DELTA H/E/N
     1     1                                                WAVELENGTH FACT L1/2
     5    C1    L1    P2    L2    C2                        # / TYPES OF OBSERV 
  2021     8    31     3     4   54.0000000     GPS         TIME OF FIRST OBS   
  2021     8    31     3    34   52.0000000     GPS         TIME OF LAST OBS    
                                                            END OF HEADER       
 21  8 31  3  4 54.0000000  0 17G 3G 4G16G22G26G27G31C23C24C25C32C33
                                E 1E 4E19E21E27
  21625133.317   113640805.185    21625136.498    88551267.020                  
  21853118.159   114838902.004    21853119.696    89484857.884                  
  20342659.333   106901394.330    20342659.011    83299787.515                  
  22480976.194   118138335.497    22480974.675    92055848.735                  
  20407277.061   107240910.252    20407280.367    83564332.245                  
  24567213.805   129101527.603    24567217.057   100598580.887                  
  22580305.929   118660318.991    22580305.732    92462588.129                  
                 128004727.840                   128004727.840    24581957.697  
                 125290941.852                   125290941.852    24060804.944  
                 114821339.543                   114821339.543    22050228.903  
                 134795699.480                   134795699.480    25886105.644  
                 120649625.284                   120649625.284    23169527.562  
  26122423.580   137274209.513                                                  
  27676927.118   145443223.227                                                  
  23373511.340   122828614.652                                                  
  23471499.862   123343531.974                                                  
  25126599.280   132041146.167                                                  
 21  8 31  3  4 55.0000000  0 17G 3G 4G16G22G26G27G31C23C24C25C32C33
                                E 1E 4E19E21E27
  21625396.546   113642188.378    21625399.726    88552344.835                  
  21852639.198   114836384.996    21852640.735    89482896.583                  
  20342359.973   106899821.175    20342359.651    83298561.684                  
  22481415.879   118140646.032    22481414.360    92057649.151                  
  20407512.807   107242149.015    20407516.095    83565297.519                  
  24566557.315   129098077.857    24566560.603   100595892.773                  
  22580753.548   118662671.254    22580753.351    92464421.064                  
                 128002629.313                   128002629.313    24581554.697  
                 125293211.304                   125293211.304    24061240.751  
                 114821269.056                   114821269.056    22050215.359  
                 134792844.563                   134792844.563    25885557.387  
                 120652117.884                   120652117.884    23170006.220  
  26121975.514   137271854.891                                                  
  27676422.497   145440571.478                                                  
  23373344.301   122827736.906                                                  
  23471443.664   123343236.578                                                  
  25127003.889   132043272.345                                                  
 21  8 31  3  4 56.0000000  0 17G 3G 4G16G22G26G27G31C23C24C25C32C33
                                E 1E 4E19E21E27
  21625659.863   113643572.176    21625663.044    88553423.117                  
  21852160.254   114833868.210    21852161.791    89480935.449                  
  20342060.756   106898248.689    20342060.417    83297336.366                  
  22481855.636   118142956.925    22481854.099    92059449.852                  
  20407748.643   107243388.344    20407751.949    83566263.226                  
  24565900.861   129094628.043    24565904.113   100593204.609                  
  22581201.185   118665023.587    22581201.006    92466254.046                  
                 128000530.992                   128000530.992    24581151.732  
                 125295480.829                   125295480.829    24061676.595  
                 114821198.847                   114821198.847    22050201.885  
                 134789989.879                   134789989.879    25885009.183  
                 120654610.850                   120654610.850    23170484.984  
  26121527.502   137269500.504                                                  
  27675917.893   145437919.761                                                  
  23373177.332   122826859.479                                                  
  23471387.502   123342941.539                                                  
  25127408.515   132045398.696                                                  
 21  8 31  3  4 57.0000000  0 17G 3G 4G16G22G26G27G31C23C24C25C32C33
                                E 1E 4E19E21E27
  21625923.306   113644956.564    21625926.487    88554501.860                  
  21851681.382   114831351.648    21851682.919    89478974.492                  
  20341761.647   106896676.849    20341761.325    83296111.558                  
  22482295.446   118145268.179    22482293.927    92061250.824                  
  20407984.585   107244628.222    20407987.873    83567229.367                  
  24565244.353   129091178.138    24565247.623   100590516.371                  
  22581648.822   118667375.988    22581648.661    92468087.090                  
                 127998432.883                   127998432.883    24580748.822  
                 125297750.423                   125297750.423    24062112.456  
                 114821128.918                   114821128.918    22050188.466  
                 134787135.421                   134787135.421    25884460.997  
                 120657104.183                   120657104.183    23170963.803  
  26121079.526   137267146.354                                                  
  27675413.308   145435268.058                                                  
  23373010.418   122825982.367                                                  
  23471331.447   123342646.883                                                  
  25127813.177   132047525.227                                                  
 21  8 31  3  4 58.0000000  0 17G 3G 4G16G22G26G27G31C23C24C25C32C33
                                E 1E 4E19E21E27
  21626186.857   113646341.538    21626190.037    88555581.064                  
  21851202.546   114828835.317    21851204.083    89477013.714                  
  20341462.662   106895105.660    20341462.323    83294887.257                  
  22482735.345   118147579.793    22482733.809    92063052.082                  
  20408220.617   107245868.660    20408223.923    83568195.942                  
  24564587.845   129087728.151    24564591.097   100587828.070                  
  22582096.476   118669728.456    22582096.316    92469920.180                  
                 127996334.981                   127996334.981    24580345.929  
                 125300020.081                   125300020.081    24062548.317  
                 114821059.269                   114821059.269    22050175.082  
                 134784281.196                   134784281.196    25883912.883  
                 120659597.888                   120659597.888    23171442.675  
  26120631.585   137264792.442                                                  
  27674908.704   145432616.379                                                  
  23372843.575   122825105.563                                                  
  23471275.445   123342352.602                                                  
  25128217.874   132049651.942                                                  
 21  8 31  3  4 59.0000000  0 17G 3G 4G16G22G26G27G31C23C24C25C32C33
                                E 1E 4E19E21E27
  21626450.514   113647727.105    21626453.695    88556660.726                  
  21850723.746   114826319.204    21850725.282    89475053.109                  
  20341163.803   106893535.128    20341163.463    83293663.464                  
  22483175.281   118149891.769    22483173.762    92064853.622                  
  20408456.774   107247109.653    20408460.080    83569162.949                  
  24563931.319   129084278.085    24563934.571   100585139.711                  
  22582544.167   118672080.988    22582543.988    92471753.320                  
                 127994237.280                   127994237.280    24579943.072  
                 125302289.812                   125302289.812    24062984.196  
                 114820989.895                   114820989.895    22050161.752  
                 134781427.198                   134781427.198    25883364.804  
                 120662091.956                   120662091.956    23171921.636  
  26120183.680   137262438.768                                                  
  27674404.101   145429964.723                                                  
  23372676.785   122824229.078                                                  
  23471219.497   123342058.699                                                  
  25128622.626   132051778.824                                                  
 21  8 31  3  5  0.0000000  0 17G 3G 4G16G22G26G27G31C23C24C25C32C33
                                E 1E 4E19E21E27
  21626714.297   113649113.263    21626717.477    88557740.849                  
  21850244.981   114823803.319    21850246.518    89473092.679                  
  20340865.068   106891965.251    20340864.711    83292440.183                  
  22483615.323   118152204.094    22483613.787    92066655.433                  
  20408693.038   107248351.195    20408696.344    83570130.387                  
  24563274.775   129080827.945    24563278.046   100582451.288                  
  22582991.840   118674433.588    22582991.661    92473586.519                  
                 127992139.797                   127992139.797    24579540.286  
                 125304559.613                   125304559.613    24063420.093  
                 114820920.801                   114820920.801    22050148.475  
                 134778573.438                   134778573.438    25882816.761  
                 120664586.400                   120664586.400    23172400.687  
  26119735.847   137260085.332                                                  
  27673899.516   145427313.085                                                  
  23372510.067   122823352.913                                                  
  23471163.657   123341765.163                                                  
  25129027.377   132053905.897                                                  
 21  8 31  3  5  1.0000000  0 17G 3G 4G16G22G26G27G31C23C24C25C32C33
                                E 1E 4E19E21E27
  21626978.204   113650500.018    21626981.385    88558821.438                  
  21849766.252   114821287.661    21849767.807    89471132.426                  
  20340566.441   106890396.040    20340566.120    83291217.422                  
  22484055.402   118154516.782    22484053.883    92068457.528                  
  20408929.392   107249593.318    20408932.698    83571098.270                  
  24562618.214   129077377.723    24562621.484   100579762.804                  
  22583439.548   118676786.250    22583439.351    92475419.757                  
                 127990042.514                   127990042.514    24579137.518  
                 125306829.483                   125306829.483    24063856.008  
                 114820851.979                   114820851.979    22050135.288  
                 134775719.902                   134775719.902    25882268.754  
                 120667081.207                   120667081.207    23172879.773  
  26119288.031   137257732.136                                                  
  27673394.948   145424661.491                                                  
  23372343.385   122822477.066                                                  
  23471107.852   123341472.000                                                  
  25129432.182   132056033.132                                                  
 21  8 31  3  5  2.0000000  0 17G 3G 4G16G22G26G27G31C23C24C25C32C33
                                E 1E 4E19E21E27
  21627242.201   113651887.367    21627245.382    88559902.484                  
  21849287.595   114818772.225    21849289.113    89469172.348                  
  20340267.957   106888827.478    20340267.618    83289995.165                  
  22484495.551   118156829.829    22484494.033    92070259.902                  
  20409165.889   107250835.983    20409169.176    83572066.585                  
  24561961.652   129073927.425    24561964.923   100577074.262                  
  22583887.256   118679138.985    22583887.078    92477253.057                  
                 127987945.441                   127987945.441    24578734.804  
                 125309099.426                   125309099.426    24064291.923  
                 114820783.440                   114820783.440    22050122.100  
                 134772866.602                   134772866.602    25881720.818  
                 120669576.383                   120669576.383    23173358.967  
  26118840.287   137255379.163                                                  
  27672890.345   145422009.885                                                  
  23372176.774   122821601.523                                                  
  23471052.136   123341179.221                                                  
  25129837.022   132058160.554                                                  
 21  8 31  3  5  3.0000000  0 17G 3G 4G16G22G26G27G31C23C24C25C32C33
                                E 1E 4E19E21E27
  21627506.323   113653275.299    21627509.504    88560983.987                  
  21848808.955   114816257.016    21848810.492    89467212.445                  
  20339969.598   106887259.576    20339969.259    83288773.426                  
  22484935.773   118159143.245    22484934.254    92072062.562                  
  20409402.457   107252079.212    20409405.762    83573035.333                  
  24561305.055   129070477.051    24561308.325   100574385.656                  
  22584334.983   118681491.788    22584334.804    92479086.410                  
                 127985848.577                   127985848.577    24578332.126  
                 125311369.434                   125311369.434    24064727.838  
                 114820715.180                   114820715.180    22050109.002  
                 134770013.531                   134770013.531    25881172.918  
                 120672071.926                   120672071.926    23173838.196  
  26118392.579   137253026.455                                                  
  27672385.777   145419358.330                                                  
  23372010.235   122820726.315                                                  
  23470996.492   123340886.821                                                  
  25130241.881   132060288.161                                                  
 21  8 31  3  5  4.0000000  0 17G 3G 4G16G22G26G27G31C23C24C25C32C33
                                E 1E 4E19E21E27
  21627770.535   113654663.828    21627773.715    88562065.962                  
  21848330.387   114813742.023    21848331.923    89465252.710                  
  20339671.364   106885692.319    20339671.025    83287552.187                  
  22485376.083   118161456.999    22485374.564    92073865.487                  
  20409639.132   107253322.993    20409642.438    83574004.512                  
  24560648.458   129067026.597    24560651.728   100571696.996                  
  22584782.727   118683844.649    22584782.548    92480919.809                  
                 127983751.923                   127983751.923    24577929.483  
                 125313639.516                   125313639.516    24065163.806  
                 114820647.197                   114820647.197    22050095.940  
                 134767160.690                   134767160.690    25880625.054  
                 120674567.835                   120674567.835    23174317.515  
  26117944.924   137250673.966                                                  
  27671881.192   145416706.783                                                  
  23371843.731   122819851.418                                                  
  23470940.937   123340594.782                                                  
  25130646.793   132062415.938                                                  
 21  8 31  3  5  5.0000000  0 17G 3G 4G16G22G26G27G31C23C24C25C32C33
                                E 1E 4E19E21E27
  21628034.889   113656052.954    21628038.052    88563148.394                  
  21847851.836   114811227.265    21847853.355    89463293.157                  
  20339373.237   106884125.723    20339372.916    83286331.464                  
  22485816.447   118163771.129    22485814.929    92075668.703                  
  20409875.914   107254567.340    20409879.220    83574974.134                  
  24559991.861   129063576.070    24559995.113   100569008.274                  
  22585230.453   118686197.587    22585230.274    92482753.266                  
                 127981655.472                   127981655.472    24577526.876  
                 125315909.663                   125315909.663    24065599.757  
                 114820579.489                   114820579.489    22050082.931  
                 134764308.082                   134764308.082    25880077.243  
                 120677064.116                   120677064.116    23174796.905  
  26117497.305   137248321.724                                                  
  27671376.642   145414055.271                                                  
  23371677.317   122818976.844                                                  
  23470885.436   123340303.130                                                  
  25131051.723   132064543.892                                                  
 21  8 31  3  5  6.0000000  0 17G 3G 4G16G22G26G27G31C23C24C25C32C33
                                E 1E 4E19E21E27
  21628299.333   113657442.668    21628302.513    88564231.290                  
  21847373.340   114808712.719    21847374.859    89461333.770                  
  20339075.254   106882559.801    20339074.914    83285111.266                  
  22486256.883   118166085.599    22486255.346    92077472.183                  
  20410112.822   107255812.238    20410116.127    83575944.184                  
  24559335.228   129060125.470    24559338.480   100566319.492                  
  22585678.215   118688550.577    22585678.036    92484586.765                  
                 127979559.230                   127979559.230    24577124.323  
                 125318179.880                   125318179.880    24066035.725  
                 114820512.058                   114820512.058    22050069.994  
                 134761455.707                   134761455.707    25879529.486  
                 120679560.766                   120679560.766    23175276.366  
  26117049.722   137245969.714                                                  
  27670872.056   145411403.774                                                  
  23371510.957   122818102.575                                                  
  23470830.006   123340011.848                                                  
  25131456.706   132066672.027                                                  
 21  8 31  3  5  7.0000000  0 17G 3G 4G16G22G26G27G31C23C24C25C32C33
                                E 1E 4E19E21E27
  21628563.901   113658832.977    21628567.082    88565314.643                  
  21846894.879   114806198.398    21846896.398    89459374.564                  
  20338777.395   106880994.534    20338777.055    83283891.577                  
  22486697.372   118168400.433    22486695.836    92079275.952                  
  20410349.819   107257057.695    20410353.124    83576914.667                  
  24558678.577   129056674.785    24558681.847   100563630.648                  
  22586125.995   118690903.650    22586125.816    92486420.324                  
                 127977463.200                   127977463.200    24576721.805  
                 125320450.169                   125320450.169    24066471.693  
                 114820444.906                   114820444.906    22050057.093  
                 134758603.563                   134758603.563    25878981.747  
                 120682057.780                   120682057.780    23175755.882  
  26116602.192   137243617.964                                                  
  27670367.507   145408752.288                                                  
  23371344.632   122817228.652                                                  
  23470774.648   123339720.953                                                  
  25131861.708   132068800.356                                                  
 21  8 31  3  5  8.0000000  0 17G 3G 4G16G22G26G27G31C23C24C25C32C33
                                E 1E 4E19E21E27
  21628828.577   113660223.871    21628831.758    88566398.461                  
  21846416.454   114803684.339    21846418.008    89457415.554                  
  20338479.661   106879429.895    20338479.322    83282672.378                  
  22487137.933   118170715.645    22487136.414    92081080.012                  
  20410586.941   107258303.711    20410590.246    83577885.594                  
  24558021.926   129053224.000    24558025.178   100560941.727                  
  22586573.775   118693256.790    22586573.596    92488253.942                  
                 127975367.375                   127975367.375    24576319.323  
                 125322720.522                   125322720.522    24066907.698  
                 114820378.030                   114820378.030    22050044.263  
                 134755751.647                   134755751.647    25878434.062  
                 120684555.164                   120684555.164    23176235.486  
  26116154.716   137241266.418                                                  
  27669862.957   145406100.853                                                  
  23371178.396   122816354.993                                                  
  23470719.361   123339430.410                                                  
  25132266.745   132070928.820                                                  
 21  8 31  3  5  9.0000000  0 17G 3G 4G16G22G26G27G31C23C24C25C32C33
                                E 1E 4E19E21E27
  21629093.378   113661615.369    21629096.559    88567482.738                  
  21845938.100   114801170.476    21845939.619    89455456.702                  
  20338182.035   106877865.925    20338181.695    83281453.702                  
  22487578.583   118173031.203    22487577.064    92082884.341                  
  20410824.134   107259550.283    20410827.440    83578856.946                  
  24557365.239   129049773.165    24557368.492   100558252.762                  
  22587021.572   118695609.991    22587021.394    92490087.605                  
                 127973271.758                   127973271.758    24575916.877  
                 125324990.948                   125324990.948    24067343.720  
                 114820311.436                   114820311.436    22050031.469  
                 134752899.964                   134752899.964    25877886.448  
                 120687052.913                   120687052.913    23176715.144  
  26115707.276   137238915.126                                                  
  27669358.407   145403449.423                                                  
  23371012.214   122815481.684                                                  
  23470664.146   123339140.261                                                  
  25132671.818   132073057.492                                                  
 21  8 31  3  5 10.0000000  0 17G 3G 4G16G22G26G27G31C23C24C25C32C33
                                E 1E 4E19E21E27
  21629358.287   113663007.453    21629361.467    88568567.479                  
  21845459.764   114798656.842    21845461.301    89453498.027                  
  20337884.551   106876302.624    20337884.212    83280235.548                  
  22488019.287   118175347.120    22488017.768    92084688.953                  
  20411061.452   107260797.411    20411064.776    83579828.735                  
  24556708.553   129046322.250    24556711.823   100555563.743                  
  22587469.406   118697963.266    22587469.227    92491921.324                  
                 127971176.348                   127971176.348    24575514.484  
                 125327261.441                   125327261.441    24067779.742  
                 114820245.116                   114820245.116    22050018.728  
                 134750048.513                   134750048.513    25877338.833  
                 120689551.032                   120689551.032    23177194.874  
  26115259.907   137236564.076                                                  
  27668853.857   145400798.020                                                  
  23370846.086   122814608.694                                                  
  23470609.002   123338850.484                                                  
  25133076.926   132075186.335                                                  
 21  8 31  3  5 11.0000000  0 17G 3G 4G16G22G26G27G31C23C24C25C32C33
                                E 1E 4E19E21E27
  21629623.302   113664400.116    21629626.483    88569652.676                  
  21844981.482   114796143.435    21844983.000    89451539.527                  
  20337587.175   106874739.972    20337586.853    83279017.894                  
  22488460.062   118177663.392    22488458.543    92086493.836                  
  20411298.896   107262045.101    20411302.202    83580800.960                  
  24556051.866   129042871.251    24556055.118   100552874.648                  
  22587917.221   118700316.609    22587917.043    92493755.102                  
                 127969081.145                   127969081.145    24575112.128  
                 125329532.003                   125329532.003    24068215.781  
                 114820179.077                   114820179.077    22050006.041  
                 134747197.294                   134747197.294    25876791.309  
                 120692049.521                   120692049.521    23177674.675  
  26114812.538   137234213.257                                                  
  27668349.326   145398146.637                                                  
  23370680.011   122813736.007                                                  
  23470553.948   123338561.071                                                  
  25133482.053   132077315.360                                                  
 21  8 31  3  5 12.0000000  0 17G 3G 4G16G22G26G27G31C23C24C25C32C33
                                E 1E 4E19E21E27
  21629888.425   113665793.389    21629891.623    88570738.341                  
  21844503.235   114793630.253    21844504.754    89449581.203                  
  20337289.942   106873177.973    20337289.620    83277800.753                  
  22488900.909   118179980.015    22488899.372    92088298.999                  
  20411536.429   107263293.336    20411539.717    83581773.609                  
  24555395.144   129039420.181    24555398.396   100550185.505                  
  22588365.055   118702670.016    22588364.876    92495588.921                  
                 127966986.153                   127966986.153    24574709.789  
                 125331802.636                   125331802.636    24068651.839  
                 114820113.312                   114820113.312    22049993.425  
                 134744346.306                   134744346.306    25876243.784  
                 120694548.372                   120694548.372    23178154.566  
  26114365.240   137231862.673                                                  
  27667844.776   145395495.281                                                  
  23370514.026   122812863.651                                                  
  23470498.947   123338272.043                                                  
  25133887.233   132079444.563                                                  
 21  8 31  3  5 13.0000000  0 17G 3G 4G16G22G26G27G31C23C24C25C32C33
                                E 1E 4E19E21E27
  21630153.673   113667187.246    21630156.853    88571824.466                  
  21844025.042   114791117.305    21844026.561    89447623.063                  
  20336992.833   106871616.633    20336992.494    83276584.124                  
  22489341.791   118182297.009    22489340.272    92090104.444                  
  20411774.051   107264542.137    20411777.357    83582746.703                  
  24554738.404   129035969.032    24554741.656   100547496.300                  
  22588812.924   118705023.488    22588812.745    92497422.793                  
                 127964891.368                   127964891.368    24574307.503  
                 125334073.341                   125334073.341    24069087.897  
                 114820047.829                   114820047.829    22049980.846  
                 134741495.550                   134741495.550    25875696.313  
                 120697047.590                   120697047.590    23178634.528  
  26113917.997   137229512.341                                                  
  27667340.244   145392843.945                                                  
  23370348.076   122811991.601                                                  
  23470443.999   123337983.390                                                  
  25134292.449   132081573.934                                                  
 21  8 31  3  5 14.0000000  0 17G 3G 4G16G22G26G27G31C23C24C25C32C33
                                E 1E 4E19E21E27
  21630419.028   113668581.690    21630422.208    88572911.043                  
  21843546.885   114788604.570    21843548.422    89445665.089                  
  20336695.832   106870055.949    20336695.529    83275368.007                  
  22489782.781   118184614.340    22489781.262    92091910.161                  
  20412011.816   107265791.505    20412015.122    83583720.234                  
  24554081.664   129032517.810    24554084.916   100544807.036                  
  22589260.775   118707377.027    22589260.597    92499256.722                  
                 127962796.790                   127962796.790    24573905.254  
                 125336344.110                   125336344.110    24069523.973  
                 114819982.617                   114819982.617    22049968.319  
                 134738645.026                   134738645.026    25875148.913  
                 120699547.181                   120699547.181    23179114.543  
  26113470.789   137227162.238                                                  
  27666835.712   145390192.630                                                  
  23370182.180   122811119.879                                                  
  23470389.142   123337695.098                                                  
  25134697.682   132083703.492                                                  
 21  8 31  3  5 15.0000000  0 17G 3G 4G16G22G26G27G31C23C24C25C32C33
                                E 1E 4E19E21E27
  21630684.508   113669976.762    21630687.688    88573998.126                  
  21843068.764   114786092.112    21843070.300    89443707.348                  
  20336398.974   106868495.935    20336398.653    83274152.414                  
  22490223.824   118186931.991    22490222.305    92093716.093                  
  20412249.653   107267041.413    20412252.959    83584694.188                  
  24553424.905   129029066.508    24553428.158   100542117.710                  
  22589708.662   118709730.590    22589708.484    92501090.644                  
                 127960702.418                   127960702.418    24573503.058  
                 125338614.948                   125338614.948    24069960.066  
                 114819917.686                   114819917.686    22049955.847  
                 134735794.738                   134735794.738    25874601.531  
                 120702047.131                   120702047.131    23179594.612  
  26113023.616   137224812.335                                                  
  27666331.180   145387541.344                                                  
  23370016.356   122810248.477                                                  
  23470334.355   123337407.284                                                  
  25135102.952   132085833.215                                                  
 21  8 31  3  5 16.0000000  0 17G 3G 4G16G22G26G27G31C23C24C25C32C33
                                E 1E 4E19E21E27
  21630950.077   113671372.404    21630953.258    88575085.636                  
  21842590.696   114783579.840    21842592.215    89441749.731                  
  20336102.241   106866936.569    20336101.920    83272937.328                  
  22490664.939   118189250.050    22490663.420    92095522.370                  
  20412487.615   107268291.890    20412490.921    83585668.581                  
  24552768.112   129025615.133    24552771.382   100539428.329                  
  22590156.532   118712084.278    22590156.353    92502924.687                  
                 127958608.258                   127958608.258    24573100.898  
                 125340885.854                   125340885.854    24070396.178  
                 114819853.032                   114819853.032    22049943.446  
                 134732944.674                   134732944.674    25874054.221  
                 120704547.457                   120704547.457    23180074.789  
  26112576.498   137222462.722                                                  
  27665826.666   145384890.087                                                  
  23369850.603   122809377.383                                                  
  23470279.640   123337119.755                                                  
  25135508.257   132087963.132                                                  
 21  8 31  3  5 17.0000000  0 17G 3G 4G16G22G26G27G31C23C24C25C32C33
                                E 1E 4E19E21E27
  21631215.754   113672768.629    21631218.952    88576173.609                  
  21842112.664   114781067.782    21842114.200    89439792.288                  
  20335805.633   106865377.860    20335805.294    83271722.754                  
  22491106.125   118191568.472    22491104.606    92097328.938                  
  20412725.684   107269542.913    20412728.972    83586643.414                  
  24552111.318   129022163.667    24552114.588   100536738.880                  
  22590604.454   118714438.029    22590604.276    92504758.781                  
                 127956514.299                   127956514.299    24572698.773  
                 125343156.835                   125343156.835    24070832.289  
                 114819788.651                   114819788.651    22049931.062  
                 134730094.852                   134730094.852    25873506.947  
                 120707048.144                   120707048.144    23180555.019  
  26112129.415   137220113.341                                                  
  27665322.152   145382238.848                                                  
  23369684.903   122808506.603                                                  
  23470224.997   123336832.602                                                  
  25135913.598   132090093.219                                                  
 21  8 31  3  5 18.0000000  0 17G 3G 4G16G22G26G27G31C23C24C25C32C33
                                E 1E 4E19E21E27
  21631481.573   113674165.432    21631484.754    88577262.031                  
  21841634.685   114778555.950    21841636.222    89437835.019                  
  20335509.133   106863819.800    20335508.829    83270508.684                  
  22491547.365   118193887.238    22491545.846    92099135.769                  
  20412963.842   107270794.493    20412967.166    83587618.669                  
  24551454.524   129018712.128    24551457.776   100534049.371                  
  22591052.359   118716791.832    22591052.181    92506592.915                  
                 127954420.556                   127954420.556    24572296.702  
                 125345427.878                   125345427.878    24071268.418  
                 114819724.555                   114819724.555    22049918.769  
                 134727245.259                   134727245.259    25872959.708  
                 120709549.203                   120709549.203    23181035.320  
  26111682.403   137217764.183                                                  
  27664817.638   145379587.630                                                  
  23369519.257   122807636.148                                                  
  23470170.425   123336545.815                                                  
  25136318.975   132092223.493                                                  
 21  8 31  3  5 19.0000000  0 17G 3G 4G16G22G26G27G31C23C24C25C32C33
                                E 1E 4E19E21E27
  21631747.482   113675562.843    21631750.681    88578350.918                  
  21841156.742   114776044.353    21841158.261    89435877.930                  
  20335212.775   106862262.398    20335212.435    83269295.125                  
  22491988.676   118196206.371    22491987.157    92100942.883                  
  20413202.126   107272046.640    20413205.414    83588594.367                  
  24550797.694   129015260.530    24550800.965   100531359.816                  
  22591500.300   118719145.706    22591500.121    92508427.102                  
                 127952327.015                   127952327.015    24571894.667  
                 125347698.996                   125347698.996    24071704.565  
                 114819660.729                   114819660.729    22049906.493  
                 134724395.896                   134724395.896    25872412.523  
                 120712050.625                   120712050.625    23181515.693  
  26111235.392   137215415.277                                                  
  27664313.142   145376936.429                                                  
  23369353.665   122806765.996                                                  
  23470115.924   123336259.407                                                  
  25136724.405   132094353.929                                                  
 21  8 31  3  5 20.0000000  0 17G 3G 4G16G22G26G27G31C23C24C25C32C33
                                E 1E 4E19E21E27
  21632013.516   113676960.832    21632016.697    88579440.263                  
  21840678.835   114773532.975    21840680.372    89433921.015                  
  20334916.542   106860705.661    20334916.221    83268082.082                  
  22492430.059   118198525.853    22492428.540    92102750.274                  
  20413440.498   107273299.338    20413443.804    83589570.496                  
  24550140.865   129011808.844    24550144.117   100528670.189                  
  22591948.241   118721499.653    22591948.062    92510261.345                  
                 127950233.687                   127950233.687    24571492.632  
                 125349970.180                   125349970.180    24072140.712  
                 114819597.189                   114819597.189    22049894.306  
                 134721546.765                   134721546.765    25871865.355  
                 120714552.413                   120714552.413    23181996.137  
  26110788.487   137213066.597                                                  
  27663808.646   145374285.246                                                  
  23369188.144   122805896.173                                                  
  23470061.495   123335973.372                                                  
  25137129.835   132096484.544                                                  
 21  8 31  3  5 21.0000000  0 17G 3G 4G16G22G26G27G31C23C24C25C32C33
                                E 1E 4E19E21E27
  21632279.657   113678359.422    21632282.838    88580530.071                  
  21840200.982   114771021.827    21840202.519    89431964.278                  
  20334620.417   106859149.582    20334620.095    83266869.555                  
  22492871.513   118200845.704    22492869.994    92104557.946                  
  20413678.996   107274552.589    20413682.302    83590547.055                  
  24549484.018   129008357.081    24549487.288   100525980.504                  
  22592396.181   118723853.661    22592396.020    92512095.637                  
                 127948140.563                   127948140.563    24571090.686  
                 125352241.429                   125352241.429    24072576.895  
                 114819533.919                   114819533.919    22049882.137  
                 134718697.867                   134718697.867    25871318.259  
                 120717054.574                   120717054.574    23182476.635  
  26110341.583   137210718.167                                                  
  27663304.132   145371634.107                                                  
  23369022.677   122805026.676                                                  
  23470007.138   123335687.712                                                  
  25137535.319   132098615.344                                                  
 21  8 31  3  5 22.0000000  0 17G 3G 4G16G22G26G27G31C23C24C25C32C33
                                E 1E 4E19E21E27
  21632545.924   113679758.594    21632549.104    88581620.332                  
  21839723.164   114768510.911    21839724.701    89430007.720                  
  20334324.434   106857594.157    20334324.095    83265657.531                  
  22493313.039   118203165.902    22493311.520    92106365.894                  
  20413917.583   107275806.393    20413920.871    83591524.048                  
  24548827.152   129004905.246    24548830.422   100523290.761                  
  22592844.158   118726207.735    22592843.979    92513929.980                  
                 127946047.648                   127946047.648    24570688.758  
                 125354512.751                   125354512.751    24073013.078  
                 114819470.925                   114819470.925    22049870.058  
                 134715849.202                   134715849.202    25870771.199  
                 120719557.098                   120719557.098    23182957.241  
  26109894.733   137208369.972                                                  
  27662799.636   145368982.979                                                  
  23368857.282   122804157.483                                                  
  23469952.834   123335402.425                                                  
  25137940.821   132100746.317                                                  
 21  8 31  3  5 23.0000000  0 17G 3G 4G16G22G26G27G31C23C24C25C32C33
                                E 1E 4E19E21E27
  21632812.279   113681158.361    21632815.460    88582711.060                  
  21839245.400   114766000.214    21839246.937    89428051.333                  
  20334028.577   106856039.383    20334028.237    83264446.023                  
  22493754.618   118205486.464    22493753.099    92108174.122                  
  20414156.278   107277060.761    20414159.584    83592501.477                  
  24548170.287   129001453.331    24548173.539   100520600.960                  
  22593292.134   118728561.878    22593291.955    92515764.380                  
                 127943954.942                   127943954.942    24570286.884  
                 125356784.142                   125356784.142    24073449.279  
                 114819408.216                   114819408.216    22049857.996  
                 134713000.769                   134713000.769    25870224.193  
                 120722059.989                   120722059.989    23183437.882  
  26109447.935   137206022.020                                                  
  27662295.158   145366331.878                                                  
  23368691.940   122803288.613                                                  
  23469898.619   123335117.511                                                  
  25138346.376   132102877.469                                                  
 21  8 31  3  5 24.0000000  0 17G 3G 4G16G22G26G27G31C23C24C25C32C33
                                E 1E 4E19E21E27
  21633078.760   113682558.718    21633081.941    88583802.247                  
  21838767.672   114763489.746    21838769.209    89426095.124                  
  20333732.845   106854485.279    20333732.505    83263235.031                  
  22494196.287   118207807.372    22494194.768    92109982.622                  
  20414395.079   107278315.696    20414398.385    83593479.348                  
  24547513.386   128998001.343    24547516.638   100517911.101                  
  22593740.128   118730916.089    22593739.932    92517598.828                  
                 127941862.442                   127941862.442    24569885.045  
                 125359055.597                   125359055.597    24073885.480  
                 114819345.777                   114819345.777    22049846.024  
                 134710152.572                   134710152.572    25869677.222  
                 120724563.246                   120724563.246    23183918.612  
  26109001.174   137203674.297                                                  
  27661790.662   145363680.801                                                  
  23368526.651   122802420.064                                                  
  23469844.476   123334832.989                                                  
  25138751.931   132105008.797                                                  
 21  8 31  3  5 25.0000000  0 17G 3G 4G16G22G26G27G31C23C24C25C32C33
                                E 1E 4E19E21E27
  21633345.366   113683959.673    21633348.547    88584893.898                  
  21838289.979   114760979.499    21838291.516    89424139.085                  
  20333437.219   106852931.823    20333436.898    83262024.548                  
  22494638.009   118210128.635    22494636.472    92111791.398                  
  20414634.006   107279571.176    20414637.294    83594457.645                  
  24546856.485   128994549.269    24546859.737   100515221.172                  
  22594188.123   118733270.359    22594187.962    92519433.324                  
                 127939770.150                   127939770.150    24569483.242  
                 125361327.125                   125361327.125    24074321.698  
                 114819283.618                   114819283.618    22049834.087  
                 134707304.604                   134707304.604    25869130.305  
                 120727066.866                   120727066.866    23184399.396  
  26108554.466   137201326.817                                                  
  27661286.183   145361029.738                                                  
  23368361.434   122801551.819                                                  
  23469790.404   123334548.820                                                  
  25139157.558   132107140.304                                                  
 21  8 31  3  5 26.0000000  0 17G 3G 4G16G22G26G27G31C23C24C25C32C33
                                E 1E 4E19E21E27
  21633612.061   113685361.210    21633615.242    88585986.007                  
  21837812.340   114758469.492    21837813.877    89422183.238                  
  20333141.737   106851379.024    20333141.398    83260814.575                  
  22495079.803   118212450.274    22495078.284    92113600.465                  
  20414873.022   107280827.208    20414876.328    83595436.366                  
  24546199.566   128991097.137    24546202.818   100512531.199                  
  22594636.135   118735624.711    22594635.956    92521267.884                  
                 127937678.066                   127937678.066    24569081.475  
                 125363598.720                   125363598.720    24074757.935  
                 114819221.734                   114819221.734    22049822.204  
                 134704456.872                   134704456.872    25868583.423  
                 120729570.859                   120729570.859    23184880.287  
  26108107.795   137198979.581                                                  
  27660781.723   145358378.719                                                  
  23368196.289   122800683.897                                                  
  23469736.404   123334265.039                                                  
  25139563.203   132109271.993                                                  
 21  8 31  3  5 27.0000000  0 17G 3G 4G16G22G26G27G31C23C24C25C32C33
                                E 1E 4E19E21E27
  21633878.881   113686763.339    21633882.062    88587078.573                  
  21837334.755   114755959.699    21837336.274    89420227.555                  
  20332846.380   106849826.883    20332846.041    83259605.114                  
  22495521.668   118214772.262    22495520.149    92115409.804                  
  20415112.145   107282083.798    20415115.433    83596415.532                  
  24545542.611   128987644.923    24545545.881   100509841.164                  
  22595084.183   118737979.122    22595084.004    92523102.489                  
                 127935586.192                   127935586.192    24568679.744  
                 125365870.382                   125365870.382    24075194.189  
                 114819160.130                   114819160.130    22049810.357  
                 134701609.370                   134701609.370    25868036.595  
                 120732075.215                   120732075.215    23185361.196  
  26107661.176   137196632.574                                                  
  27660277.245   145355727.715                                                  
  23368031.179   122799816.313                                                  
  23469682.475   123333981.633                                                  
  25139968.883   132111403.852                                                  
 21  8 31  3  5 28.0000000  0 17G 3G 4G16G22G26G27G31C23C24C25C32C33
                                E 1E 4E19E21E27
  21634145.809   113688166.058    21634149.007    88588171.601                  
  21836857.205   114753450.136    21836858.724    89418272.051                  
  20332551.148   106848275.402    20332550.809    83258396.168                  
  22495963.587   118217094.605    22495962.068    92117219.427                  
  20415351.358   107283340.945    20415354.664    83597395.124                  
  24544885.675   128984192.629    24544888.945   100507151.067                  
  22595532.213   118740333.597    22595532.034    92524937.141                  
                 127933494.524                   127933494.524    24568278.066  
                 125368142.116                   125368142.116    24075630.461  
                 114819098.797                   114819098.797    22049798.582  
                 134698762.106                   134698762.106    25867489.803  
                 120734579.937                   120734579.937    23185842.212  
  26107214.594   137194285.819                                                  
  27659772.784   145353076.731                                                  
  23367866.158   122798949.034                                                  
  23469628.618   123333698.596                                                  
  25140374.600   132113535.890                                                  
 21  8 31  3  5 29.0000000  0 17G 3G 4G16G22G26G27G31C23C24C25C32C33
                                E 1E 4E19E21E27
  21634412.844   113689569.367    21634416.042    88589265.091                  
  21836379.673   114750940.804    21836381.228    89416316.730                  
  20332256.023   106846724.581    20332255.702    83257187.738                  
  22496405.577   118219417.306    22496404.058    92119029.321                  
  20415590.696   107284598.655    20415594.002    83598375.161                  
  24544228.720   128980740.274    24544231.954   100504460.918                  
  22595980.278   118742688.140    22595980.100    92526771.852                  
                 127931403.063                   127931403.063    24567876.424  
                 125370413.917                   125370413.917    24076066.715  
                 114819037.745                   114819037.745    22049786.859  
                 134695915.069                   134695915.069    25866943.065  
                 120737085.026                   120737085.026    23186323.300  
  26106768.082   137191939.296                                                  
  27659268.324   145350425.777                                                  
  23367701.174   122798082.074                                                  
  23469574.814   123333415.930                                                  
  25140780.334   132115668.104                                                  
 21  8 31  3  5 30.0000000  0 17G 3G 4G16G22G26G27G31C23C24C25C32C33
                                E 1E 4E19E21E27
  21634680.003   113690973.278    21634683.184    88590359.047                  
  21835902.213   114748431.695    21835903.768    89414361.578                  
  20331961.042   106845174.409    20331960.702    83255979.812                  
  22496847.639   118221740.362    22496846.120    92120839.493                  
  20415830.141   107285856.911    20415833.446    83599355.618                  
  24543571.747   128977287.825    24543574.982   100501770.703                  
  22596428.344   118745042.747    22596428.166    92528606.608                  
                 127929311.814                   127929311.814    24567474.818  
                 125372685.785                   125372685.785    24076503.023  
                 114818976.973                   114818976.973    22049775.209  
                 134693068.271                   134693068.271    25866396.362  
                 120739590.484                   120739590.484    23186804.441  
  26106321.607   137189593.011                                                  
  27658763.864   145347774.855                                                  
  23367536.261   122797215.438                                                  
  23469521.100   123333133.647                                                  
  25141186.121   132117800.492                                                  
 21  8 31  3  5 31.0000000  0 17G 3G 4G16G22G26G27G31C23C24C25C32C33
                                E 1E 4E19E21E27
  21634947.252   113692377.761    21634950.469    88591453.449                  
  21835424.806   114745922.821    21835426.325    89412406.613                  
  20331666.185   106843624.903    20331665.845    83254772.407                  
  22497289.772   118224063.765    22497288.253    92122649.938                  
  20416069.675   107287115.725    20416072.981    83600336.512                  
  24542914.739   128973835.318    24542917.991   100499080.437                  
  22596876.428   118747397.413    22596876.231    92530441.413                  
                 127927220.766                   127927220.766    24567073.265  
                 125374957.723                   125374957.723    24076939.313  
                 114818916.474                   114818916.474    22049763.576  
                 134690221.702                   134690221.702    25865849.695  
                 120742096.306                   120742096.306    23187285.654  
  26105875.167   137187246.961                                                  
  27658259.403   145345123.939                                                  
  23367371.401   122796349.095                                                  
  23469467.457   123332851.738                                                  
  25141591.945   132119933.058                                                  
 21  8 31  3  5 32.0000000  0 17G 3G 4G16G22G26G27G31C23C24C25C32C33
                                E 1E 4E19E21E27
  21635214.644   113693782.845    21635217.843    88592548.316                  
  21834947.418   114743414.167    21834948.937    89410451.815                  
  20331371.435   106842076.051    20331371.096    83253565.507                  
  22497731.977   118226387.534    22497730.458    92124460.668                  
  20416309.316   107288375.102    20416312.640    83601317.845                  
  24542257.749   128970382.731    24542261.001   100496390.105                  
  22597324.511   118749752.164    22597324.333    92532276.286                  
                 127925129.929                   127925129.929    24566671.748  
                 125377229.728                   125377229.728    24077375.639  
                 114818856.251                   114818856.251    22049751.997  
                 134687375.369                   134687375.369    25865303.099  
                 120744602.491                   120744602.491    23187766.938  
  26105428.763   137184901.160                                                  
  27657754.961   145342473.052                                                  
  23367206.595   122795483.086                                                  
  23469413.886   123332570.207                                                  
  25141997.804   132122065.804                                                  
 21  8 31  3  5 33.0000000  0 17G 3G 4G16G22G26G27G31C23C24C25C32C33
                                E 1E 4E19E21E27
  21635482.144   113695188.510    21635485.324    88593643.642                  
  21834470.082   114740905.747    21834471.601    89408497.203                  
  20331076.829   106840527.857    20331076.507    83252359.122                  
  22498174.235   118228711.661    22498172.716    92126271.671                  
  20416549.083   107289635.031    20416552.389    83602299.610                  
  24541600.723   128966930.059    24541603.957   100493699.716                  
  22597772.613   118752106.974    22597772.434    92534111.198                  
                 127923039.300                   127923039.300    24566270.231  
                 125379501.800                   125379501.800    24077811.965  
                 114818796.310                   114818796.310    22049740.507  
                 134684529.265                   134684529.265    25864756.540  
                 120747109.046                   120747109.046    23188248.294  
  26104982.413   137182555.585                                                  
  27657250.518   145339822.194                                                  
  23367041.860   122794617.403                                                  
  23469360.386   123332289.034                                                  
  25142403.681   132124198.722                                                  
 21  8 31  3  5 34.0000000  0 17G 3G 4G16G22G26G27G31C23C24C25C32C33
                                E 1E 4E19E21E27
  21635749.732   113696594.768    21635752.913    88594739.425                  
  21833992.783   114738397.548    21833994.320    89406542.762                  
  20330782.347   106838980.325    20330782.026    83251153.253                  
  22498616.583   118231036.143    22498615.064    92128082.956                  
  20416788.939   107290895.512    20416792.245    83603281.800                  
  24540943.679   128963477.331    24540946.949   100491009.276                  
  22598220.732   118754461.848    22598220.554    92535946.163                  
                 127920948.882                   127920948.882    24565868.804  
                 125381773.941                   125381773.941    24078248.309  
                 114818736.640                   114818736.640    22049729.035  
                 134681683.400                   134681683.400    25864210.016  
                 120749615.969                   120749615.969    23188729.721  
  26104536.116   137180210.259                                                  
  27656746.076   145337171.355                                                  
  23366877.197   122793752.035                                                  
  23469306.958   123332008.251                                                  
  25142809.576   132126331.817                                                  
 21  8 31  3  5 35.0000000  0 17G 3G 4G16G22G26G27G31C23C24C25C32C33
                                E 1E 4E19E21E27
  21636017.464   113698001.625    21636020.645    88595835.677                  
  21833515.537   114735889.578    21833517.056    89404588.499                  
  20330487.973   106837433.443    20330487.633    83249947.890                  
  22499058.984   118233360.977    22499057.465    92129894.515                  
  20417028.920   107292156.544    20417032.226    83604264.423                  
  24540286.635   128960024.521    24540289.887   100488318.777                  
  22598668.852   118756816.793    22598668.709    92537781.187                  
                 127918858.669                   127918858.669    24565467.394  
                 125384046.152                   125384046.152    24078684.652  
                 114818677.245                   114818677.245    22049717.635  
                 134678837.764                   134678837.764    25863663.545  
                 120752123.253                   120752123.253    23189211.220  
  26104089.855   137177865.168                                                  
  27656241.633   145334520.538                                                  
  23366712.588   122792886.989                                                  
  23469253.583   123331727.832                                                  
  25143215.542   132128465.087                                                  
 21  8 31  3  5 36.0000000  0 17G 3G 4G16G22G26G27G31C23C24C25C32C33
                                E 1E 4E19E21E27
  21636285.285   113699409.072    21636288.466    88596932.386                  
  21833038.327   114733381.833    21833039.864    89402634.415                  
  20330193.742   106835887.214    20330193.420    83248743.039                  
  22499501.439   118235686.167    22499499.920    92131706.351                  
  20417268.972   107293418.140    20417272.278    83605247.484                  
  24539629.555   128956571.632    24539632.825   100485628.214                  
  22599117.025   118759171.814    22599116.846    92539616.269                  
                 127916768.664                   127916768.664    24565066.038  
                 125386318.431                   125386318.431    24079121.014  
                 114818618.133                   114818618.133    22049706.288  
                 134675992.367                   134675992.367    25863117.093  
                 120754630.907                   120754630.907    23189692.808  
  26103643.648   137175520.312                                                  
  27655737.226   145331869.754                                                  
  23366548.014   122792022.245                                                  
  23469200.298   123331447.792                                                  
  25143621.526   132130598.540                                                  
 21  8 31  3  5 37.0000000  0 17G 3G 4G16G22G26G27G31C23C24C25C32C33
                                E 1E 4E19E21E27
  21636553.213   113700817.105    21636556.394    88598029.555                  
  21832561.153   114730874.318    21832562.707    89400680.507                  
  20329899.635   106834341.652    20329899.296    83247538.703                  
  22499943.983   118238011.714    22499942.464    92133518.464                  
  20417509.168   107294680.296    20417512.456    83606230.985                  
  24538972.475   128953118.661    24538975.745   100482937.590                  
  22599565.162   118761526.888    22599565.001    92541451.391                  
                 127914678.866                   127914678.866    24564664.717  
                 125388590.778                   125388590.778    24079557.393  
                 114818559.297                   114818559.297    22049694.977  
                 134673147.200                   134673147.200    25862570.711  
                 120757138.921                   120757138.921    23190174.432  
  26103197.476   137173175.703                                                  
  27655232.802   145329218.999                                                  
  23366383.548   122791157.838                                                  
  23469147.084   123331168.133                                                  
  25144027.546   132132732.163                                                  
 21  8 31  3  5 38.0000000  0 17G 3G 4G16G22G26G27G31C23C24C25C32C33
                                E 1E 4E19E21E27
  21636821.284   113702225.734    21636824.465    88599127.188                  
  21832084.032   114728367.034    21832085.586    89398726.782                  
  20329605.636   106832796.738    20329605.315    83246334.878                  
  22500386.599   118240337.617    22500385.062    92135330.855                  
  20417749.452   107295942.995    20417752.758    83607214.906                  
  24538315.396   128949665.622    24538318.666   100480246.910                  
  22600013.335   118763882.035    22600013.156    92543286.571                  
                 127912589.278                   127912589.278    24564263.415  
                 125390863.190                   125390863.190    24079993.808  
                 114818500.735                   114818500.735    22049683.737  
                 134670302.268                   134670302.268    25862024.384  
                 120759647.304                   120759647.304    23190656.145  
  26102751.358   137170831.331                                                  
  27654728.377   145326568.262                                                  
  23366219.099   122790293.743                                                  
  23469093.941   123330888.844                                                  
  25144433.584   132134865.967                                                  
 21  8 31  3  5 39.0000000  0 17G 3G 4G16G22G26G27G31C23C24C25C32C33
                                E 1E 4E19E21E27
  21637089.444   113703634.944    21637092.625    88600225.276                  
  21831606.965   114725859.973    21831608.501    89396773.225                  
  20329311.780   106831252.496    20329311.459    83245131.571                  
  22500829.268   118242663.874    22500827.731    92137143.524                  
  20417989.844   107297206.257    20417993.132    83608199.266                  
  24537658.298   128946212.515    24537661.532   100477556.180                  
  22600461.526   118766237.241    22600461.347    92545121.796                  
                 127910499.898                   127910499.898    24563862.184  
                 125393135.675                   125393135.675    24080430.206  
                 114818442.449                   114818442.449    22049672.533  
                 134667457.569                   134667457.569    25861478.074  
                 120762156.054                   120762156.054    23191137.912  
  26102305.276   137168487.190                                                  
  27654223.952   145323917.546                                                  
  23366054.740   122789429.956                                                  
  23469040.852   123330609.931                                                  
  25144839.657   132136999.945                                                  
 21  8 31  3  5 40.0000000  0 17G 3G 4G16G22G26G27G31C23C24C25C32C33
                                E 1E 4E19E21E27
  21637357.712   113705044.747    21637360.893    88601323.819                  
  21831129.915   114723353.142    21831131.452    89394819.852                  
  20329018.031   106829708.906    20329017.728    83243928.773                  
  22501272.009   118244990.484    22501270.472    92138956.464                  
  20418230.344   107298470.077    20418233.632    83609184.059                  
  24537001.183   128942759.333    24537004.417   100474865.386                  
  22600909.716   118768592.523    22600909.538    92546957.081                  
                 127908410.722                   127908410.722    24563460.989  
                 125395408.223                   125395408.223    24080866.621  
                 114818384.442                   114818384.442    22049661.401  
                 134664613.106                   134664613.106    25860931.836  
                 120764665.167                   120764665.167    23191619.786  
  26101859.265   137166143.297                                                  
  27653719.546   145321266.855                                                  
  23365890.416   122788566.509                                                  
  23468987.853   123330331.387                                                  
  25145245.785   132139134.102                                                  
 21  8 31  3  5 41.0000000  0 17G 3G 4G16G22G26G27G31C23C24C25C32C33
                                E 1E 4E19E21E27
  21637626.105   113706455.137    21637629.303    88602422.824                  
  21830652.938   114720846.539    21830654.456    89392866.655                  
  20328724.443   106828165.979    20328724.104    83242726.497                  
  22501714.803   118247317.449    22501713.284    92140769.683                  
  20418470.932   107299734.449    20418474.238    83610169.286                  
  24536344.031   128939306.074    24536347.302   100472174.535                  
  22601357.925   118770947.867    22601357.747    92548792.414                  
                 127906321.759                   127906321.759    24563059.811  
                 125397680.845                   125397680.845    24081303.054  
                 114818326.711                   114818326.711    22049650.322  
                 134661768.875                   134661768.875    25860385.634  
                 120767174.650                   120767174.650    23192101.695  
  26101413.272   137163799.641                                                  
  27653215.139   145318616.192                                                  
  23365726.164   122787703.356                                                  
  23468934.925   123330053.210                                                  
  25145651.947   132141268.426                                                  
 21  8 31  3  5 42.0000000  0 17G 3G 4G16G22G26G27G31C23C24C25C32C33
                                E 1E 4E19E21E27
  21637894.605   113707866.117    21637897.803    88603522.289                  
  21830175.978   114718340.159    21830177.514    89390913.632                  
  20328430.962   106826623.703    20328430.623    83241524.719                  
  22502157.687   118249644.763    22502156.168    92142583.175                  
  20418711.646   107300999.375    20418714.934    83611154.940                  
  24535686.898   128935852.753    24535690.132   100469483.636                  
  22601806.134   118773303.281    22601805.955    92550627.797                  
                 127904233.005                   127904233.005    24562658.687  
                 125399953.527                   125399953.527    24081739.505  
                 114818269.253                   114818269.253    22049639.279  
                 134658924.882                   134658924.882    25859839.485  
                 120769684.496                   120769684.496    23192583.677  
  26100967.333   137161456.220                                                  
  27652710.732   145315965.545                                                  
  23365561.984   122786840.531                                                  
  23468882.068   123329775.421                                                  
  25146058.128   132143402.929                                                  
 21  8 31  3  5 43.0000000  0 17G 3G 4G16G22G26G27G31C23C24C25C32C33
                                E 1E 4E19E21E27
  21638163.212   113709277.692    21638166.393    88604622.218                  
  21829699.071   114715834.017    21829700.626    89388960.794                  
  20328137.607   106825082.094    20328137.267    83240323.469                  
  22502600.624   118251972.447    22502599.105    92144396.950                  
  20418952.467   107302264.847    20418955.754    83612141.023                  
  24535029.747   128932399.351    24535032.981   100466792.675                  
  22602254.378   118775658.754    22602254.200    92552463.230                  
                 127902144.454                   127902144.454    24562257.599  
                 125402226.282                   125402226.282    24082175.956  
                 114818212.075                   114818212.075    22049628.308  
                 134656081.122                   134656081.122    25859293.354  
                 120772194.708                   120772194.708    23193065.747  
  26100521.447   137159113.039                                                  
  27652206.343   145313314.937                                                  
  23365397.857   122785978.026                                                  
  23468829.265   123329498.004                                                  
  25146464.345   132145537.614                                                  
 21  8 31  3  5 44.0000000  0 17G 3G 4G16G22G26G27G31C23C24C25C32C33
                                E 1E 4E19E21E27
  21638431.944   113710689.854    21638435.143    88605722.602                  
  21829222.218   114713328.097    21829223.755    89387008.130                  
  20327844.358   106823541.142    20327844.019    83239122.723                  
  22503043.633   118254300.474    22503042.114    92146210.999                  
  20419193.377   107303530.886    20419196.682    83613127.546                  
  24534372.560   128928945.863    24534375.794   100464101.648                  
  22602702.623   118778014.298    22602702.444    92554298.719                  
                 127900056.110                   127900056.110    24561856.565  
                 125404499.107                   125404499.107    24082612.442  
                 114818155.172                   114818155.172    22049617.372  
                 134653237.595                   134653237.595    25858747.277  
                 120774705.281                   120774705.281    23193547.871  
  26100075.597   137156770.102                                                  
  27651701.954   145310664.344                                                  
  23365233.783   122785115.847                                                  
  23468776.534   123329220.954                                                  
  25146870.579   132147672.470                                                  
 21  8 31  3  5 45.0000000  0 17G 3G 4G16G22G26G27G31C23C24C25C32C33
                                E 1E 4E19E21E27
  21638700.784   113712102.601    21638703.982    88606823.445                  
  21828745.401   114710822.407    21828746.938    89385055.644                  
  20327551.253   106822000.841    20327550.913    83237922.493                  
  22503486.713   118256628.856    22503485.194    92148025.325                  
  20419434.394   107304797.476    20419437.700    83614114.499                  
  24533715.355   128925492.308    24533718.625   100461410.566                  
  22603150.885   118780369.905    22603150.706    92556134.257                  
                 127897967.975                   127897967.975    24561455.566  
                 125406771.993                   125406771.993    24083048.929  
                 114818098.547                   114818098.547    22049606.507  
                 134650394.300                   134650394.300    25858201.253  
                 120777216.223                   120777216.223    23194030.085  
  26099629.801   137154427.403                                                  
  27651197.565   145308013.777                                                  
  23365069.781   122784253.979                                                  
  23468723.892   123328944.282                                                  
  25147276.867   132149807.501                                                  
 21  8 31  3  5 46.0000000  0 17G 3G 4G16G22G26G27G31C23C24C25C32C33
                                E 1E 4E19E21E27
  21638969.748   113713515.925    21638972.929    88607924.739                  
  21828268.620   114708316.937    21828270.157    89383103.331                  
  20327258.254   106820461.203    20327257.933    83236722.773                  
  22503929.865   118258957.599    22503928.346    92149839.925                  
  20419675.537   107306064.618    20419678.842    83615101.883                  
  24533058.168   128922038.679    24533061.420   100458719.429                  
  22603599.147   118782725.578    22603598.987    92557969.849                  
                 127895880.050                   127895880.050    24561054.603  
                 125409044.948                   125409044.948    24083485.416  
                 114818042.200                   114818042.200    22049595.679  
                 134647551.241                   134647551.241    25857655.283  
                 120779727.532                   120779727.532    23194512.334  
  26099184.040   137152084.933                                                  
  27650693.176   145305363.231                                                  
  23364905.815   122783392.419                                                  
  23468671.321   123328667.983                                                  
  25147683.173   132151942.699                                                  
 21  8 31  3  5 47.0000000  0 17G 3G 4G16G22G26G27G31C23C24C25C32C33
                                E 1E 4E19E21E27
  21639238.802   113714929.859    21639241.983    88609026.500                  
  21827791.893   114705811.707    21827793.447    89381151.202                  
  20326965.399   106818922.226    20326965.077    83235523.570                  
  22504373.088   118261286.688    22504371.534    92151654.800                  
  20419916.768   107307332.317    20419920.056    83616089.700                  
  24532400.946   128918584.980    24532404.198   100456028.237                  
  22604047.445   118785081.312    22604047.267    92559805.483                  
                 127893792.337                   127893792.337    24560653.658  
                 125411317.977                   125411317.977    24083921.920  
                 114817986.126                   114817986.126    22049584.904  
                 134644708.417                   134644708.417    25857109.348  
                 120782239.204                   120782239.204    23194994.672  
  26098738.315   137149742.715                                                  
  27650188.805   145302712.720                                                  
  23364741.938   122782531.194                                                  
  23468618.822   123328392.060                                                  
  25148089.514   132154078.086                                                  
 21  8 31  3  5 48.0000000  0 17G 3G 4G16G22G26G27G31C23C24C25C32C33
                                E 1E 4E19E21E27
  21639507.963   113716344.375    21639511.162    88610128.722                  
  21827315.218   114703306.695    21827316.737    89379199.249                  
  20326672.686   106817383.906    20326672.347    83234324.884                  
  22504816.347   118263616.135    22504814.828    92153469.954                  
  20420158.107   107308600.571    20420161.395    83617077.950                  
  24531743.723   128915131.210    24531746.957   100453336.988                  
  22604495.726   118787437.117    22604495.565    92561641.175                  
                 127891704.824                   127891704.824    24560252.784  
                 125413591.066                   125413591.066    24084358.460  
                 114817930.329                   114817930.329    22049574.200  
                 134641865.832                   134641865.832    25856563.468  
                 120784751.240                   120784751.240    23195477.100  
  26098292.662   137147400.731                                                  
  27649684.434   145300062.223                                                  
  23364578.115   122781670.285                                                  
  23468566.376   123328116.518                                                  
  25148495.928   132156213.651                                                  
 21  8 31  3  5 49.0000000  0 17G 3G 4G16G22G26G27G31C23C24C25C32C33
                                E 1E 4E19E21E27
  21639777.267   113717759.489    21639780.448    88611231.406                  
  21826838.562   114700801.926    21826840.099    89377247.481                  
  20326380.081   106815846.255    20326379.742    83233126.712                  
  22505259.696   118265945.941    22505258.177    92155285.387                  
  20420399.554   107309869.382    20420402.859    83618066.637                  
  24531086.465   128911677.353    24531089.717   100450645.668                  
  22604944.042   118789792.989    22604943.863    92563476.917                  
                 127889617.524                   127889617.524    24559851.946  
                 125415864.225                   125415864.225    24084794.983  
                 114817874.808                   114817874.808    22049563.532  
                 134639023.477                   134639023.477    25856017.605  
                 120787263.641                   120787263.641    23195959.582  
  26097847.044   137145058.989                                                  
  27649180.063   145297411.762                                                  
  23364414.346   122780809.688                                                  
  23468514.020   123327841.340                                                  
  25148902.341   132158349.387                                                  
 21  8 31  3  5 50.0000000  0 17G 3G 4G16G22G26G27G31C23C24C25C32C33
                                E 1E 4E19E21E27
  21640046.661   113719175.026    21640049.859    88612334.371                  
  21826361.960   114698297.324    21826363.479    89375295.839                  
  20326087.583   106814309.197    20326087.244    83231929.000                  
  22505703.098   118268276.069    22505701.561    92157101.089                  
  20420641.125   107311138.581    20420644.449    83619055.559                  
  24530429.153   128908223.234    24530432.423   100447954.156                  
  22605392.322   118792148.937    22605392.143    92565312.769                  
                 127887530.590                   127887530.590    24559451.055  
                 125418137.431                   125418137.431    24085231.523  
                 114817819.523                   114817819.523    22049552.918  
                 134636181.563                   134636181.563    25855471.724  
                 120789776.235                   120789776.235    23196442.135  
  26097401.462   137142717.366                                                  
  27648675.621   145294761.474                                                  
  23364250.648   122779949.378                                                  
  23468461.717   123327566.468                                                  
  25149308.754   132160485.246                                                  
 21  8 31  3  5 51.0000000  0 17G 3G 4G16G22G26G27G31C23C24C25C32C33
                                E 1E 4E19E21E27
  21640316.161   113720591.317    21640319.378    88613437.973                  
  21825885.393   114695793.007    21825886.947    89373344.425                  
  20325795.228   106812772.860    20325794.906    83230731.854                  
  22506146.589   118270606.587    22506145.034    92158917.075                  
  20420882.786   107312408.499    20420886.091    83620045.105                  
  24529771.876   128904769.253    24529775.146   100445262.743                  
  22605840.656   118794504.950    22605840.459    92567148.621                  
                 127885443.712                   127885443.712    24559050.306  
                 125420410.736                   125420410.736    24085668.081  
                 114817764.566                   114817764.566    22049542.358  
                 134633339.679                   134633339.679    25854925.968  
                 120792289.370                   120792289.370    23196924.759  
  26096955.916   137140376.105                                                  
  27648171.268   145292111.050                                                  
  23364087.003   122779089.432                                                  
  23468409.504   123327292.044                                                  
  25149715.256   132162621.336                                                  
 21  8 31  3  5 52.0000000  0 17G 3G 4G16G22G26G27G31C23C24C25C32C33
                                E 1E 4E19E21E27
  21640585.805   113722008.192    21640589.003    88614542.031                  
  21825408.880   114693288.922    21825410.416    89371393.192                  
  20325502.998   106811237.184    20325502.658    83229535.224                  
  22506590.116   118272937.461    22506588.597    92160733.340                  
  20421124.536   107313678.980    20421127.859    83621035.090                  
  24529114.600   128901315.188    24529117.852   100442571.261                  
  22606289.007   118796861.024    22606288.828    92568984.523                  
                 127883357.039                   127883357.039    24558649.575  
                 125422684.101                   125422684.101    24086104.657  
                 114817709.879                   114817709.879    22049531.869  
                 134630498.036                   134630498.036    25854380.248  
                 120794802.871                   120794802.871    23197407.437  
  26096510.441   137138035.102                                                  
  27647666.896   145289460.680                                                  
  23363923.394   122778229.806                                                  
  23468357.344   123327018.005                                                  
  25150121.758   132164757.615                                                  
 21  8 31  3  5 53.0000000  0 17G 3G 4G16G22G26G27G31C23C24C25C32C33
                                E 1E 4E19E21E27
  21640855.520   113723425.660    21640858.718    88615646.551                  
  21824932.420   114690785.075    21824933.939    89369442.140                  
  20325210.875   106809702.166    20325210.554    83228339.105                  
  22507033.732   118275268.686    22507032.213    92162549.880                  
  20421366.393   107314950.016    20421369.717    83622025.508                  
  24528457.306   128897861.054    24528460.540   100439879.731                  
  22606737.359   118799217.169    22606737.180    92570820.480                  
                 127881270.574                   127881270.574    24558248.898  
                 125424957.539                   125424957.539    24086541.233  
                 114817655.469                   114817655.469    22049521.397  
                 134627656.628                   134627656.628    25853834.582  
                 120797316.738                   120797316.738    23197890.205  
  26096065.002   137135694.316                                                  
  27647162.561   145286810.313                                                  
  23363759.875   122777370.497                                                  
  23468305.256   123326744.329                                                  
  25150528.314   132166894.055                                                  
 21  8 31  3  5 54.0000000  0 17G 3G 4G16G22G26G27G31C23C24C25C32C33
                                E 1E 4E19E21E27
  21641125.360   113724843.714    21641128.576    88616751.527                  
  21824455.978   114688281.444    21824457.515    89367491.262                  
  20324918.895   106808167.804    20324918.556    83227143.501                  
  22507477.420   118277600.261    22507475.901    92164366.687                  
  20421608.375   107316221.601    20421611.699    83623016.351                  
  24527799.976   128894406.856    24527803.246   100437188.148                  
  22607185.728   118801573.376    22607185.532    92572656.483                  
                 127879184.317                   127879184.317    24557848.239  
                 125427231.042                   125427231.042    24086977.845  
                 114817601.332                   114817601.332    22049510.997  
                 134624815.453                   134624815.453    25853288.951  
                 120799830.969                   120799830.969    23198373.043  
  26095619.617   137133353.776                                                  
  27646658.208   145284159.969                                                  
  23363596.427   122776511.499                                                  
  23468253.257   123326471.032                                                  
  25150934.906   132169030.676                                                  
 21  8 31  3  5 55.0000000  0 17G 3G 4G16G22G26G27G31C23C24C25C32C33
                                E 1E 4E19E21E27
  21641395.325   113726262.356    21641398.524    88617856.964                  
  21823979.608   114685778.043    21823981.145    89365540.562                  
  20324627.041   106806634.091    20324626.719    83225948.398                  
  22507921.161   118279932.188    22507919.643    92166183.773                  
  20421850.465   107317493.740    20421853.788    83624007.628                  
  24527142.664   128890952.570    24527145.898   100434496.501                  
  22607634.098   118803929.650    22607633.919    92574492.543                  
                 127877098.265                   127877098.265    24557447.634  
                 125429504.614                   125429504.614    24087414.456  
                 114817547.471                   114817547.471    22049500.651  
                 134621974.517                   134621974.517    25852743.374  
                 120802345.564                   120802345.564    23198855.936  
  26095174.267   137131013.471                                                  
  27646153.855   145281509.657                                                  
  23363433.015   122775652.835                                                  
  23468201.312   123326198.105                                                  
  25151341.516   132171167.471                                                  
 21  8 31  3  5 56.0000000  0 17G 3G 4G16G22G26G27G31C23C24C25C32C33
                                E 1E 4E19E21E27
  21641665.397   113727681.590    21641668.596    88618962.858                  
  21823503.256   114683274.876    21823504.792    89363590.042                  
  20324335.293   106805101.012    20324334.971    83224753.793                  
  22508364.974   118282264.470    22508363.456    92168001.137                  
  20422092.644   107318766.431    20422095.967    83624999.335                  
  24526485.298   128887498.223    24526488.568   100431804.801                  
  22608082.503   118806285.988    22608082.324    92576328.651                  
                 127875012.427                   127875012.427    24557047.081  
                 125431778.250                   125431778.250    24087851.086  
                 114817493.890                   114817493.890    22049490.359  
                 134619133.813                   134619133.813    25852197.869  
                 120804860.524                   120804860.524    23199338.900  
  26094728.953   137128673.410                                                  
  27645649.537   145278859.378                                                  
  23363269.674   122774794.477                                                  
  23468149.456   123325925.559                                                  
  25151748.161   132173304.433                                                  
 21  8 31  3  5 57.0000000  0 17G 3G 4G16G22G26G27G31C23C24C25C32C33
                                E 1E 4E19E21E27
  21641935.577   113729101.414    21641938.776    88620069.215                  
  21823026.975   114680771.939    21823028.493    89361639.699                  
  20324043.706   106803568.611    20324043.367    83223559.712                  
  22508808.877   118284597.113    22508807.340    92169818.777                  
  20422334.912   107320039.688    20422338.235    83625991.483                  
  24525827.969   128884043.802    24525831.203   100429113.043                  
  22608530.908   118808642.395    22608530.712    92578164.810                  
                 127872926.793                   127872926.793    24556646.547  
                 125434051.953                   125434051.953    24088287.715  
                 114817440.585                   114817440.585    22049480.120  
                 134616293.344                   134616293.344    25851652.363  
                 120807375.849                   120807375.849    23199821.935  
  26094283.729   137126333.590                                                  
  27645145.202   145276209.122                                                  
  23363106.405   122773936.441                                                  
  23468097.654   123325653.377                                                  
  25152154.860   132175441.583                                                  
 21  8 31  3  5 58.0000000  0 17G 3G 4G16G22G26G27G31C23C24C25C32C33
                                E 1E 4E19E21E27
  21642205.882   113730521.825    21642209.080    88621176.028                  
  21822550.712   114678269.227    21822552.248    89359689.536                  
  20323752.227   106802036.858    20323751.887    83222366.141                  
  22509252.815   118286930.096    22509251.296    92171636.688                  
  20422577.323   107321313.482    20422580.647    83626984.050                  
  24525170.585   128880589.307    24525173.837   100426421.233                  
  22608979.314   118810998.868    22608979.135    92580001.023                  
                 127870841.368                   127870841.368    24556246.067  
                 125436325.726                   125436325.726    24088724.381  
                 114817387.556                   114817387.556    22049469.934  
                 134613453.115                   134613453.115    25851106.911  
                 120809891.536                   120809891.536    23200305.060  
  26093838.504   137123994.004                                                  
  27644640.885   145273558.884                                                  
  23362943.171   122773078.737                                                  
  23468045.941   123325381.574                                                  
  25152561.559   132177578.898                                                  
 21  8 31  3  5 59.0000000  0 17G 3G 4G16G22G26G27G31C23C24C25C32C33
                                E 1E 4E19E21E27
  21642476.276   113731942.811    21642479.474    88622283.293                  
  21822074.520   114675766.747    21822076.039    89357739.552                  
  20323460.855   106800505.766    20323460.515    83221173.081                  
  22509696.842   118289263.441    22509695.323    92173454.878                  
  20422819.823   107322587.842    20422823.147    83627977.063                  
  24524513.202   128877134.737    24524516.436   100423729.360                  
  22609427.755   118813355.398    22609427.576    92581837.282                  
                 127868756.150                   127868756.150    24555845.622  
                 125438599.565                   125438599.565    24089161.046  
                 114817334.800                   114817334.800    22049459.803  
                 134610613.117                   134610613.117    25850561.549  
                 120812407.590                   120812407.590    23200788.238  
  26093393.333   137121654.664                                                  
  27644136.567   145270908.675                                                  
  23362780.027   122772221.341                                                  
  23467994.282   123325110.149                                                  
  25152968.312   132179716.394                                                  
 21  8 31  3  6  0.0000000  0 17G 3G 4G16G22G26G27G31C23C24C25C32C33
                                E 1E 4E19E21E27
  21642746.795   113733364.402    21642749.994    88623391.023                  
  21821598.346   114673264.493    21821599.883    89355789.743                  
  20323169.625   106798975.336    20323169.286    83219980.539                  
  22510140.923   118291597.137    22510139.404    92175273.341                  
  20423062.413   107323862.749    20423065.737    83628970.497                  
  24523855.800   128873680.102    24523859.034   100421037.434                  
  22609876.196   118815712.003    22609876.017    92583673.593                  
                 127866671.138                   127866671.138    24555445.195  
                 125440873.472                   125440873.472    24089597.711  
                 114817282.320                   114817282.320    22049449.725  
                 134607773.356                   134607773.356    25850016.186  
                 120814924.008                   120814924.008    23201271.488  
  26092948.216   137119315.563                                                  
  27643632.232   145268258.483                                                  
  23362616.918   122771364.262                                                  
  23467942.694   123324839.094                                                  
  25153375.100   132181854.057                                                  
 21  8 31  3  6  1.0000000  0 17G 3G 4G16G22G26G27G31C23C24C25C32C33
                                E 1E 4E19E21E27
  21643017.421   113734786.571    21643020.620    88624499.207                  
  21821122.226   114670762.476    21821123.763    89353840.120                  
  20322878.521   106797445.573    20322878.181    83218788.520                  
  22510585.075   118293931.183    22510583.557    92177092.078                  
  20423305.146   107325138.216    20423308.452    83629964.362                  
  24523198.381   128870225.387    24523201.633   100418345.449                  
  22610324.655   118818068.676    22610324.476    92585509.964                  
                 127864586.336                   127864586.336    24555044.840  
                 125443147.445                   125443147.445    24090034.395  
                 114817230.117                   114817230.117    22049439.700  
                 134604933.829                   134604933.829    25849470.877  
                 120817440.789                   120817440.789    23201754.792  
  26092503.134   137116976.687                                                  
  27643127.914   145265608.333                                                  
  23362453.882   122770507.509                                                  
  23467891.177   123324568.415                                                  
  25153781.924   132183991.915                                                  
 21  8 31  3  6  2.0000000  0 17G 3G 4G16G22G26G27G31C23C24C25C32C33
                                E 1E 4E19E21E27
  21643288.155   113736209.332    21643291.353    88625607.852                  
  21820646.142   114668260.689    21820647.678    89351890.675                  
  20322587.542   106795916.461    20322587.202    83217597.005                  
  22511029.299   118296265.595    22511027.780    92178911.103                  
  20423547.968   107326414.234    20423551.274    83630958.665                  
  24522540.962   128866770.608    24522544.196   100415653.418                  
  22610773.131   118820425.414    22610772.953    92587346.383                  
                 127862501.742                   127862501.742    24554644.520  
                 125445421.488                   125445421.488    24090471.114  
                 114817178.190                   114817178.190    22049429.711  
                 134602094.539                   134602094.539    25848925.622  
                 120819957.933                   120819957.933    23202238.202  
  26092058.124   137114638.069                                                  
  27642623.615   145262958.194                                                  
  23362290.898   122769651.075                                                  
  23467839.732   123324298.105                                                  
  25154188.766   132186129.930                                                  
 21  8 31  3  6  3.0000000  0 17G 3G 4G16G22G26G27G31C23C24C25C32C33
                                E 1E 4E19E21E27
  21643559.014   113737632.683    21643562.212    88626716.952                  
  21820170.129   114665759.121    21820171.648    89349941.402                  
  20322296.688   106794388.025    20322296.348    83216406.013                  
  22511473.595   118298600.351    22511472.058    92180730.391                  
  20423790.880   107327690.804    20423794.203    83631953.395                  
  24521883.525   128863315.759    24521886.759   100412961.323                  
  22611221.626   118822782.231    22611221.447    92589182.859                  
                 127860417.356                   127860417.356    24554244.218  
                 125447695.598                   125447695.598    24090907.815  
                 114817126.540                   114817126.540    22049419.794  
                 134599255.484                   134599255.484    25848380.402  
                 120822475.444                   120822475.444    23202721.667  
  26091613.132   137112299.681                                                  
  27642119.315   145260308.082                                                  
  23362128.004   122768794.953                                                  
  23467788.377   123324028.177                                                  
  25154595.661   132188268.122                                                  
 21  8 31  3  6  4.0000000  0 17G 3G 4G16G22G26G27G31C23C24C25C32C33
                                E 1E 4E19E21E27
  21643829.979   113739056.621    21643833.178    88627826.517                  
  21819694.116   114663257.789    21819695.653    89347992.316                  
  20322005.941   106792860.239    20322005.619    83215215.531                  
  22511917.944   118300935.462    22511916.425    92182549.957                  
  20424033.898   107328967.938    20424037.222    83632948.561                  
  24521226.052   128859860.836    24521229.322   100410269.180                  
  22611670.120   118825139.107    22611669.942    92591019.386                  
                 127858333.179                   127858333.179    24553843.988  
                 125449969.769                   125449969.769    24091344.551  
                 114817075.165                   114817075.165    22049409.948  
                 134596416.667                   134596416.667    25847835.236  
                 120824993.316                   120824993.316    23203205.185  
  26091168.193   137109961.539                                                  
  27641615.016   145257658.011                                                  
  23361965.146   122767939.171                                                  
  23467737.075   123323758.622                                                  
  25155002.557   132190406.487                                                  
 21  8 31  3  6  5.0000000  0 17G 3G 4G16G22G26G27G31C23C24C25C32C33
                                E 1E 4E19E21E27
  21644101.053   113740481.144    21644104.251    88628936.536                  
  21819218.174   114660756.688    21819219.693    89346043.402                  
  20321715.337   106791333.105    20321714.997    83214025.554                  
  22512362.364   118303270.919    22512360.845    92184369.790                  
  20424277.042   107330245.602    20424280.366    83633944.144                  
  24520568.597   128856405.840    24520571.867   100407576.975                  
  22612118.615   118827496.050    22612118.436    92592855.965                  
                 127856249.208                   127856249.208    24553443.775  
                 125452244.013                   125452244.013    24091781.306  
                 114817024.064                   114817024.064    22049400.120  
                 134593578.086                   134593578.086    25847290.124  
                 120827511.554                   120827511.554    23203688.774  
  26090723.308   137107623.620                                                  
  27641110.734   145255007.958                                                  
  23361802.341   122767083.679                                                  
  23467685.862   123323489.430                                                  
  25155409.524   132192545.031                                                  
 21  8 31  3  6  6.0000000  0 17G 3G 4G16G22G26G27G31C23C24C25C32C33
                                E 1E 4E19E21E27
  21644372.233   113741906.264    21644375.431    88630047.015                  
  21818742.287   114658255.807    21818743.806    89344094.668                  
  20321424.858   106789806.643    20321424.519    83212836.105                  
  22512806.856   118305606.728    22512805.337    92186189.903                  
  20424520.275   107331523.825    20424523.581    83634940.164                  
  24519911.124   128852950.785    24519914.376   100404884.727                  
  22612567.145   118829853.057    22612566.967    92594692.599                  
                 127854165.446                   127854165.446    24553043.598  
                 125454518.321                   125454518.321    24092218.061  
                 114816973.239                   114816973.239    22049390.364  
                 134590739.737                   134590739.737    25846745.047  
                 120830030.155                   120830030.155    23204172.453  
  26090278.459   137105285.962                                                  
  27640606.435   145252357.919                                                  
  23361639.626   122766228.543                                                  
  23467634.703   123323220.629                                                  
  25155816.509   132194683.751                                                  
 21  8 31  3  6  7.0000000  0 17G 3G 4G16G22G26G27G31C23C24C25C32C33
                                E 1E 4E19E21E27
  21644643.538   113743331.969    21644646.737    88631157.954                  
  21818266.417   114655755.164    21818267.936    89342146.113                  
  20321134.504   106788280.827    20321134.183    83211647.160                  
  22513251.402   118307942.877    22513249.883    92188010.277                  
  20424763.616   107332802.613    20424766.939    83635936.620                  
  24519253.633   128849495.660    24519256.885   100402192.422                  
  22613015.676   118832210.124    22613015.497    92596529.274                  
                 127852081.891                   127852081.891    24552643.475  
                 125456792.698                   125456792.698    24092654.815  
                 114816922.690                   114816922.690    22049380.661  
                 134587901.630                   134587901.630    25846200.006  
                 120832549.122                   120832549.122    23204656.203  
  26089833.663   137102948.515                                                  
  27640102.153   145249707.898                                                  
  23361476.946   122765373.741                                                  
  23467583.616   123322952.182                                                  
  25156223.512   132196822.644                                                  
 21  8 31  3  6  8.0000000  0 17G 3G 4G16G22G26G27G31C23C24C25C32C33
                                E 1E 4E19E21E27
  21644914.969   113744758.258    21644918.167    88632269.348                  
  21817790.600   114653254.765    21817792.137    89340197.750                  
  20320844.276   106786755.683    20320843.936    83210458.738                  
  22513696.037   118310279.406    22513694.518    92189830.948                  
  20425007.063   107334081.957    20425010.387    83636933.511                  
  24518596.125   128846040.429    24518599.377   100399500.034                  
  22613464.224   118834567.260    22613464.045    92598365.999                  
                 127849998.546                   127849998.546    24552243.388  
                 125459067.140                   125459067.140    24093091.606  
                 114816872.418                   114816872.418    22049370.994  
                 134585063.758                   134585063.758    25845655.019  
                 120835068.448                   120835068.448    23205140.007  
  26089388.903   137100611.344                                                  
  27639597.871   145247057.939                                                  
  23361314.320   122764519.165                                                  
  23467532.600   123322684.112                                                  
  25156630.568   132198961.704                                                  
 21  8 31  3  6  9.0000000  0 17G 3G 4G16G22G26G27G31C23C24C25C32C33
                                E 1E 4E19E21E27
  21645186.488   113746185.133    21645189.687    88633381.199                  
  21817314.820   114650754.574    21817316.356    89338249.551                  
  20320554.172   106785231.199    20320553.833    83209270.828                  
  22514140.725   118312616.277    22514139.206    92191651.887                  
  20425250.618   107335361.843    20425253.942    83637930.827                  
  24517938.598   128842585.149    24517941.833   100396807.605                  
  22613912.772   118836924.468    22613912.594    92600202.786                  
                 127847915.406                   127847915.406    24551843.336  
                 125461341.651                   125461341.651    24093528.396  
                 114816822.421                   114816822.421    22049361.398  
                 134582226.122                   134582226.122    25845110.085  
                 120837588.145                   120837588.145    23205623.882  
  26088944.197   137098274.400                                                  
  27639093.607   145244407.976                                                  
  23361151.784   122763664.968                                                  
  23467481.655   123322416.423                                                  
  25157037.642   132201100.946                                                  
 21  8 31  3  6 10.0000000  0 17G 3G 4G16G22G26G27G31C23C24C25C32C33
                                E 1E 4E19E21E27
  21645458.115   113747612.602    21645461.314    88634493.512                  
  21816839.093   114648254.626    21816840.647    89336301.540                  
  20320264.194   106783707.372    20320263.854    83208083.431                  
  22514585.485   118314953.504    22514583.966    92193473.103                  
  20425494.280   107336642.286    20425497.604    83638928.573                  
  24517281.054   128839129.800    24517284.324   100394115.129                  
  22614361.356   118839281.739    22614361.177    92602039.617                  
                 127845832.476                   127845832.476    24551443.338  
                 125463616.226                   125463616.226    24093965.204  
                 114816772.699                   114816772.699    22049351.838  
                 134579388.718                   134579388.718    25844565.187  
                 120840108.200                   120840108.200    23206107.847  
  26088499.544   137095937.695                                                  
  27638589.343   145241758.055                                                  
  23360989.283   122762811.102                                                  
  23467430.782   123322149.109                                                  
  25157444.752   132203240.367                                                  
 21  8 31  3  6 11.0000000  0 17G 3G 4G16G22G26G27G31C23C24C25C32C33
                                E 1E 4E19E21E27
  21645729.868   113749040.657    21645733.084    88635606.278                  
  21816363.419   114645754.899    21816364.938    89334353.703                  
  20319974.340   106782184.196    20319974.018    83206896.539                  
  22515030.299   118317291.074    22515028.780    92195294.586                  
  20425738.031   107337923.279    20425741.355    83639926.749                  
  24516623.528   128835674.376    24516626.762   100391422.590                  
  22614809.940   118841639.070    22614809.761    92603876.500                  
                 127843749.753                   127843749.753    24551043.358  
                 125465890.872                   125465890.872    24094402.013  
                 114816723.255                   114816723.255    22049342.332  
                 134576551.553                   134576551.553    25844020.343  
                 120842628.616                   120842628.616    23206591.847  
  26088054.927   137093601.223                                                  
  27638085.080   145239108.148                                                  
  23360826.853   122761957.535                                                  
  23467379.980   123321882.156                                                  
  25157851.916   132205379.962                                                  
 21  8 31  3  6 12.0000000  0 17G 3G 4G16G22G26G27G31C23C24C25C32C33
                                E 1E 4E19E21E27
  21646001.727   113750469.305    21646004.943    88636719.512                  
  21815887.782   114643255.409    21815889.301    89332406.046                  
  20319684.612   106780661.687    20319684.272    83205710.168                  
  22515475.202   118319629.004    22515473.683    92197116.348                  
  20425981.908   107339204.837    20425985.214    83640925.366                  
  24515965.965   128832218.884    24515969.200   100388730.001                  
  22615258.542   118843996.477    22615258.363    92605713.438                  
                 127841667.242                   127841667.242    24550643.431  
                 125468165.583                   125468165.583    24094838.857  
                 114816674.082                   114816674.082    22049332.897  
                 134573714.630                   134573714.630    25843475.516  
                 120845149.401                   120845149.401    23207075.937  
  26087610.345   137091265.003                                                  
  27637580.816   145236458.277                                                  
  23360664.495   122761104.298                                                  
  23467329.268   123321615.585                                                  
  25158259.097   132207519.726                                                  
 21  8 31  3  6 13.0000000  0 17G 3G 4G16G22G26G27G31C23C24C25C32C33
                                E 1E 4E19E21E27
  21646273.693   113751898.519    21646276.892    88637833.183                  
  21815412.180   114640756.145    21815413.717    89330458.570                  
  20319395.026   106779139.835    20319394.687    83204524.311                  
  22515920.158   118321967.278    22515918.639    92198938.379                  
  20426225.874   107340486.942    20426229.197    83641924.411                  
  24515308.385   128828763.327    24515311.638   100386037.360                  
  22615707.162   118846353.942    22615706.965    92607550.422                  
                 127839584.934                   127839584.934    24550243.558  
                 125470440.359                   125470440.359    24095275.701  
                 114816625.187                   114816625.187    22049323.498  
                 134570877.938                   134570877.938    25842930.761  
                 120847670.547                   120847670.547    23207560.098  
  26087165.818   137088929.012                                                  
  27637076.588   145233808.429                                                  
  23360502.173   122760251.386                                                  
  23467278.591   123321349.396                                                  
  25158666.296   132209659.667                                                  
 21  8 31  3  6 14.0000000  0 17G 3G 4G16G22G26G27G31C23C24C25C32C33
                                E 1E 4E19E21E27
  21646545.785   113753328.332    21646548.984    88638947.323                  
  21814936.631   114638257.122    21814938.168    89328511.277                  
  20319105.548   106777618.641    20319105.209    83203338.965                  
  22516365.186   118324305.914    22516363.667    92200760.692                  
  20426469.965   107341769.589    20426473.288    83642923.874                  
  24514650.805   128825307.694    24514654.040   100383344.661                  
  22616155.781   118848711.469    22616155.585    92609387.458                  
                 127837502.836                   127837502.836    24549843.703  
                 125472715.202                   125472715.202    24095712.563  
                 114816576.566                   114816576.566    22049314.152  
                 134568041.486                   134568041.486    25842386.060  
                 120850192.059                   120850192.059    23208044.313  
  26086721.344   137086593.264                                                  
  27636572.324   145231158.598                                                  
  23360339.940   122759398.782                                                  
  23467228.022   123321083.567                                                  
  25159073.567   132211799.781                                                  
 21  8 31  3  6 15.0000000  0 17G 3G 4G16G22G26G27G31C23C24C25C32C33
                                E 1E 4E19E21E27
  21646817.984   113754758.726    21646821.182    88640061.918                  
  21814461.119   114635758.324    21814462.656    89326564.160                  
  20318816.195   106776098.089    20318815.856    83202154.122                  
  22516810.286   118326644.907    22516808.767    92202583.282                  
  20426714.145   107343052.806    20426717.468    83643923.781                  
  24513993.207   128821851.997    24513996.442   100380651.905                  
  22616604.401   118851069.064    22616604.222    92611224.543                  
                 127835420.944                   127835420.944    24549443.902  
                 125474990.112                   125474990.112    24096149.442  
                 114816528.222                   114816528.222    22049304.878  
                 134565205.266                   134565205.266    25841841.376  
                 120852713.934                   120852713.934    23208528.617  
  26086276.905   137084257.763                                                  
  27636068.078   145228508.809                                                  
  23360177.761   122758546.509                                                  
  23467177.506   123320818.117                                                  
  25159480.838   132213940.068                                                  
 21  8 31  3  6 16.0000000  0 17G 3G 4G16G22G26G27G31C23C24C25C32C33
                                E 1E 4E19E21E27
  21647090.272   113756189.663    21647093.488    88641176.906                  
  21813985.660   114633259.800    21813987.179    89324617.285                  
  20318526.967   106774578.212    20318526.628    83200969.802                  
  22517255.439   118328984.243    22517253.920    92204406.137                  
  20426958.432   107344336.563    20426961.756    83644924.109                  
  24513335.574   128818396.226    24513338.844   100377959.101                  
  22617053.056   118853426.734    22617052.860    92613061.696                  
                 127833339.262                   127833339.262    24549044.118  
                 125477265.091                   125477265.091    24096586.322  
                 114816480.156                   114816480.156    22049295.640  
                 134562369.284                   134562369.284    25841296.764  
                 120855236.167                   120855236.167    23209012.974  
  26085832.521   137081922.488                                                  
  27635563.832   145225859.028                                                  
  23360015.618   122757694.548                                                  
  23467127.062   123320553.042                                                  
  25159888.162   132216080.519                                                  
 21  8 31  3  6 17.0000000  0 17G 3G 4G16G22G26G27G31C23C24C25C32C33
                                E 1E 4E19E21E27
  21647362.703   113757621.242    21647365.902    88642292.418                  
  21813510.237   114630761.463    21813511.756    89322670.527                  
  20318237.864   106773058.995    20318237.525    83199785.997                  
  22517700.663   118331323.949    22517699.144    92206229.285                  
  20427202.827   107345620.868    20427206.133    83645924.871                  
  24512677.958   128814940.391    24512681.192   100375266.243                  
  22617501.694   118855784.461    22617501.515    92614898.883                  
                 127831257.786                   127831257.786    24548644.406  
                 125479540.132                   125479540.132    24097023.220  
                 114816432.364                   114816432.364    22049286.455  
                 134559533.544                   134559533.544    25840752.188  
                 120857758.767                   120857758.767    23209497.422  
  26085388.172   137079587.553                                                  
  27635059.604   145223209.221                                                  
  23359853.563   122756842.903                                                  
  23467076.671   123320288.320                                                  
  25160295.505   132218221.155                                                  
 21  8 31  3  6 18.0000000  0 17G 3G 4G16G22G26G27G31C23C24C25C32C33
                                E 1E 4E19E21E27
  21647635.224   113759053.411    21647638.440    88643408.394                  
  21813034.867   114628263.365    21813036.404    89320723.954                  
  20317948.886   106771540.441    20317948.565    83198602.708                  
  22518145.959   118333663.993    22518144.441    92208052.691                  
  20427447.329   107346905.746    20427450.634    83646926.074                  
  24512020.324   128811484.488    24512023.559   100372573.336                  
  22617950.385   118858142.255    22617950.206    92616736.120                  
                 127829176.519                   127829176.519    24548244.711  
                 125481815.242                   125481815.242    24097460.117  
                 114816384.843                   114816384.843    22049277.342  
                 134556698.039                   134556698.039    25840207.665  
                 120860281.730                   120860281.730    23209981.940  
  26084943.876   137077252.762                                                  
  27634555.376   145220559.514                                                  
  23359691.563   122755991.591                                                  
  23467026.388   123320023.976                                                  
  25160702.883   132220361.941                                                  
 21  8 31  3  6 19.0000000  0 17G 3G 4G16G22G26G27G31C23C24C25C32C33
                                E 1E 4E19E21E27
  21647907.851   113760486.165    21647911.086    88644524.823                  
  21812559.533   114625765.492    21812561.052    89318777.567                  
  20317660.034   106770022.551    20317659.694    83197419.936                  
  22518591.327   118336004.383    22518589.808    92209876.376                  
  20427691.938   107348191.172    20427695.261    83647927.703                  
  24511362.655   128808028.512    24511365.907   100369880.367                  
  22618399.058   118860500.108    22618398.880    92618573.415                  
                 127827095.462                   127827095.462    24547845.053  
                 125484090.419                   125484090.419    24097897.033  
                 114816337.603                   114816337.603    22049268.265  
                 134553862.770                   134553862.770    25839663.160  
                 120862805.056                   120862805.056    23210466.494  
  26084499.617   137074918.212                                                  
  27634051.166   145217909.828                                                  
  23359529.616   122755140.600                                                  
  23466976.140   123319760.019                                                  
  25161110.296   132222502.923                                                  
 21  8 31  3  6 20.0000000  0 17G 3G 4G16G22G26G27G31C23C24C25C32C33
                                E 1E 4E19E21E27
  21648180.622   113761919.493    21648183.820    88645641.707                  
  21812084.235   114623267.845    21812085.772    89316831.348                  
  20317371.324   106768505.309    20317370.984    83196237.672                  
  22519036.748   118338345.125    22519035.211    92211700.333                  
  20427936.636   107349477.138    20427939.960    83648929.759                  
  24510705.003   128804572.462    24510708.238   100367187.344                  
  22618847.767   118862858.031    22618847.589    92620410.758                  
                 127825014.608                   127825014.608    24547445.466  
                 125486365.660                   125486365.660    24098333.984  
                 114816290.634                   114816290.634    22049259.241  
                 134551027.739                   134551027.739    25839118.727  
                 120865328.743                   120865328.743    23210951.156  
  26084055.428   137072583.893                                                  
  27633546.937   145215260.162                                                  
  23359367.740   122754289.921                                                  
  23466925.982   123319496.432                                                  
  25161517.746   132224644.073                                                  
 21  8 31  3  6 21.0000000  0 17G 3G 4G16G22G26G27G31C23C24C25C32C33
                                E 1E 4E19E21E27
  21648453.482   113763353.411    21648456.680    88646759.050                  
  21811609.008   114620770.427    21811610.527    89314885.313                  
  20317082.721   106766988.728    20317082.382    83195055.925                  
  22519482.241   118340686.219    22519480.722    92213524.562                  
  20428181.460   107350763.653    20428184.783    83649932.243                  
  24510047.316   128801116.345    24510050.568   100364494.270                  
  22619296.459   118865216.019    22619296.280    92622248.155                  
                 127822933.970                   127822933.970    24547045.879  
                 125488640.968                   125488640.968    24098770.917  
                 114816243.941                   114816243.941    22049250.288  
                 134548192.941                   134548192.941    25838574.347  
                 120867852.794                   120867852.794    23211435.889  
  26083611.258   137070249.836                                                  
  27633042.727   145212610.516                                                  
  23359205.919   122753439.559                                                  
  23466875.895   123319233.227                                                  
  25161925.213   132226785.410                                                  
 21  8 31  3  6 22.0000000  0 17G 3G 4G16G22G26G27G31C23C24C25C32C33
                                E 1E 4E19E21E27
  21648726.467   113764787.922    21648729.666    88647876.851                  
  21811133.800   114618273.243    21811135.318    89312939.460                  
  20316794.244   106765472.809    20316793.922    83193874.694                  
  22519927.805   118343027.653    22519926.286    92215349.063                  
  20428426.372   107352050.726    20428429.696    83650935.161                  
  24509389.629   128797660.149    24509392.863   100361801.133                  
  22619745.186   118867574.074    22619745.007    92624085.601                  
                 127820853.532                   127820853.532    24546646.363  
                 125490916.343                   125490916.343    24099207.886  
                 114816197.524                   114816197.524    22049241.354  
                 134545358.387                   134545358.387    25838029.985  
                 120870377.207                   120870377.207    23211920.658  
  26083167.141   137067916.011                                                  
  27632538.517   145209960.906                                                  
  23359044.168   122752589.523                                                  
  23466825.880   123318970.394                                                  
  25162332.734   132228926.906                                                  
 21  8 31  3  6 23.0000000  0 17G 3G 4G16G22G26G27G31C23C24C25C32C33
                                E 1E 4E19E21E27
  21648999.541   113766223.020    21649002.758    88648995.114                  
  21810658.644   114615776.289    21810660.163    89310993.781                  
  20316505.891   106763957.551    20316505.552    83192693.976                  
  22520373.422   118345369.440    22520371.904    92217173.832                  
  20428671.392   107353338.353    20428674.716    83651938.504                  
  24508731.924   128794203.888    24508735.158   100359107.945                  
  22620193.912   118869932.200    22620193.734    92625923.102                  
                 127818773.303                   127818773.303    24546246.883  
                 125493191.785                   125493191.785    24099644.855  
                 114816151.383                   114816151.383    22049232.509  
                 134542524.065                   134542524.065    25837485.677  
                 120872901.985                   120872901.985    23212405.516  
  26082723.060   137065582.426                                                  
  27632034.325   145207311.313                                                  
  23358882.454   122751739.812                                                  
  23466775.936   123318707.928                                                  
  25162740.273   132231068.587                                                  
 21  8 31  3  6 24.0000000  0 17G 3G 4G16G22G26G27G31C23C24C25C32C33
                                E 1E 4E19E21E27
  21649272.741   113767658.708    21649275.957    88650113.827                  
  21810183.525   114613279.578    21810185.062    89309048.292                  
  20316217.682   106762442.956    20316217.342    83191513.774                  
  22520819.112   118347711.585    22520817.593    92218998.880                  
  20428916.538   107354626.535    20428919.843    83652942.285                  
  24508074.201   128790747.560    24508077.435   100356414.704                  
  22620642.657   118872290.378    22620642.479    92627760.646                  
                 127816693.284                   127816693.284    24545847.421  
                 125495467.294                   125495467.294    24100081.842  
                 114816105.516                   114816105.516    22049223.681  
                 134539689.985                   134539689.985    25836941.422  
                 120875427.126                   120875427.126    23212890.445  
  26082279.033   137063249.076                                                  
  27631530.114   145204661.747                                                  
  23358720.846   122750890.419                                                  
  23466726.063   123318445.841                                                  
  25163147.865   132233210.441                                                  
 21  8 31  3  6 25.0000000  0 17G 3G 4G16G22G26G27G31C23C24C25C32C33
                                E 1E 4E19E21E27
  21649546.065   113769094.974    21649549.264    88651232.995                  
  21809708.459   114610783.087    21809709.978    89307102.973                  
  20315929.580   106760929.018    20315929.240    83190334.083                  
  22521264.872   118350054.079    22521263.353    92220824.195                  
  20429161.754   107355915.262    20429165.078    83653946.488                  
  24507416.460   128787291.164    24507419.694   100353721.411                  
  22621091.420   118874648.636    22621091.241    92629598.247                  
                 127814613.471                   127814613.471    24545448.013  
                 125497742.866                   125497742.866    24100518.847  
                 114816059.922                   114816059.922    22049214.926  
                 134536856.141                   134536856.141    25836397.203  
                 120877952.624                   120877952.624    23213375.446  
  26081835.059   137060915.966                                                  
  27631025.922   145202012.216                                                  
  23358559.256   122750041.345                                                  
  23466676.262   123318184.120                                                  
  25163555.476   132235352.462                                                  
 21  8 31  3  6 26.0000000  0 17G 3G 4G16G22G26G27G31C23C24C25C32C33
                                E 1E 4E19E21E27
  21649819.479   113770531.832    21649822.678    88652352.625                  
  21809233.447   114608286.825    21809234.966    89305157.836                  
  20315641.620   106759415.738    20315641.281    83189154.903                  
  22521710.704   118352396.925    22521709.186    92222649.792                  
  20429407.096   107357204.547    20429410.419    83654951.126                  
  24506758.719   128783834.695    24506761.953   100351028.058                  
  22621540.200   118877006.958    22621540.022    92631435.898                  
                 127812533.871                   127812533.871    24545048.640  
                 125500018.509                   125500018.509    24100955.852  
                 114816014.605                   114816014.605    22049206.223  
                 134534022.532                   134534022.532    25835853.038  
                 120880478.492                   120880478.492    23213860.501  
  26081391.139   137058583.094                                                  
  27630521.748   145199362.711                                                  
  23358397.738   122749192.594                                                  
  23466626.515   123317922.781                                                  
  25163963.122   132237494.665                                                  
 21  8 31  3  6 27.0000000  0 17G 3G 4G16G22G26G27G31C23C24C25C32C33
                                E 1E 4E19E21E27
  21650093.018   113771969.269    21650096.217    88653472.708                  
  21808758.453   114605790.792    21808759.971    89303212.879                  
  20315353.786   106757903.126    20315353.447    83187976.243                  
  22522156.608   118354740.117    22522155.071    92224475.651                  
  20429652.563   107358494.375    20429655.868    83655956.184                  
  24506100.960   128780378.161    24506104.195   100348334.653                  
  22621988.981   118879365.342    22621988.802    92633273.602                  
                 127810454.477                   127810454.477    24544649.321  
                 125502294.215                   125502294.215    24101392.875  
                 114815969.563                   114815969.563    22049197.575  
                 134531189.165                   134531189.165    25835308.926  
                 120883004.717                   120883004.717    23214345.627  
  26080947.237   137056250.466                                                  
  27630017.555   145196713.236                                                  
  23358236.274   122748344.151                                                  
  23466576.857   123317661.812                                                  
  25164370.803   132239637.038                                                  
 21  8 31  3  6 28.0000000  0 17G 3G 4G16G22G26G27G31C23C24C25C32C33
                                E 1E 4E19E21E27
  21650366.665   113773407.301    21650369.881    88654593.250                  
  21808283.512   114603295.003    21808285.049    89301268.106                  
  20315066.059   106756391.167    20315065.720    83186798.094                  
  22522602.565   118357083.664    22522601.046    92226301.792                  
  20429898.101   107359784.761    20429901.424    83656961.680                  
  24505443.184   128776921.551    24505446.418   100345641.191                  
  22622437.779   118881723.794    22622437.601    92635111.354                  
                 127808375.289                   127808375.289    24544250.020  
                 125504569.989                   125504569.989    24101829.915  
                 114815924.798                   114815924.798    22049188.980  
                 134528356.033                   134528356.033    25834764.832  
                 120885531.309                   120885531.309    23214830.842  
  26080503.406   137053918.081                                                  
  27629513.381   145194063.778                                                  
  23358074.899   122747496.042                                                  
  23466527.253   123317401.218                                                  
  25164778.503   132241779.579                                                  
 21  8 31  3  6 29.0000000  0 17G 3G 4G16G22G26G27G31C23C24C25C32C33
                                E 1E 4E19E21E27
  21650640.418   113774845.903    21650643.617    88655714.239                  
  21807808.625   114600799.433    21807810.161    89299323.509                  
  20314778.457   106754879.870    20314778.118    83185620.461                  
  22523048.576   118359427.558    22523047.057    92228128.207                  
  20430143.764   107361075.704    20430147.088    83657967.609                  
  24504785.407   128773464.879    24504788.641   100342947.683                  
  22622886.578   118884082.313    22622886.399    92636949.164                  
                 127806296.308                   127806296.308    24543850.772  
                 125506845.829                   125506845.829    24102266.956  
                 114815880.303                   114815880.303    22049180.421  
                 134525523.142                   134525523.142    25834220.792  
                 120888058.259                   120888058.259    23215316.094  
  26080059.611   137051585.934                                                  
  27629009.206   145191414.335                                                  
  23357913.559   122746648.245                                                  
  23466477.738   123317140.989                                                  
  25165186.238   132243922.293                                                  
 21  8 31  3  6 30.0000000  0 17G 3G 4G16G22G26G27G31C23C24C25C32C33
                                E 1E 4E19E21E27
  21650914.279   113776285.106    21650917.495    88656835.696                  
  21807333.773   114598304.102    21807335.292    89297379.095                  
  20314490.998   106753369.239    20314490.659    83184443.344                  
  22523494.676   118361771.809    22523493.157    92229954.890                  
  20430389.517   107362367.190    20430392.840    83658973.964                  
  24504127.595   128770008.134    24504130.847   100340254.117                  
  22623335.412   118886440.893    22623335.233    92638787.019                  
                 127804217.539                   127804217.539    24543451.578  
                 125509121.730                   125509121.730    24102704.014  
                 114815836.091                   114815836.091    22049171.933  
                 134522690.484                   134522690.484    25833676.823  
                 120890585.575                   120890585.575    23215801.434  
  26079615.852   137049254.028                                                  
  27628505.032   145188764.942                                                  
  23357752.291   122745800.788                                                  
  23466428.294   123316881.137                                                  
  25165594.027   132246065.191                                                  
 21  8 31  3  6 31.0000000  0 17G 3G 4G16G22G26G27G31C23C24C25C32C33
                                E 1E 4E19E21E27
  21651188.264   113777724.887    21651191.481    88657957.601                  
  21806858.975   114595809.005    21806860.494    89295434.863                  
  20314203.664   106751859.266    20314203.325    83183266.741                  
  22523940.848   118364116.407    22523939.329    92231781.852                  
  20430635.377   107363659.228    20430638.700    83659980.747                  
  24503469.782   128766551.327    24503473.035   100337560.504                  
  22623784.246   118888799.535    22623784.067    92640624.917                  
                 127802138.971                   127802138.971    24543052.402  
                 125511397.704                   125511397.704    24103141.109  
                 114815792.146                   114815792.146    22049163.499  
                 134519858.067                   134519858.067    25833132.872  
                 120893113.251                   120893113.251    23216286.864  
  26079172.164   137046922.359                                                  
  27628000.875   145186115.569                                                  
  23357591.077   122744953.636                                                  
  23466378.922   123316621.668                                                  
  25166001.834   132248208.257                                                  
 21  8 31  3  6 32.0000000  0 17G 3G 4G16G22G26G27G31C23C24C25C32C33
                                E 1E 4E19E21E27
  21651462.357   113779165.258    21651465.556    88659079.968                  
  21806384.213   114593314.137    21806385.732    89293490.808                  
  20313916.438   106750349.956    20313916.098    83182090.660                  
  22524387.055   118366461.352    22524385.536    92233609.081                  
  20430881.362   107364951.823    20430884.685    83660987.964                  
  24502811.952   128763094.456    24502815.204   100334866.836                  
  22624233.080   118891158.239    22624232.901    92642462.868                  
                 127800060.618                   127800060.618    24542653.280  
                 125513673.739                   125513673.739    24103578.185  
                 114815748.480                   114815748.480    22049155.100  
                 134517025.886                   134517025.886    25832588.993  
                 120895641.285                   120895641.285    23216772.347  
  26078728.494   137044590.934                                                  
  27627496.719   145183466.226                                                  
  23357429.934   122744106.802                                                  
  23466329.603   123316362.562                                                  
  25166409.677   132250351.493                                                  
 21  8 31  3  6 33.0000000  0 17G 3G 4G16G22G26G27G31C23C24C25C32C33
                                E 1E 4E19E21E27
  21651736.558   113780606.204    21651739.756    88660202.785                  
  21805909.505   114590819.492    21805911.024    89291546.929                  
  20313629.354   106748841.303    20313629.014    83180915.086                  
  22524833.352   118368806.648    22524831.833    92235436.582                  
  20431127.418   107366244.970    20431130.742    83661995.608                  
  24502154.122   128759637.503    24502157.356   100332173.108                  
  22624681.932   118893517.004    22624681.753    92644300.867                  
                 127797982.469                   127797982.469    24542254.175  
                 125515949.841                   125515949.841    24104015.279  
                 114815705.081                   114815705.081    22049146.755  
                 134514193.946                   134514193.946    25832045.149  
                 120898169.683                   120898169.683    23217257.902  
  26078284.878   137042259.750                                                  
  27626992.562   145180816.897                                                  
  23357268.845   122743260.292                                                  
  23466280.356   123316103.831                                                  
  25166817.555   132252494.902                                                  
 21  8 31  3  6 34.0000000  0 17G 3G 4G16G22G26G27G31C23C24C25C32C33
                                E 1E 4E19E21E27
  21652010.883   113782047.746    21652014.081    88661326.063                  
  21805434.814   114588325.093    21805436.369    89289603.246                  
  20313342.377   106747333.320    20313342.056    83179740.034                  
  22525279.720   118371152.293    22525278.201    92237264.356                  
  20431373.600   107367538.656    20431376.923    83663003.676                  
  24501496.274   128756180.500    24501499.526   100329479.340                  
  22625130.820   118895875.843    22625130.641    92646138.925                  
                 127795904.523                   127795904.523    24541855.142  
                 125518226.004                   125518226.004    24104452.409  
                 114815661.962                   114815661.962    22049138.482  
                 134511362.233                   134511362.233    25831501.341  
                 120900698.441                   120900698.441    23217743.529  
  26077841.315   137039928.800                                                  
  27626488.423   145178167.607                                                  
  23357107.827   122742414.106                                                  
  23466231.199   123315845.468                                                  
  25167225.451   132254638.476                                                  
 21  8 31  3  6 35.0000000  0 17G 3G 4G16G22G26G27G31C23C24C25C32C33
                                E 1E 4E19E21E27
  21652285.297   113783489.875    21652288.514    88662449.802                  
  21804960.195   114585830.921    21804961.714    89287659.735                  
  20313055.562   106745825.987    20313055.222    83178565.487                  
  22525726.142   118373498.294    22525724.623    92239092.410                  
  20431619.906   107368832.907    20431623.194    83664012.183                  
  24500838.426   128752723.411    24500841.660   100326785.505                  
  22625579.707   118898234.749    22625579.529    92647977.034                  
                 127793826.786                   127793826.786    24541456.127  
                 125520502.230                   125520502.230    24104889.521  
                 114815619.113                   114815619.113    22049130.262  
                 134508530.764                   134508530.764    25830957.604  
                 120903227.560                   120903227.560    23218229.209  
  26077397.806   137037598.094                                                  
  27625984.284   145175518.343                                                  
  23356946.863   122741568.245                                                  
  23466182.095   123315587.480                                                  
  25167633.401   132256782.237                                                  
 21  8 31  3  6 36.0000000  0 17G 3G 4G16G22G26G27G31C23C24C25C32C33
                                E 1E 4E19E21E27
  21652559.837   113784932.597    21652563.036    88663573.996                  
  21804485.612   114583336.989    21804487.148    89285716.409                  
  20312768.835   106744319.327    20312768.496    83177391.468                  
  22526172.635   118375844.629    22526171.116    92240920.723                  
  20431866.284   107370127.703    20431869.608    83665021.117                  
  24500180.542   128749266.261    24500183.776   100324091.626                  
  22626028.595   118900593.729    22626028.417    92649815.200                  
                 127791749.259                   127791749.259    24541057.165  
                 125522778.527                   125522778.527    24105326.669  
                 114815576.540                   114815576.540    22049122.078  
                 134505699.534                   134505699.534    25830413.886  
                 120905757.039                   120905757.039    23218714.960  
  26076954.314   137035267.634                                                  
  27625480.146   145172869.105                                                  
  23356785.953   122740722.702                                                  
  23466133.080   123315329.876                                                  
  25168041.387   132258926.163                                                  
 21  8 31  3  6 37.0000000  0 17G 3G 4G16G22G26G27G31C23C24C25C32C33
                                E 1E 4E19E21E27
  21652834.502   113786375.893    21652837.700    88664698.645                  
  21804011.082   114580843.286    21804012.601    89283773.266                  
  20312482.252   106742813.324    20312481.912    83176217.962                  
  22526619.200   118378191.325    22526617.681    92242749.315                  
  20432112.788   107371423.047    20432116.093    83666030.477                  
  24499522.640   128745809.047    24499525.892   100321397.688                  
  22626477.501   118902952.764    22626477.322    92651653.409                  
                 127789671.938                   127789671.938    24540658.239  
                 125525054.888                   125525054.888    24105763.816  
                 114815534.238                   114815534.238    22049113.966  
                 134502868.542                   134502868.542    25829870.221  
                 120908286.882                   120908286.882    23219200.801  
  26076510.895   137032937.415                                                  
  27624976.025   145170219.900                                                  
  23356625.113   122739877.481                                                  
  23466084.137   123315072.640                                                  
  25168449.372   132261070.261                                                  
 21  8 31  3  6 38.0000000  0 17G 3G 4G16G22G26G27G31C23C24C25C32C33
                                E 1E 4E19E21E27
  21653109.256   113787819.780    21653112.454    88665823.751                  
  21803536.588   114578349.805    21803538.107    89281830.292                  
  20312195.794   106741307.970    20312195.454    83175044.956                  
  22527065.818   118380538.355    22527064.299    92244578.173                  
  20432359.380   107372718.944    20432362.704    83667040.266                  
  24498864.739   128742351.759    24498867.973   100318703.700                  
  22626926.424   118905311.870    22626926.246    92653491.671                  
                 127787594.824                   127787594.824    24540259.349  
                 125527331.312                   125527331.312    24106200.982  
                 114815492.215                   114815492.215    22049105.907  
                 134500037.789                   134500037.789    25829326.591  
                 120910817.085                   120910817.085    23219686.696  
  26076067.528   137030607.422                                                  
  27624471.904   145167570.706                                                  
  23356464.346   122739032.574                                                  
  23466035.247   123314815.761                                                  
  25168857.411   132263214.536                                                  
 21  8 31  3  6 39.0000000  0 17G 3G 4G16G22G26G27G31C23C24C25C32C33
                                E 1E 4E19E21E27
  21653384.117   113789264.250    21653387.334    88666949.308                  
  21803062.148   114575856.563    21803063.666    89279887.508                  
  20311909.460   106739803.281    20311909.121    83173872.472                  
  22527512.526   118382885.750    22527511.007    92246407.309                  
  20432606.080   107374015.404    20432609.403    83668050.492                  
  24498206.819   128738894.409    24498210.071   100316009.661                  
  22627375.366   118907671.038    22627375.187    92655329.984                  
                 127785517.919                   127785517.919    24539860.494  
                 125529607.810                   125529607.810    24106638.166  
                 114815450.468                   114815450.468    22049097.884  
                 134497207.276                   134497207.276    25828783.016  
                 120913347.652                   120913347.652    23220172.662  
  26075624.180   137028277.672                                                  
  27623967.765   145164921.539                                                  
  23356303.614   122738187.981                                                  
  23465986.447   123314559.270                                                  
  25169265.504   132265358.972                                                  
 21  8 31  3  6 40.0000000  0 17G 3G 4G16G22G26G27G31C23C24C25C32C33
                                E 1E 4E19E21E27
  21653659.104   113790709.302    21653662.320    88668075.324                  
  21802587.725   114573363.555    21802589.262    89277944.907                  
  20311623.234   106738299.250    20311622.913    83172700.504                  
  22527959.252   118385233.485    22527957.768    92248236.710                  
  20432852.887   107375312.398    20432856.193    83669061.141                  
  24497548.899   128735436.992    24497552.134   100313315.570                  
  22627824.307   118910030.273    22627824.128    92657168.349                  
                 127783441.218                   127783441.218    24539461.676  
                 125531884.362                   125531884.362    24107075.331  
                 114815408.992                   114815408.992    22049089.896  
                 134494377.000                   134494377.000    25828239.494  
                 120915878.579                   120915878.579    23220658.699  
  26075180.885   137025948.172                                                  
  27623463.662   145162272.407                                                  
  23356142.954   122737343.722                                                  
  23465937.700   123314303.145                                                  
  25169673.597   132267503.585                                                  
 21  8 31  3  6 41.0000000  0 17G 3G 4G16G22G26G27G31C23C24C25C32C33
                                E 1E 4E19E21E27
  21653934.197   113792154.935    21653937.396    88669201.789                  
  21802113.356   114570870.783    21802114.893    89276002.485                  
  20311337.151   106736795.885    20311336.812    83171529.051                  
  22528406.102   118387581.572    22528404.583    92250066.386                  
  20433099.801   107376609.958    20433103.125    83670072.223                  
  24496890.962   128731979.511    24496894.196   100310621.431                  
  22628273.266   118912389.569    22628273.087    92659006.761                  
                 127781364.731                   127781364.731    24539062.928  
                 125534160.987                   125534160.987    24107512.568  
                 114815367.794                   114815367.794    22049081.998  
                 134491546.965                   134491546.965    25827696.025  
                 120918409.867                   120918409.867    23221144.826  
  26074737.644   137023618.895                                                  
  27622959.541   145159623.304                                                  
  23355982.365   122736499.778                                                  
  23465889.043   123314047.393                                                  
  25170081.743   132269648.370                                                  
 21  8 31  3  6 42.0000000  0 17G 3G 4G16G22G26G27G31C23C24C25C32C33
                                E 1E 4E19E21E27
  21654209.398   113793601.169    21654212.614    88670328.727                  
  21801639.041   114568378.239    21801640.577    89274060.243                  
  20311051.193   106735293.181    20311050.872    83170358.110                  
  22528852.989   118389929.996    22528851.452    92251896.327                  
  20433346.822   107377908.067    20433350.146    83671083.738                  
  24496233.007   128728521.950    24496236.259   100307927.228                  
  22628722.243   118914748.930    22628722.064    92660845.222                  
                 127779288.449                   127779288.449    24538664.199  
                 125536437.677                   125536437.677    24107949.752  
                 114815326.867                   114815326.867    22049074.136  
                 134488717.165                   134488717.165    25827152.575  
                 120920941.518                   120920941.518    23221630.988  
  26074294.439   137021289.879                                                  
  27622455.438   145156974.231                                                  
  23355821.812   122735656.165                                                  
  23465840.439   123313792.020                                                  
  25170489.925   132271793.335                                                  
 21  8 31  3  6 43.0000000  0 17G 3G 4G16G22G26G27G31C23C24C25C32C33
                                E 1E 4E19E21E27
  21654484.724   113795047.981    21654487.940    88671456.108                  
  21801164.779   114565885.932    21801166.298    89272118.188                  
  20310765.378   106733791.145    20310765.039    83169187.695                  
  22529299.946   118392278.784    22529298.428    92253726.554                  
  20433593.933   107379206.716    20433597.257    83672095.673                  
  24495575.034   128725064.328    24495578.286   100305232.981                  
  22629171.220   118917108.356    22629171.042    92662683.734                  
                 127777212.375                   127777212.375    24538265.505  
                 125538714.433                   125538714.433    24108387.007  
                 114815286.214                   114815286.214    22049066.327  
                 134485887.606                   134485887.606    25826609.195  
                 120923473.530                   120923473.530    23222117.240  
  26073851.287   137018961.101                                                  
  27621951.335   145154325.175                                                  
  23355661.348   122734812.863                                                  
  23465791.924   123313537.016                                                  
  25170898.125   132273938.472                                                  
 21  8 31  3  6 44.0000000  0 17G 3G 4G16G22G26G27G31C23C24C25C32C33
                                E 1E 4E19E21E27
  21654760.157   113796495.380    21654763.356    88672583.954                  
  21800690.535   114563393.852    21800692.072    89270176.310                  
  20310479.688   106732289.761    20310479.349    83168017.785                  
  22529746.958   118394627.913    22529745.439    92255557.044                  
  20433841.187   107380505.922    20433844.492    83673108.039                  
  24494917.060   128721606.632    24494920.295   100302538.668                  
  22629620.197   118919467.852    22629620.037    92664522.304                  
                 127775136.511                   127775136.511    24537866.865  
                 125540991.253                   125540991.253    24108824.244  
                 114815245.839                   114815245.839    22049058.572  
                 134483058.287                   134483058.287    25826065.852  
                 120926005.903                   120926005.903    23222603.564  
  26073408.171   137016632.551                                                  
  27621447.268   145151676.163                                                  
  23355500.937   122733969.887                                                  
  23465743.464   123313282.383                                                  
  25171306.361   132276083.780                                                  
 21  8 31  3  6 45.0000000  0 17G 3G 4G16G22G26G27G31C23C24C25C32C33
                                E 1E 4E19E21E27
  21655035.697   113797943.360    21655038.896    88673712.246                  
  21800216.363   114560902.007    21800217.882    89268234.609                  
  20310194.088   106730789.031    20310193.766    83166848.388                  
  22530194.059   118396977.391    22530192.540    92257387.804                  
  20434088.494   107381805.675    20434091.818    83674120.835                  
  24494259.087   128718148.874    24494262.322   100299844.316                  
  22630069.228   118921827.410    22630069.031    92666360.918                  
                 127773060.857                   127773060.857    24537468.243  
                 125543268.137                   125543268.137    24109261.481  
                 114815205.735                   114815205.735    22049050.888  
                 134480229.208                   134480229.208    25825522.562  
                 120928538.636                   120928538.636    23223089.941  
  26072965.127   137014304.251                                                  
  27620943.165   145149027.163                                                  
  23355340.581   122733127.231                                                  
  23465695.074   123313028.121                                                  
  25171714.632   132278229.258                                                  
 21  8 31  3  6 46.0000000  0 17G 3G 4G16G22G26G27G31C23C24C25C32C33
                                E 1E 4E19E21E27
  21655311.345   113799391.950    21655314.543    88674841.031                  
  21799742.226   114558410.413    21799743.745    89266293.113                  
  20309908.648   106729288.950    20309908.309    83165679.480                  
  22530641.213   118399327.224    22530639.694    92259218.840                  
  20434335.944   107383105.982    20434339.268    83675134.055                  
  24493601.061   128714691.067    24493604.313   100297149.921                  
  22630518.241   118924187.046    22630518.062    92668199.599                  
                 127770985.429                   127770985.429    24537069.675  
                 125545545.082                   125545545.082    24109698.754  
                 114815165.899                   114815165.899    22049043.222  
                 134477400.379                   134477400.379    25824979.308  
                 120931071.747                   120931071.747    23223576.371  
  26072522.100   137011976.207                                                  
  27620439.080   145146378.213                                                  
  23355180.296   122732284.907                                                  
  23465646.757   123312774.221                                                  
  25172122.939   132280374.915                                                  
 21  8 31  3  6 47.0000000  0 17G 3G 4G16G22G26G27G31C23C24C25C32C33
                                E 1E 4E19E21E27
  21655587.100   113800841.101    21655590.298    88675970.242                  
  21799268.125   114555919.040    21799269.662    89264351.781                  
  20309623.315   106727789.550    20309622.976    83164511.118                  
  22531088.439   118401677.403    22531086.920    92261050.149                  
  20434583.502   107384406.831    20434586.825    83676147.704                  
  24492943.052   128711233.175    24492946.304   100294455.457                  
  22630967.254   118926546.733    22630967.093    92670038.316                  
                 127768910.187                   127768910.187    24536671.142  
                 125547822.097                   125547822.097    24110136.027  
                 114815126.344                   114815126.344    22049035.646  
                 134474571.778                   134474571.778    25824436.108  
                 120933605.204                   120933605.204    23224062.927  
  26072079.145   137009648.391                                                  
  27619934.995   145143729.269                                                  
  23355020.064   122731442.896                                                  
  23465598.528   123312520.708                                                  
  25172531.282   132282520.739                                                  
 21  8 31  3  6 48.0000000  0 17G 3G 4G16G22G26G27G31C23C24C25C32C33
                                E 1E 4E19E21E27
  21655862.980   113802290.833    21655866.178    88677099.903                  
  21798794.078   114553427.887    21798795.597    89262410.630                  
  20309338.108   106726290.810    20309337.786    83163343.268                  
  22531535.719   118404027.925    22531534.200    92262881.727                  
  20434831.148   107385708.242    20434834.454    83677161.792                  
  24492285.025   128707775.218    24492288.259   100291760.950                  
  22631416.320   118928906.482    22631416.141    92671877.083                  
                 127766835.155                   127766835.155    24536272.663  
                 125550099.179                   125550099.179    24110573.318  
                 114815087.066                   114815087.066    22049028.087  
                 134471743.417                   134471743.417    25823892.943  
                 120936139.018                   120936139.018    23224549.500  
  26071636.207   137007320.804                                                  
  27619430.928   145141080.354                                                  
  23354859.904   122730601.188                                                  
  23465550.335   123312267.574                                                  
  25172939.643   132284666.733                                                  
 21  8 31  3  6 49.0000000  0 17G 3G 4G16G22G26G27G31C23C24C25C32C33
                                E 1E 4E19E21E27
  21656138.967   113803741.149    21656142.165    88678230.024                  
  21798320.066   114550936.969    21798321.603    89260469.657                  
  20309053.043   106724792.718    20309052.704    83162175.933                  
  22531983.087   118406378.794    22531981.569    92264713.575                  
  20435078.902   107387010.195    20435082.226    83678176.308                  
  24491626.980   128704317.190    24491630.214   100289066.390                  
  22631865.386   118931266.289    22631865.208    92673715.898                  
                 127764760.332                   127764760.332    24535874.201  
                 125552376.327                   125552376.327    24111010.626  
                 114815048.059                   114815048.059    22049020.600  
                 134468915.292                   134468915.292    25823349.832  
                 120938673.200                   120938673.200    23225036.163  
  26071193.324   137004993.461                                                  
  27618926.860   145138431.478                                                  
  23354699.780   122729759.825                                                  
  23465502.232   123312014.801                                                  
  25173348.057   132286812.898                                                  
 21  8 31  3  6 50.0000000  0 17G 3G 4G16G22G26G27G31C23C24C25C32C33
                                E 1E 4E19E21E27
  21656415.061   113805192.052    21656418.259    88679360.602                  
  21797846.108   114548446.285    21797847.627    89258528.871                  
  20308768.086   106723295.298    20308767.747    83161009.117                  
  22532430.492   118408730.006    22532428.973    92266545.695                  
  20435326.764   107388312.703    20435330.052    83679191.249                  
  24490968.918   128700859.110    24490972.152   100286371.786                  
  22632314.435   118933626.169    22632314.256    92675554.769                  
                 127762685.710                   127762685.710    24535475.794  
                 125554653.543                   125554653.543    24111447.935  
                 114815009.327                   114815009.327    22049013.167  
                 134466087.409                   134466087.409    25822806.757  
                 120941207.738                   120941207.738    23225522.897  
  26070750.493   137002666.367                                                  
  27618422.793   145135782.601                                                  
  23354539.745   122728918.786                                                  
  23465454.218   123311762.406                                                  
  25173756.472   132288959.242                                                  
 21  8 31  3  6 51.0000000  0 17G 3G 4G16G22G26G27G31C23C24C25C32C33
                                E 1E 4E19E21E27
  21656691.280   113806643.536    21656694.479    88680491.633                  
  21797372.204   114545955.842    21797373.723    89256588.268                  
  20308483.254   106721798.536    20308482.914    83159842.811                  
  22532877.986   118411081.574    22532876.485    92268378.085                  
  20435574.714   107389615.753    20435578.038    83680206.620                  
  24490310.855   128697400.957    24490314.107   100283677.126                  
  22632763.519   118935986.126    22632763.341    92677393.698                  
                 127760611.305                   127760611.305    24535077.422  
                 125556930.808                   125556930.808    24111885.261  
                 114814970.886                   114814970.886    22049005.787  
                 134463259.778                   134463259.778    25822263.753  
                 120943742.652                   120943742.652    23226009.703  
  26070307.699   137000339.508                                                  
  27617918.744   145133133.780                                                  
  23354379.763   122728078.064                                                  
  23465406.257   123311510.384                                                  
  25174164.958   132291105.752                                                  
 21  8 31  3  6 52.0000000  0 17G 3G 4G16G22G26G27G31C23C24C25C32C33
                                E 1E 4E19E21E27
  21656967.607   113808095.607    21656970.805    88681623.117                  
  21796898.317   114543465.628    21796899.836    89254647.847                  
  20308198.565   106720302.431    20308198.225    83158677.020                  
  22533325.534   118413433.484    22533324.015    92270210.745                  
  20435822.772   107390919.353    20435826.096    83681222.414                  
  24489652.775   128693942.727    24489656.027   100280982.406                  
  22633212.621   118938346.136    22633212.443    92679232.671                  
                 127758537.105                   127758537.105    24534679.103  
                 125559208.151                   125559208.151    24112322.606  
                 114814932.707                   114814932.707    22048998.442  
                 134460432.375                   134460432.375    25821720.785  
                 120946277.915                   120946277.915    23226496.580  
  26069864.958   136998012.892                                                  
  27617414.694   145130484.977                                                  
  23354219.836   122727237.652                                                  
  23465358.386   123311258.743                                                  
  25174573.461   132293252.442                                                  
 21  8 31  3  6 53.0000000  0 17G 3G 4G16G22G26G27G31C23C24C25C32C33
                                E 1E 4E19E21E27
  21657244.023   113809548.258    21657247.221    88682755.058                  
  21796424.485   114540975.637    21796426.003    89252707.598                  
  20307913.983   106718806.983    20307913.643    83157511.743                  
  22533773.153   118415785.729    22533771.634    92272043.672                  
  20436070.955   107392223.495    20436074.261    83682238.636                  
  24488994.694   128690484.432    24488997.929   100278287.638                  
  22633661.724   118940706.210    22633661.545    92681071.695                  
                 127756463.110                   127756463.110    24534280.803  
                 125561485.559                   125561485.559    24112759.968  
                 114814894.796                   114814894.796    22048991.152  
                 134457605.212                   134457605.212    25821177.834  
                 120948813.536                   120948813.536    23226983.511  
  26069422.271   136995686.508                                                  
  27616910.645   145127836.188                                                  
  23354059.962   122726397.564                                                  
  23465310.569   123311007.449                                                  
  25174981.983   132295399.288                                                  
 21  8 31  3  6 54.0000000  0 17G 3G 4G16G22G26G27G31C23C24C25C32C33
                                E 1E 4E19E21E27
  21657520.564   113811001.497    21657523.762    88683887.456                  
  21795950.705   114538485.890    21795952.224    89250767.542                  
  20307629.543   106717312.198    20307629.204    83156346.980                  
  22534220.843   118418138.341    22534219.324    92273876.874                  
  20436319.227   107393528.200    20436322.533    83683255.294                  
  24488336.578   128687026.079    24488339.813   100275592.819                  
  22634110.844   118943066.343    22634110.665    92682910.762                  
                 127754389.325                   127754389.325    24533882.556  
                 125563763.030                   125563763.030    24113197.312  
                 114814857.163                   114814857.163    22048983.933  
                 134454778.286                   134454778.286    25820634.956  
                 120951349.519                   120951349.519    23227470.514  
  26068979.620   136993360.371                                                  
  27616406.595   145125187.446                                                  
  23353900.159   122725557.804                                                  
  23465262.805   123310756.547                                                  
  25175390.558   132297546.309                                                  
 21  8 31  3  6 55.0000000  0 17G 3G 4G16G22G26G27G31C23C24C25C32C33
                                E 1E 4E19E21E27
  21657797.212   113812455.320    21657800.428    88685020.310                  
  21795476.962   114535996.380    21795478.481    89248827.665                  
  20307345.212   106715818.077    20307344.854    83155182.734                  
  22534668.605   118420491.290    22534667.086    92275710.348                  
  20436567.606   107394833.446    20436570.912    83684272.371                  
  24487678.480   128683567.650    24487681.696   100272897.946                  
  22634559.982   118945426.552    22634559.803    92684749.890                  
                 127752315.747                   127752315.747    24533484.362  
                 125566040.571                   125566040.571    24113634.692  
                 114814819.804                   114814819.804    22048976.767  
                 134451951.603                   134451951.603    25820092.148  
                 120953885.864                   120953885.864    23227957.605  
  26068537.022   136991034.477                                                  
  27615902.564   145122538.728                                                  
  23353740.428   122724718.358                                                  
  23465215.148   123310506.013                                                  
  25175799.151   132299693.507                                                  
 21  8 31  3  6 56.0000000  0 17G 3G 4G16G22G26G27G31C23C24C25C32C33
                                E 1E 4E19E21E27
  21658073.985   113813909.714    21658077.184    88686153.604                  
  21795003.272   114533507.094    21795004.773    89246887.970                  
  20307061.023   106714324.616    20307060.683    83154019.003                  
  22535116.421   118422844.583    22535114.902    92277544.083                  
  20436816.093   107396139.246    20436819.399    83685289.882                  
  24487020.346   128680109.159    24487023.580   100270203.023                  
  22635009.119   118947786.826    22635008.941    92686589.067                  
                 127750242.378                   127750242.378    24533086.187  
                 125568318.176                   125568318.176    24114072.072  
                 114814782.719                   114814782.719    22048969.638  
                 134449125.156                   134449125.156    25819549.341  
                 120956422.566                   120956422.566    23228444.769  
  26068094.460   136988708.815                                                  
  27615398.532   145119890.036                                                  
  23353580.732   122723879.244                                                  
  23465167.527   123310255.848                                                  
  25176207.780   132301840.883                                                  
 21  8 31  3  6 57.0000000  0 17G 3G 4G16G22G26G27G31C23C24C25C32C33
                                E 1E 4E19E21E27
  21658350.866   113815364.708    21658354.064    88687287.370                  
  21794529.618   114531018.053    21794531.136    89244948.460                  
  20306776.941   106712831.815    20306776.601    83152855.786                  
  22535564.308   118425198.234    22535562.789    92279378.101                  
  20437064.687   107397445.598    20437067.993    83686307.821                  
  24486362.194   128676650.606    24486365.446   100267508.047                  
  22635458.275   118950147.155    22635458.096    92688428.289                  
                 127748169.215                   127748169.215    24532688.065  
                 125570595.843                   125570595.843    24114509.488  
                 114814745.906                   114814745.906    22048962.579  
                 134446298.953                   134446298.953    25819006.605  
                 120958959.629                   120958959.629    23228931.967  
  26067651.933   136986383.409                                                  
  27614894.519   145117241.374                                                  
  23353421.144   122723040.449                                                  
  23465119.996   123310006.071                                                  
  25176616.445   132303988.427                                                  
 21  8 31  3  6 58.0000000  0 17G 3G 4G16G22G26G27G31C23C24C25C32C33
                                E 1E 4E19E21E27
  21658627.836   113816820.282    21658631.034    88688421.591                  
  21794056.017   114528529.239    21794057.536    89243009.129                  
  20306493.002   106711339.680    20306492.663    83151693.086                  
  22536012.266   118427552.228    22536010.747    92281212.386                  
  20437313.388   107398752.505    20437316.676    83687326.196                  
  24485704.042   128673191.980    24485707.277   100264813.022                  
  22635907.467   118952507.555    22635907.252    92690267.566                  
                 127746096.262                   127746096.262    24532289.961  
                 125572873.579                   125572873.579    24114946.904  
                 114814709.370                   114814709.370    22048955.557  
                 134443472.989                   134443472.989    25818463.905  
                 120961497.055                   120961497.055    23229419.256  
  26067209.479   136984058.237                                                  
  27614390.505   145114592.743                                                  
  23353261.574   122722201.969                                                  
  23465072.535   123309756.652                                                  
  25177025.145   132306136.144                                                  
 21  8 31  3  6 59.0000000  0 17G 3G 4G16G22G26G27G31C23C24C25C32C33
                                E 1E 4E19E21E27
  21658904.948   113818276.429    21658908.147    88689556.253                  
  21793582.452   114526040.659    21793583.953    89241069.981                  
  20306209.188   106709848.203    20306208.831    83150530.898                  
  22536460.261   118429906.562    22536458.742    92283046.937                  
  20437562.178   107400059.957    20437565.484    83688344.993                  
  24485045.873   128669733.298    24485049.107   100262117.950                  
  22636356.640   118954868.031    22636356.444    92692106.903                  
                 127744023.515                   127744023.515    24531891.929  
                 125575151.376                   125575151.376    24115384.338  
                 114814673.104                   114814673.104    22048948.606  
                 134440647.266                   134440647.266    25817921.241  
                 120964034.839                   120964034.839    23229906.615  
  26066767.059   136981733.300                                                  
  27613886.473   145111944.128                                                  
  23353102.075   122721363.817                                                  
  23465025.147   123309507.605                                                  
  25177433.881   132308284.019                                                  
 21  8 31  3  7  0.0000000  0 17G 3G 4G16G22G26G27G31C23C24C25C32C33
                                E 1E 4E19E21E27
  21659182.133   113819733.168    21659185.331    88690691.379                  
  21793108.941   114523552.318    21793110.460    89239131.015                  
  20305925.482   106708357.386    20305925.142    83149369.231                  
  22536908.362   118432261.254    22536906.825    92284881.765                  
  20437811.076   107401367.952    20437814.400    83689364.214                  
  24484387.703   128666274.552    24484390.919   100259422.823                  
  22636805.814   118957228.554    22636805.635    92693946.278                  
                 127741950.980                   127741950.980    24531493.896  
                 125577429.237                   125577429.237    24115821.771  
                 114814637.118                   114814637.118    22048941.673  
                 134437821.781                   134437821.781    25817378.648  
                 120966572.983                   120966572.983    23230394.047  
  26066324.676   136979408.621                                                  
  27613382.460   145109295.551                                                  
  23352942.647   122720525.988                                                  
  23464977.812   123309258.934                                                  
  25177842.635   132310432.077                                                  
 21  8 31  3  7  1.0000000  0 17G 3G 4G16G22G26G27G31C23C24C25C32C33
                                E 1E 4E19E21E27
  21659459.460   113821190.489    21659462.658    88691826.958                  
  21792635.465   114521064.208    21792636.984    89237192.235                  
  20305641.918   106706867.232    20305641.579    83148208.075                  
  22537356.499   118434616.293    22537354.980    92286716.864                  
  20438060.099   107402676.505    20438063.404    83690383.870                  
  24483729.515   128662815.738    24483732.732   100256727.653                  
  22637255.041   118959589.154    22637254.845    92695785.702                  
                 127739878.649                   127739878.649    24531095.935  
                 125579707.168                   125579707.168    24116259.223  
                 114814601.399                   114814601.399    22048934.829  
                 134434996.538                   134434996.538    25816836.073  
                 120969111.488                   120969111.488    23230881.514  
  26065882.364   136977084.168                                                  
  27612878.464   145106647.000                                                  
  23352783.273   122719688.476                                                  
  23464930.584   123309010.630                                                  
  25178251.425   132312580.313                                                  
 21  8 31  3  7  2.0000000  0 17G 3G 4G16G22G26G27G31C23C24C25C32C33
                                E 1E 4E19E21E27
  21659736.894   113822648.399    21659740.093    88692962.992                  
  21792162.044   114518576.324    21792163.545    89235253.629                  
  20305358.480   106705377.726    20305358.123    83147047.426                  
  22537804.726   118436971.675    22537803.207    92288552.231                  
  20438309.193   107403985.597    20438312.517    83691403.945                  
  24483071.292   128659356.845    24483074.544   100254032.414                  
  22637704.268   118961949.806    22637704.054    92697625.180                  
                 127737806.528                   127737806.528    24530697.992  
                 125581985.160                   125581985.160    24116696.674  
                 114814565.956                   114814565.956    22048928.021  
                 134432171.539                   134432171.539    25816293.587  
                 120971650.351                   120971650.351    23231369.106  
  26065440.088   136974759.962                                                  
  27612374.468   145103998.472                                                  
  23352623.953   122718851.292                                                  
  23464883.392   123308762.710                                                  
  25178660.268   132314728.711                                                  
 21  8 31  3  7  3.0000000  0 17G 3G 4G16G22G26G27G31C23C24C25C32C33
                                E 1E 4E19E21E27
  21660014.436   113824106.890    21660017.635    88694099.483                  
  21791688.657   114516088.683    21791690.158    89233315.214                  
  20305075.167   106703888.896    20305074.791    83145887.300                  
  22538253.006   118439327.409    22538251.487    92290387.871                  
  20438558.412   107405295.254    20438561.718    83692424.461                  
  24482413.104   128655897.905    24482416.321   100251337.145                  
  22638153.478   118964310.534    22638153.299    92699464.711                  
                 127735734.612                   127735734.612    24530300.120  
                 125584263.218                   125584263.218    24117134.162  
                 114814530.789                   114814530.789    22048921.266  
                 134429346.778                   134429346.778    25815751.102  
                 120974189.577                   120974189.577    23231856.716  
  26064997.847   136972435.996                                                  
  27611870.472   145101349.980                                                  
  23352464.722   122718014.434                                                  
  23464836.271   123308515.157                                                  
  25179069.111   132316877.282                                                  
 21  8 31  3  7  4.0000000  0 17G 3G 4G16G22G26G27G31C23C24C25C32C33
                                E 1E 4E19E21E27
  21660292.103   113825565.966    21660295.283    88695236.430                  
  21791215.325   114513601.277    21791216.826    89231376.976                  
  20304791.978   106702400.720    20304791.621    83144727.687                  
  22538701.340   118441683.484    22538699.821    92292223.773                  
  20438807.739   107406605.447    20438811.044    83693445.395                  
  24481754.863   128652438.904    24481758.080   100248641.821                  
  22638602.723   118966671.322    22638602.544    92701304.288                  
                 127733662.910                   127733662.910    24529902.267  
                 125586541.341                   125586541.341    24117571.667  
                 114814495.896                   114814495.896    22048914.565  
                 134426522.259                   134426522.259    25815208.687  
                 120976729.164                   120976729.164    23232344.415  
  26064555.661   136970112.271                                                  
  27611366.477   145098701.508                                                  
  23352305.527   122717177.894                                                  
  23464789.240   123308267.974                                                  
  25179478.008   132319026.020                                                  
 21  8 31  3  7  5.0000000  0 17G 3G 4G16G22G26G27G31C23C24C25C32C33
                                E 1E 4E19E21E27
  21660569.859   113827025.625    21660573.040    88696373.829                  
  21790742.028   114511114.100    21790743.547    89229438.921                  
  20304508.897   106700913.204    20304508.558    83143568.591                  
  22539149.763   118444039.907    22539148.226    92294059.954                  
  20439057.172   107407916.191    20439060.478    83694466.759                  
  24481096.622   128648979.829    24481099.838   100245946.441                  
  22639051.986   118969032.179    22639051.807    92703143.922                  
                 127731591.410                   127731591.410    24529504.466  
                 125588819.528                   125588819.528    24118009.154  
                 114814461.273                   114814461.273    22048907.918  
                 134423697.975                   134423697.975    25814666.309  
                 120979269.108                   120979269.108    23232832.203  
  26064113.492   136967788.780                                                  
  27610862.499   145096053.063                                                  
  23352146.404   122716341.676                                                  
  23464742.280   123308021.160                                                  
  25179886.941   132321174.943                                                  
 21  8 31  3  7  6.0000000  0 17G 3G 4G16G22G26G27G31C23C24C25C32C33
                                E 1E 4E19E21E27
  21660847.740   113828485.868    21660850.921    88697511.683                  
  21790268.785   114508627.161    21790270.286    89227501.051                  
  20304225.959   106699426.351    20304225.620    83142410.009                  
  22539598.240   118446396.668    22539596.703    92295896.391                  
  20439306.695   107409227.482    20439310.001    83695488.546                  
  24480438.381   128645520.692    24480441.597   100243251.016                  
  22639501.267   118971393.104    22639501.052    92704983.609                  
                 127729520.120                   127729520.120    24529106.684  
                 125591097.779                   125591097.779    24118446.677  
                 114814426.929                   114814426.929    22048901.324  
                 134420873.939                   134420873.939    25814123.984  
                 120981809.413                   120981809.413    23233320.046  
  26063671.394   136965465.542                                                  
  27610358.521   145093404.641                                                  
  23351987.334   122715505.813                                                  
  23464695.374   123307774.722                                                  
  25180295.909   132323324.042                                                  
 21  8 31  3  7  7.0000000  0 17G 3G 4G16G22G26G27G31C23C24C25C32C33
                                E 1E 4E19E21E27
  21661125.728   113829946.704    21661128.927    88698650.001                  
  21789795.559   114506140.442    21789797.078    89225563.354                  
  20303943.164   106697940.173    20303942.807    83141251.950                  
  22540046.788   118448753.776    22540045.233    92297733.105                  
  20439556.343   107410539.327    20439559.631    83696510.770                  
  24479780.104   128642061.503    24479783.320   100240555.551                  
  22639950.548   118973754.103    22639950.333    92706823.348                  
                 127727449.039                   127727449.039    24528708.955  
                 125593376.093                   125593376.093    24118884.200  
                 114814392.856                   114814392.856    22048894.784  
                 134418050.141                   134418050.141    25813581.695  
                 120984350.078                   120984350.078    23233807.941  
  26063229.368   136963142.525                                                  
  27609854.561   145090756.251                                                  
  23351828.335   122714670.272                                                  
  23464648.557   123307528.639                                                  
  25180704.877   132325473.308                                                  
 21  8 31  3  7  8.0000000  0 17G 3G 4G16G22G26G27G31C23C24C25C32C33
                                E 1E 4E19E21E27
  21661403.824   113831408.109    21661407.005    88699788.761                  
  21789322.423   114503653.999    21789323.924    89223625.871                  
  20303660.458   106696454.629    20303660.101    83140094.390                  
  22540495.408   118451111.253    22540493.853    92299570.100                  
  20439806.081   107411851.730    20439809.387    83697533.426                  
  24479121.827   128638602.207    24479125.043   100237860.001                  
  22640399.846   118976115.148    22640399.632    92708663.128                  
                 127725378.165                   127725378.165    24528311.262  
                 125595654.478                   125595654.478    24119321.741  
                 114814359.053                   114814359.053    22048888.280  
                 134415226.581                   134415226.581    25813039.459  
                 120986891.101                   120986891.101    23234295.926  
  26062787.342   136960819.782                                                  
  27609350.601   145088107.929                                                  
  23351669.372   122713834.938                                                  
  23464601.812   123307282.985                                                  
  25181113.899   132327622.712                                                  
 21  8 31  3  7  9.0000000  0 17G 3G 4G16G22G26G27G31C23C24C25C32C33
                                E 1E 4E19E21E27
  21661682.027   113832870.098    21661685.225    88700927.977                  
  21788849.305   114501167.767    21788850.806    89221688.552                  
  20303377.895   106694969.763    20303377.538    83138937.357                  
  22540944.063   118453469.056    22540942.544    92301407.356                  
  20440055.926   107413164.661    20440059.214    83698556.489                  
  24478463.532   128635142.892    24478466.766   100235164.430                  
  22640849.145   118978476.253    22640848.948    92710502.956                  
                 127723307.500                   127723307.500    24527913.623  
                 125597932.923                   125597932.923    24119759.300  
                 114814325.533                   114814325.533    22048881.847  
                 134412403.266                   134412403.266    25812497.278  
                 120989432.485                   120989432.485    23234783.965  
  26062345.388   136958497.255                                                  
  27608846.641   145085459.598                                                  
  23351510.499   122713000.028                                                  
  23464555.120   123307037.665                                                  
  25181522.957   132329772.313                                                  
 21  8 31  3  7 10.0000000  0 17G 3G 4G16G22G26G27G31C23C24C25C32C33
                                E 1E 4E19E21E27
  21661960.337   113834332.677    21661963.535    88702067.652                  
  21788376.223   114498681.770    21788377.724    89219751.413                  
  20303095.475   106693485.563    20303095.118    83137780.839                  
  22541392.826   118455827.211    22541391.289    92303244.882                  
  20440305.878   107414478.149    20440309.165    83699579.991                  
  24477805.237   128631683.488    24477808.454   100232468.798                  
  22641298.462   118980837.439    22641298.265    92712342.844                  
                 127721237.042                   127721237.042    24527516.002  
                 125600211.433                   125600211.433    24120196.859  
                 114814292.276                   114814292.276    22048875.468  
                 134409580.192                   134409580.192    25811955.131  
                 120991974.226                   120991974.226    23235272.075  
  26061903.469   136956174.982                                                  
  27608342.681   145082811.297                                                  
  23351351.679   122712165.424                                                  
  23464508.518   123306792.715                                                  
  25181932.032   132331922.081                                                  
 21  8 31  3  7 11.0000000  0 17G 3G 4G16G22G26G27G31C23C24C25C32C33
                                E 1E 4E19E21E27
  21662238.772   113835795.840    21662241.953    88703207.786                  
  21787903.194   114496196.004    21787904.695    89217814.458                  
  20302813.163   106692002.015    20302812.805    83136624.832                  
  22541841.624   118458185.706    22541840.087    92305082.675                  
  20440555.919   107415792.186    20440559.225    83700603.923                  
  24477146.925   128628224.032    24477150.141   100229773.124                  
  22641747.778   118983198.684    22641747.582    92714182.777                  
                 127719166.793                   127719166.793    24527118.434  
                 125602490.009                   125602490.009    24120634.435  
                 114814259.302                   114814259.302    22048869.124  
                 134406757.359                   134406757.359    25811413.039  
                 120994516.331                   120994516.331    23235760.257  
  26061461.604   136953852.944                                                  
  27607838.721   145080163.036                                                  
  23351192.913   122711331.140                                                  
  23464461.987   123306548.140                                                  
  25182341.161   132334072.020                                                  
 21  8 31  3  7 12.0000000  0 17G 3G 4G16G22G26G27G31C23C24C25C32C33
                                E 1E 4E19E21E27
  21662517.314   113837259.581    21662520.495    88704348.368                  
  21787430.219   114493710.480    21787431.720    89215877.692                  
  20302530.975   106690519.138    20302530.618    83135469.351                  
  22542290.494   118460544.551    22542288.957    92306920.738                  
  20440806.085   107417106.778    20440809.373    83701628.280                  
  24476488.594   128624764.508    24476491.828   100227077.394                  
  22642197.113   118985559.999    22642196.916    92716022.770                  
                 127717096.750                   127717096.750    24526720.901  
                 125604768.644                   125604768.644    24121072.012  
                 114814226.593                   114814226.593    22048862.834  
                 134403934.765                   134403934.765    25810870.982  
                 120997058.794                   120997058.794    23236248.528  
  26061019.774   136951531.153                                                  
  27607334.778   145077514.793                                                  
  23351034.218   122710497.179                                                  
  23464415.491   123306303.942                                                  
  25182750.326   132336222.137                                                  
 21  8 31  3  7 13.0000000  0 17G 3G 4G16G22G26G27G31C23C24C25C32C33
                                E 1E 4E19E21E27
  21662795.982   113838723.909    21662799.162    88705489.402                  
  21786957.280   114491225.187    21786958.781    89213941.105                  
  20302248.913   106689036.922    20302248.555    83134314.379                  
  22542739.435   118462903.751    22542737.898    92308759.078                  
  20441056.341   107418421.919    20441059.647    83702653.070                  
  24475830.264   128621304.919    24475833.480   100224381.613                  
  22642646.483   118987921.365    22642646.286    92717862.798                  
                 127715026.917                   127715026.917    24526323.423  
                 125607047.351                   125607047.351    24121509.624  
                 114814194.165                   114814194.165    22048856.616  
                 134401112.418                   134401112.418    25810328.979  
                 120999601.614                   120999601.614    23236736.835  
  26060577.998   136949209.605                                                  
  27606830.836   145074866.589                                                  
  23350875.594   122709663.543                                                  
  23464369.103   123306060.109                                                  
  25183159.491   132338372.419                                                  
 21  8 31  3  7 14.0000000  0 17G 3G 4G16G22G26G27G31C23C24C25C32C33
                                E 1E 4E19E21E27
  21663074.738   113840188.812    21663077.919    88706630.890                  
  21786484.394   114488740.129    21786485.895    89212004.698                  
  20301966.993   106687555.360    20301966.618    83133159.922                  
  22543188.448   118465263.294    22543186.893    92310597.687                  
  20441306.722   107419737.593    20441309.992    83703678.278                  
  24475171.897   128617845.257    24475175.114   100221685.782                  
  22643095.835   118990282.792    22643095.639    92719702.875                  
                 127712957.290                   127712957.290    24525925.962  
                 125609326.116                   125609326.116    24121947.237  
                 114814162.005                   114814162.005    22048850.433  
                 134398290.309                   134398290.309    25809787.011  
                 121002144.797                   121002144.797    23237225.231  
  26060136.258   136946888.286                                                  
  27606326.912   145072218.413                                                  
  23350717.025   122708830.233                                                  
  23464322.787   123305816.647                                                  
  25183568.728   132340522.870                                                  
 21  8 31  3  7 15.0000000  0 17G 3G 4G16G22G26G27G31C23C24C25C32C33
                                E 1E 4E19E21E27
  21663353.602   113841654.302    21663356.783    88707772.832                  
  21786011.562   114486255.314    21786013.045    89210068.484                  
  20301685.181   106686074.464    20301684.823    83132005.980                  
  22543637.514   118467623.183    22543635.978    92312436.567                  
  20441557.174   107421053.820    20441560.479    83704703.913                  
  24474513.549   128614385.546    24474516.765   100218989.907                  
  22643545.223   118992644.289    22643545.027    92721543.007                  
                 127710887.870                   127710887.870    24525528.555  
                 125611604.948                   125611604.948    24122384.867  
                 114814130.122                   114814130.122    22048844.322  
                 134395468.442                   134395468.442    25809245.115  
                 121004688.336                   121004688.336    23237713.699  
  26059694.572   136944567.214                                                  
  27605822.988   145069570.253                                                  
  23350558.509   122707997.237                                                  
  23464276.524   123305573.557                                                  
  25183977.982   132342673.492                                                  
 21  8 31  3  7 16.0000000  0 17G 3G 4G16G22G26G27G31C23C24C25C32C33
                                E 1E 4E19E21E27
  21663632.592   113843120.376    21663635.772    88708915.234                  
  21785538.747   114483770.722    21785540.248    89208132.445                  
  20301403.493   106684594.243    20301403.136    83130852.565                  
  22544086.652   118469983.422    22544085.116    92314275.716                  
  20441807.769   107422370.606    20441811.039    83705729.985                  
  24473855.165   128610925.758    24473858.381   100216293.973                  
  22643994.611   118995005.857    22643994.415    92723383.192                  
                 127708818.665                   127708818.665    24525131.184  
                 125613883.847                   125613883.847    24122822.497  
                 114814098.508                   114814098.508    22048838.247  
                 134392646.816                   134392646.816    25808703.237  
                 121007232.235                   121007232.235    23238202.220  
  26059252.939   136942246.391                                                  
  27605319.063   145066922.133                                                  
  23350400.064   122707164.578                                                  
  23464230.333   123305330.849                                                  
  25184387.254   132344824.285                                                  
 21  8 31  3  7 17.0000000  0 17G 3G 4G16G22G26G27G31C23C24C25C32C33
                                E 1E 4E19E21E27
  21663911.688   113844587.019    21663914.868    88710058.078                  
  21785066.004   114481286.368    21785067.487    89206196.585                  
  20301121.967   106683114.677    20301121.574    83129699.661                  
  22544535.862   118472344.003    22544534.325    92316115.133                  
  20442058.436   107423687.933    20442061.723    83706756.476                  
  24473196.781   128607465.914    24473199.997   100213597.995                  
  22644444.017   118997367.477    22644443.821    92725223.419                  
                 127706749.660                   127706749.660    24524733.866  
                 125616162.808                   125616162.808    24123260.163  
                 114814067.171                   114814067.171    22048832.225  
                 134389825.431                   134389825.431    25808161.448  
                 121009776.491                   121009776.491    23238690.813  
  26058811.341   136939925.797                                                  
  27604815.139   145064274.034                                                  
  23350241.655   122706332.216                                                  
  23464184.213   123305088.508                                                  
  25184796.580   132346975.250                                                  
 21  8 31  3  7 18.0000000  0 17G 3G 4G16G22G26G27G31C23C24C25C32C33
                                E 1E 4E19E21E27
  21664190.891   113846054.246    21664194.072    88711201.367                  
  21784593.279   114478802.211    21784594.780    89204260.864                  
  20300840.512   106681635.788    20300840.155    83128547.301                  
  22544985.125   118474704.952    22544983.588    92317954.856                  
  20442309.227   107425005.809    20442312.497    83707783.399                  
  24472538.379   128604006.044    24472541.595   100210902.020                  
  22644893.441   118999729.133    22644893.227    92727063.661                  
                 127704680.868                   127704680.868    24524336.566  
                 125618441.832                   125618441.832    24123697.811  
                 114814036.105                   114814036.105    22048826.257  
                 134387004.288                   134387004.288    25807619.660  
                 121012321.108                   121012321.108    23239179.477  
  26058369.798   136937605.446                                                  
  27604311.232   145061626.005                                                  
  23350083.336   122705500.312                                                  
  23464138.164   123304846.530                                                  
  25185205.923   132349126.336                                                  
 21  8 31  3  7 19.0000000  0 17G 3G 4G16G22G26G27G31C23C24C25C32C33
                                E 1E 4E19E21E27
  21664470.220   113847522.063    21664473.383    88712345.121                  
  21784120.626   114476318.330    21784122.109    89202325.374                  
  20300559.218   106680157.548    20300558.860    83127395.425                  
  22545434.459   118477066.218    22545432.922    92319794.805                  
  20442560.108   107426324.227    20442563.396    83708810.738                  
  24471879.977   128600546.062    24471883.175   100208205.935                  
  22645342.865   119002090.880    22645342.668    92728903.987                  
                 127702612.282                   127702612.282    24523939.320  
                 125620720.923                   125620720.923    24124135.495  
                 114814005.317                   114814005.317    22048820.342  
                 134384183.386                   134384183.386    25807077.942  
                 121014866.086                   121014866.086    23239668.213  
  26057928.308   136935285.304                                                  
  27603807.344   145058977.956                                                  
  23349925.052   122704668.616                                                  
  23464092.205   123304604.931                                                  
  25185615.303   132351277.644                                                  
 21  8 31  3  7 20.0000000  0 17G 3G 4G16G22G26G27G31C23C24C25C32C33
                                E 1E 4E19E21E27
  21664749.638   113848990.453    21664752.818    88713489.324                  
  21783648.008   114473834.677    21783649.473    89200390.063                  
  20300278.067   106678679.956    20300277.674    83126244.062                  
  22545883.865   118479427.823    22545882.328    92321635.020                  
  20442811.097   107427643.194    20442814.385    83709838.511                  
  24471221.539   128597086.024    24471224.755   100205509.804                  
  22645792.306   119004452.691    22645792.074    92730744.362                  
                 127700543.903                   127700543.903    24523542.092  
                 125623000.075                   125623000.075    24124573.179  
                 114813974.797                   114813974.797    22048814.481  
                 134381362.731                   134381362.731    25806536.261  
                 121017411.421                   121017411.421    23240157.038  
  26057486.836   136932965.435                                                  
  27603303.420   145056329.933                                                  
  23349766.857   122703837.222                                                  
  23464046.282   123304363.690                                                  
  25186024.718   132353429.115                                                  
 21  8 31  3  7 21.0000000  0 17G 3G 4G16G22G26G27G31C23C24C25C32C33
                                E 1E 4E19E21E27
  21665029.181   113850459.434    21665032.361    88714633.988                  
  21783175.426   114471351.262    21783176.891    89198454.941                  
  20299997.005   106677203.037    20299996.647    83125093.218                  
  22546333.325   118481789.782    22546331.788    92323475.507                  
  20443062.192   107428962.704    20443065.480    83710866.703                  
  24470563.119   128593625.937    24470566.317   100202813.636                  
  22646241.748   119006814.567    22646241.534    92732584.790                  
                 127698475.735                   127698475.735    24523144.917  
                 125625279.294                   125625279.294    24125010.881  
                 114813944.550                   114813944.550    22048808.673  
                 134378542.312                   134378542.312    25805994.615  
                 121019957.117                   121019957.117    23240645.898  
  26057045.435   136930645.806                                                  
  27602799.549   145053681.966                                                  
  23349608.716   122703006.180                                                  
  23464000.466   123304122.836                                                  
  25186434.168   132355580.755                                                  
 21  8 31  3  7 22.0000000  0 17G 3G 4G16G22G26G27G31C23C24C25C32C33
                                E 1E 4E19E21E27
  21665308.813   113851928.997    21665311.994    88715779.107                  
  21782702.880   114468868.082    21782704.363    89196519.996                  
  20299716.086   106675726.765    20299715.693    83123942.884                  
  22546782.856   118484152.077    22546781.319    92325316.261                  
  20443313.395   107430282.769    20443316.683    83711895.329                  
  24469904.663   128590165.770    24469907.880   100200117.407                  
  22646691.225   119009176.511    22646690.993    92734425.265                  
                 127696407.769                   127696407.769    24522747.796  
                 125627558.574                   125627558.574    24125448.600  
                 114813914.583                   114813914.583    22048802.920  
                 134375722.140                   134375722.140    25805453.041  
                 121022503.168                   121022503.168    23241134.848  
  26056604.088   136928326.418                                                  
  27602295.642   145051033.999                                                  
  23349450.647   122702175.438                                                  
  23463954.703   123303882.341                                                  
  25186843.637   132357732.565                                                  
 21  8 31  3  7 23.0000000  0 17G 3G 4G16G22G26G27G31C23C24C25C32C33
                                E 1E 4E19E21E27
  21665588.588   113853399.144    21665591.751    88716924.671                  
  21782230.405   114466385.145    21782231.888    89194585.242                  
  20299435.274   106674251.169    20299434.899    83122793.066                  
  22547232.458   118486514.728    22547230.921    92327157.285                  
  20443564.705   107431603.388    20443567.975    83712924.378                  
  24469246.225   128586705.560    24469249.424   100197421.137                  
  22647140.685   119011538.527    22647140.488    92736265.800                  
                 127694340.015                   127694340.015    24522350.692  
                 125629837.921                   125629837.921    24125886.320  
                 114813884.883                   114813884.883    22048797.219  
                 134372902.206                   134372902.206    25804911.502  
                 121025049.582                   121025049.582    23241623.852  
  26056162.759   136926007.282                                                  
  27601791.754   145048386.079                                                  
  23349292.596   122701345.018                                                  
  23463908.994   123303642.227                                                  
  25187253.141   132359884.543                                                  
 21  8 31  3  7 24.0000000  0 17G 3G 4G16G22G26G27G31C23C24C25C32C33
                                E 1E 4E19E21E27
  21665868.453   113854869.884    21665871.634    88718070.702                  
  21781757.966   114463902.449    21781759.449    89192650.676                  
  20299154.623   106672776.233    20299154.248    83121643.770                  
  22547682.114   118488877.716    22547680.577    92328998.575                  
  20443816.122   107432924.550    20443819.392    83713953.860                  
  24468587.734   128583245.261    24468590.933   100194724.805                  
  22647590.180   119013900.597    22647589.966    92738106.371                  
                 127692272.470                   127692272.470    24521953.661  
                 125632117.329                   125632117.329    24126324.057  
                 114813855.456                   114813855.456    22048791.555  
                 134370082.520                   134370082.520    25804369.999  
                 121027596.351                   121027596.351    23242112.945  
  26055721.484   136923688.373                                                  
  27601287.883   145045738.188                                                  
  23349134.651   122700514.936                                                  
  23463863.374   123303402.488                                                  
  25187662.682   132362036.694                                                  
 21  8 31  3  7 25.0000000  0 17G 3G 4G16G22G26G27G31C23C24C25C32C33
                                E 1E 4E19E21E27
  21666148.443   113856341.190    21666151.623    88719217.179                  
  21781285.562   114461419.985    21781287.045    89190716.289                  
  20298874.062   106671301.952    20298873.687    83120494.984                  
  22548131.842   118491241.050    22548130.305    92330840.136                  
  20444067.629   107434246.266    20444070.899    83714983.769                  
  24467929.261   128579784.919    24467932.459   100192028.436                  
  22648039.676   119016262.734    22648039.461    92739947.000                  
                 127690205.132                   127690205.132    24521556.647  
                 125634396.804                   125634396.804    24126761.795  
                 114813826.306                   114813826.306    22048785.962  
                 134367263.072                   134367263.072    25803828.568  
                 121030143.480                   121030143.480    23242602.092  
  26055280.262   136921369.718                                                  
  27600784.012   145043090.327                                                  
  23348976.761   122699685.165                                                  
  23463817.844   123303163.116                                                  
  25188072.257   132364189.021                                                  
 21  8 31  3  7 26.0000000  0 17G 3G 4G16G22G26G27G31C23C24C25C32C33
                                E 1E 4E19E21E27
  21666428.540   113857813.077    21666431.702    88720364.106                  
  21780813.195   114458937.759    21780814.678    89188782.091                  
  20298593.643   106669828.339    20298593.268    83119346.710                  
  22548581.641   118493604.734    22548580.104    92332681.970                  
  20444319.242   107435568.526    20444322.512    83716014.101                  
  24467270.751   128576324.511    24467273.968   100189332.015                  
  22648489.207   119018624.942    22648488.974    92741787.683                  
                 127688138.003                   127688138.003    24521159.686  
                 125636676.340                   125636676.340    24127199.568  
                 114813797.426                   114813797.426    22048780.422  
                 134364443.868                   134364443.868    25803287.154  
                 121032690.964                   121032690.964    23243091.292  
  26054839.076   136919051.307                                                  
  27600280.142   145040442.495                                                  
  23348818.924   122698855.735                                                  
  23463772.367   123302924.117                                                  
  25188481.851   132366341.515                                                  
 21  8 31  3  7 27.0000000  0 17G 3G 4G16G22G26G27G31C23C24C25C32C33
                                E 1E 4E19E21E27
  21666708.744   113859285.563    21666711.907    88721511.495                  
  21780340.899   114456455.764    21780342.382    89186848.071                  
  20298313.368   106668355.390    20298312.974    83118198.962                  
  22549031.493   118495968.769    22549029.957    92334524.071                  
  20444570.963   107436891.337    20444574.233    83717044.863                  
  24466612.260   128572864.043    24466615.459   100186635.546                  
  22648938.720   119020987.211    22648938.505    92743628.410                  
                 127686071.083                   127686071.083    24520762.744  
                 125638955.943                   125638955.943    24127637.341  
                 114813768.819                   114813768.819    22048774.919  
                 134361624.905                   134361624.905    25802745.794  
                 121035238.812                   121035238.812    23243580.599  
  26054397.943   136916733.137                                                  
  27599776.289   145037794.695                                                  
  23348661.140   122698026.624                                                  
  23463726.944   123302685.500                                                  
  25188891.499   132368494.182                                                  
 21  8 31  3  7 28.0000000  0 17G 3G 4G16G22G26G27G31C23C24C25C32C33
                                E 1E 4E19E21E27
  21666989.055   113860758.621    21666992.218    88722659.333                  
  21779868.638   114453974.007    21779870.121    89184914.230                  
  20298033.181   106666883.098    20298032.806    83117051.719                  
  22549481.418   118498333.137    22549479.881    92336366.437                  
  20444822.773   107438214.679    20444826.079    83718076.044                  
  24465953.733   128569403.503    24465956.931   100183939.024                  
  22649388.269   119023349.533    22649388.036    92745469.181                  
                 127684004.367                   127684004.367    24520365.855  
                 125641235.609                   125641235.609    24128075.114  
                 114813740.489                   114813740.489    22048769.487  
                 134358806.184                   134358806.184    25802204.506  
                 121037787.014                   121037787.014    23244069.960  
  26053956.864   136914415.207                                                  
  27599272.436   145035146.919                                                  
  23348503.428   122697197.836                                                  
  23463681.593   123302447.237                                                  
  25189301.182   132370647.020                                                  
 21  8 31  3  7 29.0000000  0 17G 3G 4G16G22G26G27G31C23C24C25C32C33
                                E 1E 4E19E21E27
  21667269.474   113862232.265    21667272.637    88723807.625                  
  21779396.414   114451492.485    21779397.897    89182980.579                  
  20297753.138   106665411.460    20297752.763    83115904.993                  
  22549931.413   118500697.844    22549929.876    92338209.067                  
  20445074.727   107439538.579    20445077.997    83719107.649                  
  24465295.206   128565942.911    24465298.404   100181242.457                  
  22649837.800   119025711.922    22649837.585    92747310.003                  
                 127681937.860                   127681937.860    24519969.002  
                 125643515.337                   125643515.337    24128512.923  
                 114813712.429                   114813712.429    22048764.108  
                 134355987.707                   134355987.707    25801663.235  
                 121040335.577                   121040335.577    23244559.375  
  26053515.821   136912097.515                                                  
  27598768.583   145032499.175                                                  
  23348345.788   122696369.350                                                  
  23463636.348   123302209.359                                                  
  25189710.883   132372800.019                                                  
 21  8 31  3  7 30.0000000  0 17G 3G 4G16G22G26G27G31C23C24C25C32C33
                                E 1E 4E19E21E27
  21667550.017   113863706.480    21667553.180    88724956.368                  
  21778924.242   114449011.204    21778925.726    89181047.113                  
  20297473.220   106663940.503    20297472.844    83114758.788                  
  22550381.480   118503062.907    22550379.926    92340051.968                  
  20445326.751   107440863.022    20445330.039    83720139.683                  
  24464636.661   128562482.255    24464639.859   100178545.843                  
  22650287.366   119028074.382    22650287.134    92749150.884                  
                 127679871.563                   127679871.563    24519572.184  
                 125645795.129                   125645795.129    24128950.732  
                 114813684.639                   114813684.639    22048758.765  
                 134353169.472                   134353169.472    25801122.018  
                 121042884.495                   121042884.495    23245048.879  
  26053074.813   136909780.073                                                  
  27598264.748   145029851.469                                                  
  23348188.183   122695541.211                                                  
  23463591.140   123301971.851                                                  
  25190120.619   132374953.191                                                  
 21  8 31  3  7 31.0000000  0 17G 3G 4G16G22G26G27G31C23C24C25C32C33
                                E 1E 4E19E21E27
  21667830.668   113865181.289    21667833.831    88726105.566                  
  21778452.125   114446530.151    21778453.608    89179113.827                  
  20297193.444   106662470.210    20297193.051    83113613.105                  
  22550831.601   118505428.310    22550830.046    92341895.142                  
  20445578.901   107442188.031    20445582.171    83721172.157                  
  24463978.116   128559021.536    24463981.314   100175849.180                  
  22650736.933   119030436.898    22650736.719    92750991.805                  
                 127677805.472                   127677805.472    24519175.421  
                 125648074.985                   125648074.985    24129388.559  
                 114813657.129                   114813657.129    22048753.476  
                 134350351.483                   134350351.483    25800580.855  
                 121045433.776                   121045433.776    23245538.437  
  26052633.859   136907462.874                                                  
  27597760.895   145027203.781                                                  
  23348030.667   122694713.388                                                  
  23463546.021   123301734.715                                                  
  25190530.374   132377106.530                                                  
 21  8 31  3  7 32.0000000  0 17G 3G 4G16G22G26G27G31C23C24C25C32C33
                                E 1E 4E19E21E27
  21668111.426   113866656.671    21668114.571    88727255.214                  
  21777980.043   114444049.345    21777981.526    89177180.731                  
  20296913.776   106661000.568    20296913.401    83112467.929                  
  22551281.775   118507794.054    22551280.238    92343738.578                  
  20445831.140   107443513.563    20445834.428    83722205.039                  
  24463319.535   128555560.753    24463322.734   100173152.468                  
  22651186.518   119032799.484    22651186.303    92752832.776                  
                 127675739.590                   127675739.590    24518778.675  
                 125650354.907                   125650354.907    24129826.404  
                 114813629.886                   114813629.886    22048748.240  
                 134347533.734                   134347533.734    25800039.745  
                 121047983.409                   121047983.409    23246028.066  
  26052192.959   136905145.910                                                  
  27597257.060   145024556.125                                                  
  23347873.188   122693885.891                                                  
  23463500.955   123301497.946                                                  
  25190940.182   132379260.052                                                  
 21  8 31  3  7 33.0000000  0 17G 3G 4G16G22G26G27G31C23C24C25C32C33
                                E 1E 4E19E21E27
  21668392.274   113868132.640    21668395.454    88728405.319                  
  21777507.997   114441568.770    21777509.480    89175247.816                  
  20296634.233   106659531.589    20296633.858    83111323.272                  
  22551732.039   118510160.152    22551730.502    92345582.289                  
  20446083.487   107444839.652    20446086.757    83723238.355                  
  24462660.972   128552099.918    24462664.153   100170455.715                  
  22651636.120   119035162.128    22651635.906    92754673.801                  
                 127673673.918                   127673673.918    24518382.000  
                 125652634.891                   125652634.891    24130264.248  
                 114813602.919                   114813602.919    22048743.058  
                 134344716.231                   134344716.231    25799498.653  
                 121050533.406                   121050533.406    23246517.766  
  26051752.095   136902829.186                                                  
  27596753.243   145021908.501                                                  
  23347715.779   122693058.720                                                  
  23463455.979   123301261.550                                                  
  25191350.026   132381413.731                                                  
 21  8 31  3  7 34.0000000  0 17G 3G 4G16G22G26G27G31C23C24C25C32C33
                                E 1E 4E19E21E27
  21668673.264   113869609.187    21668676.445    88729555.875                  
  21777036.005   114439088.434    21777037.488    89173315.086                  
  20296354.815   106658063.270    20296354.440    83110179.128                  
  22552182.356   118512526.591    22552180.802    92347426.265                  
  20446335.940   107446166.292    20446339.228    83724272.101                  
  24462002.374   128548639.009    24462005.572   100167758.903                  
  22652085.723   119037524.844    22652085.526    92756514.875                  
                 127671608.449                   127671608.449    24517985.344  
                 125654914.939                   125654914.939    24130702.093  
                 114813576.223                   114813576.223    22048737.948  
                 134341898.969                   134341898.969    25798957.633  
                 121053083.757                   121053083.757    23247007.538  
  26051311.302   136900512.712                                                  
  27596249.426   145019260.919                                                  
  23347558.443   122692231.878                                                  
  23463411.056   123301025.526                                                  
  25191759.888   132383567.581                                                  
 21  8 31  3  7 35.0000000  0 17G 3G 4G16G22G26G27G31C23C24C25C32C33
                                E 1E 4E19E21E27
  21668954.344   113871086.312    21668957.525    88730706.880                  
  21776564.066   114436608.332    21776565.531    89171382.539                  
  20296075.540   106656595.614    20296075.165    83109035.500                  
  22552632.745   118514893.368    22552631.208    92349270.509                  
  20446588.483   107447493.476    20446591.753    83725306.274                  
  24461343.775   128545178.035    24461346.974   100165062.038                  
  22652535.343   119039887.620    22652535.146    92758356.000                  
                 127669543.193                   127669543.193    24517588.741  
                 125657195.048                   125657195.048    24131139.956  
                 114813549.800                   114813549.800    22048732.855  
                 134339081.949                   134339081.949    25798416.666  
                 121055634.469                   121055634.469    23247497.382  
  26050870.526   136898196.461                                                  
  27595745.591   145016613.345                                                  
  23347401.160   122691405.340                                                  
  23463366.222   123300789.884                                                  
  25192169.785   132385721.604                                                  
 21  8 31  3  7 36.0000000  0 17G 3G 4G16G22G26G27G31C23C24C25C32C33
                                E 1E 4E19E21E27
  21669235.549   113872564.018    21669238.712    88731858.339                  
  21776092.145   114434128.468    21776093.646    89169450.175                  
  20295796.373   106655128.628    20295795.997    83107892.394                  
  22553083.187   118517260.493    22553081.633    92351115.020                  
  20446841.133   107448821.202    20446844.421    83726340.864                  
  24460685.159   128541717.012    24460688.357   100162365.142                  
  22652984.981   119042250.453    22652984.767    92760197.168                  
                 127667478.146                   127667478.146    24517192.156  
                 125659475.223                   125659475.223    24131577.854  
                 114813523.653                   114813523.653    22048727.834  
                 134336265.171                   134336265.171    25797875.717  
                 121058185.535                   121058185.535    23247987.279  
  26050429.805   136895880.468                                                  
  27595241.792   145013965.815                                                  
  23347243.948   122690579.138                                                  
  23463321.443   123300554.597                                                  
  25192579.701   132387875.792                                                  
 21  8 31  3  7 37.0000000  0 17G 3G 4G16G22G26G27G31C23C24C25C32C33
                                E 1E 4E19E21E27
  21669516.861   113874042.311    21669520.041    88733010.253                  
  21775620.296   114431648.847    21775621.779    89167518.004                  
  20295517.348   106653662.296    20295516.955    83106749.802                  
  22553533.701   118519627.950    22553532.164    92352959.790                  
  20447093.908   107450149.480    20447097.178    83727375.886                  
  24460026.542   128538255.918    24460029.741   100159668.188                  
  22653434.619   119044613.347    22653434.423    92762038.382                  
                 127665413.302                   127665413.302    24516795.624  
                 125661755.460                   125661755.460    24132015.734  
                 114813497.774                   114813497.774    22048722.884  
                 134333448.642                   134333448.642    25797334.840  
                 121060736.965                   121060736.965    23248477.266  
  26049989.137   136893564.716                                                  
  27594737.975   145011318.306                                                  
  23347086.772   122689753.261                                                  
  23463276.734   123300319.691                                                  
  25192989.652   132390030.155                                                  
 21  8 31  3  7 38.0000000  0 17G 3G 4G16G22G26G27G31C23C24C25C32C33
                                E 1E 4E19E21E27
  21669798.280   113875521.182    21669801.461    88734162.625                  
  21775148.482   114429169.458    21775149.965    89165586.012                  
  20295238.448   106652196.630    20295238.055    83105607.722                  
  22553984.286   118521995.757    22553982.732    92354804.836                  
  20447346.773   107451478.310    20447350.061    83728411.336                  
  24459367.908   128534794.768    24459371.107   100156971.188                  
  22653884.276   119046976.320    22653884.079    92763879.660                  
                 127663348.668                   127663348.668    24516399.146  
                 125664035.761                   125664035.761    24132453.668  
                 114813472.168                   114813472.168    22048717.952  
                 134330632.352                   134330632.352    25796793.998  
                 121063288.747                   121063288.747    23248967.306  
  26049548.505   136891249.198                                                  
  27594234.194   145008670.835                                                  
  23346929.685   122688927.703                                                  
  23463232.115   123300085.162                                                  
  25193399.657   132392184.695                                                  
 21  8 31  3  7 39.0000000  0 17G 3G 4G16G22G26G27G31C23C24C25C32C33
                                E 1E 4E19E21E27
  21670079.806   113877000.637    21670082.987    88735315.445                  
  21774676.722   114426690.304    21774678.205    89163654.206                  
  20294959.656   106650731.630    20294959.280    83104466.164                  
  22554434.925   118524363.915    22554433.388    92356650.152                  
  20447599.745   107452807.677    20447603.015    83729447.208                  
  24458709.256   128531333.566    24458712.454   100154274.145                  
  22654333.967   119049339.353    22654333.735    92765720.984                  
                 127661284.243                   127661284.243    24516002.686  
                 125666316.128                   125666316.128    24132891.584  
                 114813446.836                   114813446.836    22048713.092  
                 134327816.306                   134327816.306    25796253.192  
                 121065840.887                   121065840.887    23249457.399  
  26049107.926   136888933.933                                                  
  27593730.394   145006023.390                                                  
  23346772.635   122688102.478                                                  
  23463187.568   123299851.001                                                  
  25193809.679   132394339.399                                                  
 21  8 31  3  7 40.0000000  0 17G 3G 4G16G22G26G27G31C23C24C25C32C33
                                E 1E 4E19E21E27
  21670361.440   113878480.664    21670364.621    88736468.710                  
  21774204.998   114424211.391    21774206.481    89161722.585                  
  20294681.006   106649267.290    20294680.613    83103325.118                  
  22554885.636   118526732.411    22554884.099    92358495.731                  
  20447852.824   107454137.598    20447856.094    83730483.508                  
  24458050.604   128527872.308    24458053.802   100151577.063                  
  22654783.641   119051702.446    22654783.427    92767562.355                  
                 127659220.025                   127659220.025    24515606.280  
                 125668596.554                   125668596.554    24133329.500  
                 114813421.777                   114813421.777    22048708.285  
                 134325000.504                   134325000.504    25795712.458  
                 121068393.387                   121068393.387    23249947.582  
  26048667.383   136886618.906                                                  
  27593226.595   145003375.969                                                  
  23346615.655   122687277.563                                                  
  23463143.056   123299617.202                                                  
  25194219.737   132396494.261                                                  
 21  8 31  3  7 41.0000000  0 17G 3G 4G16G22G26G27G31C23C24C25C32C33
                                E 1E 4E19E21E27
  21670643.199   113879961.278    21670646.380    88737622.433                  
  21773733.327   114421732.718    21773734.792    89159791.156                  
  20294402.482   106647803.602    20294402.106    83102184.581                  
  22555336.417   118529101.245    22555334.863    92360341.578                  
  20448105.992   107455468.062    20448109.280    83731520.233                  
  24457391.934   128524410.973    24457395.132   100148879.919                  
  22655233.315   119054065.593    22655233.119    92769403.766                  
                 127657156.013                   127657156.013    24515209.891  
                 125670877.046                   125670877.046    24133767.452  
                 114813396.991                   114813396.991    22048703.514  
                 134322184.947                   134322184.947    25795171.759  
                 121070946.242                   121070946.242    23250437.837  
  26048226.894   136884304.116                                                  
  27592722.832   145000728.597                                                  
  23346458.765   122686452.989                                                  
  23463098.634   123299383.784                                                  
  25194629.832   132398649.305                                                  
 21  8 31  3  7 42.0000000  0 17G 3G 4G16G22G26G27G31C23C24C25C32C33
                                E 1E 4E19E21E27
  21670925.065   113881442.500    21670928.228    88738776.646                  
  21773261.674   114419254.289    21773263.157    89157859.915                  
  20294124.082   106646340.571    20294123.707    83101044.550                  
  22555787.253   118531470.422    22555785.698    92362187.687                  
  20448359.285   107456799.067    20448362.555    83732557.375                  
  24456733.263   128520949.577    24456736.462   100146182.729                  
  22655683.043   119056428.816    22655682.828    92771245.243                  
                 127655092.239                   127655092.239    24514813.556  
                 125673157.597                   125673157.597    24134205.422  
                 114813372.470                   114813372.470    22048698.815  
                 134319369.648                   134319369.648    25794631.096  
                 121073499.469                   121073499.469    23250928.163  
  26047786.458   136881989.596                                                  
  27592219.068   144998081.264                                                  
  23346301.893   122685628.735                                                  
  23463054.301   123299150.719                                                  
  25195039.961   132400804.508                                                  
 21  8 31  3  7 43.0000000  0 17G 3G 4G16G22G26G27G31C23C24C25C32C33
                                E 1E 4E19E21E27
  21671207.020   113882924.270    21671210.201    88739931.270                  
  21772790.093   114416776.085    21772791.576    89155928.848                  
  20293845.808   106644878.218    20293845.415    83099905.055                  
  22556238.160   118533839.948    22556236.623    92364034.071                  
  20448612.668   107458130.617    20448615.956    83733594.949                  
  24456074.558   128517488.137    24456077.756   100143485.503                  
  22656132.735   119058792.091    22656132.538    92773086.754                  
                 127653028.640                   127653028.640    24514417.275  
                 125675438.215                   125675438.215    24134643.374  
                 114813348.228                   114813348.228    22048694.169  
                 134316554.579                   134316554.579    25794090.504  
                 121076053.039                   121076053.039    23251418.543  
  26047346.058   136879675.297                                                  
  27591715.287   144995433.934                                                  
  23346145.092   122684804.803                                                  
  23463010.021   123298918.043                                                  
  25195450.127   132402959.889                                                  
 21  8 31  3  7 44.0000000  0 17G 3G 4G16G22G26G27G31C23C24C25C32C33
                                E 1E 4E19E21E27
  21671489.118   113884406.624    21671492.281    88741086.355                  
  21772318.565   114414298.125    21772320.048    89153997.968                  
  20293567.641   106643416.519    20293567.284    83098766.071                  
  22556689.120   118536209.820    22556687.584    92365880.722                  
  20448866.158   107459462.718    20448869.446    83734632.950                  
  24455415.852   128514026.617    24455419.068   100140788.215                  
  22656582.480   119061155.437    22656582.266    92774928.325                  
                 127650965.257                   127650965.257    24514021.012  
                 125677718.899                   125677718.899    24135081.362  
                 114813324.259                   114813324.259    22048689.559  
                 134313739.751                   134313739.751    25793549.948  
                 121078606.964                   121078606.964    23251908.994  
  26046905.694   136877361.238                                                  
  27591211.523   144992786.636                                                  
  23345988.381   122683981.192                                                  
  23462965.813   123298685.735                                                  
  25195860.292   132405115.438                                                  
 21  8 31  3  7 45.0000000  0 17G 3G 4G16G22G26G27G31C23C24C25C32C33
                                E 1E 4E19E21E27
  21671771.306   113885889.563    21671774.487    88742241.887                  
  21771847.055   114411820.398    21771848.538    89152067.273                  
  20293289.617   106641955.493    20293289.242    83097627.606                  
  22557140.152   118538580.027    22557138.616    92367727.637                  
  20449119.755   107460795.369    20449123.043    83735671.374                  
  24454757.146   128510565.042    24454760.345   100138090.886                  
  22657032.226   119063518.851    22657032.011    92776769.946                  
                 127648902.079                   127648902.079    24513624.802  
                 125679999.642                   125679999.642    24135519.367  
                 114813300.563                   114813300.563    22048685.002  
                 134310925.168                   134310925.168    25793009.446  
                 121081161.249                   121081161.249    23252399.516  
  26046465.401   136875047.419                                                  
  27590707.760   144990139.376                                                  
  23345831.723   122683157.909                                                  
  23462921.677   123298453.796                                                  
  25196270.512   132407271.149                                                  
 21  8 31  3  7 46.0000000  0 17G 3G 4G16G22G26G27G31C23C24C25C32C33
                                E 1E 4E19E21E27
  21672053.619   113887373.082    21672056.782    88743397.876                  
  21771375.599   114409342.913    21771377.100    89150136.766                  
  20293011.718   106640495.138    20293011.343    83096489.668                  
  22557591.256   118540950.586    22557589.719    92369574.823                  
  20449373.460   107462128.562    20449376.748    83736710.231                  
  24454098.422   128507103.411    24454101.603   100135393.512                  
  22657481.989   119065882.320    22657481.757    92778611.610                  
                 127646839.108                   127646839.108    24513228.645  
                 125682280.449                   125682280.449    24135957.355  
                 114813277.135                   114813277.135    22048680.499  
                 134308110.829                   134308110.829    25792468.962  
                 121083715.895                   121083715.895    23252890.128  
  26046025.144   136872733.847                                                  
  27590203.996   144987492.140                                                  
  23345675.101   122682334.943                                                  
  23462877.612   123298222.239                                                  
  25196680.784   132409427.024                                                  
 21  8 31  3  7 47.0000000  0 17G 3G 4G16G22G26G27G31C23C24C25C32C33
                                E 1E 4E19E21E27
  21672336.021   113888857.185    21672339.201    88744554.320                  
  21770904.196   114406865.669    21770905.679    89148206.446                  
  20292733.962   106639035.441    20292733.586    83095352.241                  
  22558042.449   118543321.488    22558040.894    92371422.282                  
  20449627.253   107463462.298    20449630.541    83737749.503                  
  24453439.681   128503641.716    24453442.879   100132696.087                  
  22657931.734   119068245.860    22657931.538    92780453.327                  
                 127644776.347                   127644776.347    24512832.507  
                 125684561.319                   125684561.319    24136395.378  
                 114813253.984                   114813253.984    22048676.067  
                 134305296.734                   134305296.734    25791928.531  
                 121086270.896                   121086270.896    23253380.776  
  26045584.923   136870420.519                                                  
  27589700.268   144984844.939                                                  
  23345518.569   122681512.308                                                  
  23462833.618   123297991.042                                                  
  25197091.057   132411583.077                                                  
 21  8 31  3  7 48.0000000  0 17G 3G 4G16G22G26G27G31C23C24C25C32C33
                                E 1E 4E19E21E27
  21672618.566   113890341.855    21672621.729    88745711.203                  
  21770432.847   114404388.649    21770434.312    89146276.300                  
  20292456.295   106637576.398    20292455.938    83094215.329                  
  22558493.659   118545692.722    22558492.123    92373269.997                  
  20449881.154   107464796.586    20449884.442    83738789.211                  
  24452780.921   128500179.965    24452784.120   100129998.618                  
  22658381.516   119070609.461    22658381.319    92782295.090                  
                 127642713.792                   127642713.792    24512436.422  
                 125686842.254                   125686842.254    24136833.401  
                 114813231.105                   114813231.105    22048671.654  
                 134302482.886                   134302482.886    25791388.172  
                 121088826.249                   121088826.249    23253871.495  
  26045144.755   136868107.431                                                  
  27589196.523   144982197.770                                                  
  23345362.072   122680689.982                                                  
  23462789.696   123297760.222                                                  
  25197501.384   132413739.298                                                  
 21  8 31  3  7 49.0000000  0 17G 3G 4G16G22G26G27G31C23C24C25C32C33
                                E 1E 4E19E21E27
  21672901.182   113891827.117    21672904.363    88746868.550                  
  21769961.516   114401911.880    21769963.017    89144346.353                  
  20292178.771   106636118.021    20292178.396    83093078.929                  
  22558944.959   118548064.302    22558943.423    92375117.977                  
  20450135.180   107466131.417    20450138.468    83739829.341                  
  24452122.162   128496718.143    24452125.361   100127301.097                  
  22658831.315   119072973.121    22658831.100    92784136.903                  
                 127640651.446                   127640651.446    24512040.355  
                 125689123.249                   125689123.249    24137271.461  
                 114813208.500                   114813208.500    22048667.312  
                 134299669.277                   134299669.277    25790847.866  
                 121091381.962                   121091381.962    23254362.303  
  26044704.641   136865794.587                                                  
  27588692.777   144979550.633                                                  
  23345205.664   122679868.005                                                  
  23462745.846   123297529.773                                                  
  25197911.728   132415895.695                                                  
 21  8 31  3  7 50.0000000  0 17G 3G 4G16G22G26G27G31C23C24C25C32C33
                                E 1E 4E19E21E27
  21673183.942   113893312.957    21673187.104    88748026.348                  
  21769490.256   114399435.344    21769491.739    89142416.586                  
  20291901.408   106634660.301    20291901.015    83091943.044                  
  22559396.313   118550436.223    22559394.776    92376966.226                  
  20450389.278   107467466.802    20450392.566    83740869.894                  
  24451463.385   128493256.263    24451466.583   100124603.528                  
  22659281.114   119075336.855    22659280.899    92785978.773                  
                 127638589.310                   127638589.310    24511644.342  
                 125691404.312                   125691404.312    24137709.502  
                 114813186.163                   114813186.163    22048663.041  
                 134296855.918                   134296855.918    25790307.578  
                 121093938.033                   121093938.033    23254853.183  
  26044264.563   136863481.983                                                  
  27588189.067   144976903.523                                                  
  23345049.292   122679046.339                                                  
  23462702.067   123297299.692                                                  
  25198322.108   132418052.254                                                  
 21  8 31  3  7 51.0000000  0 17G 3G 4G16G22G26G27G31C23C24C25C32C33
                                E 1E 4E19E21E27
  21673466.773   113894799.370    21673469.953    88749184.594                  
  21769019.032   114396959.048    21769020.515    89140487.005                  
  20291624.117   106633203.251    20291623.741    83090807.680                  
  22559847.756   118552808.484    22559846.219    92378814.741                  
  20450643.500   107468802.727    20450646.788    83741910.879                  
  24450804.608   128489794.333    24450807.806   100121905.922                  
  22659730.948   119077700.644    22659730.716    92787820.691                  
                 127636527.403                   127636527.403    24511248.383  
                 125693685.430                   125693685.430    24138147.579  
                 114813164.113                   114813164.113    22048658.806  
                 134294042.797                   134294042.797    25789767.344  
                 121096494.481                   121096494.481    23255344.117  
  26043824.538   136861169.617                                                  
  27587685.340   144974256.436                                                  
  23344893.028   122678225.001                                                  
  23462658.341   123297069.984                                                  
  25198732.523   132420208.979                                                  
 21  8 31  3  7 52.0000000  0 17G 3G 4G16G22G26G27G31C23C24C25C32C33
                                E 1E 4E19E21E27
  21673749.764   113896286.366    21673752.927    88750343.292                  
  21768547.862   114394482.990    21768549.345    89138557.604                  
  20291346.986   106631746.855    20291346.593    83089672.828                  
  22560299.235   118555181.082    22560297.698    92380663.519                  
  20450897.812   107470139.198    20450901.100    83742952.285                  
  24450145.795   128486332.344    24450148.993   100119208.267                  
  22660180.765   119080064.506    22660180.533    92789662.660                  
                 127634465.679                   127634465.679    24510852.441  
                 125695966.617                   125695966.617    24138585.638  
                 114813142.325                   114813142.325    22048654.625  
                 134291229.921                   134291229.921    25789227.164  
                 121099051.265                   121099051.265    23255835.122  
  26043384.567   136858857.504                                                  
  27587181.612   144971609.391                                                  
  23344736.781   122677403.989                                                  
  23462614.705   123296840.656                                                  
  25199142.957   132422365.884                                                  
 21  8 31  3  7 53.0000000  0 17G 3G 4G16G22G26G27G31C23C24C25C32C33
                                E 1E 4E19E21E27
  21674032.845   113897773.953    21674036.008    88751502.446                  
  21768076.727   114392007.163    21768078.192    89136628.391                  
  20291069.963   106630291.128    20291069.587    83088538.495                  
  22560750.803   118557554.032    22560749.266    92382512.569                  
  20451152.267   107471476.206    20451155.537    83743994.110                  
  24449486.999   128482870.281    24449490.198   100116510.558                  
  22660630.600   119082428.431    22660630.386    92791504.676                  
                 127632404.165                   127632404.165    24510456.552  
                 125698247.866                   125698247.866    24139023.733  
                 114813120.805                   114813120.805    22048650.479  
                 134288417.297                   134288417.297    25788687.019  
                 121101608.406                   121101608.406    23256326.180  
  26042944.614   136856545.616                                                  
  27586677.902   144968962.380                                                  
  23344580.606   122676583.301                                                  
  23462571.140   123296611.678                                                  
  25199553.444   132424522.941                                                  
 21  8 31  3  7 54.0000000  0 17G 3G 4G16G22G26G27G31C23C24C25C32C33
                                E 1E 4E19E21E27
  21674316.016   113899262.108    21674319.196    88752662.048                  
  21767605.646   114389531.583    21767607.111    89134699.370                  
  20290793.082   106628836.058    20290792.707    83087404.675                  
  22561202.424   118559927.312    22561200.888    92384361.878                  
  20451406.776   107472813.778    20451410.064    83745036.371                  
  24448828.186   128479408.181    24448831.385   100113812.817                  
  22661080.435   119084792.402    22661080.238    92793346.734                  
                 127630342.861                   127630342.861    24510060.700  
                 125700529.175                   125700529.175    24139461.845  
                 114813099.558                   114813099.558    22048646.405  
                 134285604.915                   134285604.915    25788146.946  
                 121104165.901                   121104165.901    23256817.328  
  26042504.732   136854233.984                                                  
  27586174.192   144966315.390                                                  
  23344424.502   122675762.917                                                  
  23462527.647   123296383.097                                                  
  25199963.931   132426680.181                                                  
 21  8 31  3  7 55.0000000  0 17G 3G 4G16G22G26G27G31C23C24C25C32C33
                                E 1E 4E19E21E27
  21674599.311   113900750.851    21674602.492    88753822.105                  
  21767134.601   114387056.238    21767136.084    89132770.532                  
  20290516.327   106627381.660    20290515.933    83086271.378                  
  22561654.118   118562300.946    22561652.581    92386211.461                  
  20451661.427   107474151.880    20451664.697    83746079.046                  
  24448169.356   128475946.007    24448172.536   100111115.024                  
  22661530.323   119087156.452    22661530.109    92795188.847                  
                 127628281.762                   127628281.762    24509664.883  
                 125702810.552                   125702810.552    24139899.958  
                 114813078.587                   114813078.587    22048642.384  
                 134282792.774                   134282792.774    25787606.908  
                 121106723.754                   121106723.754    23257308.548  
  26042064.886   136851922.601                                                  
  27585670.500   144963668.427                                                  
  23344268.434   122674942.879                                                  
  23462484.207   123296154.876                                                  
  25200374.472   132428837.578                                                  
 21  8 31  3  7 56.0000000  0 17G 3G 4G16G22G26G27G31C23C24C25C32C33
                                E 1E 4E19E21E27
  21674882.714   113902240.171    21674885.895    88754982.616                  
  21766663.609   114384581.145    21766665.074    89130841.884                  
  20290239.678   106625927.926    20290239.303    83085138.598                  
  22562105.864   118564674.915    22562104.328    92388061.304                  
  20451916.168   107475490.529    20451919.438    83747122.153                  
  24447510.525   128472483.778    24447513.705   100108417.181                  
  22661980.176   119089520.561    22661979.979    92797031.012                  
                 127626220.870                   127626220.870    24509269.120  
                 125705091.990                   125705091.990    24140338.089  
                 114813057.884                   114813057.884    22048638.399  
                 134279980.878                   134279980.878    25787066.906  
                 121109281.965                   121109281.965    23257799.821  
  26041625.094   136849611.450                                                  
  27585166.808   144961021.505                                                  
  23344112.455   122674123.170                                                  
  23462440.839   123295927.019                                                  
  25200785.067   132430995.152                                                  
 21  8 31  3  7 57.0000000  0 17G 3G 4G16G22G26G27G31C23C24C25C32C33
                                E 1E 4E19E21E27
  21675166.242   113903730.067    21675169.422    88756143.574                  
  21766192.635   114382106.270    21766194.118    89128913.409                  
  20289963.155   106624474.854    20289962.780    83084006.336                  
  22562557.683   118567049.215    22562556.146    92389911.411                  
  20452170.998   107476829.726    20452174.286    83748165.679                  
  24446851.658   128469021.490    24446854.857   100105719.294                  
  22662430.082   119091884.732    22662429.868    92798873.218                  
                 127624160.191                   127624160.191    24508873.375  
                 125707373.491                   125707373.491    24140776.219  
                 114813037.457                   114813037.457    22048634.486  
                 134277169.231                   134277169.231    25786526.940  
                 121111840.531                   121111840.531    23258291.165  
  26041185.337   136847300.540                                                  
  27584663.116   144958374.603                                                  
  23343956.548   122673303.773                                                  
  23462397.561   123295699.535                                                  
  25201195.661   132433152.887                                                  
 21  8 31  3  7 58.0000000  0 17G 3G 4G16G22G26G27G31C23C24C25C32C33
                                E 1E 4E19E21E27
  21675449.877   113905220.544    21675453.040    88757304.985                  
  21765721.733   114379631.649    21765723.216    89126985.134                  
  20289686.775   106623022.440    20289686.400    83082874.585                  
  22563009.555   118569423.865    22563008.018    92391761.785                  
  20452425.935   107478169.466    20452429.223    83749209.632                  
  24446192.791   128465559.134    24446195.972   100103021.354                  
  22662879.988   119094248.964    22662879.756    92800715.481                  
                 127622099.715                   127622099.715    24508477.683  
                 125709655.054                   125709655.054    24141214.386  
                 114813017.297                   114813017.297    22048630.609  
                 134274357.829                   134274357.829    25785987.045  
                 121114399.454                   121114399.454    23258782.581  
  26040745.634   136844989.870                                                  
  27584159.424   144955727.733                                                  
  23343800.676   122672484.707                                                  
  23462354.335   123295472.438                                                  
  25201606.291   132435310.792                                                  
 21  8 31  3  7 59.0000000  0 17G 3G 4G16G22G26G27G31C23C24C25C32C33
                                E 1E 4E19E21E27
  21675733.619   113906711.602    21675736.782    88758466.848                  
  21765250.884   114377157.258    21765252.367    89125057.039                  
  20289410.520   106621570.698    20289410.145    83081743.360                  
  22563461.498   118571798.852    22563459.961    92393612.426                  
  20452680.980   107479509.758    20452684.268    83750254.020                  
  24445533.925   128462096.731    24445537.123   100100323.378                  
  22663329.877   119096613.261    22663329.680    92802557.788                  
                 127620039.448                   127620039.448    24508082.045  
                 125711936.680                   125711936.680    24141652.534  
                 114812997.414                   114812997.414    22048626.803  
                 134271546.668                   134271546.668    25785447.204  
                 121116958.730                   121116958.730    23259274.069  
  26040305.985   136842679.458                                                  
  27583655.768   144953080.902                                                  
  23343644.876   122671665.969                                                  
  23462311.200   123295245.693                                                  
  25202016.957   132437468.874                                                  
 21  8 31  3  8  0.0000000  0 17G 3G 4G16G22G26G27G31C23C24C25C32C33
                                E 1E 4E19E21E27
  21676017.468   113908203.235    21676020.631    88759629.157                  
  21764780.053   114374683.110    21764781.536    89123129.134                  
  20289134.372   106620119.616    20289134.015    83080612.645                  
  22563913.513   118574174.185    22563911.976    92395463.333                  
  20452936.132   107480850.586    20452939.420    83751298.821                  
  24444875.040   128458634.267    24444878.221   100097625.356                  
  22663779.801   119098977.622    22663779.604    92804400.148                  
                 127617979.391                   127617979.391    24507686.425  
                 125714218.368                   125714218.368    24142090.700  
                 114812977.801                   114812977.801    22048623.014  
                 134268735.754                   134268735.754    25784907.381  
                 121119518.368                   121119518.368    23259765.592  
  26039866.353   136840369.281                                                  
  27583152.076   144950434.097                                                  
  23343489.148   122670847.551                                                  
  23462268.117   123295019.332                                                  
  25202427.659   132439627.122                                                  
 21  8 31  3  8  1.0000000  0 17G 3G 4G16G22G26G27G31C23C24C25C32C33
                                E 1E 4E19E21E27
  21676301.425   113909695.449    21676304.606    88760791.921                  
  21764309.294   114372209.197    21764310.777    89121201.411                  
  20288858.385   106618669.195    20288857.992    83079482.448                  
  22564365.599   118576549.853    22564364.062    92397314.500                  
  20453191.409   107482191.973    20453194.679    83752344.055                  
  24444216.138   128455171.747    24444219.337   100094927.289                  
  22664229.743   119101342.042    22664229.546    92806242.551                  
                 127615919.543                   127615919.543    24507290.859  
                 125716500.117                   125716500.117    24142528.902  
                 114812958.458                   114812958.458    22048619.298  
                 134265925.085                   134265925.085    25784367.611  
                 121122078.359                   121122078.359    23260257.222  
  26039426.793   136838059.339                                                  
  27582648.419   144947787.324                                                  
  23343333.455   122670029.462                                                  
  23462225.125   123294793.333                                                  
  25202838.396   132441785.533                                                  
 21  8 31  3  8  2.0000000  0 17G 3G 4G16G22G26G27G31C23C24C25C32C33
                                E 1E 4E19E21E27
  21676585.507   113911188.238    21676588.652    88761955.133                  
  21763838.552   114369735.524    21763840.035    89119273.872                  
  20288582.505   106617219.442    20288582.112    83078352.769                  
  22564817.739   118578925.867    22564816.202    92399165.942                  
  20453446.757   107483533.887    20453450.045    83753389.703                  
  24443557.236   128451709.165    24443560.416   100092229.171                  
  22664679.703   119103706.542    22664679.488    92808085.020                  
                 127613859.901                   127613859.901    24506895.328  
                 125718781.932                   125718781.932    24142967.104  
                 114812939.386                   114812939.386    22048615.634  
                 134263114.665                   134263114.665    25783827.913  
                 121124638.707                   121124638.707    23260748.924  
  26038987.287   136835749.650                                                  
  27582144.763   144945140.578                                                  
  23343177.834   122669211.687                                                  
  23462182.185   123294567.712                                                  
  25203249.151   132443944.110                                                  
 21  8 31  3  8  3.0000000  0 17G 3G 4G16G22G26G27G31C23C24C25C32C33
                                E 1E 4E19E21E27
  21676869.678   113912681.620    21676872.841    88763118.805                  
  21763367.900   114367262.098    21763369.383    89117346.527                  
  20288306.768   106615770.356    20288306.375    83077223.610                  
  22565269.932   118581302.227    22565268.396    92401017.652                  
  20453702.213   107484876.362    20453705.500    83754435.789                  
  24442898.315   128448246.516    24442901.496   100089531.007                  
  22665129.663   119106071.097    22665129.448    92809927.531                  
                 127611800.469                   127611800.469    24506499.815  
                 125721063.809                   125721063.809    24143405.306  
                 114812920.590                   114812920.590    22048612.043  
                 134260304.484                   134260304.484    25783288.233  
                 121127199.407                   121127199.407    23261240.680  
  26038547.798   136833440.195                                                  
  27581641.107   144942493.870                                                  
  23343022.284   122668394.241                                                  
  23462139.317   123294342.461                                                  
  25203659.960   132446102.863                                                  
 21  8 31  3  8  4.0000000  0 17G 3G 4G16G22G26G27G31C23C24C25C32C33
                                E 1E 4E19E21E27
  21677153.956   113914175.568    21677157.137    88764282.919                  
  21762897.266   114364788.907    21762898.749    89115419.367                  
  20288031.121   106614321.927    20288030.745    83076094.964                  
  22565722.215   118583678.931    22565720.678    92402869.624                  
  20453957.775   107486219.374    20453961.063    83755482.292                  
  24442239.377   128444783.820    24442242.576   100086832.800                  
  22665579.623   119108435.710    22665579.426    92811770.087                  
                 127609741.243                   127609741.243    24506104.373  
                 125723345.747                   125723345.747    24143843.526  
                 114812902.068                   114812902.068    22048608.487  
                 134257494.553                   134257494.553    25782748.624  
                 121129760.467                   121129760.467    23261732.507  
  26038108.381   136831130.983                                                  
  27581137.468   144939847.182                                                  
  23342866.806   122667577.126                                                  
  23462096.521   123294117.573                                                  
  25204070.787   132448261.778                                                  
 21  8 31  3  8  5.0000000  0 17G 3G 4G16G22G26G27G31C23C24C25C32C33
                                E 1E 4E19E21E27
  21677438.359   113915670.097    21677441.540    88765447.489                  
  21762426.685   114362315.956    21762428.168    89113492.390                  
  20287755.616   106612874.173    20287755.241    83074966.844                  
  22566174.534   118586055.978    22566172.997    92404721.871                  
  20454213.463   107487562.929    20454216.733    83756529.218                  
  24441580.439   128441321.062    24441583.638   100084134.550                  
  22666029.600   119110800.395    22666029.404    92813612.696                  
                 127607682.221                   127607682.221    24505708.968  
                 125725627.746                   125725627.746    24144281.764  
                 114812883.810                   114812883.810    22048604.984  
                 134254684.867                   134254684.867    25782209.051  
                 121132321.883                   121132321.883    23262224.405  
  26037668.982   136828822.019                                                  
  27580633.812   144937200.547                                                  
  23342711.363   122666760.340                                                  
  23462053.796   123293893.062                                                  
  25204481.631   132450420.860                                                  
 21  8 31  3  8  6.0000000  0 17G 3G 4G16G22G26G27G31C23C24C25C32C33
                                E 1E 4E19E21E27
  21677722.888   113917165.207    21677726.033    88766612.508                  
  21761956.122   114359843.226    21761957.605    89111565.590                  
  20287480.237   106611427.061    20287479.861    83073839.227                  
  22566626.942   118588433.339    22566625.405    92406574.360                  
  20454469.223   107488907.026    20454472.493    83757576.567                  
  24440921.501   128437858.261    24440924.682   100081436.265                  
  22666479.596   119113165.149    22666479.399    92815455.359                  
                 127605623.414                   127605623.414    24505313.580  
                 125727909.811                   125727909.811    24144720.002  
                 114812865.828                   114812865.828    22048601.518  
                 134251875.427                   134251875.427    25781669.514  
                 121134883.653                   121134883.653    23262716.357  
  26037229.654   136826513.297                                                  
  27580130.174   144934553.913                                                  
  23342555.992   122665943.894                                                  
  23462011.143   123293668.917                                                  
  25204892.547   132452580.109                                                  
 21  8 31  3  8  7.0000000  0 17G 3G 4G16G22G26G27G31C23C24C25C32C33
                                E 1E 4E19E21E27
  21678007.506   113918660.902    21678010.669    88767777.984                  
  21761485.613   114357370.736    21761487.096    89109638.972                  
  20287205.000   106609980.613    20287204.625    83072712.125                  
  22567079.403   118590811.046    22567077.884    92408427.121                  
  20454725.107   107490251.676    20454728.377    83758624.343                  
  24440262.545   128434395.415    24440265.726   100078737.942                  
  22666929.627   119115529.954    22666929.395    92817298.066                  
                 127603564.814                   127603564.814    24504918.263  
                 125730191.938                   125730191.938    24145158.258  
                 114812848.117                   114812848.117    22048598.123  
                 134249066.229                   134249066.229    25781130.066  
                 121137445.778                   121137445.778    23263208.381  
  26036790.362   136824204.817                                                  
  27579626.535   144931907.304                                                  
  23342400.692   122665127.798                                                  
  23461968.561   123293445.136                                                  
  25205303.464   132454739.544                                                  
 21  8 31  3  8  8.0000000  0 17G 3G 4G16G22G26G27G31C23C24C25C32C33
                                E 1E 4E19E21E27
  21678292.213   113920157.159    21678295.394    88768943.903                  
  21761015.175   114354898.525    21761016.658    89107712.574                  
  20286929.889   106608534.860    20286929.495    83071585.566                  
  22567531.936   118593189.132    22567530.399    92410280.172                  
  20454981.081   107491596.874    20454984.369    83759672.552                  
  24439603.553   128430932.449    24439606.734   100076039.531                  
  22667379.623   119117894.802    22667379.426    92819140.801                  
                 127601506.417                   127601506.417    24504522.965  
                 125732474.126                   125732474.126    24145596.531  
                 114812830.679                   114812830.679    22048594.781  
                 134246257.281                   134246257.281    25780590.618  
                 121140008.263                   121140008.263    23263700.476  
  26036351.123   136821896.574                                                  
  27579122.915   144929260.793                                                  
  23342245.446   122664311.895                                                  
  23461926.069   123293221.751                                                  
  25205714.415   132456899.110                                                  
 21  8 31  3  8  9.0000000  0 17G 3G 4G16G22G26G27G31C23C24C25C32C33
                                E 1E 4E19E21E27
  21678577.063   113921654.018    21678580.244    88770110.280                  
  21760544.773   114352426.531    21760546.256    89105786.344                  
  20286654.884   106607089.750    20286654.491    83070459.504                  
  22567984.541   118595567.529    22567983.004    92412133.464                  
  20455237.180   107492942.606    20455240.467    83760721.172                  
  24438944.562   128427469.465    24438947.760   100073341.098                  
  22667829.654   119120259.730    22667829.458    92820983.606                  
                 127599448.235                   127599448.235    24504127.702  
                 125734756.375                   125734756.375    24146034.823  
                 114812813.512                   114812813.512    22048591.475  
                 134243448.577                   134243448.577    25780051.242  
                 121142571.097                   121142571.097    23264192.642  
  26035911.921   136819588.583                                                  
  27578619.294   144926614.266                                                  
  23342090.254   122663496.415                                                  
  23461883.612   123292998.727                                                  
  25206125.403   132459058.864                                                  
 21  8 31  3  8 10.0000000  0 17G 3G 4G16G22G26G27G31C23C24C25C32C33
                                E 1E 4E19E21E27
  21678862.020   113923151.438    21678865.201    88771277.101                  
  21760074.425   114349954.777    21760075.908    89103860.305                  
  20286380.023   106605645.309    20286379.648    83069333.968                  
  22568437.199   118597946.266    22568435.662    92413987.028                  
  20455493.368   107494288.887    20455496.638    83761770.222                  
  24438285.552   128424006.411    24438288.769   100070642.616                  
  22668279.703   119122624.731    22668279.507    92822826.462                  
                 127597390.254                   127597390.254    24503732.493  
                 125737038.688                   125737038.688    24146473.114  
                 114812796.618                   114812796.618    22048588.223  
                 134240640.120                   134240640.120    25779511.901  
                 121145134.289                   121145134.289    23264684.880  
  26035472.771   136817280.833                                                  
  27578115.692   144923967.778                                                  
  23341935.133   122662681.245                                                  
  23461841.244   123292776.064                                                  
  25206536.426   132461218.776                                                  
 21  8 31  3  8 11.0000000  0 17G 3G 4G16G22G26G27G31C23C24C25C32C33
                                E 1E 4E19E21E27
  21679147.085   113924649.442    21679150.265    88772444.379                  
  21759604.094   114347483.253    21759605.577    89101934.442                  
  20286105.287   106604201.528    20286104.894    83068208.941                  
  22568889.928   118600325.344    22568888.374    92415840.852                  
  20455749.663   107495635.711    20455752.933    83762819.695                  
  24437626.560   128420543.304    24437629.759   100067944.094                  
  22668729.753   119124989.785    22668729.556    92824669.359                  
                 127595332.485                   127595332.485    24503337.319  
                 125739321.062                   125739321.062    24146911.423  
                 114812779.991                   114812779.991    22048585.043  
                 134237831.911                   134237831.911    25778972.614  
                 121147697.839                   121147697.839    23265177.172  
  26035033.658   136814973.324                                                  
  27577612.107   144921321.305                                                  
  23341780.083   122661866.411                                                  
  23461798.948   123292553.776                                                  
  25206947.485   132463378.862                                                  
 21  8 31  3  8 12.0000000  0 17G 3G 4G16G22G26G27G31C23C24C25C32C33
                                E 1E 4E19E21E27
  21679432.239   113926148.021    21679435.419    88773612.103                  
  21759133.835   114345011.978    21759135.318    89100008.773                  
  20285830.658   106602758.413    20285830.283    83067084.436                  
  22569342.694   118602704.759    22569341.175    92417694.942                  
  20456006.048   107496983.072    20456009.318    83763869.587                  
  24436967.533   128417080.156    24436970.732   100065245.534                  
  22669179.820   119127354.898    22669179.623    92826512.304                  
                 127593274.925                   127593274.925    24502942.182  
                 125741603.499                   125741603.499    24147349.732  
                 114812763.640                   114812763.640    22048581.898  
                 134235023.946                   134235023.946    25778433.380  
                 121150261.743                   121150261.743    23265669.553  
  26034594.598   136812666.058                                                  
  27577108.504   144918674.876                                                  
  23341625.087   122661051.887                                                  
  23461756.706   123292331.853                                                  
  25207358.562   132465539.118                                                  
