     2.11           OBSERVATION DATA    M (MIXED)           RINEX VERSION / TYPE
CONVBIN 2.4.3                           20210902 201950 UTC PGM / RUN BY / DATE 
log: logs/21_09_02_06_46_49_talh_SW.rtcm                    COMMENT             
format: RTCM 3, station ID: 473                             COMMENT             
0473                                                        MARKER NAME         
                                                            MARKER NUMBER       
                                                            OBSERVER / AGENCY   
                    SWFT                                    REC # / TYPE / VERS 
                    NULL                                    ANT # / TYPE        
   546420.2590 -5528946.1897  3122095.9476                  APPROX POSITION XYZ 
        0.0000        0.0000        0.0000                  ANTENNA: DELTA H/E/N
     1     1                                                WAVELENGTH FACT L1/2
     5    C1    L1    P2    L2    C2                        # / TYPES OF OBSERV 
  2021     9     2     6    46   54.0000000     GPS         TIME OF FIRST OBS   
  2021     9     2     7    16   52.0000000     GPS         TIME OF LAST OBS    
                                                            END OF HEADER       
 21  9  2  6 46 54.0000000  0 22G 1G 4G 7G 8G 9G14G21G27G30C24C25C26
                                C33C34C35E 2E 3E 5E 8E24E25E36
  23625509.773   124152842.769    23625513.186    96742461.723                  
  23128830.094   121542816.876    23128831.416    94708688.425                  
  20929857.782   109987160.139    20929857.103    85704284.136                  
  20703399.454   108797058.368    20703401.795    84776918.773                  
  21700303.633   114035832.001    21700305.723    88859081.429                  
  24241592.175   127390424.712    24241593.140    99265267.578                  
  22212982.002   116730007.386    22212981.287    90958447.673                  
  22736136.371   119479174.165    22736138.158    93100648.969                  
  23267624.299   122272153.663    23267626.318    95276993.594                  
                 116448941.839                   116448941.839    22362789.422  
                 131227723.234                   131227723.234    25200902.198  
                 120572465.229                   120572465.229    23154673.633  
                 134773854.105                   134773854.105    25881936.426  
                 123266863.730                   123266863.730    23672105.984  
                 129596417.929                   129596417.929    24887629.153  
  24984838.067   131296186.095                                                  
  25198810.093   132420623.617                                                  
  27352070.353   143736085.900                                                  
  24347868.796   127948909.331                                                  
  27678467.106   145451364.755                                                  
  24411070.655   128281031.316                                                  
  25809624.653   135630438.386                                                  
 21  9  2  6 46 55.0000000  0 22G 1G 4G 7G 8G 9G14G21G27G30C24C25C26
                                C33C34C35E 2E 3E 5E 8E24E25E36
  23624881.551   124149541.470    23624884.982    96739889.280                  
  23129484.815   121546257.479    23129486.137    94711369.418                  
  20929490.734   109985231.323    20929490.055    85702781.164                  
  20703735.624   108798824.938    20703737.983    84778295.321                  
  21700711.815   114037977.001    21700713.906    88860752.859                  
  24241188.442   127388303.062    24241189.407    99263614.348                  
  22212622.888   116728120.192    22212622.155    90956977.128                  
  22736754.443   119482422.082    22736756.212    93103179.812                  
  23267055.617   122269165.183    23267057.636    95274664.906                  
                 116448326.633                   116448326.633    22362671.272  
                 131225448.761                   131225448.761    25200465.426  
                 120573787.686                   120573787.686    23154927.605  
                 134775784.004                   134775784.004    25882307.047  
                 123263993.699                   123263993.699    23671554.814  
                 129598973.712                   129598973.712    24888119.979  
  24984658.108   131295240.410                                                  
  25199163.435   132422480.480                                                  
  27352616.591   143738956.471                                                  
  24347777.914   127948431.753                                                  
  27678752.492   145452864.516                                                  
  24411152.656   128281462.169                                                  
  25809117.799   135627774.878                                                  
 21  9  2  6 46 56.0000000  0 22G 1G 4G 7G 8G 9G14G21G27G30C24C25C26
                                C33C34C35E 2E 3E 5E 8E24E25E36
  23624253.348   124146240.175    23624256.761    96737316.847                  
  23130139.572   121549698.243    23130140.894    94714050.531                  
  20929123.758   109983302.792    20929123.061    85701278.411                  
  20704071.884   108800592.016    20704074.242    84779672.265                  
  21701120.086   114040122.449    21701122.159    88862424.637                  
  24240784.727   127386181.523    24240785.674    99261961.199                  
  22212263.846   116726233.380    22212263.095    90955506.887                  
  22737372.532   119485670.253    22737374.337    93105710.856                  
  23266486.936   122266176.764    23266488.955    95272336.270                  
                 116447711.593                   116447711.593    22362553.157  
                 131223174.250                   131223174.250    25200028.617  
                 120575110.350                   120575110.350    23155181.596  
                 134777714.058                   134777714.058    25882677.704  
                 123261123.940                   123261123.940    23671003.715  
                 129601529.806                   129601529.806    24888610.841  
  24984478.131   131294294.743                                                  
  25199516.866   132424337.660                                                  
  27353162.847   143741826.972                                                  
  24347687.122   127947954.632                                                  
  27679037.878   145454364.266                                                  
  24411234.639   128281893.031                                                  
  25808610.979   135625111.532                                                  
 21  9  2  6 46 57.0000000  0 22G 1G 4G 7G 8G 9G14G21G27G30C24C25C26
                                C33C34C35E 2E 3E 5E 8E24E25E36
  23623625.127   124142938.882    23623628.540    96734744.411                  
  23130794.364   121553139.136    23130795.686    94716731.746                  
  20928756.818   109981374.546    20928756.138    85699775.878                  
  20704408.232   108802359.599    20704410.609    84781049.602                  
  21701528.447   114042268.358    21701530.520    88864096.772                  
  24240381.048   127384060.078    24240381.977    99260308.125                  
  22211904.857   116724346.958    22211904.142    90954036.950                  
  22737990.693   119488918.684    22737992.498    93108242.097                  
  23265918.272   122263188.401    23265920.309    95270007.675                  
                 116447096.727                   116447096.727    22362435.079  
                 131220899.703                   131220899.703    25199591.827  
                 120576433.227                   120576433.227    23155435.640  
                 134779644.277                   134779644.277    25883048.379  
                 123258254.458                   123258254.458    23670452.653  
                 129604086.208                   129604086.208    24889101.775  
  24984298.172   131293349.094                                                  
  25199870.316   132426195.122                                                  
  27353709.068   143744697.417                                                  
  24347596.419   127947477.957                                                  
  27679323.282   145455864.015                                                  
  24411316.640   128282323.917                                                  
  25808104.196   135622448.329                                                  
 21  9  2  6 46 58.0000000  0 22G 1G 4G 7G 8G 9G14G21G27G30C24C25C26
                                C33C34C35E 2E 3E 5E 8E24E25E36
  23622996.923   124139637.598    23623000.318    96732171.980                  
  23131449.157   121556580.176    23131450.497    94719413.074                  
  20928389.949   109979446.587    20928389.252    85698273.575                  
  20704744.706   108804127.671    20704747.047    84782427.321                  
  21701936.879   114044414.734    21701938.952    88865769.273                  
  24239977.351   127381938.733    24239978.298    99258655.134                  
  22211545.958   116722460.927    22211545.225    90952567.317                  
  22738608.908   119492167.362    22738610.695    93110773.534                  
  23265349.626   122260200.106    23265351.645    95267679.136                  
                 116446482.027                   116446482.027    22362317.036  
                 131218625.122                   131218625.122    25199155.019  
                 120577756.315                   120577756.315    23155689.719  
                 134781574.657                   134781574.657    25883419.072  
                 123255385.247                   123255385.247    23669901.661  
                 129606642.922                   129606642.922    24889592.762  
  24984118.231   131292403.462                                                  
  25200223.836   132428052.892                                                  
  27354255.288   143747567.780                                                  
  24347505.805   127947001.726                                                  
  27679608.686   145457363.747                                                  
  24411398.641   128282754.820                                                  
  25807597.449   135619785.276                                                  
 21  9  2  6 46 59.0000000  0 22G 1G 4G 7G 8G 9G14G21G27G30C24C25C26
                                C33C34C35E 2E 3E 5E 8E24E25E36
  23622368.702   124136336.329    23622372.115    96729599.562                  
  23132104.003   121560021.363    23132105.325    94722094.520                  
  20928023.115   109977518.915    20928022.436    85696771.491                  
  20705081.269   108805896.249    20705083.592    84783805.438                  
  21702345.419   114046561.559    21702347.474    88867442.126                  
  24239573.708   127379817.485    24239574.637    99257002.206                  
  22211187.148   116720575.282    22211186.397    90951097.979                  
  22739227.158   119495416.304    22739228.945    93113305.180                  
  23264780.980   122257211.860    23264782.999    95265350.628                  
                 116445867.501                   116445867.501    22362199.011  
                 131216350.501                   131216350.501    25198718.193  
                 120579079.613                   120579079.613    23155943.852  
                 134783505.196                   134783505.196    25883789.819  
                 123252516.311                   123252516.311    23669350.706  
                 129609199.946                   129609199.946    24890083.820  
  24983938.308   131291457.845                                                  
  25200577.429   132429910.964                                                  
  27354801.472   143750438.102                                                  
  24347415.263   127946525.946                                                  
  27679894.055   145458863.465                                                  
  24411480.642   128283185.753                                                  
  25807090.701   135617122.373                                                  
 21  9  2  6 47  0.0000000  0 22G 1G 4G 7G 8G 9G14G21G27G30C24C25C26
                                C33C34C35E 2E 3E 5E 8E24E25E36
  23621740.481   124133035.060    23621743.894    96727027.145                  
  23132758.867   121563462.687    23132760.207    94724776.070                  
  20927656.354   109975591.522    20927655.657    85695269.629                  
  20705417.903   108807665.343    20705420.244    84785183.948                  
  21702754.012   114048708.851    21702756.103    88869115.340                  
  24239170.046   127377696.336    24239170.994    99255349.368                  
  22210828.373   116718690.031    22210827.659    90949628.957                  
  22739845.462   119498665.499    22739847.231    93115837.019                  
  23264212.334   122254223.676    23264214.353    95263022.175                  
                 116445253.142                   116445253.142    22362081.040  
                 131214075.844                   131214075.844    25198281.366  
                 120580403.117                   120580403.117    23156198.021  
                 134785435.898                   134785435.898    25884160.601  
                 123249647.652                   123249647.652    23668799.822  
                 129611757.276                   129611757.276    24890574.915  
  24983758.367   131290512.233                                                  
  25200931.057   132431769.321                                                  
  27355347.675   143753308.351                                                  
  24347324.792   127946050.607                                                  
  27680179.441   145460363.188                                                  
  24411562.643   128283616.694                                                  
  25806584.007   135614459.622                                                  
 21  9  2  6 47  1.0000000  0 22G 1G 4G 7G 8G 9G14G21G27G30C24C25C26
                                C33C34C35E 2E 3E 5E 8E24E25E36
  23621112.278   124129733.800    23621115.708    96724454.739                  
  23133413.766   121566904.153    23133415.089    94727457.731                  
  20927289.646   109973664.417    20927288.949    85693767.989                  
  20705754.645   108809434.956    20705757.004    84786562.868                  
  21703162.748   114050856.606    21703164.803    88870788.913                  
  24238766.421   127375575.282    24238767.386    99253696.598                  
  22210469.706   116716805.168    22210468.974    90948160.230                  
  22740463.820   119501914.945    22740465.606    93118369.058                  
  23263643.724   122251235.562    23263645.743    95260693.777                  
                 116444638.950                   116444638.950    22361963.104  
                 131211801.149                   131211801.149    25197844.540  
                 120581726.836                   120581726.836    23156452.226  
                 134787366.758                   134787366.758    25884531.401  
                 123246779.266                   123246779.266    23668248.955  
                 129614314.917                   129614314.917    24891066.098  
  24983578.426   131289566.648                                                  
  25201284.738   132433628.001                                                  
  27355893.859   143756178.538                                                  
  24347234.446   127945575.710                                                  
  27680464.827   145461862.879                                                  
  24411644.662   128284047.659                                                  
  25806077.313   135611797.021                                                  
 21  9  2  6 47  2.0000000  0 22G 1G 4G 7G 8G 9G14G21G27G30C24C25C26
                                C33C34C35E 2E 3E 5E 8E24E25E36
  23620484.074   124126432.539    23620487.487    96721882.328                  
  23134068.666   121570345.750    23134070.006    94730139.495                  
  20926922.973   109971737.603    20926922.276    85692266.575                  
  20706091.476   108811205.086    20706093.835    84787942.187                  
  21703571.520   114053004.810    21703573.592    88872462.836                  
  24238362.813   127373454.321    24238363.778    99252043.901                  
  22210111.093   116714920.683    22210110.360    90946691.800                  
  22741082.195   119505164.653    22741084.000    93120901.294                  
  23263075.114   122248247.510    23263077.133    95258365.425                  
                 116444024.931                   116444024.931    22361845.187  
                 131209526.417                   131209526.417    25197407.696  
                 120583050.762                   120583050.762    23156706.485  
                 134789297.783                   134789297.783    25884902.219  
                 123243911.157                   123243911.157    23667698.178  
                 129616872.872                   129616872.872    24891557.318  
  24983398.485   131288621.075                                                  
  25201638.491   132435486.956                                                  
  27356440.026   143759048.660                                                  
  24347144.154   127945101.268                                                  
  27680750.213   145463362.582                                                  
  24411726.663   128284478.641                                                  
  25805570.655   135609134.566                                                  
 21  9  2  6 47  3.0000000  0 22G 1G 4G 7G 8G 9G14G21G27G30C24C25C26
                                C33C34C35E 2E 3E 5E 8E24E25E36
  23619855.853   124123131.285    23619859.284    96719309.922                  
  23134723.601   121573787.500    23134724.942    94732821.378                  
  20926556.372   109969811.070    20926555.676    85690765.382                  
  20706428.415   108812975.697    20706430.773    84789321.884                  
  21703980.399   114055153.483    21703982.471    88874137.129                  
  24237959.241   127371333.469    24237960.189    99250391.289                  
  22209752.569   116713036.594    22209751.836    90945223.683                  
  22741700.660   119508414.605    22741702.447    93123433.726                  
  23262506.521   122245259.505    23262508.541    95256037.109                  
                 116443411.077                   116443411.077    22361727.305  
                 131207251.647                   131207251.647    25196970.852  
                 120584374.897                   120584374.897    23156960.761  
                 134791228.962                   134791228.962    25885273.109  
                 123241043.317                   123241043.317    23667147.437  
                 129619431.133                   129619431.133    24892048.609  
  24983218.544   131287675.517                                                  
  25201992.298   132437346.214                                                  
  27356986.175   143761918.727                                                  
  24347053.969   127944627.273                                                  
  27681035.599   145464862.267                                                  
  24411808.681   128284909.647                                                  
  25805064.032   135606472.261                                                  
 21  9  2  6 47  4.0000000  0 22G 1G 4G 7G 8G 9G14G21G27G30C24C25C26
                                C33C34C35E 2E 3E 5E 8E24E25E36
  23619227.667   124119830.048    23619231.080    96716737.527                  
  23135378.573   121577229.382    23135379.895    94735503.364                  
  20926189.825   109967884.827    20926189.128    85689264.414                  
  20706765.460   108814746.809    20706767.801    84790701.972                  
  21704389.367   114057302.621    21704391.440    88875811.782                  
  24237555.652   127369212.711    24237556.617    99248738.753                  
  22209394.116   116711152.904    22209393.384    90943755.868                  
  22742319.142   119511664.821    22742320.947    93125966.359                  
  23261937.947   122242271.562    23261939.966    95253708.844                  
                 116442797.398                   116442797.398    22361609.441  
                 131204976.845                   131204976.845    25196534.008  
                 120585699.245                   120585699.245    23157215.073  
                 134793160.304                   134793160.304    25885643.980  
                 123238175.757                   123238175.757    23666596.768  
                 129621989.704                   129621989.704    24892539.953  
  24983038.621   131286729.973                                                  
  25202346.158   132439205.777                                                  
  27357532.324   143764788.720                                                  
  24346963.838   127944153.726                                                  
  27681320.985   145466361.940                                                  
  24411890.700   128285340.671                                                  
  25804557.463   135603810.101                                                  
 21  9  2  6 47  5.0000000  0 22G 1G 4G 7G 8G 9G14G21G27G30C24C25C26
                                C33C34C35E 2E 3E 5E 8E24E25E36
  23618599.464   124116528.802    23618602.859    96714165.128                  
  23136033.580   121580671.422    23136034.902    94738185.474                  
  20925823.314   109965958.870    20925822.617    85687763.668                  
  20707102.577   108816518.453    20707104.936    84792082.476                  
  21704798.425   114059452.218    21704800.497    88877486.793                  
  24237152.116   127367092.050    24237153.081    99247086.290                  
  22209035.717   116709269.589    22209035.002    90942288.351                  
  22742937.696   119514915.289    22742939.483    93128499.196                  
  23261369.355   122239283.668    23261371.374    95251380.613                  
                 116442183.887                   116442183.887    22361491.612  
                 131202701.999                   131202701.999    25196097.146  
                 120587023.805                   120587023.805    23157469.456  
                 134795091.805                   134795091.805    25886014.905  
                 123235308.468                   123235308.468    23666046.116  
                 129624548.587                   129624548.587    24893031.351  
  24982858.680   131285784.447                                                  
  25202700.072   132441065.645                                                  
  27358078.455   143767658.652                                                  
  24346873.813   127943680.620                                                  
  27681606.336   145467861.602                                                  
  24411972.737   128285771.712                                                  
  25804050.894   135601148.101                                                  
 21  9  2  6 47  6.0000000  0 22G 1G 4G 7G 8G 9G14G21G27G30C24C25C26
                                C33C34C35E 2E 3E 5E 8E24E25E36
  23617971.243   124113227.565    23617974.656    96711592.738                  
  23136688.604   121584113.586    23136689.927    94740867.675                  
  20925456.874   109964033.203    20925456.177    85686263.144                  
  20707439.819   108818290.602    20707442.160    84793463.371                  
  21705207.554   114061602.265    21705209.644    88879162.152                  
  24236748.597   127364971.491    24236749.544    99245433.911                  
  22208677.425   116707386.671    22208676.693    90940821.149                  
  22743556.286   119518166.012    22743558.073    93131032.222                  
  23260800.780   122236295.842    23260802.799    95249052.437                  
                 116441570.542                   116441570.542    22361373.838  
                 131200427.122                   131200427.122    25195660.284  
                 120588348.574                   120588348.574    23157723.857  
                 134797023.470                   134797023.470    25886385.866  
                 123232441.457                   123232441.457    23665495.535  
                 129627107.772                   129627107.772    24893522.821  
  24982678.756   131284838.929                                                  
  25203054.057   132442925.765                                                  
  27358624.586   143770528.560                                                  
  24346783.861   127943207.954                                                  
  27681891.722   145469361.257                                                  
  24412054.756   128286202.774                                                  
  25803544.361   135598486.245                                                  
 21  9  2  6 47  7.0000000  0 22G 1G 4G 7G 8G 9G14G21G27G30C24C25C26
                                C33C34C35E 2E 3E 5E 8E24E25E36
  23617343.039   124109926.343    23617346.452    96709020.359                  
  23137343.647   121587555.900    23137344.987    94743549.999                  
  20925090.505   109962107.811    20925089.808    85684762.841                  
  20707777.133   108820063.244    20707779.474    84794844.648                  
  21705616.808   114063752.785    21705618.881    88880837.884                  
  24236345.079   127362851.044    24236346.044    99243781.610                  
  22208319.205   116705504.155    22208318.455    90939354.251                  
  22744174.912   119521416.993    22744176.717    93133565.452                  
  23260232.242   122233308.090    23260234.261    95246724.320                  
                 116440957.371                   116440957.371    22361256.081  
                 131198152.203                   131198152.203    25195223.405  
                 120589673.555                   120589673.555    23157978.312  
                 134798955.289                   134798955.289    25886756.863  
                 123229574.720                   123229574.720    23664945.027  
                 129629667.274                   129629667.274    24894014.362  
  24982498.833   131283893.444                                                  
  25203408.078   132444786.188                                                  
  27359170.699   143773398.427                                                  
  24346693.997   127942735.730                                                  
  27682177.108   145470860.907                                                  
  24412136.792   128286633.853                                                  
  25803037.864   135595824.554                                                  
 21  9  2  6 47  8.0000000  0 22G 1G 4G 7G 8G 9G14G21G27G30C24C25C26
                                C33C34C35E 2E 3E 5E 8E24E25E36
  23616714.836   124106625.124    23616718.267    96706447.981                  
  23137998.725   121590998.325    23138000.066    94746232.410                  
  20924724.154   109960182.696    20924723.457    85683262.751                  
  20708114.553   108821836.375    20708116.894    84796226.309                  
  21706026.098   114065903.747    21706028.189    88882513.956                  
  24235941.579   127360730.661    24235942.544    99242129.368                  
  22207961.021   116703621.997    22207960.306    90937887.634                  
  22744793.627   119524668.221    22744795.396    93136098.883                  
  23259663.703   122230320.384    23259665.722    95244396.238                  
                 116440344.367                   116440344.367    22361138.360  
                 131195877.250                   131195877.250    25194786.525  
                 120590998.743                   120590998.743    23158232.803  
                 134800887.273                   134800887.273    25887127.860  
                 123226708.256                   123226708.256    23664394.536  
                 129632227.081                   129632227.081    24894505.939  
  24982318.928   131282947.962                                                  
  25203762.189   132446647.019                                                  
  27359716.758   143776268.042                                                  
  24346604.241   127942264.003                                                  
  27682462.459   145472360.537                                                  
  24412218.811   128287064.962                                                  
  25802531.384   135593162.980                                                  
 21  9  2  6 47  9.0000000  0 22G 1G 4G 7G 8G 9G14G21G27G30C24C25C26
                                C33C34C35E 2E 3E 5E 8E24E25E36
  23616086.633   124103323.922    23616090.064    96703875.614                  
  23138653.822   121594440.914    23138655.162    94748914.945                  
  20924357.875   109958257.876    20924357.178    85681762.890                  
  20708452.081   108823610.032    20708454.422    84797608.379                  
  21706435.513   114068055.185    21706437.586    88884190.399                  
  24235538.114   127358610.393    24235539.061    99240477.211                  
  22207602.943   116701740.258    22207602.228    90936421.344                  
  22745412.360   119527919.708    22745414.147    93138632.504                  
  23259095.164   122227332.743    23259097.183    95242068.204                  
                 116439731.536                   116439731.536    22361020.674  
                 131193602.262                   131193602.262    25194349.645  
                 120592324.140                   120592324.140    23158487.311  
                 134802819.415                   134802819.415    25887498.928  
                 123223842.072                   123223842.072    23663844.116  
                 129634787.200                   129634787.200    24894997.587  
  24982139.005   131282002.491                                                  
  25204116.335   132448508.055                                                  
  27360262.853   143779137.741                                                  
  24346514.539   127941792.681                                                  
  27682747.845   145473860.163                                                  
  24412300.866   128287496.085                                                  
  25802024.922   135590501.585                                                  
 21  9  2  6 47 10.0000000  0 22G 1G 4G 7G 8G 9G14G21G27G30C24C25C26
                                C33C34C35E 2E 3E 5E 8E24E25E36
  23615458.447   124100022.715    23615461.860    96701303.246                  
  23139308.954   121597883.644    23139310.276    94751597.590                  
  20923991.632   109956333.345    20923990.953    85680263.257                  
  20708789.681   108825384.197    20708792.040    84798990.847                  
  21706845.000   114070207.066    21706847.072    88885867.191                  
  24235134.667   127356490.222    24235135.596    99238825.130                  
  22207244.937   116699858.895    22207244.205    90934955.347                  
  22746031.146   119531171.446    22746032.915    93141166.329                  
  23258526.643   122224345.157    23258528.662    95239740.215                  
                 116439118.875                   116439118.875    22360903.025  
                 131191327.236                   131191327.236    25193912.748  
                 120593649.750                   120593649.750    23158741.891  
                 134804751.714                   134804751.714    25887869.996  
                 123220976.160                   123220976.160    23663293.768  
                 129637347.629                   129637347.629    24895489.271  
  24981959.082   131281057.056                                                  
  25204470.535   132450369.407                                                  
  27360808.913   143782007.350                                                  
  24346424.944   127941321.816                                                  
  27683033.195   145475359.786                                                  
  24412382.920   128287927.223                                                  
  25801518.496   135587840.327                                                  
 21  9  2  6 47 11.0000000  0 22G 1G 4G 7G 8G 9G14G21G27G30C24C25C26
                                C33C34C35E 2E 3E 5E 8E24E25E36
  23614830.262   124096721.525    23614833.657    96698730.886                  
  23139964.121   121601326.515    23139965.444    94754280.349                  
  20923625.477   109954409.098    20923624.781    85678763.844                  
  20709127.388   108827158.843    20709129.746    84800373.688                  
  21707254.575   114072359.419    21707256.666    88887544.352                  
  24234731.220   127354370.148    24234732.185    99237173.126                  
  22206887.003   116697977.929    22206886.252    90933489.661                  
  22746649.986   119534423.434    22746651.755    93143700.343                  
  23257958.140   122221357.639    23257960.160    95237412.281                  
                 116438506.382                   116438506.382    22360785.393  
                 131189052.172                   131189052.172    25193475.832  
                 120594975.571                   120594975.571    23158996.507  
                 134806684.175                   134806684.175    25888241.100  
                 123218110.522                   123218110.522    23662743.438  
                 129639908.364                   129639908.364    24895981.045  
  24981779.176   131280111.609                                                  
  25204824.806   132452231.054                                                  
  27361354.972   143784876.906                                                  
  24346335.420   127940851.395                                                  
  27683318.581   145476859.378                                                  
  24412464.957   128288358.378                                                  
  25801012.124   135585179.235                                                  
 21  9  2  6 47 12.0000000  0 22G 1G 4G 7G 8G 9G14G21G27G30C24C25C26
                                C33C34C35E 2E 3E 5E 8E24E25E36
  23614202.058   124093420.341    23614205.453    96696158.539                  
  23140619.307   121604769.524    23140620.611    94756963.210                  
  20923259.359   109952485.141    20923258.662    85677264.657                  
  20709465.184   108828933.973    20709467.542    84801756.906                  
  21707664.259   114074512.230    21707666.313    88889221.867                  
  24234327.791   127352250.185    24234328.756    99235521.202                  
  22206529.140   116696097.346    22206528.407    90932024.274                  
  22747268.862   119537675.675    22747270.649    93146234.559                  
  23257389.655   122218370.192    23257391.657    95235084.398                  
                 116437894.057                   116437894.057    22360667.815  
                 131186777.070                   131186777.070    25193038.917  
                 120596301.603                   120596301.603    23159251.158  
                 134808616.796                   134808616.796    25888612.239  
                 123215245.163                   123215245.163    23662193.179  
                 129642469.407                   129642469.407    24896472.854  
  24981599.289   131279166.194                                                  
  25205179.113   132454092.997                                                  
  27361901.014   143787746.383                                                  
  24346246.003   127940381.414                                                  
  27683603.932   145478358.980                                                  
  24412546.994   128288789.563                                                  
  25800505.751   135582518.274                                                  
 21  9  2  6 47 13.0000000  0 22G 1G 4G 7G 8G 9G14G21G27G30C24C25C26
                                C33C34C35E 2E 3E 5E 8E24E25E36
  23613573.855   124090119.157    23613577.286    96693586.188                  
  23141274.492   121608212.679    23141275.833    94759646.191                  
  20922893.294   109950561.470    20922892.597    85675765.692                  
  20709803.087   108830709.613    20709805.428    84803140.522                  
  21708073.995   114076665.496    21708076.086    88890899.735                  
  24233924.398   127350130.313    24233925.363    99233869.356                  
  22206171.349   116694217.169    22206170.616    90930559.199                  
  22747887.773   119540928.176    22747889.578    93148768.973                  
  23256821.152   122215382.794    23256823.171    95232756.558                  
                 116437281.907                   116437281.907    22360550.254  
                 131184501.934                   131184501.934    25192602.001  
                 120597627.843                   120597627.843    23159505.864  
                 134810549.577                   134810549.577    25888983.415  
                 123212380.078                   123212380.078    23661642.956  
                 129645030.762                   129645030.762    24896964.734  
  24981419.366   131278220.794                                                  
  25205533.474   132455955.247                                                  
  27362447.056   143790615.810                                                  
  24346156.640   127939911.890                                                  
  27683889.300   145479858.572                                                  
  24412629.066   128289220.766                                                  
  25799999.415   135579857.477                                                  
 21  9  2  6 47 14.0000000  0 22G 1G 4G 7G 8G 9G14G21G27G30C24C25C26
                                C33C34C35E 2E 3E 5E 8E24E25E36
  23612945.687   124086817.987    23612949.082    96691013.851                  
  23141929.732   121611655.964    23141931.072    94762329.265                  
  20922527.283   109948638.083    20922526.604    85674266.949                  
  20710141.061   108832485.750    20710143.420    84804524.527                  
  21708483.839   114078819.223    21708485.912    88892577.961                  
  24233521.023   127348010.538    24233521.988    99232217.586                  
  22205813.646   116692337.358    22205812.896    90929094.414                  
  22748506.756   119544180.933    22748508.561    93151303.589                  
  23256252.703   122212395.464    23256254.722    95230428.770                  
                 116436669.923                   116436669.923    22360432.712  
                 131182226.763                   131182226.763    25192165.086  
                 120598954.296                   120598954.296    23159760.586  
                 134812482.516                   134812482.516    25889354.626  
                 123209515.269                   123209515.269    23661092.805  
                 129647592.421                   129647592.421    24897456.686  
  24981239.460   131277275.406                                                  
  25205887.924   132457817.780                                                  
  27362993.079   143793485.164                                                  
  24346067.384   127939442.813                                                  
  27684174.668   145481358.148                                                  
  24412711.121   128289651.983                                                  
  25799493.114   135577196.813                                                  
 21  9  2  6 47 15.0000000  0 22G 1G 4G 7G 8G 9G14G21G27G30C24C25C26
                                C33C34C35E 2E 3E 5E 8E24E25E36
  23612317.484   124083516.797    23612320.897    96688441.481                  
  23142585.007   121615099.378    23142586.347    94765012.441                  
  20922161.343   109946714.980    20922160.646    85672768.425                  
  20710479.143   108834262.344    20710481.502    84805908.868                  
  21708893.772   114080973.469    21708895.845    88894256.628                  
  24233117.665   127345890.874    24233118.613    99230565.907                  
  22205455.998   116690457.976    22205455.265    90927629.974                  
  22749125.775   119547433.995    22749127.580    93153838.472                  
  23255684.236   122209408.161    23255686.255    95228100.981                  
                 116436058.111                   116436058.111    22360315.241  
                 131179951.551                   131179951.551    25191728.152  
                 120600280.958                   120600280.958    23160015.363  
                 134814415.614                   134814415.614    25889725.837  
                 123206650.736                   123206650.736    23660542.707  
                 129650154.395                   129650154.395    24897948.674  
  24981059.555   131276329.977                                                  
  25206242.391   132459680.547                                                  
  27363539.085   143796354.511                                                  
  24345978.200   127938974.208                                                  
  27684460.019   145482857.719                                                  
  24412793.175   128290083.235                                                  
  25798986.849   135574536.307                                                  
 21  9  2  6 47 16.0000000  0 22G 1G 4G 7G 8G 9G14G21G27G30C24C25C26
                                C33C34C35E 2E 3E 5E 8E24E25E36
  23611689.281   124080215.640    23611692.694    96685869.153                  
  23143240.299   121618542.941    23143241.622    94767695.739                  
  20921795.439   109944792.171    20921794.742    85671270.137                  
  20710817.315   108836039.481    20710819.673    84807293.653                  
  21709303.777   114083128.108    21709305.868    88895935.570                  
  24232714.326   127343771.290    24232715.273    99228914.280                  
  22205098.421   116688578.964    22205097.706    90926165.808                  
  22749744.865   119550687.251    22749746.652    93156373.477                  
  23255115.804   122206420.936    23255117.806    95225773.278                  
                 116435446.470                   116435446.470    22360197.788  
                 131177676.301                   131177676.301    25191291.219  
                 120601607.832                   120601607.832    23160270.157  
                 134816348.872                   134816348.872    25890097.119  
                 123203786.476                   123203786.476    23659992.663  
                 129652716.671                   129652716.671    24898440.733  
  24980879.685   131275384.632                                                  
  25206596.949   132461543.684                                                  
  27364085.073   143799223.747                                                  
  24345889.123   127938506.031                                                  
  27684745.387   145484357.286                                                  
  24412875.248   128290514.491                                                  
  25798480.584   135571875.945                                                  
 21  9  2  6 47 17.0000000  0 22G 1G 4G 7G 8G 9G14G21G27G30C24C25C26
                                C33C34C35E 2E 3E 5E 8E24E25E36
  23611061.095   124076914.497    23611064.526    96683296.836                  
  23143895.592   121621986.640    23143896.932    94770379.140                  
  20921429.589   109942869.641    20921428.892    85669772.063                  
  20711155.593   108837817.120    20711157.934    84808678.824                  
  21709713.871   114085283.208    21709715.962    88897614.867                  
  24232311.004   127341651.802    24232311.933    99227262.734                  
  22204740.933   116686700.344    22204740.201    90924701.949                  
  22750363.973   119553940.759    22750365.778    93158908.676                  
  23254547.355   122203433.788    23254549.374    95223445.625                  
                 116434834.997                   116434834.997    22360080.353  
                 131175401.019                   131175401.019    25190854.286  
                 120602934.913                   120602934.913    23160525.023  
                 134818282.290                   134818282.290    25890468.402  
                 123200922.495                   123200922.495    23659442.654  
                 129655279.261                   129655279.261    24898932.864  
  24980699.780   131274439.297                                                  
  25206951.541   132463407.130                                                  
  27364631.061   143802092.913                                                  
  24345800.100   127938038.298                                                  
  27685030.720   145485856.837                                                  
  24412957.320   128290945.781                                                  
  25797974.354   135569215.759                                                  
 21  9  2  6 47 18.0000000  0 22G 1G 4G 7G 8G 9G14G21G27G30C24C25C26
                                C33C34C35E 2E 3E 5E 8E24E25E36
  23610432.927   124073613.348    23610436.323    96680724.512                  
  23144550.957   121625430.485    23144552.279    94773062.652                  
  20921063.792   109940947.407    20921063.095    85668274.214                  
  20711493.979   108839595.281    20711496.320    84810064.402                  
  21710124.073   114087438.766    21710126.163    88899294.520                  
  24231907.700   127339532.414    24231908.647    99225611.263                  
  22204383.517   116684822.098    22204382.784    90923238.378                  
  22750983.153   119557194.516    22750984.939    93161444.071                  
  23253978.941   122200446.693    23253980.943    95221118.016                  
                 116434223.696                   116434223.696    22359962.953  
                 131173125.699                   131173125.699    25190417.317  
                 120604262.206                   120604262.206    23160779.925  
                 134820215.868                   134820215.868    25890839.720  
                 123198058.788                   123198058.788    23658892.699  
                 129657842.156                   129657842.156    24899425.049  
  24980519.875   131273493.970                                                  
  25207306.206   132465270.859                                                  
  27365177.031   143804962.014                                                  
  24345711.183   127937571.004                                                  
  27685316.088   145487356.378                                                  
  24413039.392   128291377.087                                                  
  25797468.178   135566555.708                                                  
 21  9  2  6 47 19.0000000  0 22G 1G 4G 7G 8G 9G14G21G27G30C24C25C26
                                C33C34C35E 2E 3E 5E 8E24E25E36
  23609804.742   124070312.220    23609808.137    96678152.200                  
  23145206.321   121628874.465    23145207.661    94775746.270                  
  20920698.067   109939025.455    20920697.388    85666776.587                  
  20711832.436   108841373.956    20711834.795    84811450.380                  
  21710534.363   114089594.782    21710536.436    88900974.528                  
  24231504.396   127337413.132    24231505.361    99223959.872                  
  22204026.172   116682944.262    22204025.440    90921775.125                  
  22751602.386   119560448.535    22751604.155    93163979.668                  
  23253410.528   122197459.656    23253412.547    95218790.453                  
                 116433612.561                   116433612.561    22359845.607  
                 131170850.339                   131170850.339    25189980.365  
                 120605589.711                   120605589.711    23161034.844  
                 134822149.600                   134822149.600    25891211.074  
                 123195195.360                   123195195.360    23658342.816  
                 129660405.363                   129660405.363    24899917.287  
  24980340.005   131272548.667                                                  
  25207660.924   132467134.897                                                  
  27365723.001   143807831.054                                                  
  24345622.338   127937104.169                                                  
  27685601.438   145488855.913                                                  
  24413121.483   128291808.406                                                  
  25796962.020   135563895.812                                                  
 21  9  2  6 47 20.0000000  0 22G 1G 4G 7G 8G 9G14G21G27G30C24C25C26
                                C33C34C35E 2E 3E 5E 8E24E25E36
  23609176.556   124067011.100    23609179.952    96675579.894                  
  23145861.721   121632318.595    23145863.043    94778430.001                  
  20920332.377   109937103.790    20920331.698    85665279.183                  
  20712171.018   108843153.133    20712173.359    84812836.746                  
  21710944.725   114091751.258    21710946.798    88902654.899                  
  24231101.146   127335293.941    24231102.075    99222308.552                  
  22203668.917   116681066.820    22203668.184    90920312.180                  
  22752221.637   119563702.806    22752223.441    93166515.457                  
  23252842.114   122194472.687    23252844.133    95216462.944                  
                 116433001.601                   116433001.601    22359728.261  
                 131168574.949                   131168574.949    25189543.396  
                 120606917.429                   120606917.429    23161289.817  
                 134824083.492                   134824083.492    25891582.464  
                 123192332.202                   123192332.202    23657792.986  
                 129662968.874                   129662968.874    24900409.578  
  24980160.118   131271603.375                                                  
  25208015.677   132468999.226                                                  
  27366268.936   143810700.023                                                  
  24345533.601   127936637.773                                                  
  27685886.789   145490355.434                                                  
  24413203.555   128292239.753                                                  
  25796455.880   135561236.069                                                  
 21  9  2  6 47 21.0000000  0 22G 1G 4G 7G 8G 9G14G21G27G30C24C25C26
                                C33C34C35E 2E 3E 5E 8E24E25E36
  23608548.389   124063709.995    23608551.784    96673007.605                  
  23146517.139   121635762.851    23146518.461    94781113.839                  
  20919966.759   109935182.419    20919966.062    85663782.009                  
  20712509.672   108844932.808    20712512.013    84814223.504                  
  21711355.159   114093908.183    21711357.232    88904335.617                  
  24230697.878   127333174.856    24230698.843    99220657.312                  
  22203311.715   116679189.762    22203310.983    90918849.535                  
  22752840.959   119566957.320    22752842.746    93169051.444                  
  23252273.718   122191485.782    23252275.737    95214135.484                  
                 116432390.809                   116432390.809    22359610.951  
                 131166299.519                   131166299.519    25189106.427  
                 120608245.356                   120608245.356    23161544.844  
                 134826017.547                   134826017.547    25891953.872  
                 123189469.324                   123189469.324    23657243.192  
                 129665532.695                   129665532.695    24900901.923  
  24979980.248   131270658.090                                                  
  25208370.503   132470863.848                                                  
  27366814.888   143813568.934                                                  
  24345444.917   127936171.824                                                  
  27686172.121   145491854.937                                                  
  24413285.645   128292671.117                                                  
  25795949.776   135558576.476                                                  
 21  9  2  6 47 22.0000000  0 22G 1G 4G 7G 8G 9G14G21G27G30C24C25C26
                                C33C34C35E 2E 3E 5E 8E24E25E36
  23607920.203   124060408.891    23607923.598    96670435.315                  
  23147172.575   121639207.254    23147173.915    94783797.789                  
  20919601.177   109933261.332    20919600.498    85662285.058                  
  20712848.415   108846712.989    20712850.774    84815610.660                  
  21711765.700   114096065.578    21711767.772    88906016.704                  
  24230294.664   127331055.870    24230295.593    99219006.156                  
  22202954.603   116677313.097    22202953.888    90917387.204                  
  22753460.317   119570212.102    22753462.122    93171587.638                  
  23251705.340   122188498.930    23251707.360    95211808.067                  
                 116431780.188                   116431780.188    22359493.695  
                 131164024.051                   131164024.051    25188669.440  
                 120609573.489                   120609573.489    23161799.889  
                 134827951.759                   134827951.759    25892325.315  
                 123186606.721                   123186606.721    23656693.451  
                 129668096.823                   129668096.823    24901394.340  
  24979800.361   131269712.822                                                  
  25208725.399   132472728.769                                                  
  27367360.805   143816437.765                                                  
  24345356.340   127935706.324                                                  
  27686457.472   145493354.440                                                  
  24413367.718   128293102.489                                                  
  25795443.707   135555917.032                                                  
 21  9  2  6 47 23.0000000  0 22G 1G 4G 7G 8G 9G14G21G27G30C24C25C26
                                C33C34C35E 2E 3E 5E 8E24E25E36
  23607292.018   124057107.792    23607295.413    96667863.031                  
  23147828.064   121642651.797    23147829.404    94786481.847                  
  20919235.684   109931340.530    20919234.987    85660788.332                  
  20713187.283   108848493.671    20713189.624    84816998.202                  
  21712176.348   114098223.436    21712178.420    88907698.152                  
  24229891.431   127328936.975    24229892.396    99217355.069                  
  22202597.562   116675436.825    22202596.811    90915925.171                  
  22754079.747   119573467.124    22754081.516    93174124.019                  
  23251136.980   122185512.146    23251139.000    95209480.703                  
                 116431169.739                   116431169.739    22359376.474  
                 131161748.545                   131161748.545    25188232.453  
                 120610901.835                   120610901.835    23162054.987  
                 134829886.125                   134829886.125    25892696.794  
                 123183744.398                   123183744.398    23656143.782  
                 129670661.262                   129670661.262    24901886.828  
  24979620.473   131268767.565                                                  
  25209080.314   132474593.983                                                  
  27367906.703   143819306.534                                                  
  24345267.835   127935241.266                                                  
  27686742.822   145494853.929                                                  
  24413449.826   128293533.886                                                  
  25794937.657   135553257.735                                                  
 21  9  2  6 47 24.0000000  0 22G 1G 4G 7G 8G 9G14G21G27G30C24C25C26
                                C33C34C35E 2E 3E 5E 8E24E25E36
  23606663.832   124053806.710    23606667.245    96665290.762                  
  23148483.553   121646096.470    23148484.893    94789166.007                  
  20918870.227   109929420.013    20918869.512    85659291.825                  
  20713526.223   108850274.848    20713528.582    84818386.133                  
  21712587.031   114100381.750    21712589.122    88909379.952                  
  24229488.235   127326818.183    24229489.200    99215704.067                  
  22202240.592   116673560.950    22202239.860    90914463.450                  
  22754699.195   119576722.399    22754700.982    93176660.594                  
  23250568.620   122182525.423    23250570.639    95207153.386                  
                 116430559.456                   116430559.456    22359259.289  
                 131159473.008                   131159473.008    25187795.466  
                 120612230.396                   120612230.396    23162310.121  
                 134831820.651                   134831820.651    25893068.291  
                 123180882.349                   123180882.349    23655594.167  
                 129673226.007                   129673226.007    24902379.334  
  24979440.604   131267822.333                                                  
  25209435.318   132476459.500                                                  
  27368452.602   143822175.233                                                  
  24345179.437   127934776.652                                                  
  27687028.155   145496353.394                                                  
  24413531.916   128293965.299                                                  
  25794431.642   135550598.597                                                  
 21  9  2  6 47 25.0000000  0 22G 1G 4G 7G 8G 9G14G21G27G30C24C25C26
                                C33C34C35E 2E 3E 5E 8E24E25E36
  23606035.665   124050505.629    23606039.078    96662718.488                  
  23149139.078   121649541.287    23149140.419    94791850.282                  
  20918504.805   109927499.789    20918504.108    85657795.542                  
  20713865.252   108852056.519    20713867.628    84819774.450                  
  21712997.840   114102540.515    21712999.913    88911062.109                  
  24229085.074   127324699.485    24229086.021    99214053.134                  
  22201883.694   116671685.467    22201882.962    90913002.040                  
  22755318.696   119579977.929    22755320.483    93179197.371                  
  23250000.278   122179538.762    23250002.297    95204826.120                  
                 116429949.348                   116429949.348    22359142.122  
                 131157197.432                   131157197.432    25187358.461  
                 120613559.163                   120613559.163    23162565.308  
                 134833755.340                   134833755.340    25893439.842  
                 123178020.575                   123178020.575    23655044.587  
                 129675791.060                   129675791.060    24902871.947  
  24979260.734   131266877.097                                                  
  25209790.375   132478325.314                                                  
  27368998.483   143825043.883                                                  
  24345091.092   127934312.493                                                  
  27687313.505   145497852.868                                                  
  24413614.024   128294396.734                                                  
  25793925.645   135547939.594                                                  
 21  9  2  6 47 26.0000000  0 22G 1G 4G 7G 8G 9G14G21G27G30C24C25C26
                                C33C34C35E 2E 3E 5E 8E24E25E36
  23605407.479   124047204.562    23605410.892    96660146.231                  
  23149794.639   121652986.241    23149795.979    94794534.660                  
  20918139.455   109925579.847    20918138.758    85656299.485                  
  20714204.406   108853838.695    20714206.765    84821163.161                  
  21713408.738   114104699.732    21713410.793    88912744.614                  
  24228681.913   127322580.878    24228682.860    99212402.273                  
  22201526.886   116669810.384    22201526.135    90911540.929                  
  22755938.268   119583233.711    22755940.037    93181734.344                  
  23249431.954   122176552.160    23249433.955    95202498.898                  
                 116429339.411                   116429339.411    22359024.972  
                 131154921.822                   131154921.822    25186921.457  
                 120614888.140                   120614888.140    23162820.514  
                 134835690.183                   134835690.183    25893811.428  
                 123175159.078                   123175159.078    23654495.061  
                 129678356.421                   129678356.421    24903364.596  
  24979080.864   131265931.899                                                  
  25210145.486   132480191.414                                                  
  27369544.363   143827912.465                                                  
  24345002.855   127933848.777                                                  
  27687598.838   145499352.335                                                  
  24413696.115   128294828.192                                                  
  25793419.683   135545280.757                                                  
 21  9  2  6 47 27.0000000  0 22G 1G 4G 7G 8G 9G14G21G27G30C24C25C26
                                C33C34C35E 2E 3E 5E 8E24E25E36
  23604779.311   124043903.493    23604782.724    96657573.969                  
  23150450.218   121656431.339    23150451.558    94797219.152                  
  20917774.159   109923660.198    20917773.462    85654803.655                  
  20714543.631   108855621.361    20714545.972    84822552.246                  
  21713819.708   114106859.421    21713821.781    88914427.489                  
  24228278.788   127320462.382    24228279.735    99210751.497                  
  22201170.149   116667935.682    22201169.398    90910080.130                  
  22756557.859   119586489.746    22756559.646    93184271.516                  
  23248863.647   122173565.625    23248865.649    95200171.727                  
                 116428729.639                   116428729.639    22358907.877  
                 131152646.171                   131152646.171    25186484.434  
                 120616217.332                   120616217.332    23163075.755  
                 134837625.188                   134837625.188    25894182.997  
                 123172297.859                   123172297.859    23653945.607  
                 129680922.090                   129680922.090    24903857.299  
  24978900.995   131264986.702                                                  
  25210500.669   132482057.823                                                  
  27370090.226   143830780.973                                                  
  24344914.707   127933385.507                                                  
  27687884.188   145500851.786                                                  
  24413778.223   128295259.667                                                  
  25792913.758   135542622.071                                                  
 21  9  2  6 47 28.0000000  0 22G 1G 4G 7G 8G 9G14G21G27G30C24C25C26
                                C33C34C35E 2E 3E 5E 8E24E25E36
  23604151.144   124040602.441    23604154.557    96655001.723                  
  23151105.815   121659876.567    23151107.155    94799903.747                  
  20917408.916   109921740.837    20917408.219    85653308.047                  
  20714882.964   108857404.531    20714885.305    84823941.730                  
  21714230.767   114109019.554    21714232.840    88916110.711                  
  24227875.662   127318343.977    24227876.627    99209100.790                  
  22200813.465   116666061.371    22200812.732    90908619.625                  
  22757177.503   119589746.039    22757179.308    93186808.887                  
  23248295.323   122170579.146    23248297.342    95197844.599                  
                 116428120.042                   116428120.042    22358790.817  
                 131150370.485                   131150370.485    25186047.411  
                 120617546.736                   120617546.736    23163331.067  
                 134839560.348                   134839560.348    25894554.636  
                 123169436.915                   123169436.915    23653396.188  
                 129683488.065                   129683488.065    24904350.073  
  24978721.143   131264041.525                                                  
  25210855.887   132483924.523                                                  
  27370636.054   143833649.423                                                  
  24344826.649   127932922.680                                                  
  27688169.503   145502351.227                                                  
  24413860.331   128295691.160                                                  
  25792407.832   135539963.522                                                  
 21  9  2  6 47 29.0000000  0 22G 1G 4G 7G 8G 9G14G21G27G30C24C25C26
                                C33C34C35E 2E 3E 5E 8E24E25E36
  23603522.976   124037301.403    23603526.407    96652429.484                  
  23151761.465   121663321.938    23151762.787    94802588.450                  
  20917043.727   109919821.770    20917043.048    85651812.672                  
  20715222.386   108859188.206    20715224.745    84825331.609                  
  21714641.915   114111180.147    21714644.006    88917794.288                  
  24227472.555   127316225.672    24227473.502    99207450.160                  
  22200456.889   116664187.453    22200456.138    90907159.429                  
  22757797.201   119593002.581    22757799.005    93189346.452                  
  23247727.017   122167592.731    23247729.036    95195517.527                  
                 116427510.617                   116427510.617    22358673.775  
                 131148094.767                   131148094.767    25185610.406  
                 120618876.343                   120618876.343    23163586.398  
                 134841495.668                   134841495.668    25894926.294  
                 123166576.249                   123166576.249    23652846.822  
                 129686054.348                   129686054.348    24904842.901  
  24978541.274   131263096.357                                                  
  25211211.159   132485791.519                                                  
  27371181.899   143836517.796                                                  
  24344738.644   127932460.304                                                  
  27688454.836   145503850.651                                                  
  24413942.439   128296122.677                                                  
  25791901.978   135537305.144                                                  
 21  9  2  6 47 30.0000000  0 22G 1G 4G 7G 8G 9G14G21G27G30C24C25C26
                                C33C34C35E 2E 3E 5E 8E24E25E36
  23602894.826   124034000.375    23602898.222    96649857.253                  
  23152417.115   121666767.447    23152418.437    94805273.262                  
  20916678.609   109917902.984    20916677.894    85650317.512                  
  20715561.898   108860972.392    20715564.238    84826721.883                  
  21715053.153   114113341.195    21715055.226    88919478.222                  
  24227069.484   127314107.470    24227070.413    99205799.613                  
  22200100.366   116662313.925    22200099.615    90905699.539                  
  22758416.952   119596259.367    22758418.739    93191884.203                  
  23247158.746   122164606.372    23247160.765    95193190.492                  
                 116426901.360                   116426901.360    22358556.786  
                 131145819.005                   131145819.005    25185173.366  
                 120620206.169                   120620206.169    23163841.782  
                 134843431.145                   134843431.145    25895297.988  
                 123163715.859                   123163715.859    23652297.493  
                 129688620.942                   129688620.942    24905335.782  
  24978361.422   131262151.212                                                  
  25211566.485   132487658.826                                                  
  27371727.726   143839386.108                                                  
  24344650.746   127931998.384                                                  
  27688740.168   145505350.075                                                  
  24414024.565   128296554.211                                                  
  25791396.141   135534646.909                                                  
 21  9  2  6 47 31.0000000  0 22G 1G 4G 7G 8G 9G14G21G27G30C24C25C26
                                C33C34C35E 2E 3E 5E 8E24E25E36
  23602266.659   124030699.358    23602270.054    96647285.035                  
  23153072.801   121670213.094    23153074.141    94807958.179                  
  20916313.527   109915984.480    20916312.812    85648822.578                  
  20715901.516   108862757.071    20715903.857    84828112.542                  
  21715464.480   114115502.707    21715466.535    88921162.517                  
  24226666.412   127311989.356    24226667.359    99204149.137                  
  22199743.897   116660440.793    22199743.182    90904239.956                  
  22759036.739   119599516.405    22759038.544    93194422.159                  
  23246590.458   122161620.078    23246592.477    95190863.512                  
                 116426292.272                   116426292.272    22358439.815  
                 131143543.211                   131143543.211    25184736.325  
                 120621536.198                   120621536.198    23164097.202  
                 134845366.778                   134845366.778    25895669.699  
                 123160855.746                   123160855.746    23651748.253  
                 129691187.838                   129691187.838    24905828.735  
  24978181.588   131261206.079                                                  
  25211921.882   132489526.411                                                  
  27372273.535   143842254.355                                                  
  24344562.920   127931536.898                                                  
  27689025.501   145506849.487                                                  
  24414106.673   128296985.768                                                  
  25790890.323   135531988.824                                                  
 21  9  2  6 47 32.0000000  0 22G 1G 4G 7G 8G 9G14G21G27G30C24C25C26
                                C33C34C35E 2E 3E 5E 8E24E25E36
  23601638.473   124027398.341    23601641.904    96644712.812                  
  23153728.522   121673658.870    23153729.845    94810643.200                  
  20915948.498   109914066.275    20915947.802    85647327.871                  
  20716241.224   108864542.278    20716243.583    84829503.610                  
  21715875.879   114117664.665    21715877.952    88922847.157                  
  24226263.358   127309871.338    24226264.323    99202498.738                  
  22199387.535   116658568.052    22199386.802    90902780.675                  
  22759656.598   119602773.707    22759658.385    93196960.317                  
  23246022.205   122158633.851    23246024.224    95188536.582                  
                 116425683.359                   116425683.359    22358322.881  
                 131141267.380                   131141267.380    25184299.267  
                 120622866.446                   120622866.446    23164352.657  
                 134847302.569                   134847302.569    25896041.446  
                 123157995.909                   123157995.909    23651199.066  
                 129693755.043                   129693755.043    24906321.741  
  24978001.718   131260260.957                                                  
  25212277.314   132491394.296                                                  
  27372819.344   143845122.544                                                  
  24344475.201   127931075.858                                                  
  27689310.815   145508348.882                                                  
  24414188.817   128297417.340                                                  
  25790384.522   135529330.894                                                  
 21  9  2  6 47 33.0000000  0 22G 1G 4G 7G 8G 9G14G21G27G30C24C25C26
                                C33C34C35E 2E 3E 5E 8E24E25E36
  23601010.324   124024097.339    23601013.737    96642140.605                  
  23154384.262   121677104.798    23154385.584    94813328.339                  
  20915583.524   109912148.354    20915582.827    85645833.387                  
  20716581.039   108866327.989    20716583.380    84830895.074                  
  21716287.384   114119827.098    21716289.457    88924532.172                  
  24225860.340   127307753.430    24225861.305    99200848.417                  
  22199031.244   116656695.703    22199030.494    90901321.702                  
  22760276.474   119606031.253    22760278.279    93199498.660                  
  23245453.952   122155647.686    23245455.971    95186209.700                  
                 116425074.614                   116425074.614    22358205.981  
                 131138991.511                   131138991.511    25183862.208  
                 120624196.900                   120624196.900    23164608.166  
                 134849238.520                   134849238.520    25896413.211  
                 123155136.351                   123155136.351    23650649.898  
                 129696322.559                   129696322.559    24906814.801  
  24977821.885   131259315.848                                                  
  25212632.819   132493262.489                                                  
  27373365.118   143847990.665                                                  
  24344387.535   127930615.273                                                  
  27689596.148   145509848.282                                                  
  24414270.943   128297848.933                                                  
  25789878.758   135526673.115                                                  
 21  9  2  6 47 34.0000000  0 22G 1G 4G 7G 8G 9G14G21G27G30C24C25C26
                                C33C34C35E 2E 3E 5E 8E24E25E36
  23600382.174   124020796.360    23600385.587    96639568.411                  
  23155040.019   121680550.850    23155041.342    94816013.574                  
  20915218.620   109910230.722    20915217.923    85644339.128                  
  20716920.944   108868114.220    20716923.303    84832286.944                  
  21716698.962   114121989.977    21716701.034    88926217.530                  
  24225457.340   127305635.612    24225458.287    99199198.172                  
  22198675.025   116654823.745    22198674.275    90899863.038                  
  22760896.422   119609289.045    22760898.209    93202037.199                  
  23244885.717   122152661.583    23244887.736    95183882.863                  
                 116424466.044                   116424466.044    22358089.100  
                 131136715.609                   131136715.609    25183425.132  
                 120625527.563                   120625527.563    23164863.693  
                 134851174.625                   134851174.625    25896785.048  
                 123152277.070                   123152277.070    23650100.800  
                 129698890.380                   129698890.380    24907307.914  
  24977642.033   131258370.765                                                  
  25212988.376   132495130.961                                                  
  27373910.892   143850858.719                                                  
  24344299.977   127930155.140                                                  
  27689881.480   145511347.659                                                  
  24414353.087   128298280.544                                                  
  25789373.046   135524015.487                                                  
 21  9  2  6 47 35.0000000  0 22G 1G 4G 7G 8G 9G14G21G27G30C24C25C26
                                C33C34C35E 2E 3E 5E 8E24E25E36
  23599754.024   124017495.370    23599757.419    96636996.215                  
  23155695.795   121683997.046    23155697.135    94818698.921                  
  20914853.753   109908313.385    20914853.056    85642845.102                  
  20717260.956   108869900.944    20717263.297    84833679.199                  
  21717110.646   114124153.323    21717112.701    88927903.254                  
  24225054.340   127303517.894    24225055.305    99197548.000                  
  22198318.878   116652952.180    22198318.145    90898404.671                  
  22761516.406   119612547.102    22761518.192    93204575.945                  
  23244317.500   122149675.538    23244319.519    95181556.078                  
                 116423857.642                   116423857.642    22357972.255  
                 131134439.667                   131134439.667    25182988.074  
                 120626858.441                   120626858.441    23165119.274  
                 134853110.889                   134853110.889    25897156.884  
                 123149418.067                   123149418.067    23649551.757  
                 129701458.504                   129701458.504    24907801.100  
  24977462.181   131257425.685                                                  
  25213344.006   132496999.738                                                  
  27374456.665   143853726.702                                                  
  24344212.526   127929695.447                                                  
  27690166.795   145512847.030                                                  
  24414435.213   128298712.183                                                  
  25788867.335   135521358.016                                                  
 21  9  2  6 47 36.0000000  0 22G 1G 4G 7G 8G 9G14G21G27G30C24C25C26
                                C33C34C35E 2E 3E 5E 8E24E25E36
  23599125.856   124014194.409    23599129.287    96634424.038                  
  23156351.624   121687443.385    23156352.964    94821384.378                  
  20914488.939   109906396.331    20914488.260    85641351.293                  
  20717601.039   108871688.161    20717603.398    84835071.831                  
  21717522.384   114126317.118    21717524.457    88929589.328                  
  24224651.376   127301400.273    24224652.323    99195897.910                  
  22197962.802   116651081.012    22197962.051    90896946.620                  
  22762136.443   119615805.402    22762138.212    93207114.880                  
  23243749.283   122146689.555    23243751.302    95179229.335                  
                 116423249.406                   116423249.406    22357855.463  
                 131132163.696                   131132163.696    25182550.997  
                 120628189.529                   120628189.529    23165374.908  
                 134855047.311                   134855047.311    25897528.739  
                 123146559.335                   123146559.335    23649002.785  
                 129704026.941                   129704026.941    24908294.338  
  24977282.365   131256480.628                                                  
  25213699.689   132498868.812                                                  
  27375002.403   143856594.629                                                  
  24344125.129   127929236.202                                                  
  27690452.128   145514346.401                                                  
  24414517.357   128299143.832                                                  
  25788361.660   135518700.697                                                  
 21  9  2  6 47 37.0000000  0 22G 1G 4G 7G 8G 9G14G21G27G30C24C25C26
                                C33C34C35E 2E 3E 5E 8E24E25E36
  23598497.725   124010893.454    23598501.120    96631851.863                  
  23157007.452   121690889.857    23157008.793    94824069.941                  
  20914124.196   109904479.567    20914123.499    85639857.706                  
  20717941.247   108873475.871    20717943.588    84836464.857                  
  21717934.247   114128481.367    21717936.302    88931275.759                  
  24224248.412   127299282.754    24224249.377    99194247.896                  
  22197606.797   116649210.233    22197606.065    90895488.875                  
  22762756.516   119619063.954    22762758.321    93209654.011                  
  23243181.084   122143703.633    23243183.103    95176902.645                  
                 116422641.347                   116422641.347    22357738.689  
                 131129887.685                   131129887.685    25182113.903  
                 120629520.829                   120629520.829    23165630.560  
                 134856983.890                   134856983.890    25897900.647  
                 123143700.888                   123143700.888    23648453.848  
                 129706595.678                   129706595.678    24908787.648  
  24977102.513   131255535.586                                                  
  25214055.407   132500738.185                                                  
  27375548.141   143859462.483                                                  
  24344037.821   127928777.407                                                  
  27690737.442   145515845.755                                                  
  24414599.501   128299575.507                                                  
  25787856.020   135516043.530                                                  
 21  9  2  6 47 38.0000000  0 22G 1G 4G 7G 8G 9G14G21G27G30C24C25C26
                                C33C34C35E 2E 3E 5E 8E24E25E36
  23597869.557   124007592.508    23597872.988    96629279.699                  
  23157663.317   121694336.466    23157664.657    94826755.610                  
  20913759.507   109902563.090    20913758.828    85638364.352                  
  20718281.527   108875264.086    20718283.868    84837858.271                  
  21718346.164   114130646.081    21718348.237    88932962.546                  
  24223845.501   127297165.324    24223846.448    99192597.950                  
  22197250.882   116647339.851    22197250.132    90894031.432                  
  22763376.660   119622322.753    22763378.447    93212193.335                  
  23242612.902   122140717.785    23242614.904    95174576.013                  
                 116422033.457                   116422033.457    22357621.932  
                 131127611.632                   131127611.632    25181676.827  
                 120630852.335                   120630852.335    23165886.266  
                 134858920.626                   134858920.626    25898272.573  
                 123140842.714                   123140842.714    23647904.965  
                 129709164.729                   129709164.729    24909280.994  
  24976922.680   131254590.558                                                  
  25214411.197   132502607.857                                                  
  27376093.861   143862330.279                                                  
  24343950.602   127928319.055                                                  
  27691022.739   145517345.108                                                  
  24414681.645   128300007.200                                                  
  25787350.416   135513386.522                                                  
 21  9  2  6 47 39.0000000  0 22G 1G 4G 7G 8G 9G14G21G27G30C24C25C26
                                C33C34C35E 2E 3E 5E 8E24E25E36
  23597241.425   124004291.579    23597244.820    96626707.547                  
  23158319.217   121697783.202    23158320.558    94829441.383                  
  20913394.854   109900646.898    20913394.175    85636871.216                  
  20718621.896   108877052.788    20718624.237    84839252.062                  
  21718758.188   114132811.243    21718760.261    88934649.683                  
  24223442.572   127295047.996    24223443.519    99190948.082                  
  22196895.038   116645469.856    22196894.306    90892574.294                  
  22763996.823   119625581.801    22763998.627    93214732.851                  
  23242044.721   122137731.990    23242046.740    95172249.419                  
                 116421425.739                   116421425.739    22357505.248  
                 131125335.548                   131125335.548    25181239.715  
                 120632184.054                   120632184.054    23166142.026  
                 134860857.519                   134860857.519    25898644.534  
                 123137984.820                   123137984.820    23647356.136  
                 129711734.086                   129711734.086    24909774.411  
  24976742.864   131253645.534                                                  
  25214767.041   132504477.813                                                  
  27376639.563   143865197.995                                                  
  24343863.455   127927861.152                                                  
  27691308.054   145518844.441                                                  
  24414763.807   128300438.907                                                  
  25786844.812   135510729.649                                                  
 21  9  2  6 47 40.0000000  0 22G 1G 4G 7G 8G 9G14G21G27G30C24C25C26
                                C33C34C35E 2E 3E 5E 8E24E25E36
  23596613.275   124000990.653    23596616.688    96624135.399                  
  23158975.136   121701230.087    23158976.476    94832127.261                  
  20913030.273   109898731.003    20913029.594    85635378.308                  
  20718962.373   108878841.988    20718964.714    84840646.242                  
  21719170.283   114134976.854    21719172.356    88936337.177                  
  24223039.679   127292930.765    24223040.644    99189298.296                  
  22196539.266   116643600.249    22196538.516    90891117.461                  
  22764617.056   119628841.102    22764618.843    93217272.571                  
  23241476.540   122134746.259    23241478.559    95169922.875                  
                 116420818.192                   116420818.192    22357388.563  
                 131123059.429                   131123059.429    25180802.621  
                 120633515.988                   120633515.988    23166397.803  
                 134862794.571                   134862794.571    25899016.514  
                 123135127.204                   123135127.204    23646807.361  
                 129714303.745                   129714303.745    24910267.900  
  24976563.012   131252700.536                                                  
  25215122.938   132506348.069                                                  
  27377185.265   143868065.652                                                  
  24343776.397   127927403.698                                                  
  27691593.386   145520343.774                                                  
  24414845.969   128300870.640                                                  
  25786339.262   135508072.946                                                  
 21  9  2  6 47 41.0000000  0 22G 1G 4G 7G 8G 9G14G21G27G30C24C25C26
                                C33C34C35E 2E 3E 5E 8E24E25E36
  23595985.125   123997689.742    23595988.538    96621563.258                  
  23159631.072   121704677.110    23159632.412    94834813.255                  
  20912665.762   109896815.395    20912665.065    85633885.624                  
  20719302.938   108880631.706    20719305.297    84842040.831                  
  21719582.486   114137142.929    21719584.541    88938025.027                  
  24222636.804   127290813.637    24222637.752    99187648.586                  
  22196183.565   116641731.046    22196182.815    90889660.937                  
  22765237.326   119632100.655    22765239.113    93219812.480                  
  23240908.394   122131760.598    23240910.413    95167596.387                  
                 116420210.816                   116420210.816    22357271.914  
                 131120783.274                   131120783.274    25180365.509  
                 120634848.128                   120634848.128    23166653.616  
                 134864731.778                   134864731.778    25899388.547  
                 123132269.862                   123132269.862    23646258.639  
                 129716873.715                   129716873.715    24910761.443  
  24976383.196   131251755.559                                                  
  25215478.871   132508218.622                                                  
  27377730.967   143870933.245                                                  
  24343689.446   127926946.690                                                  
  27691878.683   145521843.078                                                  
  24414928.112   128301302.398                                                  
  25785833.747   135505416.384                                                  
 21  9  2  6 47 42.0000000  0 22G 1G 4G 7G 8G 9G14G21G27G30C24C25C26
                                C33C34C35E 2E 3E 5E 8E24E25E36
  23595356.976   123994388.842    23595360.407    96618991.129                  
  23160287.061   121708124.257    23160288.402    94837499.343                  
  20912301.288   109894900.077    20912300.573    85632393.171                  
  20719643.611   108882421.936    20719645.952    84843435.812                  
  21719994.742   114139309.464    21719996.815    88939713.235                  
  24222233.947   127288696.605    24222234.894    99185998.948                  
  22195827.936   116639862.231    22195827.203    90888204.718                  
  22765857.631   119635360.463    22765859.436    93222352.590                  
  23240340.266   122128774.994    23240342.286    95165269.941                  
                 116419603.610                   116419603.610    22357155.319  
                 131118507.080                   131118507.080    25179928.379  
                 120636180.484                   120636180.484    23166909.482  
                 134866669.139                   134866669.139    25899760.598  
                 123129412.802                   123129412.802    23645709.953  
                 129719443.987                   129719443.987    24911255.021  
  24976203.380   131250810.587                                                  
  25215834.894   132510089.477                                                  
  27378276.615   143873800.773                                                  
  24343602.567   127926490.128                                                  
  27692163.998   145523342.393                                                  
  24415010.274   128301734.164                                                  
  25785328.232   135502759.981                                                  
 21  9  2  6 47 43.0000000  0 22G 1G 4G 7G 8G 9G14G21G27G30C24C25C26
                                C33C34C35E 2E 3E 5E 8E24E25E36
  23594728.844   123991087.952    23594732.257    96616419.009                  
  23160943.051   121711571.550    23160944.391    94840185.548                  
  20911936.867   109892985.047    20911936.188    85630900.940                  
  20719984.374   108884212.657    20719986.714    84844831.179                  
  21720407.123   114141476.458    21720409.196    88941401.801                  
  24221831.108   127286579.665    24221832.055    99184349.387                  
  22195472.378   116637993.812    22195471.664    90886748.805                  
  22766478.026   119638620.512    22766479.795    93224892.886                  
  23239772.121   122125789.453    23239774.140    95162943.547                  
                 116418996.575                   116418996.575    22357038.741  
                 131116230.847                   131116230.847    25179491.267  
                 120637513.046                   120637513.046    23167165.384  
                 134868606.660                   134868606.660    25900132.684  
                 123126556.015                   123126556.015    23645161.356  
                 129722014.571                   129722014.571    24911748.688  
  24976023.564   131249865.621                                                  
  25216190.952   132511960.616                                                  
  27378822.282   143876668.237                                                  
  24343515.759   127926034.009                                                  
  27692449.295   145524841.694                                                  
  24415092.436   128302165.956                                                  
  25784822.771   135500103.727                                                  
 21  9  2  6 47 44.0000000  0 22G 1G 4G 7G 8G 9G14G21G27G30C24C25C26
                                C33C34C35E 2E 3E 5E 8E24E25E36
  23594100.712   123987787.079    23594104.125    96613846.898                  
  23161599.077   121715018.972    23161600.417    94842871.849                  
  20911572.500   109891070.308    20911571.803    85629408.938                  
  20720325.243   108886003.871    20720327.584    84846226.930                  
  21720819.558   114143643.894    21720821.631    88943090.710                  
  24221428.287   127284462.833    24221429.234    99182699.907                  
  22195116.928   116636125.786    22195116.177    90885293.200                  
  22767098.420   119641880.817    22767100.225    93227433.382                  
  23239203.993   122122803.972    23239206.012    95160617.200                  
                 116418389.714                   116418389.714    22356922.199  
                 131113954.585                   131113954.585    25179054.119  
                 120638845.826                   120638845.826    23167421.340  
                 134870544.335                   134870544.335    25900504.807  
                 123123699.511                   123123699.511    23644612.777  
                 129724585.456                   129724585.456    24912242.392  
  24975843.748   131248920.685                                                  
  25216547.100   132513832.054                                                  
  27379367.948   143879535.625                                                  
  24343429.059   127925578.345                                                  
  27692734.592   145526340.965                                                  
  24415174.616   128302597.769                                                  
  25784317.346   135497447.616                                                  
 21  9  2  6 47 45.0000000  0 22G 1G 4G 7G 8G 9G14G21G27G30C24C25C26
                                C33C34C35E 2E 3E 5E 8E24E25E36
  23593472.580   123984486.212    23593475.975    96611274.798                  
  23162255.138   121718466.535    23162256.460    94845558.257                  
  20911208.204   109889155.859    20911207.507    85627917.160                  
  20720666.184   108887795.583    20720668.543    84847623.069                  
  21721232.100   114145811.788    21721234.173    88944779.980                  
  24221025.483   127282346.086    24221026.412    99181050.497                  
  22194761.513   116634258.156    22194760.780    90883837.906                  
  22767718.904   119645141.370    22767720.673    93229974.074                  
  23238635.901   122119818.558    23238637.920    95158290.903                  
                 116417783.019                   116417783.019    22356805.693  
                 131111678.285                   131111678.285    25178616.971  
                 120640178.809                   120640178.809    23167677.314  
                 134872482.173                   134872482.173    25900876.947  
                 123120843.282                   123120843.282    23644064.287  
                 129727156.654                   129727156.654    24912736.166  
  24975663.914   131247975.757                                                  
  25216903.265   132515703.786                                                  
  27379913.561   143882402.953                                                  
  24343342.412   127925123.118                                                  
  27693019.906   145527840.245                                                  
  24415256.777   128303029.593                                                  
  25783811.921   135494791.677                                                  
 21  9  2  6 47 46.0000000  0 22G 1G 4G 7G 8G 9G14G21G27G30C24C25C26
                                C33C34C35E 2E 3E 5E 8E24E25E36
  23592844.448   123981185.359    23592847.861    96608702.698                  
  23162911.199   121721914.234    23162912.539    94848244.777                  
  20910843.944   109887241.692    20910843.247    85626425.601                  
  20721007.232   108889587.801    20721009.573    84849019.604                  
  21721644.714   114147980.143    21721646.805    88946469.610                  
  24220622.698   127280229.445    24220623.645    99179401.164                  
  22194406.187   116632390.911    22194405.455    90882382.910                  
  22768339.406   119648402.171    22768341.193    93232514.961                  
  23238067.791   122116833.203    23238069.828    95155964.652                  
                 116417176.501                   116417176.501    22356689.223  
                 131109401.945                   131109401.945    25178179.841  
                 120641512.008                   120641512.008    23167933.341  
                 134874420.159                   134874420.159    25901249.105  
                 123117987.333                   123117987.333    23643515.815  
                 129729728.153                   129729728.153    24913229.995  
  24975484.116   131247030.847                                                  
  25217259.502   132517575.818                                                  
  27380459.174   143885270.212                                                  
  24343255.872   127924668.343                                                  
  27693305.221   145529339.517                                                  
  24415338.957   128303461.442                                                  
  25783306.549   135492135.883                                                  
 21  9  2  6 47 47.0000000  0 22G 1G 4G 7G 8G 9G14G21G27G30C24C25C26
                                C33C34C35E 2E 3E 5E 8E24E25E36
  23592216.316   123977884.516    23592219.711    96606130.617                  
  23163567.296   121725362.070    23163568.636    94850931.403                  
  20910479.738   109885327.816    20910479.041    85624934.266                  
  20721348.388   108891380.523    20721350.728    84850416.528                  
  21722057.435   114150148.956    21722059.526    88948159.589                  
  24220219.948   127278112.898    24220220.877    99177751.911                  
  22194050.933   116630524.062    22194050.201    90880928.222                  
  22768959.962   119651663.226    22768961.748    93235056.039                  
  23237499.717   122113847.915    23237501.736    95153638.454                  
                 116416570.153                   116416570.153    22356572.788  
                 131107125.573                   131107125.573    25177742.676  
                 120642845.419                   120642845.419    23168189.422  
                 134876358.308                   134876358.308    25901621.299  
                 123115131.660                   123115131.660    23642967.415  
                 129732299.958                   129732299.958    24913723.877  
  24975304.300   131246085.952                                                  
  25217615.792   132519448.146                                                  
  27381004.804   143888137.405                                                  
  24343169.440   127924214.020                                                  
  27693590.518   145530838.776                                                  
  24415421.155   128303893.313                                                  
  25782801.195   135489480.243                                                  
 21  9  2  6 47 48.0000000  0 22G 1G 4G 7G 8G 9G14G21G27G30C24C25C26
                                C33C34C35E 2E 3E 5E 8E24E25E36
  23591588.202   123974583.684    23591591.597    96603558.542                  
  23164223.446   121728810.035    23164224.769    94853618.129                  
  20910115.603   109883414.238    20910114.906    85623443.167                  
  20721689.614   108893173.708    20721691.955    84851813.816                  
  21722470.245   114152318.218    21722472.318    88949849.921                  
  24219817.180   127275996.453    24219818.145    99176102.731                  
  22193695.769   116628657.621    22193695.018    90879473.855                  
  22769580.553   119654924.522    22769582.357    93237597.309                  
  23236931.661   122110862.686    23236933.680    95151312.302                  
                 116415963.975                   116415963.975    22356456.354  
                 131104849.163                   131104849.163    25177305.528  
                 120644179.036                   120644179.036    23168445.521  
                 134878296.609                   134878296.609    25901993.546  
                 123112276.266                   123112276.266    23642419.086  
                 129734872.071                   129734872.071    24914217.848  
  24975124.502   131245141.071                                                  
  25217972.136   132521320.773                                                  
  27381550.399   143891004.526                                                  
  24343083.061   127923760.140                                                  
  27693875.815   145532338.036                                                  
  24415503.334   128304325.202                                                  
  25782295.877   135486824.758                                                  
 21  9  2  6 47 49.0000000  0 22G 1G 4G 7G 8G 9G14G21G27G30C24C25C26
                                C33C34C35E 2E 3E 5E 8E24E25E36
  23590960.052   123971282.855    23590963.483    96600986.468                  
  23164879.579   121732258.144    23164880.919    94856304.969                  
  20909751.521   109881500.949    20909750.824    85621952.292                  
  20722030.949   108894967.408    20722033.272    84853211.504                  
  21722883.127   114154487.940    21722885.200    88951540.618                  
  24219414.466   127273880.103    24219415.395    99174453.624                  
  22193340.657   116626791.567    22193339.943    90878019.789                  
  22770201.215   119658186.082    22770203.002    93240138.782                  
  23236363.605   122107877.536    23236365.624    95148986.206                  
                 116415357.969                   116415357.969    22356340.009  
                 131102572.718                   131102572.718    25176868.362  
                 120645512.866                   120645512.866    23168701.674  
                 134880235.072                   134880235.072    25902365.794  
                 123109421.148                   123109421.148    23641870.775  
                 129737444.489                   129737444.489    24914711.837  
  24974944.704   131244196.208                                                  
  25218328.534   132523193.684                                                  
  27382095.976   143893871.594                                                  
  24342996.771   127923306.715                                                  
  27694161.094   145533837.281                                                  
  24415585.514   128304757.109                                                  
  25781790.577   135484169.422                                                  
 21  9  2  6 47 50.0000000  0 22G 1G 4G 7G 8G 9G14G21G27G30C24C25C26
                                C33C34C35E 2E 3E 5E 8E24E25E36
  23590331.938   123967982.058    23590335.334    96598414.423                  
  23165535.765   121735706.402    23165537.105    94858991.929                  
  20909387.476   109879587.946    20909386.779    85620461.641                  
  20722372.354   108896761.603    20722374.713    84854609.578                  
  21723296.080   114156658.126    21723298.153    88953231.672                  
  24219011.752   127271763.808    24219012.699    99172804.552                  
  22192985.654   116624925.871    22192984.921    90876565.980                  
  22770821.914   119661447.892    22770823.701    93242680.456                  
  23235795.566   122104892.410    23235797.586    95146660.129                  
                 116414752.132                   116414752.132    22356223.646  
                 131100296.235                   131100296.235    25176431.179  
                 120646846.923                   120646846.923    23168957.862  
                 134882173.706                   134882173.706    25902738.077  
                 123106566.321                   123106566.321    23641322.536  
                 129740017.219                   129740017.219    24915205.898  
  24974764.906   131243251.351                                                  
  25218685.003   132525066.907                                                  
  27382641.535   143896738.591                                                  
  24342910.571   127922853.718                                                  
  27694446.408   145535336.520                                                  
  24415667.711   128305189.039                                                  
  25781285.312   135481514.219                                                  
 21  9  2  6 47 51.0000000  0 22G 1G 4G 7G 8G 9G14G21G27G30C24C25C26
                                C33C34C35E 2E 3E 5E 8E24E25E36
  23589703.824   123964681.258    23589707.219    96595842.367                  
  23166191.952   121739154.772    23166193.292    94861678.973                  
  20909023.502   109877675.235    20909022.822    85618971.214                  
  20722713.885   108898556.317    20722716.243    84856008.054                  
  21723709.140   114158828.761    21723711.213    88954923.078                  
  24218609.055   127269647.648    24218610.020    99171155.594                  
  22192630.703   116623060.606    22192629.989    90875112.527                  
  22771442.666   119664709.942    22771444.453    93245222.316                  
  23235227.528   122101907.372    23235229.547    95144334.125                  
                 116414146.487                   116414146.487    22356107.336  
                 131098019.723                   131098019.723    25175993.995  
                 120648181.191                   120648181.191    23169214.104  
                 134884112.480                   134884112.480    25903110.396  
                 123103711.808                   123103711.808    23640774.368  
                 129742590.247                   129742590.247    24915700.012  
  24974585.108   131242306.520                                                  
  25219041.526   132526940.417                                                  
  27383187.094   143899605.520                                                  
  24342824.460   127922401.188                                                  
  27694731.705   145536835.741                                                  
  24415749.927   128305620.993                                                  
  25780780.083   135478859.195                                                  
 21  9  2  6 47 52.0000000  0 22G 1G 4G 7G 8G 9G14G21G27G30C24C25C26
                                C33C34C35E 2E 3E 5E 8E24E25E36
  23589075.692   123961380.473    23589079.105    96593270.329                  
  23166848.191   121742603.289    23166849.514    94864366.124                  
  20908659.581   109875762.805    20908658.884    85617481.011                  
  20723055.505   108900351.539    20723057.863    84857406.929                  
  21724122.308   114160999.851    21724124.381    88956614.837                  
  24218206.377   127267531.597    24218207.342    99169506.723                  
  22192275.825   116621195.729    22192275.092    90873659.378                  
  22772063.453   119667972.233    22772065.240    93247764.359                  
  23234659.508   122098922.395    23234661.527    95142008.167                  
                 116413540.996                   116413540.996    22355991.062  
                 131095743.168                   131095743.168    25175556.812  
                 120649515.655                   120649515.655    23169470.363  
                 134886051.406                   134886051.406    25903482.769  
                 123100857.528                   123100857.528    23640226.217  
                 129745163.582                   129745163.582    24916194.197  
  24974405.327   131241361.695                                                  
  25219398.102   132528814.221                                                  
  27383732.654   143902472.371                                                  
  24342738.439   127921949.092                                                  
  27695016.984   145538334.954                                                  
  24415832.124   128306052.953                                                  
  25780274.873   135476204.326                                                  
 21  9  2  6 47 53.0000000  0 22G 1G 4G 7G 8G 9G14G21G27G30C24C25C26
                                C33C34C35E 2E 3E 5E 8E24E25E36
  23588447.578   123958079.700    23588450.974    96590698.300                  
  23167504.467   121746051.938    23167505.771    94867053.383                  
  20908295.714   109873850.668    20908295.017    85615991.035                  
  20723397.214   108902147.249    20723399.555    84858806.187                  
  21724535.529   114163171.387    21724537.602    88958306.942                  
  24217803.734   127265415.627    24217804.681    99167857.918                  
  22191921.035   116619331.257    22191920.302    90872206.542                  
  22772684.295   119671234.788    22772686.100    93250306.609                  
  23234091.487   122095937.486    23234093.506    95139682.266                  
                 116412935.676                   116412935.676    22355874.824  
                 131093466.583                   131093466.583    25175119.628  
                 120650850.331                   120650850.331    23169726.677  
                 134887990.488                   134887990.488    25903855.141  
                 123098003.524                   123098003.524    23639678.139  
                 129747737.221                   129747737.221    24916688.437  
  24974225.511   131240416.891                                                  
  25219754.714   132530688.321                                                  
  27384278.177   143905339.163                                                  
  24342652.471   127921497.443                                                  
  27695302.281   145539834.155                                                  
  24415914.322   128306484.942                                                  
  25779769.697   135473549.606                                                  
 21  9  2  6 47 54.0000000  0 22G 1G 4G 7G 8G 9G14G21G27G30C24C25C26
                                C33C34C35E 2E 3E 5E 8E24E25E36
  23587819.464   123954778.945    23587822.877    96588126.280                  
  23168160.743   121749500.719    23168162.065    94869740.742                  
  20907931.901   109871938.825    20907931.204    85614501.284                  
  20723739.048   108903943.483    20723741.371    84860205.848                  
  21724948.839   114165343.383    21724950.912    88959999.403                  
  24217401.091   127263299.770    24217402.038    99166209.195                  
  22191566.299   116617467.175    22191565.584    90870754.011                  
  22773305.208   119674497.586    22773306.977    93252849.052                  
  23233523.502   122092952.635    23233525.504    95137356.411                  
                 116412330.528                   116412330.528    22355758.604  
                 131091189.958                   131091189.958    25174682.427  
                 120652185.222                   120652185.222    23169983.026  
                 134889929.728                   134889929.728    25904227.532  
                 123095149.802                   123095149.802    23639130.114  
                 129750311.172                   129750311.172    24917182.748  
  24974045.731   131239472.089                                                  
  25220111.416   132532562.715                                                  
  27384823.700   143908205.890                                                  
  24342566.628   127921046.245                                                  
  27695587.560   145541333.370                                                  
  24415996.537   128306916.954                                                  
  25779264.558   135470895.034                                                  
 21  9  2  6 47 55.0000000  0 22G 1G 4G 7G 8G 9G14G21G27G30C24C25C26
                                C33C34C35E 2E 3E 5E 8E24E25E36
  23587191.368   123951478.204    23587194.763    96585554.277                  
  23168817.036   121752949.638    23168818.376    94872428.212                  
  20907568.141   109870027.267    20907567.462    85613011.761                  
  20724080.936   108905740.199    20724083.277    84861605.887                  
  21725362.239   114167515.832    21725364.312    88961692.220                  
  24216998.484   127261184.003    24216999.431    99164560.546                  
  22191211.653   116615603.483    22191210.920    90869301.786                  
  22773926.120   119677760.637    22773927.925    93255391.687                  
  23232955.500   122089967.841    23232957.519    95135030.597                  
                 116411725.552                   116411725.552    22355642.420  
                 131088913.298                   131088913.298    25174245.208  
                 120653520.320                   120653520.320    23170239.428  
                 134891869.121                   134891869.121    25904599.976  
                 123092296.356                   123092296.356    23638582.142  
                 129752885.425                   129752885.425    24917677.094  
  24973865.933   131238527.312                                                  
  25220468.153   132534437.402                                                  
  27385369.224   143911072.550                                                  
  24342480.839   127920595.487                                                  
  27695872.857   145542832.554                                                  
  24416078.735   128307348.975                                                  
  25778759.436   135468240.626                                                  
 21  9  2  6 47 56.0000000  0 22G 1G 4G 7G 8G 9G14G21G27G30C24C25C26
                                C33C34C35E 2E 3E 5E 8E24E25E36
  23586563.236   123948177.469    23586566.667    96582982.278                  
  23169473.383   121756398.692    23169474.706    94875115.788                  
  20907204.435   109868115.999    20907203.756    85611522.466                  
  20724422.932   108907537.405    20724425.273    84863006.305                  
  21725775.746   114169688.735    21725777.819    88963385.391                  
  24216595.877   127259068.333    24216596.842    99162911.972                  
  22190857.078   116613740.188    22190856.363    90867849.867                  
  22774547.123   119681023.935    22774548.892    93257934.516                  
  23232387.533   122086983.128    23232389.534    95132704.844                  
                 116411120.747                   116411120.747    22355526.271  
                 131086636.597                   131086636.597    25173808.006  
                 120654855.629                   120654855.629    23170495.849  
                 134893808.669                   134893808.669    25904972.456  
                 123089443.193                   123089443.193    23638034.224  
                 129755459.981                   129755459.981    24918171.512  
  24973686.153   131237582.551                                                  
  25220824.961   132536312.380                                                  
  27385914.694   143913939.142                                                  
  24342395.157   127920145.190                                                  
  27696158.136   145544331.731                                                  
  24416160.968   128307781.029                                                  
  25778254.333   135465586.367                                                  
 21  9  2  6 47 57.0000000  0 22G 1G 4G 7G 8G 9G14G21G27G30C24C25C26
                                C33C34C35E 2E 3E 5E 8E24E25E36
  23585935.140   123944876.754    23585938.553    96580410.290                  
  23170129.748   121759847.884    23170131.053    94877803.468                  
  20906840.800   109866205.028    20906840.103    85610033.390                  
  20724765.016   108909335.118    20724767.375    84864407.120                  
  21726189.307   114171862.087    21726191.380    88965078.915                  
  24216193.306   127256952.766    24216194.253    99161263.480                  
  22190502.574   116611877.286    22190501.859    90866398.253                  
  22775168.143   119684287.476    22775169.947    93260477.535                  
  23231819.584   122083998.480    23231821.585    95130379.145                  
                 116410516.114                   116410516.114    22355410.158  
                 131084359.867                   131084359.867    25173370.751  
                 120656191.151                   120656191.151    23170752.323  
                 134895748.376                   134895748.376    25905344.953  
                 123086590.305                   123086590.305    23637486.360  
                 129758034.847                   129758034.847    24918666.002  
  24973506.373   131236637.800                                                  
  25221181.806   132538187.665                                                  
  27386460.181   143916805.664                                                  
  24342309.565   127919695.345                                                  
  27696443.415   145545830.903                                                  
  24416243.183   128308213.091                                                  
  25777749.283   135462932.261                                                  
 21  9  2  6 47 58.0000000  0 22G 1G 4G 7G 8G 9G14G21G27G30C24C25C26
                                C33C34C35E 2E 3E 5E 8E24E25E36
  23585307.044   123941576.040    23585310.439    96577838.305                  
  23170786.113   121763297.207    23170787.453    94880491.255                  
  20906477.201   109864294.344    20906476.522    85608544.548                  
  20725107.226   108911133.331    20725109.567    84865808.327                  
  21726602.975   114174035.903    21726605.048    88966772.793                  
  24215790.735   127254837.290    24215791.700    99159615.060                  
  22190148.160   116610014.777    22190147.427    90864946.950                  
  22775789.216   119687551.263    22775791.021    93263020.741                  
  23231251.617   122081013.888    23231253.636    95128053.488                  
                 116409911.652                   116409911.652    22355294.081  
                 131082083.096                   131082083.096    25172933.532  
                 120657526.883                   120657526.883    23171008.833  
                 134897688.235                   134897688.235    25905717.487  
                 123083737.694                   123083737.694    23636938.532  
                 129760610.016                   129760610.016    24919160.545  
  24973326.592   131235693.063                                                  
  25221538.722   132540063.239                                                  
  27387005.669   143919672.121                                                  
  24342224.043   127919245.928                                                  
  27696728.693   145547330.054                                                  
  24416325.399   128308645.177                                                  
  25777244.268   135460278.305                                                  
 21  9  2  6 47 59.0000000  0 22G 1G 4G 7G 8G 9G14G21G27G30C24C25C26
                                C33C34C35E 2E 3E 5E 8E24E25E36
  23584678.948   123938275.348    23584682.343    96575266.340                  
  23171442.532   121766746.663    23171443.854    94883179.140                  
  20906113.674   109862383.941    20906112.977    85607055.923                  
  20725449.507   108912932.051    20725451.848    84867209.925                  
  21727016.714   114176210.177    21727018.805    88968467.032                  
  24215388.200   127252721.914    24215389.147    99157966.714                  
  22189793.817   116608152.667    22189793.085    90863495.957                  
  22776410.361   119690815.306    22776412.148    93265564.153                  
  23230683.686   122078029.351    23230685.705    95125727.880                  
                 116409307.362                   116409307.362    22355178.040  
                 131079806.297                   131079806.297    25172496.295  
                 120658862.829                   120658862.829    23171265.378  
                 134899628.245                   134899628.245    25906090.038  
                 123080885.368                   123080885.368    23636390.775  
                 129763185.488                   129763185.488    24919655.123  
  24973146.848   131234748.341                                                  
  25221895.673   132541939.102                                                  
  27387551.121   143922538.519                                                  
  24342138.594   127918796.973                                                  
  27697013.972   145548829.208                                                  
  24416407.614   128309077.277                                                  
  25776739.254   135457624.510                                                  
 21  9  2  6 48  0.0000000  0 22G 1G 4G 7G 8G 9G14G21G27G30C24C25C26
                                C33C34C35E 2E 3E 5E 8E24E25E36
  23584050.834   123934974.672    23584054.247    96572694.382                  
  23172098.968   121770196.254    23172100.308    94885867.133                  
  20905750.182   109860473.833    20905749.503    85605567.526                  
  20725791.878   108914731.282    20725794.218    84868611.925                  
  21727430.561   114178384.891    21727432.634    88970161.616                  
  24214985.682   127250606.634    24214986.611    99156318.445                  
  22189439.546   116606290.950    22189438.795    90862045.266                  
  22777031.524   119694079.595    22777033.311    93268107.758                  
  23230115.754   122075044.888    23230117.774    95123402.320                  
                 116408703.246                   116408703.246    22355062.016  
                 131077529.456                   131077529.456    25172059.058  
                 120660198.985                   120660198.985    23171521.977  
                 134901568.418                   134901568.418    25906462.643  
                 123078033.318                   123078033.318    23635843.071  
                 129765761.270                   129765761.270    24920149.774  
  24972967.068   131233803.636                                                  
  25222252.696   132543815.265                                                  
  27388096.555   143925404.833                                                  
  24342053.251   127918348.457                                                  
  27697299.251   145550328.364                                                  
  24416489.865   128309509.410                                                  
  25776234.275   135454970.862                                                  
 21  9  2  6 48  1.0000000  0 22G 1G 4G 7G 8G 9G14G21G27G30C24C25C26
                                C33C34C35E 2E 3E 5E 8E24E25E36
  23583422.738   123931673.999    23583426.133    96570122.433                  
  23172755.422   121773645.986    23172756.763    94888555.234                  
  20905386.762   109858564.023    20905386.065    85604079.363                  
  20726134.355   108916530.996    20726136.696    84870014.300                  
  21727844.479   114180560.077    21727846.552    88971856.567                  
  24214583.164   127248491.454    24214584.111    99154670.255                  
  22189085.346   116604429.620    22189084.596    90860594.880                  
  22777652.741   119697344.134    22777654.546    93270651.554                  
  23229547.841   122072060.489    23229549.860    95121076.817                  
                 116408099.302                   116408099.302    22354946.046  
                 131075252.581                   131075252.581    25171621.803  
                 120661535.351                   120661535.351    23171778.612  
                 134903508.742                   134903508.742    25906835.265  
                 123075181.547                   123075181.547    23635295.421  
                 129768337.353                   129768337.353    24920644.478  
  24972787.305   131232858.946                                                  
  25222609.773   132545691.719                                                  
  27388641.971   143928271.091                                                  
  24341967.998   127917900.396                                                  
  27697584.548   145551827.492                                                  
  24416572.098   128309941.552                                                  
  25775729.333   135452317.376                                                  
 21  9  2  6 48  2.0000000  0 22G 1G 4G 7G 8G 9G14G21G27G30C24C25C26
                                C33C34C35E 2E 3E 5E 8E24E25E36
  23582794.642   123928373.349    23582798.055    96567550.496                  
  23173411.912   121777095.835    23173413.235    94891243.430                  
  20905023.396   109856654.496    20905022.699    85602591.422                  
  20726476.922   108918331.204    20726479.281    84871417.059                  
  21728258.504   114182735.706    21728260.559    88973551.862                  
  24214180.682   127246376.371    24214181.612    99153022.136                  
  22188731.218   116602568.687    22188730.485    90859144.804                  
  22778274.029   119700608.925    22778275.798    93273195.547                  
  23228979.946   122069076.155    23228981.965    95118751.364                  
                 116407495.527                   116407495.527    22354830.094  
                 131072975.671                   131072975.671    25171184.566  
                 120662871.931                   120662871.931    23172035.301  
                 134905449.223                   134905449.223    25907207.906  
                 123072330.055                   123072330.055    23634747.825  
                 129770913.743                   129770913.743    24921139.253  
  24972607.525   131231914.271                                                  
  25222966.921   132547568.469                                                  
  27389187.405   143931137.281                                                  
  24341882.817   127917452.769                                                  
  27697869.791   145553326.625                                                  
  24416654.332   128310373.723                                                  
  25775224.426   135449664.044                                                  
 21  9  2  6 48  3.0000000  0 22G 1G 4G 7G 8G 9G14G21G27G30C24C25C26
                                C33C34C35E 2E 3E 5E 8E24E25E36
  23582166.563   123925072.710    23582169.958    96564978.570                  
  23174068.420   121780545.839    23174069.761    94893931.743                  
  20904660.083   109854745.282    20904659.386    85601103.718                  
  20726819.579   108920131.914    20726821.937    84872820.210                  
  21728672.583   114184911.788    21728674.656    88975247.512                  
  24213778.218   127244261.385    24213779.166    99151374.097                  
  22188377.161   116600708.156    22188376.446    90857695.040                  
  22778895.335   119703873.956    22778897.122    93275739.727                  
  23228412.068   122066091.898    23228414.087    95116425.966                  
                 116406891.925                   116406891.925    22354714.178  
                 131070698.723                   131070698.723    25170747.275  
                 120664208.718                   120664208.718    23172292.025  
                 134907389.855                   134907389.855    25907580.582  
                 123069478.843                   123069478.843    23634200.283  
                 129773490.433                   129773490.433    24921634.082  
  24972427.763   131230969.601                                                  
  25223324.105   132549445.512                                                  
  27389732.821   143934003.395                                                  
  24341797.724   127917005.600                                                  
  27698155.088   145554825.735                                                  
  24416736.583   128310805.911                                                  
  25774719.536   135447010.866                                                  
 21  9  2  6 48  4.0000000  0 22G 1G 4G 7G 8G 9G14G21G27G30C24C25C26
                                C33C34C35E 2E 3E 5E 8E24E25E36
  23581538.467   123921772.075    23581541.880    96562406.649                  
  23174724.964   121783995.976    23174726.304    94896620.163                  
  20904296.823   109852836.332    20904296.126    85599616.227                  
  20727162.342   108921933.113    20727164.701    84874223.737                  
  21729086.751   114187088.333    21729088.842    88976943.515                  
  24213375.754   127242146.496    24213376.702    99149726.134                  
  22188023.194   116598848.032    22188022.461    90856245.590                  
  22779516.694   119707139.243    22779518.481    93278284.105                  
  23227844.173   122063107.681    23227846.192    95114100.605                  
                 116406288.496                   116406288.496    22354598.297  
                 131068421.743                   131068421.743    25170310.020  
                 120665545.723                   120665545.723    23172548.767  
                 134909330.647                   134909330.647    25907953.294  
                 123066627.909                   123066627.909    23633652.776  
                 129776067.434                   129776067.434    24922128.965  
  24972248.000   131230024.953                                                  
  25223681.361   132551322.858                                                  
  27390278.202   143936869.453                                                  
  24341712.703   127916558.878                                                  
  27698440.367   145556324.842                                                  
  24416818.816   128311238.117                                                  
  25774214.683   135444357.837                                                  
 21  9  2  6 48  5.0000000  0 22G 1G 4G 7G 8G 9G14G21G27G30C24C25C26
                                C33C34C35E 2E 3E 5E 8E24E25E36
  23580910.389   123918471.472    23580913.802    96559834.750                  
  23175381.543   121787446.242    23175382.866    94899308.680                  
  20903933.618   109850927.679    20903932.921    85598128.965                  
  20727505.195   108923734.818    20727507.536    84875627.663                  
  21729501.044   114189265.321    21729503.117    88978639.871                  
  24212973.326   127240031.707    24212974.273    99148078.241                  
  22187669.298   116596988.305    22187668.583    90854796.452                  
  22780138.108   119710404.774    22780139.894    93280828.671                  
  23227276.313   122060123.535    23227278.332    95111775.296                  
                 116405685.238                   116405685.238    22354482.434  
                 131066144.722                   131066144.722    25169872.747  
                 120666882.935                   120666882.935    23172805.563  
                 134911271.591                   134911271.591    25908326.042  
                 123063777.258                   123063777.258    23633105.340  
                 129778644.737                   129778644.737    24922623.919  
  24972068.238   131229080.321                                                  
  25224038.652   132553200.497                                                  
  27390823.582   143939735.426                                                  
  24341627.772   127916112.598                                                  
  27698725.628   145557823.946                                                  
  24416901.085   128311670.344                                                  
  25773709.865   135441704.972                                                  
 21  9  2  6 48  6.0000000  0 22G 1G 4G 7G 8G 9G14G21G27G30C24C25C26
                                C33C34C35E 2E 3E 5E 8E24E25E36
  23580282.293   123915170.878    23580285.706    96557262.859                  
  23176038.123   121790896.645    23176039.463    94901997.304                  
  20903570.465   109849019.316    20903569.786    85596641.929                  
  20727848.137   108925537.024    20727850.496    84877031.984                  
  21729915.373   114191442.766    21729917.464    88980336.582                  
  24212570.916   127237917.023    24212571.863    99146430.438                  
  22187315.473   116595128.968    22187314.758    90853347.621                  
  22780759.556   119713670.563    22780761.361    93283373.444                  
  23226708.453   122057139.465    23226710.473    95109450.042                  
                 116405082.152                   116405082.152    22354366.643  
                 131063867.672                   131063867.672    25169435.456  
                 120668220.358                   120668220.358    23173062.394  
                 134913212.691                   134913212.691    25908698.808  
                 123060926.886                   123060926.886    23632557.959  
                 129781222.349                   129781222.349    24923118.926  
  24971888.493   131228135.711                                                  
  25224396.014   132555078.415                                                  
  27391368.963   143942601.376                                                  
  24341542.948   127915666.744                                                  
  27699010.871   145559323.036                                                  
  24416983.318   128312102.585                                                  
  25773205.083   135439052.269                                                  
 21  9  2  6 48  7.0000000  0 22G 1G 4G 7G 8G 9G14G21G27G30C24C25C26
                                C33C34C35E 2E 3E 5E 8E24E25E36
  23579654.214   123911870.310    23579657.627    96554690.985                  
  23176694.738   121794347.187    23176696.078    94904686.040                  
  20903207.385   109847111.253    20903206.688    85595155.128                  
  20728191.205   108927339.735    20728193.546    84878436.691                  
  21730329.845   114193620.685    21730331.918    88982033.659                  
  24212168.523   127235802.445    24212169.488    99144782.719                  
  22186961.738   116593270.036    22186961.005    90851899.102                  
  22781381.059   119716936.589    22781382.864    93285918.402                  
  23226140.647   122054155.465    23226142.649    95107124.852                  
                 116404479.237                   116404479.237    22354250.834  
                 131061590.582                   131061590.582    25168998.165  
                 120669557.991                   120669557.991    23173319.279  
                 134915153.943                   134915153.943    25909071.592  
                 123058076.793                   123058076.793    23632010.648  
                 129783800.257                   129783800.257    24923613.988  
  24971708.749   131227191.109                                                  
  25224753.413   132556956.641                                                  
  27391914.325   143945467.272                                                  
  24341458.177   127915221.324                                                  
  27699296.168   145560822.116                                                  
  24417065.587   128312534.856                                                  
  25772700.319   135436399.733                                                  
 21  9  2  6 48  8.0000000  0 22G 1G 4G 7G 8G 9G14G21G27G30C24C25C26
                                C33C34C35E 2E 3E 5E 8E24E25E36
  23579026.136   123908569.722    23579029.531    96552119.101                  
  23177351.389   121797797.840    23177352.693    94907374.860                  
  20902844.340   109845203.465    20902843.643    85593668.538                  
  20728534.326   108929142.942    20728536.685    84879841.790                  
  21730744.353   114195799.034    21730746.444    88983731.079                  
  24211766.149   127233687.925    24211767.096    99143135.040                  
  22186608.056   116591411.468    22186607.342    90850450.872                  
  22782002.615   119720202.850    22782004.402    93288463.538                  
  23225572.806   122051171.501    23225574.825    95104799.687                  
                 116403876.499                   116403876.499    22354135.096  
                 131059313.456                   131059313.456    25168560.857  
                 120670895.840                   120670895.840    23173576.200  
                 134917095.351                   134917095.351    25909444.429  
                 123055226.976                   123055226.976    23631463.356  
                 129786378.476                   129786378.476    24924109.103  
  24971528.986   131226246.516                                                  
  25225110.900   132558835.175                                                  
  27392459.634   143948332.964                                                  
  24341373.514   127914776.470                                                  
  27699581.412   145562321.191                                                  
  24417147.838   128312967.141                                                  
  25772195.555   135433747.285                                                  
 21  9  2  6 48  9.0000000  0 22G 1G 4G 7G 8G 9G14G21G27G30C24C25C26
                                C33C34C35E 2E 3E 5E 8E24E25E36
  23578398.058   123905269.171    23578401.489    96549547.245                  
  23178008.040   121801248.646    23178009.380    94910063.798                  
  20902481.366   109843295.977    20902480.652    85592182.184                  
  20728877.554   108930946.656    20728879.913    84881247.282                  
  21731158.986   114197977.845    21731161.059    88985428.849                  
  24211363.774   127231573.532    24211364.739    99141487.460                  
  22186254.482   116589553.320    22186253.731    90849002.962                  
  22782624.225   119723469.378    22782625.994    93291008.887                  
  23225004.982   122048187.622    23225007.001    95102474.582                  
                 116403273.931                   116403273.931    22354019.377  
                 131057036.296                   131057036.296    25168123.566  
                 120672233.903                   120672233.903    23173833.157  
                 134919036.914                   134919036.914    25909817.284  
                 123052377.444                   123052377.444    23630916.117  
                 129788957.001                   129788957.001    24924604.289  
  24971349.242   131225301.946                                                  
  25225468.424   132560713.988                                                  
  27393004.961   143951198.690                                                  
  24341288.940   127914331.966                                                  
  27699866.673   145563820.251                                                  
  24417230.125   128313399.453                                                  
  25771690.862   135431095.034                                                  
 21  9  2  6 48 10.0000000  0 22G 1G 4G 7G 8G 9G14G21G27G30C24C25C26
                                C33C34C35E 2E 3E 5E 8E24E25E36
  23577769.997   123901968.630    23577773.392    96546975.390                  
  23178664.744   121804699.587    23178666.066    94912752.845                  
  20902118.429   109841388.779    20902117.714    85590696.056                  
  20729220.872   108932750.840    20729223.248    84882653.137                  
  21731573.672   114200157.110    21731575.763    88987126.977                  
  24210961.435   127229459.224    24210962.400    99139839.950                  
  22185900.961   116587695.567    22185900.229    90847555.362                  
  22783245.852   119726736.153    22783247.657    93293554.422                  
  23224437.176   122045203.801    23224439.195    95100149.532                  
                 116402671.531                   116402671.531    22353903.693  
                 131054759.101                   131054759.101    25167686.240  
                 120673572.173                   120673572.173    23174090.167  
                 134920978.628                   134920978.628    25910190.157  
                 123049528.188                   123049528.188    23630368.967  
                 129791535.825                   129791535.825    24925099.529  
  24971169.497   131224357.382                                                  
  25225826.001   132562593.094                                                  
  27393550.288   143954064.332                                                  
  24341204.437   127913887.919                                                  
  27700151.934   145565319.305                                                  
  24417312.376   128313831.770                                                  
  25771186.187   135428442.941                                                  
 21  9  2  6 48 11.0000000  0 22G 1G 4G 7G 8G 9G14G21G27G30C24C25C26
                                C33C34C35E 2E 3E 5E 8E24E25E36
  23577141.919   123898668.112    23577145.332    96544403.563                  
  23179321.466   121808150.648    23179322.789    94915441.985                  
  20901755.562   109839481.874    20901754.865    85589210.156                  
  20729564.314   108934555.538    20729566.655    84884059.400                  
  21731988.466   114202336.821    21731990.539    88988825.456                  
  24210559.114   127227345.021    24210560.079    99138192.519                  
  22185547.494   116585838.208    22185546.779    90846108.070                  
  22783867.551   119730003.171    22783869.338    93296100.152                  
  23223869.405   122042220.042    23223871.424    95097824.522                  
                 116402069.308                   116402069.308    22353788.044  
                 131052481.871                   131052481.871    25167248.931  
                 120674910.652                   120674910.652    23174347.195  
                 134922920.499                   134922920.499    25910563.083  
                 123046679.215                   123046679.215    23629821.836  
                 129794114.954                   129794114.954    24925594.805  
  24970989.753   131223412.836                                                  
  25226183.631   132564472.491                                                  
  27394095.579   143956929.912                                                  
  24341120.024   127913444.333                                                  
  27700437.195   145566818.351                                                  
  24417394.663   128314264.120                                                  
  25770681.548   135425791.001                                                  
 21  9  2  6 48 12.0000000  0 22G 1G 4G 7G 8G 9G14G21G27G30C24C25C26
                                C33C34C35E 2E 3E 5E 8E24E25E36
  23576513.859   123895367.606    23576517.254    96541831.742                  
  23179978.207   121811601.858    23179979.529    94918131.234                  
  20901392.732   109837575.258    20901392.035    85587724.481                  
  20729907.846   108936360.746    20729910.187    84885466.055                  
  21732403.331   114204516.987    21732405.422    88990524.289                  
  24210156.829   127225230.915    24210157.776    99136545.164                  
  22185194.134   116583981.242    22185193.402    90844661.085                  
  22784489.304   119733270.445    22784491.073    93298646.078                  
  23223301.617   122039236.363    23223303.636    95095499.577                  
                 116401467.257                   116401467.257    22353672.414  
                 131050204.606                   131050204.606    25166811.605  
                 120676249.347                   120676249.347    23174604.277  
                 134924862.524                   134924862.524    25910936.045  
                 123043830.520                   123043830.520    23629274.776  
                 129796694.389                   129796694.389    24926090.152  
  24970810.026   131222468.308                                                  
  25226541.333   132566352.196                                                  
  27394640.888   143959795.421                                                  
  24341035.700   127913001.188                                                  
  27700722.456   145568317.393                                                  
  24417476.914   128314696.488                                                  
  25770176.927   135423139.222                                                  
 21  9  2  6 48 13.0000000  0 22G 1G 4G 7G 8G 9G14G21G27G30C24C25C26
                                C33C34C35E 2E 3E 5E 8E24E25E36
  23575885.798   123892067.117    23575889.193    96539259.933                  
  23180634.965   121815053.192    23180636.305    94920820.587                  
  20901029.973   109835668.928    20901029.276    85586239.032                  
  20730251.432   108938166.441    20730253.808    84886873.086                  
  21732818.303   114206697.608    21732820.358    88992223.472                  
  24209754.543   127223116.903    24209755.508    99134897.882                  
  22184840.846   116582124.667    22184840.113    90843214.405                  
  22785111.074   119736537.962    22785112.879    93301192.195                  
  23222733.865   122036252.742    23222735.884    95093174.680                  
                 116400865.380                   116400865.380    22353556.837  
                 131047927.300                   131047927.300    25166374.278  
                 120677588.253                   120677588.253    23174861.412  
                 134926804.700                   134926804.700    25911309.008  
                 123040982.105                   123040982.105    23628727.787  
                 129799274.129                   129799274.129    24926585.588  
  24970630.282   131221523.788                                                  
  25226899.107   132568232.177                                                  
  27395186.143   143962660.860                                                  
  24340951.465   127912558.491                                                  
  27701007.717   145569816.427                                                  
  24417559.201   128315128.879                                                  
  25769672.324   135420487.590                                                  
 21  9  2  6 48 14.0000000  0 22G 1G 4G 7G 8G 9G14G21G27G30C24C25C26
                                C33C34C35E 2E 3E 5E 8E24E25E36
  23575257.738   123888766.638    23575261.133    96536688.128                  
  23181291.758   121818504.655    23181293.081    94923510.039                  
  20900667.267   109833762.902    20900666.588    85584753.816                  
  20730595.160   108939972.641    20730597.501    84888280.517                  
  21733233.347   114208878.687    21733235.420    88993923.011                  
  24209352.276   127221002.991    24209353.223    99133250.680                  
  22184487.629   116580268.499    22184486.896    90841768.039                  
  22785732.916   119739805.723    22785734.703    93303738.504                  
  23222166.094   122033269.176    23222168.113    95090849.820                  
                 116400263.672                   116400263.672    22353441.296  
                 131045649.966                   131045649.966    25165936.934  
                 120678927.372                   120678927.372    23175118.583  
                 134928747.031                   134928747.031    25911682.023  
                 123038133.972                   123038133.972    23628180.816  
                 129801854.172                   129801854.172    24927081.043  
  24970450.555   131220579.292                                                  
  25227256.898   132570112.460                                                  
  27395731.417   143965526.234                                                  
  24340867.302   127912116.243                                                  
  27701292.978   145571315.454                                                  
  24417641.506   128315561.279                                                  
  25769167.756   135417836.110                                                  
 21  9  2  6 48 15.0000000  0 22G 1G 4G 7G 8G 9G14G21G27G30C24C25C26
                                C33C34C35E 2E 3E 5E 8E24E25E36
  23574629.677   123885466.199    23574633.073    96534116.376                  
  23181948.588   121821956.230    23181949.892    94926199.563                  
  20900304.616   109831857.101    20900303.919    85583268.751                  
  20730938.960   108941779.340    20730941.301    84889688.332                  
  21733648.463   114211060.211    21733650.535    88995622.905                  
  24208950.044   127218889.155    24208950.973    99131603.535                  
  22184134.483   116578412.739    22184133.733    90840322.004                  
  22786354.794   119743073.689    22786356.599    93306284.948                  
  23221598.360   122030285.734    23221600.379    95088525.098                  
                 116399662.138                   116399662.138    22353325.773  
                 131043372.593                   131043372.593    25165499.572  
                 120680266.698                   120680266.698    23175375.772  
                 134930689.521                   134930689.521    25912055.039  
                 123035286.118                   123035286.118    23627633.917  
                 129804434.520                   129804434.520    24927576.569  
  24970270.829   131219634.757                                                  
  25227614.761   132571993.089                                                  
  27396276.654   143968391.653                                                  
  24340783.228   127911674.429                                                  
  27701578.221   145572814.418                                                  
  24417723.775   128315993.678                                                  
  25768663.242   135415184.851                                                  
 21  9  2  6 48 16.0000000  0 22G 1G 4G 7G 8G 9G14G21G27G30C24C25C26
                                C33C34C35E 2E 3E 5E 8E24E25E36
  23574001.617   123882165.751    23574005.048    96531544.594                  
  23182605.418   121825407.954    23182606.740    94928889.214                  
  20899942.017   109829951.637    20899941.320    85581783.970                  
  20731282.867   108943586.520    20731285.208    84891096.524                  
  21734063.685   114213242.191    21734065.758    88997323.149                  
  24208547.795   127216775.437    24208548.760    99129956.480                  
  22183781.427   116576557.355    22183780.677    90838876.254                  
  22786976.726   119746341.937    22786978.512    93308831.637                  
  23221030.643   122027302.290    23221032.644    95086200.332                  
                 116399060.773                   116399060.773    22353210.285  
                 131041095.183                   131041095.183    25165062.245  
                 120681606.238                   120681606.238    23175633.014  
                 134932632.159                   134932632.159    25912428.109  
                 123032438.543                   123032438.543    23627087.071  
                 129807015.167                   129807015.167    24928072.166  
  24970091.102   131218690.282                                                  
  25227972.678   132573873.953                                                  
  27396821.892   143971256.884                                                  
  24340699.244   127911233.071                                                  
  27701863.482   145574313.431                                                  
  24417806.079   128316426.122                                                  
  25768158.746   135412533.662                                                  
 21  9  2  6 48 17.0000000  0 22G 1G 4G 7G 8G 9G14G21G27G30C24C25C26
                                C33C34C35E 2E 3E 5E 8E24E25E36
  23573373.574   123878865.304    23573376.987    96528972.819                  
  23183262.283   121828859.819    23183263.623    94931578.981                  
  20899579.473   109828046.482    20899578.776    85580299.431                  
  20731626.846   108945394.208    20731629.205    84892505.109                  
  21734478.979   114215424.614    21734481.052    88999023.738                  
  24208145.599   127214661.804    24208146.546    99128309.493                  
  22183428.425   116574702.364    22183427.674    90837430.804                  
  22787598.693   119749610.431    22787600.497    93311378.516                  
  23220462.926   122024318.915    23220464.945    95083875.624                  
                 116398459.583                   116398459.583    22353094.833  
                 131038817.743                   131038817.743    25164624.883  
                 120682945.991                   120682945.991    23175890.328  
                 134934574.952                   134934574.952    25912801.196  
                 123029591.250                   123029591.250    23626540.279  
                 129809596.125                   129809596.125    24928567.799  
  24969911.357   131217745.812                                                  
  25228330.648   132575755.102                                                  
  27397367.111   143974122.047                                                  
  24340615.349   127910792.155                                                  
  27702148.726   145575812.417                                                  
  24417888.366   128316858.581                                                  
  25767654.268   135409882.646                                                  
 21  9  2  6 48 18.0000000  0 22G 1G 4G 7G 8G 9G14G21G27G30C24C25C26
                                C33C34C35E 2E 3E 5E 8E24E25E36
  23572745.514   123875564.897    23572748.945    96526401.069                  
  23183919.184   121832311.813    23183920.524    94934268.840                  
  20899217.000   109826141.623    20899216.303    85578815.120                  
  20731970.932   108947202.394    20731973.273    84893914.081                  
  21734894.380   114217607.503    21734896.453    89000724.689                  
  24207743.403   127212548.282    24207744.368    99126662.590                  
  22183075.493   116572847.766    22183074.761    90835985.656                  
  22788220.713   119752879.175    22788222.518    93313925.587                  
  23219895.227   122021335.629    23219897.246    95081550.981                  
                 116397858.567                   116397858.567    22352979.417  
                 131036540.263                   131036540.263    25164187.521  
                 120684285.956                   120684285.956    23176147.642  
                 134936517.899                   134936517.899    25913174.319  
                 123026744.239                   123026744.239    23625993.541  
                 129812177.383                   129812177.383    24929063.504  
  24969731.649   131216801.371                                                  
  25228688.672   132577636.559                                                  
  27397912.349   143976987.139                                                  
  24340531.525   127910351.692                                                  
  27702433.987   145577311.398                                                  
  24417970.653   128317291.066                                                  
  25767149.825   135407231.794                                                  
 21  9  2  6 48 19.0000000  0 22G 1G 4G 7G 8G 9G14G21G27G30C24C25C26
                                C33C34C35E 2E 3E 5E 8E24E25E36
  23572117.471   123872264.497    23572120.884    96523829.329                  
  23184576.103   121835763.942    23184577.443    94936958.809                  
  20898854.580   109824237.048    20898853.883    85577331.034                  
  20732315.125   108949011.062    20732317.466    84895323.433                  
  21735309.853   114219790.835    21735311.926    89002425.984                  
  24207341.242   127210434.851    24207342.172    99125015.759                  
  22182722.652   116570993.573    22182721.919    90834540.835                  
  22788842.805   119756148.171    22788844.575    93316472.852                  
  23219327.528   122018352.392    23219329.548    95079226.379                  
                 116397257.722                   116397257.722    22352864.037  
                 131034262.745                   131034262.745    25163750.141  
                 120685626.134                   120685626.134    23176404.992  
                 134938460.997                   134938460.997    25913547.478  
                 123023897.508                   123023897.508    23625446.856  
                 129814758.941                   129814758.941    24929559.262  
  24969551.922   131215856.931                                                  
  25229046.767   132579518.297                                                  
  27398457.533   143979852.171                                                  
  24340447.791   127909911.668                                                  
  27702719.212   145578810.376                                                  
  24418052.958   128317723.562                                                  
  25766645.418   135404581.089                                                  
 21  9  2  6 48 20.0000000  0 22G 1G 4G 7G 8G 9G14G21G27G30C24C25C26
                                C33C34C35E 2E 3E 5E 8E24E25E36
  23571489.447   123868964.108    23571492.842    96521257.597                  
  23185233.039   121839216.200    23185234.380    94939648.880                  
  20898492.196   109822332.770    20898491.499    85575847.183                  
  20732659.372   108950820.220    20732661.713    84896733.164                  
  21735725.415   114221974.625    21735727.506    89004127.636                  
  24206939.082   127208321.517    24206940.011    99123369.003                  
  22182369.899   116569139.776    22182369.167    90833096.316                  
  22789464.916   119759417.410    22789466.702    93319020.309                  
  23218759.847   122015369.220    23218761.867    95076901.831                  
                 116396657.052                   116396657.052    22352748.675  
                 131031985.198                   131031985.198    25163312.761  
                 120686966.521                   120686966.521    23176662.413  
                 134940404.249                   134940404.249    25913920.655  
                 123021051.055                   123021051.055    23624900.224  
                 129817340.809                   129817340.809    24930055.074  
  24969372.195   131214912.505                                                  
  25229404.898   132581400.341                                                  
  27399002.717   143982717.117                                                  
  24340364.146   127909472.097                                                  
  27703004.455   145580309.336                                                  
  24418135.280   128318156.082                                                  
  25766141.047   135401930.543                                                  
 21  9  2  6 48 21.0000000  0 22G 1G 4G 7G 8G 9G14G21G27G30C24C25C26
                                C33C34C35E 2E 3E 5E 8E24E25E36
  23570861.404   123865663.749    23570864.799    96518685.886                  
  23185889.994   121842668.603    23185891.334    94942339.063                  
  20898129.884   109820428.785    20898129.187    85574363.559                  
  20733003.744   108952629.874    20733006.102    84898143.289                  
  21736141.066   114224158.870    21736143.139    89005829.648                  
  24206536.940   127206208.289    24206537.887    99121722.336                  
  22182017.201   116567286.379    22182016.486    90831652.112                  
  22790087.079   119762686.902    22790088.866    93321567.965                  
  23218192.184   122012386.121    23218194.204    95074577.337                  
                 116396056.551                   116396056.551    22352633.366  
                 131029707.613                   131029707.613    25162875.381  
                 120688307.117                   120688307.117    23176919.852  
                 134942347.655                   134942347.655    25914293.885  
                 123018204.887                   123018204.887    23624353.647  
                 129819922.977                   129819922.977    24930550.957  
  24969192.505   131213968.109                                                  
  25229763.100   132583282.675                                                  
  27399547.883   143985582.004                                                  
  24340280.573   127909032.977                                                  
  27703289.698   145581808.285                                                  
  24418217.585   128318588.626                                                  
  25765636.676   135399280.149                                                  
 21  9  2  6 48 22.0000000  0 22G 1G 4G 7G 8G 9G14G21G27G30C24C25C26
                                C33C34C35E 2E 3E 5E 8E24E25E36
  23570233.362   123862363.386    23570236.757    96516114.175                  
  23186547.002   121846121.134    23186548.343    94945029.347                  
  20897767.625   109818525.088    20897766.928    85572880.161                  
  20733348.205   108954440.012    20733350.564    84899553.786                  
  21736556.807   114226343.567    21736558.880    89007532.004                  
  24206134.815   127204095.151    24206135.780    99120075.735                  
  22181664.591   116565433.386    22181663.859    90830208.222                  
  22790709.279   119765956.632    22790711.083    93324115.809                  
  23217624.521   122009403.079    23217626.540    95072252.890                  
                 116395456.227                   116395456.227    22352518.075  
                 131027429.994                   131027429.994    25162437.983  
                 120689647.931                   120689647.931    23177177.344  
                 134944291.216                   134944291.216    25914667.115  
                 123015358.996                   123015358.996    23623807.123  
                 129822505.448                   129822505.448    24931046.894  
  24969012.778   131213023.715                                                  
  25230121.356   132585165.300                                                  
  27400093.049   143988446.824                                                  
  24340197.107   127908594.300                                                  
  27703574.942   145583307.233                                                  
  24418299.908   128319021.187                                                  
  25765132.359   135396629.914                                                  
 21  9  2  6 48 23.0000000  0 22G 1G 4G 7G 8G 9G14G21G27G30C24C25C26
                                C33C34C35E 2E 3E 5E 8E24E25E36
  23569605.319   123859063.039    23569608.732    96513542.476                  
  23187204.028   121849573.794    23187205.369    94947719.730                  
  20897405.420   109816621.691    20897404.723    85571396.992                  
  20733692.755   108956250.648    20733695.096    84900964.672                  
  21736972.619   114228528.716    21736974.692    89009234.718                  
  24205732.727   127201982.114    24205733.674    99118429.210                  
  22181312.053   116563580.778    22181311.321    90828764.629                  
  22791331.532   119769226.602    22791333.318    93326663.835                  
  23217056.876   122006420.112    23217058.895    95069928.505                  
                 116394856.071                   116394856.071    22352402.820  
                 131025152.339                   131025152.339    25162000.585  
                 120690988.954                   120690988.954    23177434.873  
                 134946234.930                   134946234.930    25915040.381  
                 123012513.387                   123012513.387    23623260.652  
                 129825088.227                   129825088.227    24931542.902  
  24968833.087   131212079.339                                                  
  25230479.666   132587048.218                                                  
  27400638.197   143991311.573                                                  
  24340113.712   127908156.070                                                  
  27703860.185   145584806.173                                                  
  24418382.212   128319453.766                                                  
  25764628.059   135393979.837                                                  
 21  9  2  6 48 24.0000000  0 22G 1G 4G 7G 8G 9G14G21G27G30C24C25C26
                                C33C34C35E 2E 3E 5E 8E24E25E36
  23568977.294   123855762.723    23568980.707    96510970.804                  
  23187861.055   121853026.583    23187862.395    94950410.215                  
  20897043.269   109814718.587    20897042.572    85569914.051                  
  20734037.395   108958061.793    20734039.754    84902375.948                  
  21737388.521   114230714.308    21737390.593    89010937.776                  
  24205330.638   127199869.176    24205331.603    99116782.770                  
  22180959.605   116561728.574    22180958.854    90827321.356                  
  22791953.838   119772496.828    22791955.643    93329212.063                  
  23216489.266   122003437.207    23216491.286    95067604.161                  
                 116394256.091                   116394256.091    22352287.600  
                 131022874.650                   131022874.650    25161563.187  
                 120692330.187                   120692330.187    23177692.437  
                 134948178.793                   134948178.793    25915413.683  
                 123009668.060                   123009668.060    23622714.235  
                 129827671.305                   129827671.305    24932038.964  
  24968653.378   131211134.978                                                  
  25230838.011   132588931.430                                                  
  27401183.327   143994176.255                                                  
  24340030.406   127907718.285                                                  
  27704145.428   145586305.101                                                  
  24418464.535   128319886.368                                                  
  25764123.795   135391329.915                                                  
 21  9  2  6 48 25.0000000  0 22G 1G 4G 7G 8G 9G14G21G27G30C24C25C26
                                C33C34C35E 2E 3E 5E 8E24E25E36
  23568349.252   123852462.402    23568352.683    96508399.125                  
  23188518.134   121856479.508    23188519.474    94953100.805                  
  20896681.189   109812815.758    20896680.474    85568431.328                  
  20734382.160   108959873.436    20734384.501    84903787.621                  
  21737804.494   114232900.352    21737806.584    89012641.187                  
  24204928.585   127197756.332    24204929.532    99115136.396                  
  22180607.192   116559876.764    22180606.459    90825878.392                  
  22792576.198   119775767.297    22792577.985    93331760.480                  
  23215921.639   122000454.367    23215923.658    95065279.872                  
                 116393656.284                   116393656.284    22352172.416  
                 131020596.922                   131020596.922    25161125.753  
                 120693671.635                   120693671.635    23177950.055  
                 134950122.813                   134950122.813    25915787.003  
                 123006823.012                   123006823.012    23622167.872  
                 129830254.688                   129830254.688    24932535.062  
  24968473.652   131210190.625                                                  
  25231196.446   132590814.935                                                  
  27401728.439   143997040.867                                                  
  24339947.173   127907280.953                                                  
  27704430.653   145587804.023                                                  
  24418546.858   128320318.988                                                  
  25763619.585   135388680.149                                                  
 21  9  2  6 48 26.0000000  0 22G 1G 4G 7G 8G 9G14G21G27G30C24C25C26
                                C33C34C35E 2E 3E 5E 8E24E25E36
  23567721.245   123849162.122    23567724.640    96505827.475                  
  23189175.232   121859932.555    23189176.554    94955791.492                  
  20896319.144   109810913.247    20896318.447    85566948.851                  
  20734726.997   108961685.590    20734729.337    84905199.691                  
  21738220.574   114235086.859    21738222.664    89014344.961                  
  24204526.532   127195643.582    24204527.497    99113490.101                  
  22180254.904   116558025.362    22180254.153    90824435.738                  
  22793198.576   119779038.007    22793200.381    93334309.085                  
  23215354.047   121997471.594    23215356.067    95062955.629                  
                 116393056.649                   116393056.649    22352057.268  
                 131018319.160                   131018319.160    25160688.337  
                 120695013.293                   120695013.293    23178207.726  
                 134952066.984                   134952066.984    25916160.358  
                 123003978.246                   123003978.246    23621621.580  
                 129832838.371                   129832838.371    24933031.249  
  24968293.961   131209246.285                                                  
  25231554.917   132592698.719                                                  
  27402273.534   143999905.402                                                  
  24339864.064   127906844.054                                                  
  27704715.897   145589302.934                                                  
  24418629.198   128320751.625                                                  
  25763115.357   135386030.536                                                  
 21  9  2  6 48 27.0000000  0 22G 1G 4G 7G 8G 9G14G21G27G30C24C25C26
                                C33C34C35E 2E 3E 5E 8E24E25E36
  23567093.220   123845861.856    23567096.616    96503255.845                  
  23189832.365   121863385.741    23189833.687    94958482.288                  
  20895957.154   109809011.020    20895956.457    85565466.599                  
  20735071.922   108963498.243    20735074.281    84906612.146                  
  21738636.761   114237273.809    21738638.816    89016049.079                  
  24204124.515   127193530.935    24204125.462    99111843.878                  
  22179902.652   116556174.350    22179901.919    90822993.391                  
  22793821.044   119782308.972    22793822.813    93336857.892                  
  23214786.438   121994488.885    23214788.457    95060631.445                  
                 116392457.189                   116392457.189    22351942.138  
                 131016041.366                   131016041.366    25160250.921  
                 120696355.163                   120696355.163    23178465.397  
                 134954011.309                   134954011.309    25916533.767  
                 123001133.762                   123001133.762    23621075.324  
                 129835422.360                   129835422.360    24933527.454  
  24968114.288   131208301.968                                                  
  25231913.459   132594582.813                                                  
  27402818.646   144002769.884                                                  
  24339781.008   127906407.617                                                  
  27705001.122   145590801.841                                                  
  24418711.539   128321184.292                                                  
  25762611.200   135383381.087                                                  
 21  9  2  6 48 28.0000000  0 22G 1G 4G 7G 8G 9G14G21G27G30C24C25C26
                                C33C34C35E 2E 3E 5E 8E24E25E36
  23566465.196   123842561.596    23566468.627    96500684.216                  
  23190489.498   121866839.067    23190490.839    94961173.192                  
  20895595.217   109807109.083    20895594.538    85563984.566                  
  20735416.955   108965311.392    20735419.296    84908024.989                  
  21739053.002   114239461.212    21739055.075    89017753.546                  
  24203722.515   127191418.378    24203723.462    99110197.735                  
  22179550.507   116554323.743    22179549.757    90821551.360                  
  22794443.511   119785580.181    22794445.316    93339406.883                  
  23214218.864   121991506.241    23214220.883    95058307.305                  
                 116391857.897                   116391857.897    22351827.062  
                 131013763.534                   131013763.534    25159813.488  
                 120697697.245                   120697697.245    23178723.140  
                 134955955.785                   134955955.785    25916907.176  
                 122998289.560                   122998289.560    23620529.122  
                 129838006.653                   129838006.653    24934023.748  
  24967934.579   131207357.671                                                  
  25232272.036   132596467.208                                                  
  27403363.723   144005634.293                                                  
  24339698.043   127905971.634                                                  
  27705286.365   145592300.746                                                  
  24418793.861   128321616.980                                                  
  25762107.062   135380731.794                                                  
 21  9  2  6 48 29.0000000  0 22G 1G 4G 7G 8G 9G14G21G27G30C24C25C26
                                C33C34C35E 2E 3E 5E 8E24E25E36
  23565837.207   123839261.366    23565840.602    96498112.606                  
  23191146.668   121870292.517    23191148.008    94963864.187                  
  20895233.351   109805207.438    20895232.654    85562502.769                  
  20735762.078   108967125.028    20735764.436    84909438.211                  
  21739469.333   114241649.063    21739471.423    89019458.367                  
  24203320.516   127189305.922    24203321.481    99108551.665                  
  22179198.416   116552473.527    22179197.683    90820109.633                  
  22795066.068   119788851.636    22795067.837    93341956.071                  
  23213651.308   121988523.668    23213653.327    95055983.222                  
                 116391258.780                   116391258.780    22351712.003  
                 131011485.667                   131011485.667    25159376.036  
                 120699039.542                   120699039.542    23178980.919  
                 134957900.410                   134957900.410    25917280.621  
                 122995445.637                   122995445.637    23619982.973  
                 129840591.246                   129840591.246    24934520.096  
  24967754.888   131206413.383                                                  
  25232630.685   132598351.887                                                  
  27403908.782   144008498.629                                                  
  24339615.166   127905536.083                                                  
  27705571.573   145593799.636                                                  
  24418876.219   128322049.687                                                  
  25761602.941   135378082.656                                                  
 21  9  2  6 48 30.0000000  0 22G 1G 4G 7G 8G 9G14G21G27G30C24C25C26
                                C33C34C35E 2E 3E 5E 8E24E25E36
  23565209.182   123835961.136    23565212.577    96495541.000                  
  23191803.854   121873746.099    23191805.195    94966555.294                  
  20894871.539   109803306.094    20894870.842    85561021.202                  
  20736107.307   108968939.171    20736109.666    84910851.832                  
  21739885.752   114243837.378    21739887.843    89021163.548                  
  24202918.552   127187193.562    24202919.499    99106905.672                  
  22178846.396   116550623.706    22178845.663    90818668.214                  
  22795688.643   119792123.332    22795690.447    93344505.442                  
  23213083.752   121985541.156    23213085.754    95053659.187                  
                 116390659.840                   116390659.840    22351596.980  
                 131009207.768                   131009207.768    25158938.585  
                 120700382.051                   120700382.051    23179238.715  
                 134959845.192                   134959845.192    25917654.101  
                 122992601.996                   122992601.996    23619436.878  
                 129843176.142                   129843176.142    24935016.497  
  24967575.197   131205469.110                                                  
  25232989.388   132600236.868                                                  
  27404453.841   144011362.906                                                  
  24339532.361   127905100.992                                                  
  27705856.816   145595298.528                                                  
  24418958.560   128322482.407                                                  
  25761098.856   135375433.683                                                  
 21  9  2  6 48 31.0000000  0 22G 1G 4G 7G 8G 9G14G21G27G30C24C25C26
                                C33C34C35E 2E 3E 5E 8E24E25E36
  23564581.175   123832660.937    23564584.588    96492969.415                  
  23192461.077   121877199.821    23192462.417    94969246.504                  
  20894509.781   109801405.044    20894509.084    85559539.864                  
  20736452.626   108970753.831    20736454.967    84912265.851                  
  21740302.261   114246026.139    21740304.334    89022869.074                  
  24202516.606   127185081.305    24202517.553    99105259.753                  
  22178494.466   116548774.285    22178493.733    90817227.109                  
  22796311.289   119795395.271    22796313.058    93347055.003                  
  23212516.196   121982558.712    23212518.216    95051335.204                  
                 116390061.072                   116390061.072    22351481.975  
                 131006929.832                   131006929.832    25158501.133  
                 120701724.770                   120701724.770    23179496.583  
                 134961790.124                   134961790.124    25918027.599  
                 122989758.638                   122989758.638    23618890.836  
                 129845761.340                   129845761.340    24935512.952  
  24967395.524   131204524.851                                                  
  25233348.145   132602122.127                                                  
  27404998.882   144014227.106                                                  
  24339449.645   127904666.350                                                  
  27706142.041   145596797.395                                                  
  24419040.900   128322915.153                                                  
  25760594.806   135372784.856                                                  
 21  9  2  6 48 32.0000000  0 22G 1G 4G 7G 8G 9G14G21G27G30C24C25C26
                                C33C34C35E 2E 3E 5E 8E24E25E36
  23563953.168   123829360.745    23563956.564    96490397.836                  
  23193118.318   121880653.661    23193119.658    94971937.806                  
  20894148.076   109799504.281    20894147.379    85558058.751                  
  20736798.034   108972568.981    20736800.375    84913680.251                  
  21740718.860   114248215.346    21740720.932    89024574.949                  
  24202114.678   127182969.136    24202115.625    99103613.910                  
  22178142.625   116546925.274    22178141.874    90815786.321                  
  22796933.935   119798667.445    22796935.740    93349604.754                  
  23211948.676   121979576.332    23211950.695    95049011.274                  
                 116389462.472                   116389462.472    22351367.042  
                 131004651.860                   131004651.860    25158063.681  
                 120703067.698                   120703067.698    23179754.486  
                 134963735.211                   134963735.211    25918401.116  
                 122986915.558                   122986915.558    23618344.866  
                 129848346.843                   129848346.843    24936009.479  
  24967215.815   131203580.604                                                  
  25233706.937   132604007.687                                                  
  27405543.905   144017091.242                                                  
  24339367.019   127904232.149                                                  
  27706427.267   145598296.267                                                  
  24419123.259   128323347.911                                                  
  25760090.775   135370136.187                                                  
 21  9  2  6 48 33.0000000  0 22G 1G 4G 7G 8G 9G14G21G27G30C24C25C26
                                C33C34C35E 2E 3E 5E 8E24E25E36
  23563325.162   123826060.571    23563328.557    96487826.274                  
  23193775.594   121884107.636    23193776.934    94974629.215                  
  20893786.443   109797603.821    20893785.746    85556577.870                  
  20737143.532   108974384.630    20737145.873    84915095.042                  
  21741135.547   114250405.014    21741137.620    89026281.184                  
  24201712.768   127180857.069    24201713.697    99101968.144                  
  22177790.837   116545076.654    22177790.104    90814345.835                  
  22797556.652   119801939.880    22797558.457    93352154.699                  
  23211381.156   121976594.023    23211383.175    95046687.394                  
                 116388864.050                   116388864.050    22351252.126  
                 131002373.856                   131002373.856    25157626.194  
                 120704410.839                   120704410.839    23180012.426  
                 134965680.449                   134965680.449    25918774.703  
                 122984072.761                   122984072.761    23617798.932  
                 129850932.649                   129850932.649    24936506.041  
  24967036.142   131202636.375                                                  
  25234065.818   132605893.536                                                  
  27406088.928   144019955.305                                                  
  24339284.482   127903798.405                                                  
  27706712.492   145599795.122                                                  
  24419205.617   128323780.704                                                  
  25759586.779   135367487.683                                                  
 21  9  2  6 48 34.0000000  0 22G 1G 4G 7G 8G 9G14G21G27G30C24C25C26
                                C33C34C35E 2E 3E 5E 8E24E25E36
  23562697.155   123822760.417    23562700.568    96485254.728                  
  23194432.906   121887561.743    23194434.228    94977320.727                  
  20893424.845   109795703.640    20893424.148    85555097.214                  
  20737489.137   108976200.763    20737491.477    84916510.211                  
  21741552.307   114252595.125    21741554.379    89027987.762                  
  24201310.858   127178745.094    24201311.805    99100322.449                  
  22177439.121   116543228.430    22177438.406    90812905.663                  
  22798179.441   119805212.550    22798181.228    93354704.831                  
  23210813.654   121973611.770    23210815.673    95044363.563                  
                 116388265.802                   116388265.802    22351137.228  
                 131000095.812                   131000095.812    25157188.743  
                 120705754.194                   120705754.194    23180270.383  
                 134967625.839                   134967625.839    25919148.273  
                 122981230.245                   122981230.245    23617253.069  
                 129853518.754                   129853518.754    24937002.675  
  24966856.451   131201692.164                                                  
  25234424.735   132607779.682                                                  
  27406633.915   144022819.298                                                  
  24339202.016   127903365.093                                                  
  27706997.717   145601293.976                                                  
  24419287.975   128324213.503                                                  
  25759082.819   135364839.329                                                  
 21  9  2  6 48 35.0000000  0 22G 1G 4G 7G 8G 9G14G21G27G30C24C25C26
                                C33C34C35E 2E 3E 5E 8E24E25E36
  23562069.184   123819460.289    23562072.579    96482683.200                  
  23195090.218   121891015.985    23195091.558    94980012.344                  
  20893063.319   109793803.766    20893062.622    85553616.788                  
  20737834.849   108978017.386    20737837.171    84917925.766                  
  21741969.137   114254785.676    21741971.228    89029694.687                  
  24200908.984   127176633.221    24200909.949    99098676.836                  
  22177087.495   116541380.604    22177086.762    90811465.802                  
  22798802.266   119808485.476    22798804.035    93357255.165                  
  23210246.187   121970629.598    23210248.189    95042039.793                  
                 116387667.723                   116387667.723    22351022.384  
                 130997817.733                   130997817.733    25156751.255  
                 120707097.762                   120707097.762    23180528.394  
                 134969571.379                   134969571.379    25919521.896  
                 122978388.015                   122978388.015    23616707.242  
                 129856105.165                   129856105.165    24937499.380  
  24966676.796   131200747.961                                                  
  25234783.724   132609666.113                                                  
  27407178.902   144025683.219                                                  
  24339119.658   127902932.226                                                  
  27707282.943   145602792.807                                                  
  24419370.334   128324646.325                                                  
  25758578.877   135362191.136                                                  
 21  9  2  6 48 36.0000000  0 22G 1G 4G 7G 8G 9G14G21G27G30C24C25C26
                                C33C34C35E 2E 3E 5E 8E24E25E36
  23561441.177   123816160.173    23561444.572    96480111.681                  
  23195747.566   121894470.353    23195748.906    94982704.059                  
  20892701.829   109791904.174    20892701.132    85552136.589                  
  20738180.614   108979834.499    20738182.955    84919341.696                  
  21742386.075   114256976.688    21742388.166    89031401.969                  
  24200507.127   127174521.443    24200508.074    99097031.294                  
  22176735.939   116539533.178    22176735.207    90810026.249                  
  22799425.127   119811758.642    22799426.896    93359805.684                  
  23209678.703   121967647.488    23209680.722    95039716.071                  
                 116387069.821                   116387069.821    22350907.558  
                 130995539.625                   130995539.625    25156313.768  
                 120708441.542                   120708441.542    23180786.458  
                 134971517.074                   134971517.074    25919895.556  
                 122975546.063                   122975546.063    23616161.468  
                 129858691.875                   129858691.875    24937996.121  
  24966497.123   131199803.773                                                  
  25235142.748   132611552.840                                                  
  27407723.872   144028547.074                                                  
  24339037.353   127902499.821                                                  
  27707568.168   145604291.644                                                  
  24419452.692   128325079.171                                                  
  25758074.988   135359543.098                                                  
 21  9  2  6 48 37.0000000  0 22G 1G 4G 7G 8G 9G14G21G27G30C24C25C26
                                C33C34C35E 2E 3E 5E 8E24E25E36
  23560813.206   123812860.075    23560816.601    96477540.171                  
  23196404.931   121897924.859    23196406.254    94985395.880                  
  20892340.392   109790004.888    20892339.713    85550656.626                  
  20738526.505   108981652.138    20738528.846    84920758.040                  
  21742803.103   114259168.158    21742805.175    89033109.605                  
  24200105.289   127172409.761    24200106.236    99095385.832                  
  22176384.456   116537686.157    22176383.723    90808587.012                  
  22800048.023   119815032.060    22800049.828    93362356.399                  
  23209111.236   121964665.446    23209113.238    95037392.402                  
                 116386472.091                   116386472.091    22350792.767  
                 130993261.482                   130993261.482    25155876.281  
                 120709785.532                   120709785.532    23181044.558  
                 134973462.917                   134973462.917    25920269.233  
                 122972704.394                   122972704.394    23615615.766  
                 129861278.890                   129861278.890    24938492.933  
  24966317.432   131198859.596                                                  
  25235501.844   132613439.861                                                  
  27408268.841   144031410.855                                                  
  24338955.174   127902067.855                                                  
  27707853.375   145605790.473                                                  
  24419535.086   128325512.034                                                  
  25757571.100   135356895.220                                                  
 21  9  2  6 48 38.0000000  0 22G 1G 4G 7G 8G 9G14G21G27G30C24C25C26
                                C33C34C35E 2E 3E 5E 8E24E25E36
  23560185.199   123809559.991    23560188.594    96474968.679                  
  23197062.315   121901379.488    23197063.655    94988087.801                  
  20891979.045   109788105.886    20891978.348    85549176.882                  
  20738872.485   108983470.272    20738874.826    84922174.766                  
  21743220.219   114261360.058    21743222.292    89034817.582                  
  24199703.468   127170298.176    24199704.415    99093740.437                  
  22176033.061   116535839.535    22176032.329    90807148.085                  
  22800670.973   119818305.716    22800672.778    93364907.298                  
  23208543.787   121961683.469    23208545.807    95035068.781                  
                 116385874.535                   116385874.535    22350677.994  
                 130990983.298                   130990983.298    25155438.758  
                 120711129.733                   120711129.733    23181302.694  
                 134975408.914                   134975408.914    25920642.945  
                 122969863.007                   122969863.007    23615070.100  
                 129863866.202                   129863866.202    24938989.799  
  24966137.777   131197915.440                                                  
  25235860.976   132615327.172                                                  
  27408813.775   144034274.574                                                  
  24338873.066   127901636.348                                                  
  27708138.583   145607289.292                                                  
  24419617.444   128325944.927                                                  
  25757067.265   135354247.487                                                  
 21  9  2  6 48 39.0000000  0 22G 1G 4G 7G 8G 9G14G21G27G30C24C25C26
                                C33C34C35E 2E 3E 5E 8E24E25E36
  23559557.228   123806259.931    23559560.623    96472397.204                  
  23197719.734   121904834.241    23197721.074    94990779.814                  
  20891617.715   109786207.175    20891617.036    85547697.371                  
  20739218.554   108985288.902    20739220.895    84923591.878                  
  21743637.407   114263552.429    21743639.480    89036525.923                  
  24199301.665   127168186.679    24199302.594    99092095.116                  
  22175681.738   116533993.310    22175681.006    90805709.468                  
  22801293.976   119821579.618    22801295.781    93367458.391                  
  23207976.339   121958701.555    23207978.358    95032745.214                  
                 116385277.153                   116385277.153    22350563.275  
                 130988705.082                   130988705.082    25155001.253  
                 120712474.153                   120712474.153    23181560.884  
                 134977355.062                   134977355.062    25921016.676  
                 122967021.908                   122967021.908    23614524.505  
                 129866453.825                   129866453.825    24939486.719  
  24965958.122   131196971.290                                                  
  25236220.179   132617214.782                                                  
  27409358.727   144037138.214                                                  
  24338791.029   127901205.280                                                  
  27708423.808   145608788.106                                                  
  24419699.821   128326377.823                                                  
  25756563.447   135351599.925                                                  
 21  9  2  6 48 40.0000000  0 22G 1G 4G 7G 8G 9G14G21G27G30C24C25C26
                                C33C34C35E 2E 3E 5E 8E24E25E36
  23558929.239   123802959.883    23558932.652    96469825.738                  
  23198377.171   121908289.128    23198378.511    94993471.934                  
  20891256.475   109784308.766    20891255.778    85546218.089                  
  20739564.713   108987108.005    20739567.054    84925009.363                  
  21744054.685   114265745.242    21744056.757    89038234.606                  
  24198899.880   127166075.296    24198900.827    99090449.883                  
  22175330.505   116532147.489    22175329.754    90804271.164                  
  22801917.034   119824853.753    22801918.820    93370009.664                  
  23207408.926   121955719.707    23207410.927    95030421.696                  
                 116384679.941                   116384679.941    22350448.592  
                 130986426.831                   130986426.831    25154563.747  
                 120713818.777                   120713818.777    23181819.091  
                 134979301.365                   134979301.365    25921390.442  
                 122964181.082                   122964181.082    23613978.946  
                 129869041.742                   129869041.742    24939983.728  
  24965778.467   131196027.161                                                  
  25236579.436   132619102.677                                                  
  27409903.642   144040001.793                                                  
  24338709.082   127900774.656                                                  
  27708709.016   145610286.910                                                  
  24419782.215   128326810.754                                                  
  25756059.666   135348952.519                                                  
 21  9  2  6 48 41.0000000  0 22G 1G 4G 7G 8G 9G14G21G27G30C24C25C26
                                C33C34C35E 2E 3E 5E 8E24E25E36
  23558301.286   123799659.852    23558304.681    96467254.285                  
  23199034.662   121911744.151    23199036.002    94996164.159                  
  20890895.288   109782410.656    20890894.574    85544739.042                  
  20739910.979   108988927.613    20739913.320    84926427.243                  
  21744472.051   114267938.499    21744474.124    89039943.640                  
  24198498.113   127163963.999    24198499.060    99088804.719                  
  22174979.325   116530302.064    22174978.575    90802833.173                  
  22802540.144   119828128.145    22802541.913    93372561.137                  
  23206841.495   121952737.935    23206843.514    95028098.235                  
                 116384082.906                   116384082.906    22350333.944  
                 130984148.546                   130984148.546    25154126.224  
                 120715163.618                   120715163.618    23182077.388  
                 134981247.813                   134981247.813    25921764.244  
                 122961340.544                   122961340.544    23613433.440  
                 129871629.964                   129871629.964    24940480.755  
  24965598.794   131195083.043                                                  
  25236938.746   132620990.871                                                  
  27410448.540   144042865.292                                                  
  24338627.224   127900344.492                                                  
  27708994.223   145611785.694                                                  
  24419864.609   128327243.699                                                  
  25755555.903   135346305.259                                                  
 21  9  2  6 48 42.0000000  0 22G 1G 4G 7G 8G 9G14G21G27G30C24C25C26
                                C33C34C35E 2E 3E 5E 8E24E25E36
  23557673.297   123796359.850    23557676.692    96464682.860                  
  23199692.135   121915199.305    23199693.475    94998856.485                  
  20890534.138   109780512.836    20890533.441    85543260.222                  
  20740257.334   108990747.707    20740259.675    84927845.492                  
  21744889.508   114270132.222    21744891.580    89041653.032                  
  24198096.364   127161852.813    24198097.329    99087159.636                  
  22174628.217   116528457.044    22174627.484    90801395.497                  
  22803163.273   119831402.772    22803165.060    93375112.797                  
  23206274.100   121949756.218    23206276.119    95025774.824                  
                 116383486.042                   116383486.042    22350219.314  
                 130981870.225                   130981870.225    25153688.701  
                 120716508.672                   120716508.672    23182335.685  
                 134983194.417                   134983194.417    25922138.064  
                 122958500.285                   122958500.285    23612888.006  
                 129874218.488                   129874218.488    24940977.853  
  24965419.139   131194138.946                                                  
  25237298.092   132622879.345                                                  
  27410993.438   144045728.727                                                  
  24338545.437   127899914.762                                                  
  27709279.448   145613284.487                                                  
  24419946.985   128327676.665                                                  
  25755052.175   135343658.163                                                  
 21  9  2  6 48 43.0000000  0 22G 1G 4G 7G 8G 9G14G21G27G30C24C25C26
                                C33C34C35E 2E 3E 5E 8E24E25E36
  23557045.344   123793059.861    23557048.739    96462111.437                  
  23200349.661   121918654.583    23200351.001    95001548.909                  
  20890173.040   109778615.316    20890172.343    85541781.633                  
  20740603.779   108992568.292    20740606.120    84929264.134                  
  21745307.035   114272326.392    21745309.126    89043362.774                  
  24197694.633   127159741.712    24197695.580    99085514.625                  
  22174277.198   116526612.421    22174276.465    90799958.128                  
  22803786.455   119834677.652    22803788.260    93377664.648                  
  23205706.723   121946774.575    23205708.724    95023451.465                  
                 116382889.352                   116382889.352    22350104.738  
                 130979591.870                   130979591.870    25153251.160  
                 120717853.935                   120717853.935    23182594.017  
                 134985141.173                   134985141.173    25922511.920  
                 122955660.308                   122955660.308    23612342.626  
                 129876807.315                   129876807.315    24941475.005  
  24965239.484   131193194.855                                                  
  25237657.528   132624768.120                                                  
  27411538.319   144048592.094                                                  
  24338463.758   127899485.488                                                  
  27709564.638   145614783.251                                                  
  24420029.379   128328109.652                                                  
  25754548.483   135341011.229                                                  
 21  9  2  6 48 44.0000000  0 22G 1G 4G 7G 8G 9G14G21G27G30C24C25C26
                                C33C34C35E 2E 3E 5E 8E24E25E36
  23556417.355   123789759.886    23556420.786    96459540.028                  
  23201007.223   121922109.996    23201008.546    95004241.436                  
  20889812.015   109776718.090    20889811.318    85540303.277                  
  20740950.313   108994389.384    20740952.654    84930683.165                  
  21745724.652   114274520.995    21745726.743    89045072.855                  
  24197292.919   127157630.708    24197293.866    99083869.687                  
  22173926.268   116524768.202    22173925.517    90798521.075                  
  22804409.709   119837952.772    22804411.478    93380216.695                  
  23205139.345   121943792.993    23205141.365    95021128.157                  
                 116382292.835                   116382292.835    22349990.180  
                 130977313.480                   130977313.480    25152813.620  
                 120719199.410                   120719199.410    23182852.403  
                 134987088.075                   134987088.075    25922885.794  
                 122952820.619                   122952820.619    23611797.281  
                 129879396.442                   129879396.442    24941972.229  
  24965059.846   131192250.781                                                  
  25238016.999   132626657.180                                                  
  27412083.199   144051455.385                                                  
  24338382.168   127899056.659                                                  
  27709849.863   145616282.032                                                  
  24420111.773   128328542.659                                                  
  25754044.827   135338364.454                                                  
 21  9  2  6 48 45.0000000  0 22G 1G 4G 7G 8G 9G14G21G27G30C24C25C26
                                C33C34C35E 2E 3E 5E 8E24E25E36
  23555789.402   123786459.931    23555792.815    96456968.633                  
  23201664.785   121925565.532    23201666.126    95006934.066                  
  20889451.042   109774821.157    20889450.346    85538825.145                  
  20741296.954   108996210.975    20741299.295    84932102.586                  
  21746142.358   114276716.062    21746144.431    89046783.297                  
  24196891.241   127155519.800    24196892.188    99082224.829                  
  22173575.392   116522924.376    22173574.659    90797084.328                  
  22805032.980   119841228.133    22805034.767    93382768.922                  
  23204571.986   121940811.476    23204573.987    95018804.895                  
                 116381696.497                   116381696.497    22349875.657  
                 130975035.055                   130975035.055    25152376.079  
                 120720545.101                   120720545.101    23183110.825  
                 134989035.130                   134989035.130    25923259.721  
                 122949981.206                   122949981.206    23611252.008  
                 129881985.870                   129881985.870    24942469.506  
  24964880.173   131191306.722                                                  
  25238376.541   132628546.539                                                  
  27412628.043   144054318.609                                                  
  24338300.631   127898628.277                                                  
  27710135.053   145617780.793                                                  
  24420194.185   128328975.687                                                  
  25753541.188   135335717.833                                                  
 21  9  2  6 48 46.0000000  0 22G 1G 4G 7G 8G 9G14G21G27G30C24C25C26
                                C33C34C35E 2E 3E 5E 8E24E25E36
  23555161.413   123783160.059    23555164.826    96454397.356                  
  23202322.383   121929021.083    23202323.741    95009626.655                  
  20889090.124   109772924.523    20889089.427    85537347.269                  
  20741643.684   108998033.133    20741646.007    84933522.493                  
  21746560.154   114278911.543    21746562.245    89048494.048                  
  24196489.563   127153408.961    24196490.493    99080580.016                  
  22173224.605   116521080.921    22173223.854    90795647.866                  
  22805656.323   119844503.664    22805658.128    93385321.254                  
  23204004.609   121937830.136    23204006.592    95016481.836                  
                 116381100.305                   116381100.305    22349761.188  
                 130972756.574                   130972756.574    25151938.520  
                 120721890.977                   120721890.977    23183369.300  
                 134990982.349                   134990982.349    25923633.648  
                 122947142.124                   122947142.124    23610706.752  
                 129884575.558                   129884575.558    24942966.819  
  24964700.518   131190362.722                                                  
  25238736.120   132630436.180                                                  
  27413172.834   144057181.906                                                  
  24338219.202   127898200.305                                                  
  27710420.261   145619279.495                                                  
  24420276.579   128329408.800                                                  
  25753037.568   135333071.360                                                  
 21  9  2  6 48 47.0000000  0 22G 1G 4G 7G 8G 9G14G21G27G30C24C25C26
                                C33C34C35E 2E 3E 5E 8E24E25E36
  23554533.477   123779860.136    23554536.855    96451825.988                  
  23202979.999   121932476.880    23202981.357    95012319.480                  
  20888729.259   109771028.171    20888728.562    85535869.590                  
  20741990.504   108999855.719    20741992.845    84934942.687                  
  21746978.039   114281107.497    21746980.112    89050205.182                  
  24196087.904   127151298.235    24196088.833    99078935.297                  
  22172873.872   116519237.893    22172873.139    90794211.741                  
  22806279.702   119847779.518    22806281.489    93387873.872                  
  23203437.267   121934848.754    23203439.269    95014158.684                  
                 116380504.305                   116380504.305    22349646.719  
                 130970478.073                   130970478.073    25151500.961  
                 120723237.087                   120723237.087    23183627.794  
                 134992929.701                   134992929.701    25924007.629  
                 122944303.273                   122944303.273    23610161.604  
                 129887165.586                   129887165.586    24943464.221  
  24964520.881   131189418.686                                                  
  25239095.752   132632326.132                                                  
  27413717.678   144060044.991                                                  
  24338137.862   127897772.818                                                  
  27710705.468   145620778.241                                                  
  24420358.973   128329841.866                                                  
  25752534.001   135330425.063                                                  
 21  9  2  6 48 48.0000000  0 22G 1G 4G 7G 8G 9G14G21G27G30C24C25C26
                                C33C34C35E 2E 3E 5E 8E24E25E36
  23553905.524   123776560.232    23553908.919    96449254.634                  
  23203637.633   121935932.800    23203639.009    95015012.407                  
  20888368.448   109769132.118    20888367.733    85534392.144                  
  20742337.413   109001678.824    20742339.754    84936363.289                  
  21747395.995   114283303.914    21747398.086    89051916.676                  
  24195686.262   127149187.616    24195687.209    99077290.656                  
  22172523.246   116517395.268    22172522.495    90792775.934                  
  22806903.116   119851055.613    22806904.921    93390426.668                  
  23202869.944   121931867.445    23202871.945    95011835.582                  
                 116379908.479                   116379908.479    22349532.304  
                 130968199.538                   130968199.538    25151063.402  
                 120724583.405                   120724583.405    23183886.358  
                 134994877.204                   134994877.204    25924381.627  
                 122941464.706                   122941464.706    23609616.474  
                 129889755.913                   129889755.913    24943961.659  
  24964341.243   131188474.680                                                  
  25239455.455   132634216.363                                                  
  27414262.487   144062908.006                                                  
  24338056.594   127897345.782                                                  
  27710990.658   145622276.981                                                  
  24420441.403   128330274.952                                                  
  25752030.434   135327778.909                                                  
 21  9  2  6 48 49.0000000  0 22G 1G 4G 7G 8G 9G14G21G27G30C24C25C26
                                C33C34C35E 2E 3E 5E 8E24E25E36
  23553277.589   123773260.351    23553280.984    96446683.298                  
  23204295.320   121939388.853    23204296.660    95017705.433                  
  20888007.708   109767236.353    20888006.993    85532914.922                  
  20742684.448   109003502.399    20742686.789    84937784.254                  
  21747814.059   114285500.774    21747816.132    89053628.511                  
  24195284.637   127147077.093    24195285.584    99075646.093                  
  22172172.673   116515553.042    22172171.941    90791340.431                  
  22807526.584   119854331.933    22807528.371    93392979.645                  
  23202302.620   121928886.195    23202304.622    95009512.532                  
                 116379312.828                   116379312.828    22349417.924  
                 130965920.973                   130965920.973    25150625.826  
                 120725929.936                   120725929.936    23184144.941  
                 134996824.856                   134996824.856    25924755.644  
                 122938626.422                   122938626.422    23609071.415  
                 129892346.543                   129892346.543    24944459.186  
  24964161.606   131187530.677                                                  
  25239815.212   132636106.887                                                  
  27414807.278   144065770.954                                                  
  24337975.415   127896919.195                                                  
  27711275.865   145623775.707                                                  
  24420523.815   128330708.062                                                  
  25751526.920   135325132.935                                                  
 21  9  2  6 48 50.0000000  0 22G 1G 4G 7G 8G 9G14G21G27G30C24C25C26
                                C33C34C35E 2E 3E 5E 8E24E25E36
  23552649.636   123769960.484    23552653.049    96444111.973                  
  23204953.007   121942845.035    23204954.365    95020398.564                  
  20887647.004   109765340.884    20887646.307    85531437.938                  
  20743031.554   109005326.452    20743033.876    84939205.598                  
  21748232.176   114287698.065    21748234.285    89055340.691                  
  24194883.031   127144966.667    24194883.978    99074001.606                  
  22171822.208   116513711.224    22171821.458    90789905.245                  
  22808150.106   119857608.509    22808151.875    93395532.821                  
  23201735.332   121925905.027    23201737.316    95007189.542                  
                 116378717.349                   116378717.349    22349303.563  
                 130963642.368                   130963642.368    25150188.231  
                 120727276.682                   120727276.682    23184403.577  
                 134998772.661                   134998772.661    25925129.696  
                 122935788.419                   122935788.419    23608526.428  
                 129894937.472                   129894937.472    24944956.749  
  24963981.969   131186586.694                                                  
  25240175.023   132637997.714                                                  
  27415352.068   144068633.825                                                  
  24337894.326   127896493.052                                                  
  27711561.055   145625274.438                                                  
  24420606.245   128331141.198                                                  
  25751023.443   135322487.101                                                  
 21  9  2  6 48 51.0000000  0 22G 1G 4G 7G 8G 9G14G21G27G30C24C25C26
                                C33C34C35E 2E 3E 5E 8E24E25E36
  23552021.700   123766660.644    23552025.095    96441540.667                  
  23205610.712   121946301.342    23205612.053    95023091.793                  
  20887286.353   109763445.706    20887285.656    85529961.175                  
  20743378.767   109007151.001    20743381.107    84940627.325                  
  21748650.419   114289895.823    21748652.491    89057053.227                  
  24194481.461   127142856.332    24194482.408    99072357.191                  
  22171471.779   116511869.790    22171471.046    90788470.364                  
  22808773.664   119860885.320    22808775.433    93398086.180                  
  23201168.044   121922923.909    23201170.046    95004866.597                  
                 116378122.043                   116378122.043    22349189.237  
                 130961363.730                   130961363.730    25149750.655  
                 120728623.641                   120728623.641    23184662.231  
                 135000720.612                   135000720.612    25925503.802  
                 122932950.699                   122932950.699    23607981.458  
                 129897528.703                   129897528.703    24945454.365  
  24963802.314   131185642.723                                                  
  25240534.905   132639888.816                                                  
  27415896.841   144071496.629                                                  
  24337813.325   127896067.360                                                  
  27711846.244   145626773.155                                                  
  24420688.657   128331574.344                                                  
  25750519.983   135319841.426                                                  
 21  9  2  6 48 52.0000000  0 22G 1G 4G 7G 8G 9G14G21G27G30C24C25C26
                                C33C34C35E 2E 3E 5E 8E24E25E36
  23551393.783   123763360.825    23551397.160    96438969.384                  
  23206268.453   121949757.776    23206269.793    95025785.118                  
  20886925.774   109761550.833    20886925.077    85528484.653                  
  20743726.069   109008976.043    20743728.374    84942049.433                  
  21749068.715   114292094.027    21749070.805    89058766.113                  
  24194079.908   127140746.103    24194080.837    99070712.856                  
  22171121.457   116510028.773    22171120.724    90787035.805                  
  22809397.257   119864162.371    22809399.061    93400639.726                  
  23200600.774   121919942.868    23200602.776    95002543.708                  
                 116377526.919                   116377526.919    22349074.964  
                 130959085.069                   130959085.069    25149313.060  
                 120729970.800                   120729970.800    23184920.957  
                 135002668.726                   135002668.726    25925877.908  
                 122930113.266                   122930113.266    23607436.560  
                 129900120.232                   129900120.232    24945952.035  
  24963622.694   131184698.758                                                  
  25240894.823   132641780.215                                                  
  27416441.596   144074359.360                                                  
  24337732.379   127895642.117                                                  
  27712131.434   145628271.866                                                  
  24420771.086   128332007.521                                                  
  25750016.559   135317195.927                                                  
 21  9  2  6 48 53.0000000  0 22G 1G 4G 7G 8G 9G14G21G27G30C24C25C26
                                C33C34C35E 2E 3E 5E 8E24E25E36
  23550765.847   123760061.017    23550769.243    96436398.103                  
  23206926.212   121953214.342    23206927.588    95028478.544                  
  20886565.267   109759656.250    20886564.552    85527008.353                  
  20744073.443   109010801.590    20744075.783    84943471.937                  
  21749487.118   114294292.686    21749489.208    89060479.356                  
  24193678.355   127138635.964    24193679.302    99069068.593                  
  22170771.206   116508188.146    22170770.455    90785601.550                  
  22810020.903   119867439.680    22810022.708    93403193.472                  
  23200033.522   121916961.891    23200035.524    95000220.866                  
                 116376931.965                   116376931.965    22348960.692  
                 130956806.362                   130956806.362    25148875.466  
                 120731318.182                   120731318.182    23185179.700  
                 135004616.986                   135004616.986    25926252.067  
                 122927276.112                   122927276.112    23606891.716  
                 129902712.062                   129902712.062    24946449.759  
  24963443.057   131183754.819                                                  
  25241254.776   132643671.910                                                  
  27416986.334   144077222.017                                                  
  24337651.557   127895217.321                                                  
  27712416.641   145629770.571                                                  
  24420853.516   128332440.707                                                  
  25749513.153   135314550.571                                                  
 21  9  2  6 48 54.0000000  0 22G 1G 4G 7G 8G 9G14G21G27G30C24C25C26
                                C33C34C35E 2E 3E 5E 8E24E25E36
  23550137.912   123756761.235    23550141.307    96433826.844                  
  23207584.024   121956671.040    23207585.365    95031172.070                  
  20886204.777   109757761.961    20886204.080    85525532.286                  
  20744420.924   109012627.635    20744423.264    84944894.832                  
  21749905.575   114296491.786    21749907.665    89062192.938                  
  24193276.838   127136525.923    24193277.785    99067424.407                  
  22170421.027   116506347.918    22170420.276    90784167.609                  
  22810644.604   119870717.227    22810646.409    93405747.402                  
  23199466.252   121913980.993    23199468.254    94997898.089                  
                 116376337.181                   116376337.181    22348846.473  
                 130954527.620                   130954527.620    25148437.853  
                 120732665.778                   120732665.778    23185438.498  
                 135006565.387                   135006565.387    25926626.227  
                 122924439.247                   122924439.247    23606346.943  
                 129905304.195                   129905304.195    24946947.554  
  24963263.438   131182810.889                                                  
  25241614.819   132645563.896                                                  
  27417531.089   144080084.618                                                  
  24337570.807   127894792.973                                                  
  27712701.813   145631269.270                                                  
  24420935.964   128332873.929                                                  
  25749009.800   135311905.383                                                  
 21  9  2  6 48 55.0000000  0 22G 1G 4G 7G 8G 9G14G21G27G30C24C25C26
                                C33C34C35E 2E 3E 5E 8E24E25E36
  23549509.995   123753461.466    23549513.372    96431255.598                  
  23208241.837   121960127.871    23208243.177    95033865.706                  
  20885844.377   109755867.965    20885843.680    85524056.442                  
  20744768.512   109014454.183    20744770.835    84946318.114                  
  21750324.156   114298691.337    21750326.247    89063906.876                  
  24192875.321   127134415.981    24192876.268    99065780.296                  
  22170070.901   116504508.095    22170070.168    90782733.981                  
  22811268.358   119873995.015    22811270.163    93408301.527                  
  23198899.036   121911000.157    23198901.037    94995575.359                  
                 116375742.573                   116375742.573    22348732.308  
                 130952248.843                   130952248.843    25148000.241  
                 120734013.585                   120734013.585    23185697.348  
                 135008513.940                   135008513.940    25927000.422  
                 122921602.660                   122921602.660    23605802.206  
                 129907896.634                   129907896.634    24947445.421  
  24963083.818   131181866.971                                                  
  25241974.898   132647456.169                                                  
  27418075.808   144082947.140                                                  
  24337490.146   127894369.066                                                  
  27712987.021   145632767.949                                                  
  24421018.376   128333307.156                                                  
  25748506.466   135309260.348                                                  
 21  9  2  6 48 56.0000000  0 22G 1G 4G 7G 8G 9G14G21G27G30C24C25C26
                                C33C34C35E 2E 3E 5E 8E24E25E36
  23548882.077   123750161.723    23548885.454    96428684.367                  
  23208899.685   121963584.827    23208901.025    95036559.441                  
  20885484.012   109753974.263    20885483.315    85522580.828                  
  20745116.172   109016281.223    20745118.512    84947741.782                  
  21750742.792   114300891.337    21750744.883    89065621.159                  
  24192473.840   127132306.130    24192474.787    99064136.257                  
  22169720.883   116502668.677    22169720.132    90781300.668                  
  22811892.148   119877273.052    22811893.934    93410855.839                  
  23198331.820   121908019.379    23198333.821    94993252.676                  
                 116375148.140                   116375148.140    22348618.143  
                 130949970.034                   130949970.034    25147562.628  
                 120735361.605                   120735361.605    23185956.217  
                 135010462.648                   135010462.648    25927374.653  
                 122918766.356                   122918766.356    23605257.522  
                 129910489.368                   129910489.368    24947943.324  
  24962904.199   131180923.071                                                  
  25242335.048   132649348.727                                                  
  27418620.491   144085809.595                                                  
  24337409.539   127893945.610                                                  
  27713272.192   145634266.624                                                  
  24421100.841   128333740.415                                                  
  25748003.167   135306615.476                                                  
 21  9  2  6 48 57.0000000  0 22G 1G 4G 7G 8G 9G14G21G27G30C24C25C26
                                C33C34C35E 2E 3E 5E 8E24E25E36
  23548254.160   123746861.985    23548257.537    96426113.145                  
  23209557.533   121967041.906    23209558.873    95039253.267                  
  20885123.719   109752080.863    20885123.022    85521105.454                  
  20745463.956   109018108.751    20745466.297    84949165.829                  
  21751161.535   114303091.783    21751163.625    89067335.793                  
  24192072.359   127130196.388    24192073.306    99062492.302                  
  22169370.918   116500829.644    22169370.185    90779867.657                  
  22812515.973   119880551.324    22812517.778    93413410.337                  
  23197764.603   121905038.675    23197766.604    94990930.051                  
                 116374553.879                   116374553.879    22348504.013  
                 130947691.187                   130947691.187    25147124.998  
                 120736709.837                   120736709.837    23186215.121  
                 135012411.503                   135012411.503    25927748.920  
                 122915930.339                   122915930.339    23604712.892  
                 129913082.403                   129913082.403    24948441.297  
  24962724.579   131179979.179                                                  
  25242695.234   132651241.578                                                  
  27419165.175   144088671.962                                                  
  24337329.057   127893522.606                                                  
  27713557.382   145635765.297                                                  
  24421183.271   128334173.672                                                  
  25747499.886   135303970.743                                                  
 21  9  2  6 48 58.0000000  0 22G 1G 4G 7G 8G 9G14G21G27G30C24C25C26
                                C33C34C35E 2E 3E 5E 8E24E25E36
  23547626.242   123743562.280    23547629.637    96423541.944                  
  23210215.417   121970499.109    23210216.757    95041947.191                  
  20884763.480   109750187.751    20884762.783    85519630.301                  
  20745811.813   109019936.786    20745814.154    84950590.274                  
  21751580.349   114305292.675    21751582.439    89069050.774                  
  24191670.913   127128086.728    24191671.860    99060848.413                  
  22169021.042   116498991.015    22169020.292    90778434.962                  
  22813139.852   119883829.836    22813141.657    93415965.024                  
  23197197.423   121902058.044    23197199.424    94988607.484                  
                 116373959.792                   116373959.792    22348389.937  
                 130945412.309                   130945412.309    25146687.368  
                 120738058.281                   120738058.281    23186474.079  
                 135014360.507                   135014360.507    25928123.204  
                 122913094.602                   122913094.602    23604168.316  
                 129915675.743                   129915675.743    24948939.325  
  24962544.960   131179035.296                                                  
  25243055.491   132653134.714                                                  
  27419709.859   144091534.267                                                  
  24337248.646   127893100.028                                                  
  27713842.572   145637263.958                                                  
  24421265.737   128334606.961                                                  
  25746996.641   135301326.183                                                  
 21  9  2  6 48 59.0000000  0 22G 1G 4G 7G 8G 9G14G21G27G30C24C25C26
                                C33C34C35E 2E 3E 5E 8E24E25E36
  23546998.343   123740262.593    23547001.720    96420970.761                  
  23210873.336   121973956.450    23210874.676    95044641.223                  
  20884403.276   109748294.946    20884402.579    85518155.386                  
  20746159.776   109021765.317    20746162.117    84952015.102                  
  21751999.252   114307494.019    21752001.343    89070766.106                  
  24191269.486   127125977.176    24191270.415    99059204.604                  
  22168671.238   116497152.794    22168670.506    90777002.578                  
  22813763.803   119887108.598    22813765.607    93418519.901                  
  23196630.242   121899077.469    23196632.225    94986284.958                  
                 116373365.883                   116373365.883    22348275.879  
                 130943133.398                   130943133.398    25146249.720  
                 120739406.940                   120739406.940    23186733.072  
                 135016309.665                   135016309.665    25928497.525  
                 122910259.153                   122910259.153    23603623.793  
                 129918269.382                   129918269.382    24949437.406  
  24962365.358   131178091.437                                                  
  25243415.802   132655028.164                                                  
  27420254.542   144094396.490                                                  
  24337168.325   127892677.914                                                  
  27714127.761   145638762.592                                                  
  24421348.184   128335040.265                                                  
  25746493.413   135298681.784                                                  
 21  9  2  6 49  0.0000000  0 22G 1G 4G 7G 8G 9G14G21G27G30C24C25C26
                                C33C34C35E 2E 3E 5E 8E24E25E36
  23546370.443   123736962.934    23546373.820    96418399.597                  
  23211531.256   121977413.914    23211532.614    95047335.353                  
  20884043.161   109746402.421    20884042.464    85516680.696                  
  20746507.847   109023594.335    20746510.188    84953440.313                  
  21752418.245   114309695.812    21752420.318    89072481.789                  
  24190868.058   127123867.716    24190869.005    99057560.871                  
  22168321.524   116495314.973    22168320.773    90775570.511                  
  22814387.753   119890387.601    22814389.558    93421074.968                  
  23196063.061   121896096.968    23196065.063    94983962.489                  
                 116372772.154                   116372772.154    22348161.857  
                 130940854.458                   130940854.458    25145812.072  
                 120740755.818                   120740755.818    23186992.120  
                 135018258.976                   135018258.976    25928871.863  
                 122907423.991                   122907423.991    23603079.342  
                 129920863.323                   129920863.323    24949935.541  
  24962185.739   131177147.583                                                  
  25243776.167   132656921.875                                                  
  27420799.172   144097258.657                                                  
  24337088.075   127892256.242                                                  
  27714412.933   145640261.236                                                  
  24421430.632   128335473.595                                                  
  25745990.239   135296037.544                                                  
 21  9  2  6 49  1.0000000  0 22G 1G 4G 7G 8G 9G14G21G27G30C24C25C26
                                C33C34C35E 2E 3E 5E 8E24E25E36
  23545742.543   123733663.294    23545745.921    96415828.453                  
  23212189.211   121980871.516    23212190.587    95050029.581                  
  20883683.083   109744510.203    20883682.386    85515206.238                  
  20746855.971   109025423.852    20746858.312    84954865.906                  
  21752837.327   114311898.062    21752839.400    89074197.829                  
  24190466.666   127121758.352    24190467.596    99055917.211                  
  22167971.880   116493477.550    22167971.148    90774138.753                  
  22815011.775   119893666.844    22815013.580    93423630.223                  
  23195495.898   121893116.539    23195497.900    94981640.078                  
                 116372178.593                   116372178.593    22348047.889  
                 130938575.477                   130938575.477    25145374.424  
                 120742104.907                   120742104.907    23187251.203  
                 135020208.434                   135020208.434    25929246.237  
                 122904589.114                   122904589.114    23602534.944  
                 129923457.568                   129923457.568    24950433.747  
  24962006.137   131176203.750                                                  
  25244136.585   132658815.903                                                  
  27421343.820   144100120.739                                                  
  24337007.915   127891835.017                                                  
  27714698.122   145641759.867                                                  
  24421513.115   128335906.936                                                  
  25745487.101   135293393.456                                                  
 21  9  2  6 49  2.0000000  0 22G 1G 4G 7G 8G 9G14G21G27G30C24C25C26
                                C33C34C35E 2E 3E 5E 8E24E25E36
  23545114.644   123730363.671    23545118.021    96413257.316                  
  23212847.220   121984329.229    23212848.560    95052723.905                  
  20883323.058   109742618.282    20883322.361    85513732.016                  
  20747204.221   109027253.839    20747206.561    84956291.872                  
  21753256.481   114314100.750    21753258.554    89075914.207                  
  24190065.274   127119649.082    24190066.239    99054273.624                  
  22167622.309   116491640.536    22167621.558    90772707.313                  
  22815635.869   119896946.325    22815637.656    93426185.660                  
  23194928.753   121890136.173    23194930.755    94979317.712                  
                 116371585.210                   116371585.210    22347933.920  
                 130936296.465                   130936296.465    25144936.758  
                 120743454.206                   120743454.206    23187510.321  
                 135022158.042                   135022158.042    25929620.646  
                 122901754.517                   122901754.517    23601990.582  
                 129926052.114                   129926052.114    24950932.007  
  24961826.536   131175259.926                                                  
  25244497.057   132660710.204                                                  
  27421888.432   144102982.759                                                  
  24336927.844   127891414.238                                                  
  27714983.294   145643258.508                                                  
  24421595.581   128336340.307                                                  
  25744983.963   135290749.518                                                  
 21  9  2  6 49  3.0000000  0 22G 1G 4G 7G 8G 9G14G21G27G30C24C25C26
                                C33C34C35E 2E 3E 5E 8E24E25E36
  23544486.744   123727064.072    23544490.139    96410686.200                  
  23213505.229   121987787.083    23213506.587    95055418.335                  
  20882963.104   109740726.652    20882962.407    85512258.016                  
  20747552.559   109029084.333    20747554.882    84957718.231                  
  21753675.724   114316303.890    21753677.797    89077630.937                  
  24189663.918   127117539.915    24189664.865    99052630.118                  
  22167272.809   116489803.923    22167272.076    90771276.187                  
  22816259.962   119900226.064    22816261.785    93428741.296                  
  23194361.644   121887155.879    23194363.646    94976995.405                  
                 116370992.004                   116370992.004    22347820.005  
                 130934017.417                   130934017.417    25144499.092  
                 120744803.718                   120744803.718    23187769.476  
                 135024107.802                   135024107.802    25929995.074  
                 122898920.207                   122898920.207    23601446.274  
                 129928646.957                   129928646.957    24951430.303  
  24961646.934   131174316.110                                                  
  25244857.600   132662604.798                                                  
  27422433.062   144105844.703                                                  
  24336847.862   127890993.913                                                  
  27715268.484   145644757.122                                                  
  24421678.047   128336773.696                                                  
  25744480.879   135288105.765                                                  
 21  9  2  6 49  4.0000000  0 22G 1G 4G 7G 8G 9G14G21G27G30C24C25C26
                                C33C34C35E 2E 3E 5E 8E24E25E36
  23543858.862   123723764.504    23543862.258    96408115.106                  
  23214163.256   121991245.058    23214164.596    95058112.858                  
  20882603.186   109738835.323    20882602.471    85510784.249                  
  20747900.987   109030915.323    20747903.328    84959144.970                  
  21754095.056   114318507.473    21754097.147    89079348.012                  
  24189262.580   127115430.845    24189263.527    99050986.684                  
  22166923.380   116487967.707    22166922.665    90769845.364                  
  22816884.127   119903506.023    22816885.914    93431297.109                  
  23193794.517   121884175.654    23193796.519    94974673.149                  
                 116370398.970                   116370398.970    22347706.126  
                 130931738.341                   130931738.341    25144061.426  
                 120746153.444                   120746153.444    23188028.684  
                 135026057.707                   135026057.707    25930369.537  
                 122896086.179                   122896086.179    23600902.037  
                 129931242.097                   129931242.097    24951928.687  
  24961467.333   131173372.312                                                  
  25245218.179   132664499.680                                                  
  27422977.656   144108706.577                                                  
  24336767.952   127890574.035                                                  
  27715553.656   145646255.736                                                  
  24421760.512   128337207.102                                                  
  25743977.812   135285462.147                                                  
 21  9  2  6 49  5.0000000  0 22G 1G 4G 7G 8G 9G14G21G27G30C24C25C26
                                C33C34C35E 2E 3E 5E 8E24E25E36
  23543230.981   123720464.949    23543234.358    96405544.015                  
  23214821.300   121994703.170    23214822.658    95060807.489                  
  20882243.340   109736944.297    20882242.643    85509310.718                  
  20748249.505   109032746.798    20748251.846    84960572.086                  
  21754514.460   114320711.517    21754516.569    89081065.442                  
  24188861.260   127113321.872    24188862.207    99049343.323                  
  22166574.040   116486131.907    22166573.326    90768414.866                  
  22817508.346   119906786.243    22817510.133    93433853.118                  
  23193227.426   121881195.504    23193229.427    94972350.950                  
                 116369806.110                   116369806.110    22347592.264  
                 130929459.224                   130929459.224    25143623.742  
                 120747503.383                   120747503.383    23188287.928  
                 135028007.761                   135028007.761    25930744.018  
                 122893252.434                   122893252.434    23600357.836  
                 129933837.542                   129933837.542    24952427.108  
  24961287.731   131172428.532                                                  
  25245578.812   132666394.858                                                  
  27423522.232   144111568.374                                                  
  24336688.149   127890154.602                                                  
  27715838.827   145647754.335                                                  
  24421842.995   128337640.532                                                  
  25743474.781   135282818.711                                                  
 21  9  2  6 49  6.0000000  0 22G 1G 4G 7G 8G 9G14G21G27G30C24C25C26
                                C33C34C35E 2E 3E 5E 8E24E25E36
  23542603.099   123717165.417    23542606.476    96402972.953                  
  23215479.399   121998161.409    23215480.739    95063502.214                  
  20881883.547   109735053.562    20881882.832    85507837.415                  
  20748598.094   109034578.742    20748600.435    84961999.574                  
  21754933.953   114322915.992    21754936.062    89082783.210                  
  24188459.957   127111212.995    24188460.904    99047700.038                  
  22166224.772   116484296.506    22166224.040    90766984.679                  
  22818132.582   119910066.699    22818134.387    93436409.317                  
  23192660.317   121878215.419    23192662.318    94970028.801                  
                 116369213.422                   116369213.422    22347478.439  
                 130927180.075                   130927180.075    25143186.058  
                 120748853.534                   120748853.534    23188547.207  
                 135029957.968                   135029957.968    25931118.535  
                 122890418.976                   122890418.976    23599813.707  
                 129936433.289                   129936433.289    24952925.600  
  24961108.148   131171484.755                                                  
  25245939.516   132668290.327                                                  
  27424066.827   144114430.142                                                  
  24336608.399   127889735.589                                                  
  27716123.999   145649252.940                                                  
  24421925.479   128338073.985                                                  
  25742971.786   135280175.442                                                  
 21  9  2  6 49  7.0000000  0 22G 1G 4G 7G 8G 9G14G21G27G30C24C25C26
                                C33C34C35E 2E 3E 5E 8E24E25E36
  23541975.217   123713865.914    23541978.612    96400401.905                  
  23216137.497   122001619.786    23216138.855    95066197.046                  
  20881523.808   109733163.122    20881523.093    85506364.337                  
  20748946.808   109036411.187    20748949.149    84963427.450                  
  21755353.554   114325120.922    21755355.644    89084501.335                  
  24188058.655   127109104.221    24188059.620    99046056.840                  
  22165875.594   116482461.517    22165874.861    90765554.817                  
  22818756.872   119913347.406    22818758.677    93438965.703                  
  23192093.243   121875235.399    23192095.245    94967706.703                  
                 116368620.914                   116368620.914    22347364.667  
                 130924900.891                   130924900.891    25142748.356  
                 120750203.897                   120750203.897    23188806.522  
                 135031908.324                   135031908.324    25931493.088  
                 122887585.800                   122887585.800    23599269.613  
                 129939029.333                   129939029.333    24953424.146  
  24960928.564   131170540.983                                                  
  25246300.256   132670186.066                                                  
  27424611.385   144117291.843                                                  
  24336528.757   127889317.017                                                  
  27716409.189   145650751.554                                                  
  24422007.980   128338507.462                                                  
  25742468.827   135277532.355                                                  
 21  9  2  6 49  8.0000000  0 22G 1G 4G 7G 8G 9G14G21G27G30C24C25C26
                                C33C34C35E 2E 3E 5E 8E24E25E36
  23541347.336   123710566.421    23541350.749    96397830.871                  
  23216795.613   122005078.277    23216796.989    95068891.972                  
  20881164.122   109731272.974    20881163.425    85504891.491                  
  20749295.593   109038244.129    20749297.934    84964855.711                  
  21755773.226   114327326.315    21755775.316    89086219.821                  
  24187657.406   127106995.535    24187658.335    99044413.704                  
  22165526.487   116480626.882    22165525.736    90764125.227                  
  22819381.216   119916628.331    22819383.021    93441522.265                  
  23191526.188   121872255.455    23191528.171    94965384.664                  
                 116368028.575                   116368028.575    22347250.912  
                 130922621.672                   130922621.672    25142310.655  
                 120751554.476                   120751554.476    23189065.873  
                 135033858.825                   135033858.825    25931867.658  
                 122884752.910                   122884752.910    23598725.608  
                 129941625.676                   129941625.676    24953922.745  
  24960748.980   131169597.277                                                  
  25246661.085   132672082.136                                                  
  27425155.908   144120153.347                                                  
  24336449.204   127888898.996                                                  
  27716694.343   145652250.089                                                  
  24422090.464   128338940.942                                                  
  25741965.867   135274889.306                                                  
 21  9  2  6 49  9.0000000  0 22G 1G 4G 7G 8G 9G14G21G27G30C24C25C26
                                C33C34C35E 2E 3E 5E 8E24E25E36
  23540719.472   123707266.944    23540722.885    96395259.844                  
  23217453.783   122008536.891    23217455.141    95071586.991                  
  20880804.508   109729383.130    20880803.793    85503418.879                  
  20749644.504   109040077.563    20749646.845    84966284.355                  
  21756192.987   114329532.137    21756195.060    89087938.637                  
  24187256.139   127104886.952    24187257.104    99042770.645                  
  22165177.433   116478792.667    22165176.701    90762695.964                  
  22820005.595   119919909.511    22820007.418    93444079.026                  
  23190959.114   121869275.563    23190961.116    94963062.669                  
                 116367436.413                   116367436.413    22347137.194  
                 130920342.421                   130920342.421    25141872.953  
                 120752905.267                   120752905.267    23189325.296  
                 135035809.478                   135035809.478    25932242.264  
                 122881920.304                   122881920.304    23598181.621  
                 129944222.319                   129944222.319    24954421.398  
  24960569.379   131168653.534                                                  
  25247021.932   132673978.468                                                  
  27425700.448   144123014.880                                                  
  24336369.741   127888481.344                                                  
  27716979.514   145653748.668                                                  
  24422172.965   128339374.445                                                  
  25741462.962   135272246.506                                                  
 21  9  2  6 49 10.0000000  0 22G 1G 4G 7G 8G 9G14G21G27G30C24C25C26
                                C33C34C35E 2E 3E 5E 8E24E25E36
  23540091.626   123703967.498    23540095.021    96392688.839                  
  23218111.952   122011995.640    23218113.328    95074282.114                  
  20880444.912   109727493.583    20880444.233    85501946.505                  
  20749993.486   109041911.509    20749995.827    84967713.398                  
  21756612.820   114331738.417    21756614.892    89089657.813                  
  24186854.926   127102778.460    24186855.855    99041127.660                  
  22164828.487   116476958.871    22164827.737    90761267.028                  
  22820630.046   119923190.922    22820631.833    93446635.964                  
  23190392.077   121866295.757    23190394.078    94960740.739                  
                 116366844.426                   116366844.426    22347023.493  
                 130918063.132                   130918063.132    25141435.233  
                 120754256.267                   120754256.267    23189584.736  
                 135037760.278                   135037760.278    25932616.906  
                 122879087.980                   122879087.980    23597637.706  
                 129946819.262                   129946819.262    24954920.105  
  24960389.795   131167709.825                                                  
  25247382.833   132675875.093                                                  
  27426244.935   144125876.319                                                  
  24336290.348   127888064.145                                                  
  27717264.686   145655247.238                                                  
  24422255.466   128339807.977                                                  
  25740960.074   135269603.851                                                  
 21  9  2  6 49 11.0000000  0 22G 1G 4G 7G 8G 9G14G21G27G30C24C25C26
                                C33C34C35E 2E 3E 5E 8E24E25E36
  23539463.762   123700668.074    23539467.157    96390117.860                  
  23218770.158   122015454.513    23218771.516    95076977.337                  
  20880085.423   109725604.333    20880084.726    85500474.354                  
  20750342.557   109043745.938    20750344.898    84969142.821                  
  21757032.742   114333945.137    21757034.832    89091377.328                  
  24186453.695   127100670.068    24186454.642    99039484.754                  
  22164479.594   116475125.472    22164478.862    90759838.403                  
  22821254.515   119926472.589    22821256.320    93449193.102                  
  23189825.057   121863316.015    23189827.058    94958418.860                  
                 116366252.613                   116366252.613    22346909.864  
                 130915783.814                   130915783.814    25140997.514  
                 120755607.479                   120755607.479    23189844.212  
                 135039711.227                   135039711.227    25932991.566  
                 122876255.945                   122876255.945    23597093.845  
                 129949416.504                   129949416.504    24955418.883  
  24960210.211   131166766.130                                                  
  25247743.823   132677772.017                                                  
  27426789.440   144128737.682                                                  
  24336211.046   127887647.403                                                  
  27717549.840   145656745.790                                                  
  24422337.967   128340241.530                                                  
  25740457.221   135266961.368                                                  
 21  9  2  6 49 12.0000000  0 22G 1G 4G 7G 8G 9G14G21G27G30C24C25C26
                                C33C34C35E 2E 3E 5E 8E24E25E36
  23538835.898   123697368.677    23538839.293    96387546.895                  
  23219428.381   122018913.508    23219429.739    95079672.653                  
  20879725.952   109723715.375    20879725.255    85499002.437                  
  20750691.736   109045580.863    20750694.076    84970572.633                  
  21757452.753   114336152.306    21757454.844    89093097.196                  
  24186052.499   127098561.772    24186053.464    99037841.922                  
  22164130.773   116473292.477    22164130.058    90758410.091                  
  22821879.037   119929754.491    22821880.860    93451750.426                  
  23189258.037   121860336.344    23189260.056    94956097.032                  
                 116365660.977                   116365660.977    22346796.235  
                 130913504.461                   130913504.461    25140559.794  
                 120756958.910                   120756958.910    23190103.760  
                 135041662.325                   135041662.325    25933366.244  
                 122873424.191                   122873424.191    23596550.037  
                 129952014.048                   129952014.048    24955917.715  
  24960030.645   131165822.446                                                  
  25248104.848   132679669.214                                                  
  27427333.945   144131598.984                                                  
  24336131.814   127887231.102                                                  
  27717834.994   145658244.325                                                  
  24422420.469   128340675.101                                                  
  25739954.423   135264319.038                                                  
 21  9  2  6 49 13.0000000  0 22G 1G 4G 7G 8G 9G14G21G27G30C24C25C26
                                C33C34C35E 2E 3E 5E 8E24E25E36
  23538208.034   123694069.292    23538211.447    96384975.945                  
  23220086.640   122022372.633    23220087.998    95082368.071                  
  20879366.552   109721826.714    20879365.855    85497530.749                  
  20751041.004   109047416.284    20751043.362    84972002.825                  
  21757872.836   114338359.915    21757874.944    89094817.406                  
  24185651.322   127096453.571    24185652.287    99036199.165                  
  22163782.041   116471459.876    22163781.327    90756982.085                  
  22822503.613   119933036.633    22822505.418    93454307.933                  
  23188691.035   121857356.743    23188693.054    94953775.258                  
                 116365069.516                   116365069.516    22346682.660  
                 130911225.071                   130911225.071    25140122.057  
                 120758310.549                   120758310.549    23190363.325  
                 135043613.570                   135043613.570    25933740.957  
                 122870592.722                   122870592.722    23596006.282  
                 129954611.886                   129954611.886    24956416.600  
  24959851.062   131164878.769                                                  
  25248465.928   132681566.720                                                  
  27427878.414   144134460.215                                                  
  24336052.673   127886815.241                                                  
  27718120.183   145659742.874                                                  
  24422502.988   128341108.686                                                  
  25739451.624   135261676.858                                                  
 21  9  2  6 49 14.0000000  0 22G 1G 4G 7G 8G 9G14G21G27G30C24C25C26
                                C33C34C35E 2E 3E 5E 8E24E25E36
  23537580.206   123690769.948    23537583.601    96382405.023                  
  23220744.917   122025831.890    23220746.275    95085063.593                  
  20879007.224   109719938.359    20879006.527    85496059.301                  
  20751390.361   109049252.181    20751392.720    84973433.391                  
  21758293.026   114340567.973    21758295.117    89096537.968                  
  24185250.162   127094345.466    24185251.127    99034556.484                  
  22163433.399   116469627.692    22163432.666    90755554.407                  
  22823128.243   119936319.019    22823130.048    93456865.634                  
  23188124.069   121854377.204    23188126.052    94951453.539                  
                 116364478.227                   116364478.227    22346569.102  
                 130908945.648                   130908945.648    25139684.319  
                 120759662.402                   120759662.402    23190622.944  
                 135045564.964                   135045564.964    25934115.706  
                 122867761.544                   122867761.544    23595462.582  
                 129957210.027                   129957210.027    24956915.539  
  24959671.496   131163935.109                                                  
  25248827.061   132683464.507                                                  
  27428422.883   144137321.375                                                  
  24335973.638   127886399.843                                                  
  27718405.337   145661241.409                                                  
  24422585.471   128341542.298                                                  
  25738948.861   135259034.857                                                  
 21  9  2  6 49 15.0000000  0 22G 1G 4G 7G 8G 9G14G21G27G30C24C25C26
                                C33C34C35E 2E 3E 5E 8E24E25E36
  23536952.360   123687470.601    23536955.755    96379834.106                  
  23221403.194   122029291.259    23221404.552    95087759.203                  
  20878647.914   109718050.294    20878647.235    85494588.081                  
  20751739.825   109051088.573    20751742.166    84974864.349                  
  21758713.305   114342776.485    21758715.378    89098258.887                  
  24184849.021   127092237.458    24184849.986    99032913.878                  
  22163084.828   116467795.897    22163084.077    90754127.035                  
  22823752.908   119939601.640    22823754.695    93459423.520                  
  23187557.085   121851397.747    23187559.104    94949131.882                  
                 116363887.114                   116363887.114    22346455.580  
                 130906666.191                   130906666.191    25139246.582  
                 120761014.469                   120761014.469    23190882.581  
                 135047516.509                   135047516.509    25934490.473  
                 122864930.645                   122864930.645    23594918.934  
                 129959808.470                   129959808.470    24957414.567  
  24959491.912   131162991.469                                                  
  25249188.265   132685362.581                                                  
  27428967.317   144140182.451                                                  
  24335894.675   127885984.883                                                  
  27718690.491   145662739.938                                                  
  24422668.008   128341975.930                                                  
  25738446.134   135256392.999                                                  
 21  9  2  6 49 16.0000000  0 22G 1G 4G 7G 8G 9G14G21G27G30C24C25C26
                                C33C34C35E 2E 3E 5E 8E24E25E36
  23536324.514   123684171.289    23536327.927    96377263.211                  
  23222061.525   122032750.771    23222062.901    95090454.922                  
  20878288.693   109716162.528    20878287.996    85493117.095                  
  20752089.361   109052925.444    20752091.720    84976295.677                  
  21759133.638   114344985.441    21759135.747    89099980.152                  
  24184447.897   127090129.547    24184448.862    99031271.352                  
  22162736.328   116465964.511    22162735.578    90752699.985                  
  22824377.591   119942884.499    22824379.414    93461981.589                  
  23186990.118   121848418.349    23186992.138    94946810.273                  
                 116363296.177                   116363296.177    22346342.094  
                 130904386.698                   130904386.698    25138808.826  
                 120762366.751                   120762366.751    23191142.272  
                 135049468.200                   135049468.200    25934865.276  
                 122862100.031                   122862100.031    23594375.341  
                 129962407.206                   129962407.206    24957913.613  
  24959312.364   131162047.836                                                  
  25249549.505   132687260.940                                                  
  27429511.768   144143043.462                                                  
  24335815.801   127885570.363                                                  
  27718975.663   145664238.449                                                  
  24422750.527   128342409.574                                                  
  25737943.443   135253751.309                                                  
 21  9  2  6 49 17.0000000  0 22G 1G 4G 7G 8G 9G14G21G27G30C24C25C26
                                C33C34C35E 2E 3E 5E 8E24E25E36
  23535696.686   123680872.024    23535700.081    96374692.371                  
  23222719.873   122036210.356    23222721.231    95093150.685                  
  20877929.525   109714275.046    20877928.846    85491646.332                  
  20752439.004   109054762.796    20752441.363    84977727.368                  
  21759554.079   114347194.829    21759556.187    89101701.743                  
  24184046.809   127088021.724    24184047.738    99029628.890                  
  22162387.900   116464133.542    22162387.168    90751273.258                  
  22825002.364   119946167.583    22825004.186    93464539.823                  
  23186423.188   121845439.059    23186425.171    94944488.769                  
                 116362705.413                   116362705.413    22346228.661  
                 130902107.177                   130902107.177    25138371.053  
                 120763719.243                   120763719.243    23191401.998  
                 135051420.038                   135051420.038    25935240.097  
                 122859269.699                   122859269.699    23593831.819  
                 129965006.245                   129965006.245    24958412.713  
  24959132.799   131161104.208                                                  
  25249910.799   132689159.602                                                  
  27430056.166   144145904.402                                                  
  24335736.998   127885156.227                                                  
  27719260.799   145665736.914                                                  
  24422833.047   128342843.292                                                  
  25737440.787   135251109.525                                                  
 21  9  2  6 49 18.0000000  0 22G 1G 4G 7G 8G 9G14G21G27G30C24C25C26
                                C33C34C35E 2E 3E 5E 8E24E25E36
  23535068.858   123677572.762    23535072.253    96372121.515                  
  23223378.239   122039670.121    23223379.597    95095846.601                  
  20877570.394   109712387.870    20877569.715    85490175.801                  
  20752788.737   109056600.668    20752791.078    84979159.473                  
  21759974.608   114349404.677    21759976.699    89103423.703                  
  24183645.721   127085914.009    24183646.668    99027986.520                  
  22162039.544   116462302.965    22162038.829    90749846.837                  
  22825627.154   119949450.926    22825628.977    93467098.274                  
  23185856.240   121842459.802    23185858.259    94942167.270                  
                 116362114.825                   116362114.825    22346115.247  
                 130899827.618                   130899827.618    25137933.298  
                 120765071.944                   120765071.944    23191661.778  
                 135053372.023                   135053372.023    25935614.953  
                 122856439.655                   122856439.655    23593288.333  
                 129967605.581                   129967605.581    24958911.902  
  24958953.233   131160160.598                                                  
  25250272.164   132691058.554                                                  
  27430600.581   144148765.260                                                  
  24335658.303   127884742.605                                                  
  27719545.953   145667235.431                                                  
  24422915.584   128343276.986                                                  
  25736938.132   135248468.151                                                  
 21  9  2  6 49 19.0000000  0 22G 1G 4G 7G 8G 9G14G21G27G30C24C25C26
                                C33C34C35E 2E 3E 5E 8E24E25E36
  23534441.048   123674273.521    23534444.443    96369550.676                  
  23224036.641   122043129.997    23224037.999    95098542.610                  
  20877211.334   109710500.988    20877210.655    85488705.503                  
  20753138.577   109058439.038    20753140.918    84980591.970                  
  21760395.191   114351614.977    21760397.300    89105146.012                  
  24183244.633   127083806.383    24183245.598    99026344.211                  
  22161691.276   116460472.788    22161690.544    90748420.727                  
  22826251.998   119952734.512    22826253.821    93469656.911                  
  23185289.327   121839480.618    23185291.346    94939845.828                  
                 116361524.410                   116361524.410    22346001.868  
                 130897548.024                   130897548.024    25137495.525  
                 120766424.864                   120766424.864    23191921.593  
                 135055324.161                   135055324.161    25935989.863  
                 122853609.899                   122853609.899    23592744.900  
                 129970205.219                   129970205.219    24959411.144  
  24958773.685   131159216.997                                                  
  25250633.583   132692957.776                                                  
  27431144.961   144151626.039                                                  
  24335579.662   127884329.437                                                  
  27719831.124   145668733.922                                                  
  24422998.103   128343710.694                                                  
  25736435.512   135245826.931                                                  
 21  9  2  6 49 20.0000000  0 22G 1G 4G 7G 8G 9G14G21G27G30C24C25C26
                                C33C34C35E 2E 3E 5E 8E24E25E36
  23533813.202   123670974.297    23533816.597    96366979.856                  
  23224695.061   122046590.005    23224696.419    95101238.718                  
  20876852.345   109708614.413    20876851.648    85487235.445                  
  20753488.506   109060277.884    20753490.847    84982024.837                  
  21760815.900   114353825.720    21760818.008    89106868.671                  
  24182843.598   127081698.859    24182844.545    99024701.985                  
  22161343.081   116458643.018    22161342.348    90746994.930                  
  22826876.896   119956018.327    22826878.701    93472215.730                  
  23184722.414   121836501.495    23184724.416    94937524.434                  
                 116360934.171                   116360934.171    22345888.507  
                 130895268.395                   130895268.395    25137057.734  
                 120767777.992                   120767777.992    23192181.445  
                 135057276.442                   135057276.442    25936364.773  
                 122850780.425                   122850780.425    23592201.539  
                 129972805.156                   129972805.156    24959910.423  
  24958594.119   131158273.431                                                  
  25250995.038   132694857.300                                                  
  27431689.341   144154486.766                                                  
  24335501.145   127883916.728                                                  
  27720116.278   145670232.415                                                  
  24423080.640   128344144.429                                                  
  25735932.964   135243185.886                                                  
 21  9  2  6 49 21.0000000  0 22G 1G 4G 7G 8G 9G14G21G27G30C24C25C26
                                C33C34C35E 2E 3E 5E 8E24E25E36
  23533185.391   123667675.093    23533188.804    96364409.046                  
  23225353.499   122050050.140    23225354.857    95103934.929                  
  20876493.392   109706728.129    20876492.695    85485765.613                  
  20753838.506   109062117.225    20753840.865    84983458.090                  
  21761236.679   114356036.912    21761238.752    89108591.676                  
  24182442.564   127079591.438    24182443.529    99023059.841                  
  22160994.956   116456813.645    22160994.241    90745569.444                  
  22827501.811   119959302.385    22827503.634    93474774.734                  
  23184155.520   121833522.452    23184157.539    94935203.101                  
                 116360344.108                   116360344.108    22345775.199  
                 130892988.734                   130892988.734    25136619.960  
                 120769131.336                   120769131.336    23192441.332  
                 135059228.871                   135059228.871    25936739.719  
                 122847951.239                   122847951.239    23591658.213  
                 129975405.387                   129975405.387    24960409.773  
  24958414.553   131157329.862                                                  
  25251356.564   132696757.118                                                  
  27432233.703   144157347.413                                                  
  24335422.682   127883504.458                                                  
  27720401.414   145671730.894                                                  
  24423163.177   128344578.173                                                  
  25735430.397   135240544.997                                                  
 21  9  2  6 49 22.0000000  0 22G 1G 4G 7G 8G 9G14G21G27G30C24C25C26
                                C33C34C35E 2E 3E 5E 8E24E25E36
  23532557.581   123664375.914    23532560.976    96361838.257                  
  23226011.955   122053510.406    23226013.313    95106631.238                  
  20876134.493   109704842.145    20876133.814    85484296.015                  
  20754188.614   109063957.072    20754190.955    84984891.734                  
  21761657.549   114358248.535    21761659.621    89110315.018                  
  24182041.565   127077484.102    24182042.494    99021417.761                  
  22160646.921   116454984.677    22160646.189    90744144.274                  
  22828126.816   119962586.688    22828128.621    93477333.933                  
  23183588.643   121830543.476    23183590.662    94932881.819                  
                 116359754.223                   116359754.223    22345661.892  
                 130890709.038                   130890709.038    25136182.152  
                 120770484.895                   120770484.895    23192701.273  
                 135061181.448                   135061181.448    25937114.682  
                 122845122.335                   122845122.335    23591114.959  
                 129978005.921                   129978005.921    24960909.176  
  24958235.005   131156386.313                                                  
  25251718.143   132698657.226                                                  
  27432778.065   144160207.989                                                  
  24335344.327   127883092.629                                                  
  27720686.586   145673229.365                                                  
  24423245.714   128345011.952                                                  
  25734927.902   135237904.269                                                  
 21  9  2  6 49 23.0000000  0 22G 1G 4G 7G 8G 9G14G21G27G30C24C25C26
                                C33C34C35E 2E 3E 5E 8E24E25E36
  23531929.753   123661076.751    23531933.166    96359267.483                  
  23226670.464   122056970.793    23226671.822    95109327.643                  
  20875775.665   109702956.453    20875774.986    85482826.649                  
  20754538.811   109065797.411    20754541.188    84986325.765                  
  21762078.471   114360460.604    21762080.580    89112038.711                  
  24181640.566   127075376.868    24181641.495    99019775.761                  
  22160298.958   116453156.110    22160298.225    90742719.417                  
  22828751.839   119965871.233    22828753.661    93479893.317                  
  23183021.784   121827564.565    23183023.785    94930560.594                  
                 116359164.507                   116359164.507    22345548.656  
                 130888429.313                   130888429.313    25135744.378  
                 120771838.663                   120771838.663    23192961.267  
                 135063134.177                   135063134.177    25937489.682  
                 122842293.719                   122842293.719    23590571.759  
                 129980606.754                   129980606.754    24961408.633  
  24958055.457   131155442.771                                                  
  25252079.777   132700557.613                                                  
  27433322.409   144163068.484                                                  
  24335266.025   127882681.243                                                  
  27720971.722   145674727.829                                                  
  24423328.287   128345445.742                                                  
  25734425.426   135235263.694                                                  
 21  9  2  6 49 24.0000000  0 22G 1G 4G 7G 8G 9G14G21G27G30C24C25C26
                                C33C34C35E 2E 3E 5E 8E24E25E36
  23531301.961   123657777.621    23531305.356    96356696.735                  
  23227328.973   122060431.300    23227330.331    95112024.145                  
  20875416.873   109701071.058    20875416.194    85481357.508                  
  20754889.116   109067638.249    20754891.474    84987760.189                  
  21762499.501   114362673.140    21762501.592    89113762.761                  
  24181239.585   127073269.726    24181240.532    99018133.832                  
  22159951.066   116451327.949    22159950.333    90741294.878                  
  22829376.915   119969156.028    22829378.720    93482452.895                  
  23182454.925   121824585.721    23182456.926    94928239.417                  
                 116358574.973                   116358574.973    22345435.437  
                 130886149.550                   130886149.550    25135306.552  
                 120773192.650                   120773192.650    23193221.279  
                 135065087.048                   135065087.048    25937864.717  
                 122839465.387                   122839465.387    23590028.594  
                 129983207.884                   129983207.884    24961908.162  
  24957875.927   131154499.246                                                  
  25252441.464   132702458.293                                                  
  27433866.717   144165928.917                                                  
  24335187.812   127882270.311                                                  
  27721256.876   145676226.293                                                  
  24423410.824   128345879.560                                                  
  25733922.966   135232623.289                                                  
 21  9  2  6 49 25.0000000  0 22G 1G 4G 7G 8G 9G14G21G27G30C24C25C26
                                C33C34C35E 2E 3E 5E 8E24E25E36
  23530674.168   123654478.521    23530677.563    96354126.005                  
  23227987.500   122063891.950    23227988.876    95114720.751                  
  20875058.152   109699185.969    20875057.473    85479888.605                  
  20755239.527   109069479.566    20755241.868    84989194.981                  
  21762920.620   114364886.116    21762922.711    89115487.160                  
  24180838.622   127071162.675    24180839.587    99016491.976                  
  22159603.263   116449500.193    22159602.513    90739870.653                  
  22830002.045   119972441.047    22830003.832    93485012.652                  
  23181888.083   121821606.960    23181890.085    94925918.305                  
                 116357985.609                   116357985.609    22345322.255  
                 130883869.753                   130883869.753    25134868.760  
                 120774546.842                   120774546.842    23193481.345  
                 135067040.067                   135067040.067    25938239.787  
                 122836637.344                   122836637.344    23589485.501  
                 129985809.310                   129985809.310    24962407.744  
  24957696.361   131153555.739                                                  
  25252803.204   132704359.261                                                  
  27434411.025   144168789.273                                                  
  24335109.724   127881859.835                                                  
  27721542.012   145677724.743                                                  
  24423493.378   128346313.385                                                  
  25733420.543   135229983.046                                                  
 21  9  2  6 49 26.0000000  0 22G 1G 4G 7G 8G 9G14G21G27G30C24C25C26
                                C33C34C35E 2E 3E 5E 8E24E25E36
  23530046.358   123651179.429    23530049.753    96351555.284                  
  23228646.063   122067352.704    23228647.439    95117417.442                  
  20874699.503   109697301.167    20874698.824    85478419.930                  
  20755589.992   109071321.384    20755592.333    84990630.159                  
  21763341.811   114367099.536    21763343.920    89117211.902                  
  24180437.677   127069055.723    24180438.642    99014850.195                  
  22159255.514   116447672.835    22159254.799    90738446.738                  
  22830627.193   119975726.305    22830629.015    93487572.594                  
  23181321.260   121818628.257    23181323.262    94923597.237                  
                 116357396.421                   116357396.421    22345209.126  
                 130881589.923                   130881589.923    25134430.934  
                 120775901.253                   120775901.253    23193741.446  
                 135068993.235                   135068993.235    25938614.858  
                 122833809.583                   122833809.583    23588942.461  
                 129988411.036                   129988411.036    24962907.379  
  24957516.813   131152612.237                                                  
  25253164.998   132706260.517                                                  
  27434955.316   144171649.550                                                  
  24335031.708   127881449.793                                                  
  27721827.166   145679223.181                                                  
  24423575.933   128346747.235                                                  
  25732918.138   135227342.966                                                  
 21  9  2  6 49 27.0000000  0 22G 1G 4G 7G 8G 9G14G21G27G30C24C25C26
                                C33C34C35E 2E 3E 5E 8E24E25E36
  23529418.583   123647880.375    23529421.978    96348984.593                  
  23229304.662   122070813.589    23229306.020    95120114.238                  
  20874340.907   109695416.676    20874340.193    85476951.496                  
  20755940.582   109073163.687    20755942.923    84992065.722                  
  21763763.091   114369313.398    21763765.200    89118936.992                  
  24180036.768   127066948.874    24180037.715    99013208.495                  
  22158907.854   116445845.880    22158907.140    90737023.136                  
  22831252.394   119979011.808    22831254.217    93490132.723                  
  23180754.437   121815649.622    23180756.438    94921276.223                  
                 116356807.409                   116356807.409    22345095.997  
                 130879310.059                   130879310.059    25133993.125  
                 120777255.874                   120777255.874    23194001.583  
                 135070946.551                   135070946.551    25938989.983  
                 122830982.109                   122830982.109    23588399.475  
                 129991013.064                   129991013.064    24963407.069  
  24957337.283   131151668.753                                                  
  25253526.864   132708162.066                                                  
  27435499.606   144174509.760                                                  
  24334953.746   127881040.208                                                  
  27722112.302   145680721.616                                                  
  24423658.506   128347181.111                                                  
  25732415.786   135224703.034                                                  
 21  9  2  6 49 28.0000000  0 22G 1G 4G 7G 8G 9G14G21G27G30C24C25C26
                                C33C34C35E 2E 3E 5E 8E24E25E36
  23528790.809   123644581.339    23528794.204    96346413.918                  
  23229963.260   122074274.604    23229964.618    95122811.133                  
  20873982.347   109693532.484    20873981.668    85475483.292                  
  20756291.244   109075006.456    20756293.603    84993501.648                  
  21764184.479   114371527.715    21764186.587    89120662.434                  
  24179635.858   127064842.116    24179636.805    99011566.868                  
  22158560.284   116444019.335    22158559.551    90735599.855                  
  22831877.667   119982297.542    22831879.472    93492693.036                  
  23180187.632   121812671.071    23180189.633    94918955.272                  
                 116356218.573                   116356218.573    22344982.922  
                 130877030.159                   130877030.159    25133555.280  
                 120778610.712                   120778610.712    23194261.756  
                 135072900.012                   135072900.012    25939365.125  
                 122828154.918                   122828154.918    23587856.543  
                 129993615.383                   129993615.383    24963906.812  
  24957157.753   131150725.290                                                  
  25253888.765   132710063.902                                                  
  27436043.861   144177369.900                                                  
  24334875.908   127880631.067                                                  
  27722397.456   145682220.054                                                  
  24423741.079   128347615.007                                                  
  25731913.452   135222063.269                                                  
 21  9  2  6 49 29.0000000  0 22G 1G 4G 7G 8G 9G14G21G27G30C24C25C26
                                C33C34C35E 2E 3E 5E 8E24E25E36
  23528163.016   123641282.336    23528166.412    96343843.266                  
  23230621.895   122077735.742    23230623.253    95125508.121                  
  20873623.841   109691648.586    20873623.162    85474015.319                  
  20756641.995   109076849.718    20756644.354    84994937.954                  
  21764605.919   114373742.461    21764608.028    89122388.207                  
  24179234.985   127062735.464    24179235.914    99009925.321                  
  22158212.785   116442193.199    22158212.035    90734176.891                  
  22832502.958   119985583.523    22832504.780    93495253.540                  
  23179620.844   121809692.574    23179622.863    94916634.368                  
                 116355629.915                   116355629.915    22344869.883  
                 130874750.228                   130874750.228    25133117.435  
                 120779965.757                   120779965.757    23194521.983  
                 135074853.622                   135074853.622    25939740.285  
                 122825328.017                   122825328.017    23587313.664  
                 129996218.007                   129996218.007    24964406.626  
  24956978.223   131149781.827                                                  
  25254250.720   132711966.038                                                  
  27436588.116   144180229.969                                                  
  24334798.124   127880222.369                                                  
  27722682.574   145683718.457                                                  
  24423823.634   128348048.921                                                  
  25731411.154   135219423.671                                                  
