     2.11           OBSERVATION DATA    M (MIXED)           RINEX VERSION / TYPE
CONVBIN 2.4.3                           20210901 005044 UTC PGM / RUN BY / DATE 
log: logs/21_08_31_20_49_03_mada_VZ.rtcm                    COMMENT             
format: RTCM 3, station ID: 387                             COMMENT             
0387                                                        MARKER NAME         
                                                            MARKER NUMBER       
                                                            OBSERVER / AGENCY   
                    LEICA GR50          4.40/7.701          REC # / TYPE / VERS 
                    GPPNULLANTENNA                          ANT # / TYPE        
  1518334.5958 -4512851.7454  4229505.7673                  APPROX POSITION XYZ 
        0.0000        0.0000        0.0000                  ANTENNA: DELTA H/E/N
     1     1                                                WAVELENGTH FACT L1/2
     7    C1    L1    C2    L2    P2    C5    L5            # / TYPES OF OBSERV 
  2021     8    31    20    49   12.0000000     GPS         TIME OF FIRST OBS   
  2021     8    31    21    19   40.0000000     GPS         TIME OF LAST OBS    
                                                            END OF HEADER       
 21  8 31 20 49 12.0000000  0 19G10G15G18G23G24G32R 4R 5R14R15R20R21
                                E 3E 5E 9E15E24E31E36
  21968702.701   115446334.893    21968702.755    89958194.259    21968702.540  
  21968701.307    86209935.295  
  22105208.742   116163688.382    22105207.348    90517170.443    22105206.759  
                                
  21194995.021   111380461.941    21194993.734    86789974.592    21194993.323  
  21194997.826    83173741.018  
  20270491.495   106522184.322    20270489.762    83004312.421    20270489.423  
  20270493.729    79545811.951  
  20327722.241   106822946.646    20327722.706    83238682.423    20327722.152  
  20327723.313    79770414.619  
  23812748.132   125136855.765    23812749.901    97509248.731    23812749.275  
  23812748.954    93446366.025  
  22162344.979   118678379.381    22162345.533    92305418.872    22162345.568  
                                
  19825351.511   105977906.716    19825352.440    82427282.403    19825352.333  
                                
  21635664.408   115330298.561    21635667.553    89701374.297    21635667.660  
                                
  21216102.715   113372453.731    21216104.734    88178608.635    21216104.573  
                                
  21219582.225   113470649.309    21219586.031    88254960.606    21219584.976  
                                
  21407902.106   114558029.204    21407902.535    89100694.124    21407902.464  
                                
  25950962.228   136373255.982                                                  
  25950965.659   101837194.033  
  23468528.083   123327991.681                                                  
  23468530.638    92095615.182  
  23687703.229   124479753.959                                                  
  23687706.213    92955685.506  
  25677013.952   134933632.219                                                  
  25677017.758   100762149.157  
  27350803.940   143729462.873                                                  
  27350807.299   107330467.608  
  26991560.974   141841622.567                                                  
  26991565.424   105920727.209  
  26483410.526   139171256.956                                                  
  26483415.691   103926601.196  
 21  8 31 20 49 13.0000000  0 19G10G15G18G23G24G32R 4R 5R14R15R20R21
                                E 3E 5E 9E15E24E31E36
  21968235.551   115443879.987    21968235.623    89956281.344    21968235.408  
  21968234.158    86208102.081  
  22105740.667   116166483.682    22105739.273    90519348.598    22105738.702  
                                
  21195456.292   111382885.901    21195455.005    86791863.390    21195454.576  
  21195459.079    83175551.112  
  20270370.665   106521549.366    20270368.932    83003817.652    20270368.592  
  20270372.899    79545337.791  
  20327679.784   106822723.540    20327680.249    83238508.576    20327679.695  
  20327680.857    79770248.014  
  23812220.817   125134084.730    23812222.586    97507089.490    23812221.961  
  23812221.657    93444296.737  
  22162823.118   118680939.759    22162823.672    92307410.277    22162823.690  
                                
  19825411.480   105978227.299    19825412.409    82427531.746    19825412.319  
                                
  21635844.027   115331256.001    21635847.190    89702118.970    21635847.297  
                                
  21215587.712   113369701.800    21215589.731    88176468.247    21215589.570  
                                
  21220191.665   113473908.293    21220195.472    88257495.369    21220194.417  
                                
  21407719.646   114557052.797    21407720.075    89099934.696    21407719.985  
                                
  25950604.973   136371378.496                                                  
  25950608.386   101835792.016  
  23468531.156   123328007.779                                                  
  23468533.694    92095627.201  
  23688062.557   124481642.300                                                  
  23688065.541    92957095.628  
  25676717.059   134932072.117                                                  
  25676720.865   100760984.139  
  27350318.260   143726910.563                                                  
  27350321.619   107328561.660  
  26991400.671   141840780.137                                                  
  26991405.121   105920098.113  
  26484007.942   139174396.352                                                  
  26484013.088   103928945.559  
 21  8 31 20 49 14.0000000  0 19G10G15G18G23G24G32R 4R 5R14R15R20R21
                                E 3E 5E 9E15E24E31E36
  21967768.419   115441425.171    21967768.491    89954368.501    21967768.276  
  21967767.043    86206268.939  
  22106272.592   116169279.058    22106271.198    90521526.816    22106270.627  
                                
  21195917.634   111385310.266    21195916.348    86793752.503    21195915.919  
  21195920.422    83177361.518  
  20270249.906   106520914.713    20270248.173    83003323.117    20270247.833  
  20270252.140    79544863.861  
  20327637.453   106822501.059    20327637.917    83238335.217    20327637.363  
  20327638.525    79770081.879  
  23811693.520   125131313.760    23811695.289    97504930.297    23811694.664  
  23811694.342    93442227.506  
  22163301.257   118683500.185    22163301.811    92309401.715    22163301.829  
                                
  19825471.484   105978548.074    19825472.413    82427781.240    19825472.324  
                                
  21636023.790   115332214.232    21636026.934    89702864.259    21636027.042  
                                
  21215072.834   113366950.427    21215074.853    88174328.292    21215074.674  
                                
  21220801.214   113477167.800    21220805.020    88260030.541    21220803.965  
                                
  21407537.346   114556077.232    21407537.775    89099175.921    21407537.686  
                                
  25950247.699   136369501.065                                                  
  25950251.130   101834390.032  
  23468534.230   123328023.977                                                  
  23468536.785    92095639.297  
  23688421.885   124483530.600                                                  
  23688424.869    92958505.725  
  25676420.254   134930512.334                                                  
  25676424.060   100759819.375  
  27349832.562   143724358.309                                                  
  27349835.921   107326655.763  
  26991240.422   141839938.050                                                  
  26991244.871   105919469.295  
  26484605.357   139177535.810                                                  
  26484610.521   103931289.937  
 21  8 31 20 49 15.0000000  0 19G10G15G18G23G24G32R 4R 5R14R15R20R21
                                E 3E 5E 9E15E24E31E36
  21967301.287   115438970.426    21967301.359    89952455.715    21967301.144  
  21967299.894    86204435.854  
  22106804.571   116172074.507    22106803.159    90523705.084    22106802.587  
                                
  21196379.048   111387735.059    21196377.761    86795641.952    21196377.333  
  21196381.853    83179172.241  
  20270129.183   106520280.382    20270127.450    83002828.831    20270127.128  
  20270131.417    79544390.168  
  20327595.228   106822279.197    20327595.693    83238162.337    20327595.157  
  20327596.300    79769916.199  
  23811166.241   125128542.863    23811168.010    97502771.159    23811167.384  
  23811167.081    93440158.334  
  22163779.415   118686060.662    22163779.969    92311393.202    22163780.004  
                                
  19825531.542   105978869.037    19825532.471    82428030.875    19825532.363  
                                
  21636203.713   115333173.280    21636206.876    89703610.187    21636206.965  
                                
  21214558.045   113364199.609    21214560.082    88172188.770    21214559.903  
                                
  21221410.851   113480427.764    21221414.657    88262566.068    21221413.603  
                                
  21407355.207   114555102.489    21407355.636    89098417.788    21407355.547  
                                
  25949890.444   136367623.646                                                  
  25949893.875   101832988.070  
  23468537.339   123328040.264                                                  
  23468539.876    92095651.461  
  23688781.231   124485418.868                                                  
  23688784.197    92959915.799  
  25676123.485   134928952.889                                                  
  25676127.291   100758654.852  
  27349346.900   143721806.105                                                  
  27349350.259   107324749.894  
  26991080.244   141839096.309                                                  
  26991084.693   105918840.718  
  26485202.772   139180675.259                                                  
  26485207.918   103933634.338  
 21  8 31 20 49 16.0000000  0 19G10G15G18G23G24G32R 4R 5R14R15R20R21
                                E 3E 5E 9E15E24E31E36
  21966834.191   115436515.871    21966834.263    89950543.072    21966834.048  
  21966832.815    86202602.908  
  22107336.550   116174870.127    22107335.156    90525883.491    22107334.566  
                                
  21196840.569   111390160.378    21196839.283    86797531.809    21196838.872  
  21196843.375    83180983.353  
  20270008.549   106519646.444    20270006.816    83002334.851    20270006.476  
  20270010.783    79543916.778  
  20327553.147   106822058.054    20327553.611    83237990.018    20327553.075  
  20327554.219    79769751.064  
  23810638.980   125125772.122    23810640.731    97500612.144    23810640.105  
  23810639.802    93438089.296  
  22164257.590   118688621.244    22164258.144    92313384.766    22164258.161  
                                
  19825591.635   105979190.280    19825592.564    82428280.733    19825592.457  
                                
  21636383.779   115334133.190    21636386.942    89704356.782    21636387.049  
                                
  21214043.399   113361449.421    21214045.418    88170049.737    21214045.240  
                                
  21222020.596   113483688.352    21222024.402    88265102.081    21222023.348  
                                
  21407173.193   114554128.621    21407173.622    89097660.336    21407173.533  
                                
  25949533.206   136365746.385                                                  
  25949536.637   101831586.210  
  23468540.466   123328056.746                                                  
  23468543.003    92095663.770  
  23689140.559   124487307.218                                                  
  23689143.543    92961325.924  
  25675826.824   134927393.852                                                  
  25675830.630   100757490.631  
  27348861.273   143719254.065                                                  
  27348864.633   107322844.150  
  26990920.155   141838255.012                                                  
  26990924.587   105918212.479  
  26485800.222   139183814.861                                                  
  26485805.387   103935978.841  
 21  8 31 20 49 17.0000000  0 19G10G15G18G23G24G32R 4R 5R14R15R20R21
                                E 3E 5E 9E15E24E31E36
  21966367.184   115434061.674    21966367.256    89948630.714    21966367.041  
  21966365.808    86200770.233  
  22107868.600   116177666.099    22107867.206    90528062.172    22107866.634  
                                
  21197302.233   111392586.395    21197300.947    86799422.209    21197300.518  
  21197305.021    83182794.981  
  20269888.041   106519013.108    20269886.307    83001841.342    20269885.968  
  20269890.274    79543443.827  
  20327511.244   106821837.815    20327511.708    83237818.403    20327511.172  
  20327512.316    79769586.593  
  23810111.790   125123001.759    23810113.559    97498453.420    23810112.933  
  23810112.612    93436020.510  
  22164735.800   118691182.113    22164736.354    92315376.550    22164736.390  
                                
  19825651.800   105979512.031    19825652.729    82428530.984    19825652.640  
                                
  21636564.042   115335094.124    21636567.187    89705104.175    21636567.294  
                                
  21213528.896   113358700.044    21213530.916    88167911.335    21213530.737  
                                
  21222630.483   113486949.728    21222634.289    88267638.705    21222633.235  
                                
  21406991.412   114553155.833    21406991.841    89096903.724    21406991.751  
                                
  25949176.040   136363869.412                                                  
  25949179.471   101830184.579  
  23468543.683   123328073.611                                                  
  23468546.220    92095676.361  
  23689499.941   124489195.796                                                  
  23689502.925    92962736.226  
  25675530.252   134925835.413                                                  
  25675534.058   100756326.862  
  27348375.665   143716702.327                                                  
  27348379.024   107320938.642  
  26990760.192   141837414.345                                                  
  26990764.641   105917584.701  
  26486397.727   139186954.741                                                  
  26486402.873   103938323.557  
 21  8 31 20 49 18.0000000  0 19G10G15G18G23G24G32R 4R 5R14R15R20R21
                                E 3E 5E 9E15E24E31E36
  21965900.195   115431607.686    21965900.267    89946718.513    21965900.052  
  21965898.801    86198937.709  
  22108400.704   116180462.282    22108399.310    90530241.012    22108398.738  
                                
  21197763.987   111395012.928    21197762.682    86801313.012    21197762.271  
  21197766.774    83184607.009  
  20269767.585   106518380.186    20269765.852    83001348.156    20269765.531  
  20269769.819    79542971.195  
  20327469.466   106821618.300    20327469.949    83237647.353    20327469.395  
  20327470.556    79769422.679  
  23809584.636   125120231.572    23809586.405    97496294.835    23809585.779  
  23809585.458    93433951.862  
  22165214.047   118693743.087    22165214.601    92317368.416    22165214.619  
                                
  19825712.054   105979834.098    19825712.984    82428781.483    19825712.876  
                                
  21636744.465   115336055.889    21636747.628    89705852.215    21636747.735  
                                
  21213014.501   113355951.318    21213016.520    88165773.437    21213016.359  
                                
  21223240.496   113490211.695    21223244.302    88270175.790    21223243.248  
                                
  21406809.791   114552183.976    21406810.220    89096147.831    21406810.130  
                                
  25948818.892   136361992.592                                                  
  25948822.305   101828783.057  
  23468546.917   123328090.666                                                  
  23468549.472    92095689.101  
  23689859.341   124491084.463                                                  
  23689862.325    92964146.592  
  25675233.787   134924277.418                                                  
  25675237.593   100755163.426  
  27347890.127   143714150.751                                                  
  27347893.469   107319033.264  
  26990600.300   141836574.119                                                  
  26990604.749   105916957.262  
  26486995.249   139190094.780                                                  
  26487000.413   103940668.387  
 21  8 31 20 49 19.0000000  0 19G10G15G18G23G24G32R 4R 5R14R15R20R21
                                E 3E 5E 9E15E24E31E36
  21965433.260   115429153.868    21965433.331    89944806.449    21965433.117  
  21965431.866    86197105.313  
  22108932.825   116183258.606    22108931.431    90532419.966    22108930.842  
                                
  21198225.847   111397439.996    21198224.543    86803204.236    21198224.132  
  21198228.635    83186419.425  
  20269647.220   106517747.677    20269645.486    83000855.292    20269645.147  
  20269649.453    79542498.867  
  20327427.831   106821399.508    20327428.296    83237476.865    20327427.742  
  20327428.903    79769259.286  
  23809057.535   125117461.561    23809059.304    97494136.392    23809058.679  
  23809058.357    93431883.345  
  22165692.329   118696304.180    22165692.865    92319360.378    22165692.901  
                                
  19825772.362   105980156.461    19825773.292    82429032.209    19825773.184  
                                
  21636925.049   115337018.532    21636928.212    89706600.939    21636928.319  
                                
  21212500.230   113353203.225    21212502.250    88163636.031    21212502.071  
                                
  21223850.616   113493474.256    21223854.404    88272713.336    21223853.350  
                                
  21406628.349   114551213.043    21406628.778    89095392.668    21406628.706  
                                
  25948461.762   136360115.898                                                  
  25948465.193   101827381.639  
  23468550.205   123328107.932                                                  
  23468552.742    92095701.988  
  23690218.758   124492973.192                                                  
  23690221.742    92965557.006  
  25674937.393   134922719.839                                                  
  25674941.199   100754000.295  
  27347404.608   143711599.354                                                  
  27347407.968   107317127.985  
  26990440.479   141835734.338                                                  
  26990444.929   105916330.144  
  26487592.807   139193234.927                                                  
  26487597.989   103943013.306  
 21  8 31 20 49 20.0000000  0 19G10G15G18G23G24G32R 4R 5R14R15R20R21
                                E 3E 5E 9E15E24E31E36
  21964966.342   115426700.220    21964966.414    89942894.516    21964966.199  
  21964964.966    86195273.043  
  22109464.983   116186055.103    22109463.589    90534599.054    22109463.017  
                                
  21198687.797   111399867.554    21198686.493    86805095.837    21198686.082  
  21198690.585    83188232.214  
  20269526.943   106517115.559    20269525.210    83000362.733    20269524.871  
  20269529.177    79542026.833  
  20327386.322   106821181.405    20327386.786    83237306.913    20327386.250  
  20327387.394    79769096.422  
  23808530.435   125114691.688    23808532.204    97491978.052    23808531.578  
  23808531.257    93429814.945  
  22166170.611   118698865.410    22166171.165    92321352.446    22166171.183  
                                
  19825832.706   105980479.083    19825833.635    82429283.135    19825833.546  
                                
  21637105.795   115337982.033    21637108.957    89707350.331    21637109.065  
                                
  21211986.085   113350455.788    21211988.104    88161499.135    21211987.926  
                                
  21224460.825   113496737.388    21224464.631    88275251.330    21224463.577  
                                
  21406447.068   114550242.979    21406447.496    89094638.177    21406447.425  
                                
  25948104.667   136358239.330                                                  
  25948108.080   101825980.301  
  23468553.546   123328125.363                                                  
  23468556.084    92095715.007  
  23690578.194   124494861.970                                                  
  23690581.160    92966967.460  
  25674641.071   134921162.656                                                  
  25674644.859   100752837.464  
  27346919.143   143709048.092                                                  
  27346922.502   107315222.828  
  26990280.766   141834894.992                                                  
  26990285.215   105915703.358  
  26488190.383   139196375.189                                                  
  26488195.547   103945358.296  
 21  8 31 20 49 21.0000000  0 19G10G15G18G23G24G32R 4R 5R14R15R20R21
                                E 3E 5E 9E15E24E31E36
  21964499.442   115424246.634    21964499.514    89940982.633    21964499.299  
  21964498.049    86193440.815  
  22109997.140   116188851.644    22109995.746    90536778.175    22109995.174  
                                
  21199149.837   111402295.516    21199148.550    86806987.756    21199148.121  
  21199152.624    83190045.299  
  20269406.703   106516483.722    20269404.969    82999870.395    20269404.648  
  20269408.936    79541555.005  
  20327344.937   106820963.895    20327345.401    83237137.424    20327344.865  
  20327346.009    79768933.995  
  23808003.352   125111921.874    23808005.121    97489819.760    23808004.496  
  23808004.174    93427746.572  
  22166648.894   118701426.659    22166649.448    92323344.530    22166649.483  
                                
  19825893.103   105980801.870    19825894.033    82429534.192    19825893.925  
                                
  21637286.683   115338946.298    21637289.846    89708100.315    21637289.953  
                                
  21211472.047   113347708.885    21211474.066    88159362.657    21211473.887  
                                
  21225071.142   113500000.977    21225074.948    88277789.674    21225073.893  
                                
  21406265.929   114549273.681    21406266.358    89093884.278    21406266.269  
                                
  25947747.555   136356362.770                                                  
  25947750.986   101824578.972  
  23468556.870   123328142.858                                                  
  23468559.407    92095728.071  
  23690937.593   124496750.683                                                  
  23690940.577    92968377.860  
  25674344.803   134919605.767                                                  
  25674348.591   100751674.862  
  27346433.641   143706496.835                                                  
  27346437.001   107313317.660  
  26990121.088   141834055.939                                                  
  26990125.538   105915076.803  
  26488787.941   139199515.439                                                  
  26488793.123   103947703.288  
 21  8 31 20 49 22.0000000  0 19G10G15G18G23G24G32R 4R 5R14R15R20R21
                                E 3E 5E 9E15E24E31E36
  21964032.578   115421793.291    21964032.650    89939070.937    21964032.453  
  21964031.203    86191608.774  
  22110529.351   116191648.426    22110527.957    90538957.483    22110527.385  
                                
  21199611.965   111404724.051    21199610.679    86808880.121    21199610.268  
  21199614.771    83191858.813  
  20269286.569   106515852.355    20269284.836    82999378.420    20269284.514  
  20269288.803    79541083.531  
  20327303.695   106820747.165    20327304.160    83236968.547    20327303.624  
  20327304.767    79768772.152  
  23807476.323   125109152.280    23807478.092    97487661.634    23807477.467  
  23807477.145    93425678.380  
  22167127.230   118703988.066    22167127.766    92325336.734    22167127.801  
                                
  19825953.554   105981125.023    19825954.483    82429785.536    19825954.376  
                                
  21637467.767   115339911.507    21637470.930    89708851.033    21637471.037  
                                
  21210958.134   113344962.674    21210960.153    88157226.713    21210959.974  
                                
  21225681.583   113503265.238    21225685.371    88280328.541    21225684.317  
                                
  21406084.970   114548305.365    21406085.399    89093131.143    21406085.327  
                                
  25947390.496   136354486.390                                                  
  25947393.927   101823177.779  
  23468560.247   123328160.614                                                  
  23468562.784    92095741.329  
  23691297.029   124498639.523                                                  
  23691299.995    92969788.362  
  25674048.606   134918049.362                                                  
  25674052.412   100750512.616  
  27345948.194   143703945.808                                                  
  27345951.553   107311412.690  
  26989961.536   141833217.406                                                  
  26989965.967   105914450.619  
  26489385.553   139202655.880                                                  
  26489390.735   103950048.427  
 21  8 31 20 49 23.0000000  0 19G10G15G18G23G24G32R 4R 5R14R15R20R21
                                E 3E 5E 9E15E24E31E36
  21963565.750   115419340.013    21963565.822    89937159.292    21963565.607  
  21963564.356    86189776.782  
  22111061.580   116194445.254    22111060.186    90541136.832    22111059.614  
                                
  21200074.183   111407152.991    21200072.897    86810772.799    21200072.468  
  21200076.971    83193672.631  
  20269166.489   106515221.293    20269164.756    82998886.684    20269164.417  
  20269168.723    79540612.279  
  20327262.579   106820531.043    20327263.043    83236800.137    20327262.489  
  20327263.651    79768610.760  
  23806949.312   125106382.766    23806951.081    97485503.575    23806950.456  
  23806950.116    93423610.223  
  22167605.548   118706549.446    22167606.102    92327328.921    22167606.119  
                                
  19826014.041   105981448.383    19826014.970    82430037.038    19826014.881  
                                
  21637648.977   115340877.466    21637652.140    89709602.336    21637652.247  
                                
  21210444.310   113342216.973    21210446.329    88155091.173    21210446.150  
                                
  21226292.096   113506529.955    21226295.902    88282867.763    21226294.848  
                                
  21405904.189   114547337.881    21405904.618    89092378.660    21405904.528  
                                
  25947033.437   136352610.045                                                  
  25947036.850   101821776.619  
  23468563.624   123328178.444                                                  
  23468566.180    92095754.639  
  23691656.464   124500528.325                                                  
  23691659.448    92971198.824  
  25673752.516   134916493.277                                                  
  25673756.304   100749350.600  
  27345462.746   143701394.798                                                  
  27345466.105   107309507.713  
  26989802.037   141832379.213                                                  
  26989806.486   105913824.696  
  26489983.164   139205796.324                                                  
  26489988.328   103952393.563  
 21  8 31 20 49 24.0000000  0 19G10G15G18G23G24G32R 4R 5R14R15R20R21
                                E 3E 5E 9E15E24E31E36
  21963098.922   115416886.920    21963098.993    89935247.795    21963098.779  
  21963097.546    86187944.936  
  22111593.826   116197242.283    22111592.433    90543316.330    22111591.861  
                                
  21200536.491   111409582.456    21200535.204    86812665.891    21200534.793  
  21200539.296    83195486.840  
  20269046.463   106514590.639    20269044.730    82998395.265    20269044.390  
  20269048.697    79540141.341  
  20327221.587   106820315.637    20327222.052    83236632.293    20327221.498  
  20327222.659    79768449.909  
  23806422.301   125103613.397    23806424.070    97483345.629    23806423.427  
  23806423.105    93421542.206  
  22168083.901   118709110.961    22168084.437    92329321.212    22168084.473  
                                
  19826074.599   105981772.056    19826075.528    82430288.781    19826075.421  
                                
  21637830.348   115341844.273    21637833.528    89710354.293    21637833.618  
                                
  21209930.593   113339471.935    21209932.613    88152956.143    21209932.452  
                                
  21226902.734   113509795.255    21226906.523    88285407.436    21226905.468  
                                
  21405723.551   114546371.307    21405723.980    89091626.881    21405723.908  
                                
  25946676.414   136350733.826                                                  
  25946679.845   101820375.544  
  23468567.055   123328196.473                                                  
  23468569.610    92095768.113  
  23692015.899   124502417.194                                                  
  23692018.866    92972609.346  
  25673456.462   134914937.605                                                  
  25673460.268   100748188.898  
  27344977.352   143698843.976                                                  
  27344980.711   107307602.880  
  26989642.610   141831541.449                                                  
  26989647.059   105913199.101  
  26490580.794   139208936.902                                                  
  26490585.958   103954738.792  
 21  8 31 20 49 25.0000000  0 19G10G15G18G23G24G32R 4R 5R14R15R20R21
                                E 3E 5E 9E15E24E31E36
  21962632.183   115414434.132    21962632.255    89933336.527    21962632.040  
  21962630.789    86186113.304  
  22112126.145   116200039.569    22112124.751    90545496.034    22112124.179  
                                
  21200998.923   111412012.546    21200997.637    86814559.463    21200997.226  
  21201001.729    83197301.513  
  20268926.562   106513960.501    20268924.829    82997904.249    20268924.507  
  20268928.796    79539670.781  
  20327180.756   106820101.070    20327181.221    83236465.096    20327180.685  
  20327181.828    79768289.678  
  23805895.362   125100844.323    23805897.113    97481187.908    23805896.487  
  23805896.166    93419474.392  
  22168562.273   118711672.688    22168562.827    92331313.666    22168562.845  
                                
  19826135.229   105982096.144    19826136.158    82430540.849    19826136.051  
                                
  21638011.897   115342812.056    21638015.078    89711107.014    21638015.185  
                                
  21209417.038   113336727.640    21209419.057    88150821.694    21209418.878  
                                
  21227513.480   113513061.244    21227517.286    88287947.648    21227516.232  
                                
  21405543.109   114545405.720    21405543.538    89090875.866    21405543.467  
                                
  25946319.409   136348857.851                                                  
  25946322.840   101818974.660  
  23468570.540   123328214.805                                                  
  23468573.095    92095781.798  
  23692375.371   124504306.240                                                  
  23692378.355    92974019.988  
  25673160.551   134913382.471                                                  
  25673164.339   100747027.587  
  27344491.975   143696293.385                                                  
  27344495.335   107305698.223  
  26989483.271   141830704.256                                                  
  26989487.721   105912573.914  
  26491178.477   139212077.719                                                  
  26491183.659   103957084.209  
 21  8 31 20 49 26.0000000  0 19G10G15G18G23G24G32R 4R 5R14R15R20R21
                                E 3E 5E 9E15E24E31E36
  21962165.480   115411981.599    21962165.551    89931425.465    21962165.337  
  21962164.104    86184281.867  
  22112658.481   116202837.105    22112657.087    90547675.937    22112656.515  
                                
  21201461.463   111414443.220    21201460.176    86816453.493    21201459.747  
  21201464.268    83199116.627  
  20268806.732   106513330.842    20268804.999    82997413.607    20268804.677  
  20268808.966    79539200.583  
  20327140.051   106819887.281    20327140.533    83236298.507    20327139.979  
  20327141.141    79768130.028  
  23805368.476   125098075.498    23805370.245    97479030.384    23805369.619  
  23805369.297    93417406.759  
  22169040.698   118714234.612    22169041.234    92333306.270    22169041.270  
                                
  19826195.912   105982420.593    19826196.841    82430793.199    19826196.752  
                                
  21638193.625   115343780.787    21638196.806    89711860.470    21638196.913  
                                
  21208903.625   113333984.070    21208905.626    88148687.809    21208905.465  
                                
  21228124.368   113516327.867    21228128.174    88290488.352    21228127.120  
                                
  21405362.829   114544441.080    21405363.258    89090125.595    21405363.186  
                                
  25945962.475   136346982.084                                                  
  25945965.906   101817573.919  
  23468574.078   123328233.391                                                  
  23468576.633    92095795.680  
  23692734.860   124506195.411                                                  
  23692737.844    92975430.737  
  25672864.712   134911827.815                                                  
  25672868.500   100745866.647  
  27344006.671   143693743.036                                                  
  27344010.030   107303793.741  
  26989324.058   141829867.554                                                  
  26989328.508   105911949.106  
  26491776.195   139215218.720                                                  
  26491781.377   103959429.753  
 21  8 31 20 49 27.0000000  0 19G10G15G18G23G24G32R 4R 5R14R15R20R21
                                E 3E 5E 9E15E24E31E36
  21961698.813   115409529.319    21961698.884    89929514.595    21961698.687  
  21961697.437    86182450.619  
  22113190.888   116205634.893    22113189.494    90549856.029    22113188.923  
                                
  21201924.128   111416874.490    21201922.823    86818347.989    21201922.412  
  21201926.915    83200932.186  
  20268687.010   106512701.673    20268685.277    82996923.343    20268684.937  
  20268689.244    79538730.745  
  20327099.524   106819674.290    20327100.006    83236132.540    20327099.452  
  20327100.614    79767970.978  
  23804841.625   125095306.898    23804843.376    97476873.034    23804842.751  
  23804842.429    93415339.307  
  22169519.159   118716796.719    22169519.695    92335299.019    22169519.731  
                                
  19826256.684   105982745.392    19826257.614    82431045.822    19826257.506  
                                
  21638375.550   115344750.454    21638378.712    89712614.659    21638378.820  
                                
  21208390.337   113331241.214    21208392.356    88146554.473    21208392.178  
                                
  21228735.364   113519595.161    21228739.170    88293029.583    21228738.115  
                                
  21405182.763   114543477.471    21405183.192    89089376.121    21405183.102  
                                
  25945605.559   136345106.520                                                  
  25945608.990   101816173.339  
  23468577.669   123328252.260                                                  
  23468580.225    92095809.770  
  23693094.384   124508084.732                                                  
  23693097.368    92976841.596  
  25672568.944   134910273.669                                                  
  25672572.750   100744706.086  
  27343521.402   143691192.900                                                  
  27343524.761   107301889.423  
  26989164.953   141829031.383                                                  
  26989169.384   105911324.691  
  26492373.932   139218359.915                                                  
  26492379.132   103961775.455  
 21  8 31 20 49 28.0000000  0 19G10G15G18G23G24G32R 4R 5R14R15R20R21
                                E 3E 5E 9E15E24E31E36
  21961232.181   115407077.059    21961232.252    89927603.743    21961232.038  
  21961230.805    86180619.377  
  22113723.314   116208432.705    22113721.920    90552036.137    22113721.330  
                                
  21202386.846   111419306.109    21202385.541    86820242.759    21202385.130  
  21202389.633    83202748.007  
  20268567.341   106512072.744    20268565.608    82996433.269    20268565.268  
  20268569.575    79538261.090  
  20327059.104   106819461.848    20327059.569    83235966.998    20327059.032  
  20327060.176    79767812.336  
  23804314.775   125092538.323    23804316.544    97474715.700    23804315.919  
  23804315.579    93413271.862  
  22169997.602   118719358.784    22169998.138    92337291.737    22169998.174  
                                
  19826317.457   105983070.315    19826318.386    82431298.538    19826318.297  
                                
  21638557.581   115345720.807    21638560.744    89713369.373    21638560.851  
                                
  21207877.139   113328498.828    21207879.158    88144421.507    21207878.979  
                                
  21229346.448   113522862.895    21229350.254    88295571.154    21229349.200  
                                
  21405002.840   114542514.635    21405003.268    89088627.247    21405003.179  
                                
  25945248.661   136343230.923                                                  
  25945252.074   101814772.733  
  23468581.261   123328271.149                                                  
  23468583.816    92095823.871  
  23693453.909   124509973.951                                                  
  23693456.875    92978252.376  
  25672273.265   134908719.779                                                  
  25672277.053   100743545.709  
  27343036.097   143688642.736                                                  
  27343039.456   107299985.093  
  26989005.865   141828195.473                                                  
  26989010.314   105910700.479  
  26492971.687   139221501.069                                                  
  26492976.869   103964121.122  
 21  8 31 20 49 29.0000000  0 19G10G15G18G23G24G32R 4R 5R14R15R20R21
                                E 3E 5E 9E15E24E31E36
  21960765.549   115404624.852    21960765.621    89925692.932    21960765.406  
  21960764.155    86178788.186  
  22114255.721   116211230.549    22114254.327    90554216.278    22114253.738  
                                
  21202849.636   111421738.127    21202848.349    86822137.840    21202847.938  
  21202852.441    83204564.120  
  20268447.708   106511444.100    20268445.975    82995943.414    20268445.635  
  20268449.942    79537791.648  
  20327018.791   106819249.989    20327019.256    83235801.918    20327018.702  
  20327019.864    79767654.135  
  23803787.960   125089769.797    23803789.729    97472558.419    23803789.086  
  23803788.765    93411204.458  
  22170476.063   118721920.870    22170476.599    92339284.468    22170476.617  
                                
  19826378.283   105983395.415    19826379.212    82431551.394    19826379.105  
                                
  21638739.756   115346691.888    21638742.937    89714124.654    21638743.044  
                                
  21207364.030   113325756.956    21207366.049    88142288.942    21207365.888  
                                
  21229957.605   113526131.085    21229961.393    88298113.080    21229960.339  
                                
  21404823.059   114541552.601    21404823.488    89087878.998    21404823.399  
                                
  25944891.728   136341355.323                                                  
  25944895.159   101813372.128  
  23468584.871   123328290.106                                                  
  23468587.408    92095838.033  
  23693813.398   124511863.110                                                  
  23693816.364    92979663.108  
  25671977.604   134907166.176                                                  
  25671981.410   100742385.556  
  27342550.828   143686092.624                                                  
  27342554.187   107298080.786  
  26988846.866   141827359.889                                                  
  26988851.316   105910076.510  
  26493569.441   139224642.235                                                  
  26493574.623   103966466.787  
 21  8 31 20 49 30.0000000  0 19G10G15G18G23G24G32R 4R 5R14R15R20R21
                                E 3E 5E 9E15E24E31E36
  21960298.900   115402172.671    21960298.971    89923782.142    21960298.757  
  21960297.524    86176957.016  
  22114788.129   116214028.419    22114786.753    90556396.432    22114786.163  
                                
  21203312.497   111424170.500    21203311.210    86824033.193    21203310.799  
  21203315.302    83206380.505  
  20268328.128   106510815.712    20268326.377    82995453.761    20268326.056  
  20268330.344    79537322.399  
  20326978.586   106819038.697    20326979.051    83235637.273    20326978.497  
  20326979.658    79767496.354  
  23803261.110   125087001.282    23803262.879    97470401.135    23803262.254  
  23803261.932    93409137.059  
  22170954.506   118724482.935    22170955.042    92341277.180    22170955.078  
                                
  19826439.127   105983720.658    19826440.056    82431804.361    19826439.949  
                                
  21638922.056   115347663.673    21638925.219    89714880.488    21638925.326  
                                
  21206851.010   113323015.571    21206853.029    88140156.751    21206852.851  
                                
  21230568.850   113529399.711    21230572.656    88300655.344    21230571.602  
                                
  21404643.422   114540591.296    21404643.851    89087131.321    21404643.762  
                                
  25944534.830   136339479.721                                                  
  25944538.243   101811971.518  
  23468588.498   123328309.106                                                  
  23468591.053    92095852.218  
  23694172.869   124513752.185                                                  
  23694175.853    92981073.783  
  25671682.032   134905612.841                                                  
  25671685.821   100741225.606  
  27342065.559   143683542.506                                                  
  27342068.918   107296176.475  
  26988687.903   141826524.592                                                  
  26988692.353   105909452.752  
  26494167.160   139227783.362                                                  
  26494172.360   103968812.429  
 21  8 31 20 49 31.0000000  0 19G10G15G18G23G24G32R 4R 5R14R15R20R21
                                E 3E 5E 9E15E24E31E36
  21959832.268   115399720.458    21959832.339    89921871.327    21959832.125  
  21959830.874    86175125.816  
  22115320.536   116216826.228    22115319.142    90558576.545    22115318.553  
                                
  21203775.430   111426603.175    21203774.125    86825928.785    21203773.714  
  21203778.217    83208197.113  
  20268208.585   106510187.514    20268206.851    82994964.256    20268206.530  
  20268210.818    79536853.286  
  20326938.470   106818827.910    20326938.953    83235473.025    20326938.399  
  20326939.560    79767338.944  
  23802734.278   125084232.718    23802736.047    97468243.812    23802735.421  
  23802735.082    93407069.621  
  22171432.949   118727044.853    22171433.485    92343269.776    22171433.503  
                                
  19826499.989   105984045.991    19826500.918    82432057.395    19826500.811  
                                
  21639104.481   115348636.100    21639107.661    89715636.823    21639107.768  
                                
  21206338.080   113320274.600    21206340.099    88138024.885    21206339.920  
                                
  21231180.168   113532668.704    21231183.974    88303197.893    21231182.919  
                                
  21404463.892   114539630.651    21404464.321    89086384.153    21404464.231  
                                
  25944177.878   136337604.012                                                  
  25944181.309   101810570.824  
  23468592.108   123328328.066                                                  
  23468594.645    92095866.378  
  23694532.323   124515641.095                                                  
  23694535.289    92982484.333  
  25671386.461   134904059.696                                                  
  25671390.249   100740065.788  
  27341580.272   143680992.312                                                  
  27341583.631   107294272.114  
  26988529.012   141825689.519                                                  
  26988533.444   105908829.154  
  26494764.879   139230924.378                                                  
  26494770.079   103971158.000  
 21  8 31 20 49 32.0000000  0 19G10G15G18G23G24G32R 4R 5R14R15R20R21
                                E 3E 5E 9E15E24E31E36
  21959365.654   115397268.354    21959365.726    89919960.596    21959365.511  
  21959364.260    86173294.699  
  22115852.962   116219624.136    22115851.568    90560756.729    22115850.996  
                                
  21204238.434   111429036.303    21204237.147    86827824.723    21204236.736  
  21204241.239    83210014.050  
  20268089.112   106509559.653    20268087.361    82994475.014    20268087.040  
  20268091.346    79536384.429  
  20326898.497   106818617.774    20326898.962    83235309.281    20326898.426  
  20326899.569    79767182.020  
  23802207.445   125081464.257    23802209.214    97466086.572    23802208.589  
  23802208.249    93405002.272  
  22171911.375   118729606.820    22171911.911    92345262.415    22171911.946  
                                
  19826560.887   105984371.548    19826561.816    82432310.610    19826561.726  
                                
  21639287.048   115349609.340    21639290.229    89716393.785    21639290.336  
                                
  21205825.257   113317534.205    21205827.276    88135893.469    21205827.097  
                                
  21231791.592   113535938.238    21231795.380    88305740.863    21231794.326  
                                
  21404284.523   114538670.840    21404284.969    89085637.628    21404284.880  
                                
  25943820.962   136335728.383                                                  
  25943824.375   101809170.190  
  23468595.735   123328347.154                                                  
  23468598.290    92095880.635  
  23694891.776   124517530.003                                                  
  23694894.742    92983894.880  
  25671090.997   134902506.918                                                  
  25671094.785   100738906.239  
  27341095.003   143678442.205                                                  
  27341098.362   107292367.814  
  26988370.156   141824854.818                                                  
  26988374.606   105908205.838  
  26495362.616   139234065.459                                                  
  26495367.815   103973503.603  
 21  8 31 20 49 33.0000000  0 19G10G15G18G23G24G32R 4R 5R14R15R20R21
                                E 3E 5E 9E15E24E31E36
  21958899.130   115394816.819    21958899.201    89918050.311    21958898.987  
  21958897.736    86171464.014  
  22116385.512   116222422.603    22116384.118    90562937.352    22116383.529  
                                
  21204701.617   111431470.322    21204700.330    86829721.362    21204699.902  
  21204704.422    83211831.664  
  20267969.765   106508932.588    20267968.032    82993986.392    20267967.710  
  20267971.999    79535916.166  
  20326858.703   106818408.736    20326859.167    83235146.396    20326858.614  
  20326859.775    79767025.922  
  23801680.720   125078696.324    23801682.489    97463929.739    23801681.864  
  23801681.524    93402935.324  
  22172389.889   118732169.288    22172390.443    92347255.443    22172390.461  
                                
  19826621.909   105984697.782    19826622.838    82432564.348    19826622.731  
                                
  21639469.884   115350583.832    21639473.047    89717151.721    21639473.154  
                                
  21205312.612   113314794.833    21205314.632    88133762.849    21205314.453  
                                
  21232403.195   113539208.731    21232406.983    88308284.580    21232405.929  
                                
  21404105.421   114537712.355    21404105.850    89084892.145    21404105.761  
                                
  25943464.136   136333853.259                                                  
  25943467.567   101807769.937  
  23468599.470   123328366.815                                                  
  23468602.025    92095895.319  
  23695251.301   124519419.359                                                  
  23695254.285    92985305.763  
  25670795.657   134900954.947                                                  
  25670799.446   100737747.293  
  27340609.823   143675892.607                                                  
  27340613.182   107290463.910  
  26988211.497   141824020.962                                                  
  26988215.947   105907583.143  
  26495960.442   139237207.053                                                  
  26495965.624   103975849.594  
 21  8 31 20 49 34.0000000  0 19G10G15G18G23G24G32R 4R 5R14R15R20R21
                                E 3E 5E 9E15E24E31E36
  21958432.677   115392365.574    21958432.748    89916140.251    21958432.534  
  21958431.301    86169633.530  
  22116918.081   116225221.356    22116916.687    90565118.201    22116916.115  
                                
  21205164.907   111433904.960    21205163.621    86831618.478    21205163.210  
  21205167.713    83213649.736  
  20267850.561   106508306.028    20267848.810    82993498.163    20267848.488  
  20267852.795    79535448.282  
  20326819.087   106818200.510    20326819.552    83234984.140    20326818.998  
  20326820.159    79766870.426  
  23801154.084   125075928.702    23801155.853    97461773.152    23801155.210  
  23801154.888    93400868.571  
  22172868.457   118734731.984    22172868.993    92349248.651    22172869.029  
                                
  19826683.003   105985024.392    19826683.933    82432818.376    19826683.825  
                                
  21639652.863   115351559.284    21639656.044    89717910.408    21639656.151  
                                
  21204800.129   113312056.223    21204802.148    88131632.821    21204801.969  
                                
  21233014.923   113542479.901    21233018.711    88310828.819    21233017.657  
                                
  21403926.499   114536754.905    21403926.928    89084147.459    21403926.838  
                                
  25943107.345   136331978.367                                                  
  25943110.776   101806369.855  
  23468603.276   123328386.775                                                  
  23468605.813    92095910.219  
  23695610.861   124521308.886                                                  
  23695613.845    92986716.771  
  25670500.425   134899403.475                                                  
  25670504.214   100736588.739  
  27340124.715   143673343.317                                                  
  27340128.092   107288560.211  
  26988052.910   141823187.614                                                  
  26988057.359   105906960.852  
  26496558.303   139240348.843                                                  
  26496563.503   103978195.739  
 21  8 31 20 49 35.0000000  0 19G10G15G18G23G24G32R 4R 5R14R15R20R21
                                E 3E 5E 9E15E24E31E36
  21957966.242   115389914.459    21957966.313    89914230.298    21957966.099  
  21957964.866    86167803.165  
  22117450.703   116228020.233    22117449.309    90567299.142    22117448.719  
                                
  21205628.287   111436340.074    21205627.000    86833515.972    21205626.589  
  21205631.092    83215468.167  
  20267731.392   106507679.834    20267729.641    82993010.220    20267729.320  
  20267733.626    79534980.675  
  20326779.579   106817992.959    20326780.061    83234822.412    20326779.507  
  20326780.669    79766715.442  
  23800627.413   125073161.191    23800629.182    97459616.657    23800628.556  
  23800628.217    93398801.942  
  22173347.043   118737294.779    22173347.579    92351241.934    22173347.615  
                                
  19826744.151   105985351.268    19826745.080    82433072.608    19826744.991  
                                
  21639836.021   115352535.572    21639839.201    89718669.743    21639839.308  
                                
  21204287.735   113309318.221    21204289.754    88129503.261    21204289.575  
                                
  21233626.741   113545751.615    21233630.547    88313373.485    21233629.492  
                                
  21403747.737   114535798.300    21403748.166    89083403.430    21403748.077  
                                
  25942750.590   136330103.568                                                  
  25942754.021   101804969.847  
  23468607.100   123328406.891                                                  
  23468609.655    92095925.239  
  23695970.439   124523198.439                                                  
  23695973.423    92988127.794  
  25670205.265   134897852.404                                                  
  25670209.053   100735430.468  
  27339639.624   143670794.111                                                  
  27339642.984   107286656.579  
  26987894.412   141822354.682                                                  
  26987898.861   105906338.858  
  26497156.183   139243490.740                                                  
  26497161.383   103980541.956  
 21  8 31 20 49 36.0000000  0 19G10G15G18G23G24G32R 4R 5R14R15R20R21
                                E 3E 5E 9E15E24E31E36
  21957499.878   115387463.769    21957499.950    89912320.667    21957499.753  
  21957498.502    86165973.100  
  22117983.378   116230819.503    22117981.984    90569480.391    22117981.395  
                                
  21206091.827   111438775.945    21206090.540    86835414.051    21206090.112  
  21206094.632    83217287.160  
  20267612.349   106507054.292    20267610.616    82992522.789    20267610.276  
  20267614.583    79534513.549  
  20326740.267   106817786.366    20326740.732    83234661.430    20326740.196  
  20326741.339    79766561.174  
  23800100.884   125070394.100    23800102.653    97457460.492    23800102.010  
  23800101.670    93396735.605  
  22173825.701   118739857.935    22173826.237    92353235.500    22173826.273  
                                
  19826805.406   105985678.682    19826806.335    82433327.265    19826806.228  
                                
  21640019.375   115353512.958    21640022.537    89719429.928    21640022.645  
                                
  21203775.519   113306581.102    21203777.538    88127374.394    21203777.377  
                                
  21234238.719   113549024.135    21234242.525    88315918.778    21234241.471  
                                
  21403569.190   114534842.860    21403569.637    89082660.311    21403569.547  
                                
  25942393.906   136328229.139                                                  
  25942397.319   101803570.109  
  23468611.013   123328427.423                                                  
  23468613.550    92095940.573  
  23696330.071   124525088.285                                                  
  23696333.055    92989539.048  
  25669910.229   134896301.989                                                  
  25669914.018   100734272.686  
  27339154.588   143668245.276                                                  
  27339157.947   107284753.250  
  26987736.038   141821522.435                                                  
  26987740.488   105905717.370  
  26497754.134   139246632.976                                                  
  26497759.334   103982888.433  
 21  8 31 20 49 37.0000000  0 19G10G15G18G23G24G32R 4R 5R14R15R20R21
                                E 3E 5E 9E15E24E31E36
  21957033.550   115385013.126    21957033.622    89910411.075    21957033.407  
  21957032.174    86164143.070  
  22118516.072   116233618.809    22118514.678    90571661.666    22118514.106  
                                
  21206555.439   111441212.174    21206554.152    86837312.411    21206553.741  
  21206558.244    83219106.422  
  20267493.359   106506429.002    20267491.626    82992035.550    20267491.304  
  20267495.593    79534046.610  
  20326701.080   106817580.344    20326701.545    83234500.893    20326700.991  
  20326702.152    79766407.317  
  23799574.302   125067627.018    23799576.071    97455304.324    23799575.445  
  23799575.106    93394669.291  
  22174304.341   118742421.029    22174304.877    92355229.017    22174304.912  
                                
  19826866.679   105986006.250    19826867.608    82433582.041    19826867.519  
                                
  21640202.854   115354491.061    21640206.034    89720190.680    21640206.124  
                                
  21203263.411   113303844.476    21203265.412    88125245.909    21203265.251  
                                
  21234850.786   113552297.103    21234854.593    88318464.415    21234853.538  
                                
  21403390.768   114533888.162    21403391.197    89081917.770    21403391.107  
                                
  25942037.223   136326354.690                                                  
  25942040.636   101802170.356  
  23468614.926   123328448.005                                                  
  23468617.464    92095955.941  
  23696689.668   124526978.043                                                  
  23696692.652    92990950.229  
  25669615.248   134894751.825                                                  
  25669619.036   100733115.103  
  27338669.587   143665696.464                                                  
  27338672.964   107282849.910  
  26987577.719   141820690.469                                                  
  26987582.150   105905096.101  
  26498352.085   139249775.196                                                  
  26498357.285   103985234.891  
 21  8 31 20 49 38.0000000  0 19G10G15G18G23G24G32R 4R 5R14R15R20R21
                                E 3E 5E 9E15E24E31E36
  21956567.294   115382562.917    21956567.365    89908501.824    21956567.151  
  21956565.918    86162313.373  
  22119048.854   116236418.563    22119047.461    90573843.290    22119046.889  
                                
  21207019.194   111443649.190    21207017.889    86839211.384    21207017.478  
  21207021.981    83220926.275  
  20267374.494   106505804.399    20267372.761    82991548.844    20267372.440  
  20267376.728    79533580.185  
  20326662.054   106817375.302    20326662.519    83234341.123    20326661.965  
  20326663.126    79766254.208  
  23799047.827   125064860.382    23799049.596    97453148.508    23799048.953  
  23799048.613    93392603.296  
  22174783.052   118744984.517    22174783.588    92357222.841    22174783.624  
                                
  19826928.077   105986334.404    19826929.006    82433837.271    19826928.899  
                                
  21640386.565   115355470.302    21640389.728    89720952.311    21640389.835  
                                
  21202751.445   113301108.754    21202753.465    88123118.127    21202753.304  
                                
  21235463.015   113555570.901    21235466.803    88321010.700    21235465.749  
                                
  21403212.578   114532934.652    21403213.025    89081176.151    21403212.935  
                                
  25941680.593   136324480.643                                                  
  25941684.006   101800770.910  
  23468618.929   123328469.048                                                  
  23468621.466    92095971.655  
  23697049.353   124528868.151                                                  
  23697052.337    92992361.673  
  25669320.391   134893202.375                                                  
  25669324.179   100731958.039  
  27338184.639   143663148.080                                                  
  27338188.016   107280946.883  
  26987419.524   141819859.228                                                  
  26987423.974   105904475.369  
  26498950.108   139252917.814                                                  
  26498955.308   103987581.643  
 21  8 31 20 49 39.0000000  0 19G10G15G18G23G24G32R 4R 5R14R15R20R21
                                E 3E 5E 9E15E24E31E36
  21956101.073   115380112.961    21956101.145    89906592.762    21956100.930  
  21956099.679    86160483.863  
  22119581.655   116239218.543    22119580.261    90576025.095    22119579.689  
                                
  21207483.055   111446086.795    21207481.769    86841110.817    21207481.340  
  21207485.861    83222746.558  
  20267255.737   106505180.265    20267253.986    82991062.506    20267253.664  
  20267257.953    79533114.111  
  20326623.189   106817171.041    20326623.654    83234181.959    20326623.100  
  20326624.261    79766101.676  
  23798521.405   125062093.960    23798523.174    97450992.855    23798522.531  
  23798522.192    93390537.466  
  22175261.799   118747548.185    22175262.335    92359216.803    22175262.370  
                                
  19826989.529   105986662.927    19826990.458    82434092.790    19826990.351  
                                
  21640570.419   115356450.453    21640573.600    89721714.654    21640573.707  
                                
  21202239.623   113298373.697    21202241.642    88120990.863    21202241.481  
                                
  21236075.351   113558845.356    21236079.139    88323557.499    21236078.085  
                                
  21403034.585   114531982.099    21403035.013    89080435.274    21403034.924  
                                
  25941323.999   136322606.783                                                  
  25941327.429   101799371.605  
  23468622.967   123328490.338                                                  
  23468625.523    92095987.555  
  23697409.039   124530758.370                                                  
  23697412.005    92993773.202  
  25669025.623   134891653.388                                                  
  25669029.412   100730801.333  
  27337699.745   143660599.888                                                  
  27337703.105   107279044.022  
  26987261.455   141819028.488                                                  
  26987265.904   105903855.012  
  26499548.166   139256060.599                                                  
  26499553.366   103989928.535  
 21  8 31 20 49 40.0000000  0 19G10G15G18G23G24G32R 4R 5R14R15R20R21
                                E 3E 5E 9E15E24E31E36
  21955634.924   115377663.298    21955634.995    89904683.936    21955634.781  
  21955633.548    86158654.565  
  22120114.545   116242018.796    22120113.151    90578207.109    22120112.562  
                                
  21207947.025   111448525.007    21207945.738    86843010.720    21207945.327  
  21207949.830    83224567.301  
  20267137.069   106504556.636    20267135.318    82990576.559    20267134.996  
  20267139.302    79532648.416  
  20326584.449   106816967.590    20326584.932    83234023.425    20326584.378  
  20326585.539    79765949.746  
  23797995.020   125059327.829    23797996.789    97448837.432    23797996.145  
  23797995.806    93388471.853  
  22175740.599   118750112.059    22175741.135    92361210.922    22175741.171  
                                
  19827051.052   105986991.848    19827051.981    82434348.617    19827051.892  
                                
  21640754.488   115357431.566    21640757.669    89722477.741    21640757.776  
                                
  21201727.926   113295639.402    21201729.927    88118864.189    21201729.766  
                                
  21236687.829   113562120.524    21236691.617    88326104.854    21236690.563  
                                
  21402856.770   114531030.562    21402857.199    89079695.190    21402857.109  
                                
  25940967.458   136320733.161                                                  
  25940970.871   101797972.468  
  23468627.095   123328511.929                                                  
  23468629.650    92096003.677  
  23697768.778   124532648.756                                                  
  23697771.744    92995184.852  
  25668730.963   134890104.935                                                  
  25668734.752   100729645.025  
  27337214.869   143658051.953                                                  
  27337218.229   107277141.351  
  26987103.457   141818198.274                                                  
  26987107.907   105903235.060  
  26500146.260   139259203.617                                                  
  26500151.478   103992275.584  
 21  8 31 20 49 41.0000000  0 19G10G15G18G23G24G32R 4R 5R14R15R20R21
                                E 3E 5E 9E15E24E31E36
  21955168.775   115375213.647    21955168.846    89902775.119    21955168.632  
  21955167.399    86156825.282  
  22120647.399   116244819.067    22120646.005    90580389.140    22120645.434  
                                
  21208411.065   111450963.575    21208409.779    86844910.903    21208409.350  
  21208413.871    83226388.314  
  20267018.436   106503933.259    20267016.703    82990090.811    20267016.364  
  20267020.670    79532182.908  
  20326545.852   106816764.696    20326546.317    83233865.326    20326545.763  
  20326546.924    79765798.239  
  23797468.652   125056561.727    23797470.421    97446682.023    23797469.796  
  23797469.438    93386406.240  
  22176219.382   118752675.912    22176219.918    92363205.028    22176219.953  
                                
  19827112.611   105987320.879    19827113.540    82434604.530    19827113.450  
                                
  21640938.664   115358413.385    21640941.845    89723241.376    21640941.952  
                                
  21201216.336   113292905.625    21201218.355    88116737.921    21201218.176  
                                
  21237300.379   113565396.102    21237304.168    88328652.526    21237303.113  
                                
  21402679.098   114530079.784    21402679.527    89078955.696    21402679.438  
                                
  25940610.935   136318859.513                                                  
  25940614.348   101796573.319  
  23468631.205   123328533.542                                                  
  23468633.760    92096019.820  
  23698128.499   124534539.055                                                  
  23698131.465    92996596.436  
  25668436.357   134888556.738                                                  
  25668440.145   100728488.901  
  27336730.029   143655504.033                                                  
  27336733.406   107275238.668  
  26986945.531   141817368.347                                                  
  26986949.962   105902615.316  
  26500744.336   139262346.590                                                  
  26500749.554   103994622.612  
 21  8 31 20 49 42.0000000  0 19G10G15G18G23G24G32R 4R 5R14R15R20R21
                                E 3E 5E 9E15E24E31E36
  21954702.590   115372763.908    21954702.661    89900866.232    21954702.465  
  21954701.214    86154995.931  
  22121180.271   116247619.235    22121178.878    90582571.082    22121178.288  
                                
  21208875.160   111453402.392    21208873.873    86846811.278    21208873.462  
  21208877.965    83228209.498  
  20266899.840   106503310.021    20266898.106    82989605.168    20266897.767  
  20266902.073    79531717.496  
  20326507.326   106816562.263    20326507.809    83233707.586    20326507.255  
  20326508.416    79765647.060  
  23796942.248   125053795.498    23796944.017    97444526.514    23796943.392  
  23796943.052    93384340.543  
  22176698.111   118755239.583    22176698.665    92365198.992    22176698.682  
                                
  19827174.169   105987649.904    19827175.099    82434860.439    19827174.991  
                                
  21641122.965   115359395.787    21641126.146    89724005.468    21641126.253  
                                
  21200704.817   113290172.227    21200706.836    88114611.947    21200706.657  
                                
  21237912.983   113568671.990    21237916.771    88331200.434    21237915.735  
                                
  21402501.516   114529129.649    21402501.963    89078216.702    21402501.873  
                                
  25940254.341   136316985.718                                                  
  25940257.772   101795174.055  
  23468635.297   123328555.075                                                  
  23468637.852    92096035.895  
  23698488.149   124536429.133                                                  
  23698491.133    92998007.858  
  25668141.768   134887008.681                                                  
  25668145.556   100727332.885  
  27336245.135   143652955.955                                                  
  27336248.495   107273335.891  
  26986787.640   141816538.615                                                  
  26986792.089   105901995.688  
  26501342.431   139265489.413                                                  
  26501347.648   103996969.515  
 21  8 31 20 49 43.0000000  0 19G10G15G18G23G24G32R 4R 5R14R15R20R21
                                E 3E 5E 9E15E24E31E36
  21954236.458   115370314.365    21954236.548    89898957.493    21954236.333  
  21954235.082    86153166.723  
  22121713.161   116250419.576    22121711.768    90584753.166    22121711.196  
                                
  21209339.343   111455841.720    21209338.057    86848712.050    21209337.646  
  21209342.149    83230031.080  
  20266781.332   106502687.196    20266779.599    82989119.855    20266779.259  
  20266783.566    79531252.401  
  20326468.944   106816360.546    20326469.426    83233550.404    20326468.872  
  20326470.034    79765496.434  
  23796415.898   125051029.434    23796417.667    97442371.139    23796417.042  
  23796416.685    93382274.987  
  22177176.893   118757803.400    22177177.429    92367193.069    22177177.465  
                                
  19827235.782   105987979.246    19827236.711    82435116.591    19827236.604  
                                
  21641307.427   115360379.075    21641310.608    89724770.251    21641310.715  
                                
  21200193.423   113287439.471    21200195.442    88112486.472    21200195.264  
                                
  21238525.712   113571948.494    21238529.500    88333748.824    21238528.446  
                                
  21402324.148   114528180.427    21402324.577    89077478.419    21402324.505  
                                
  25939897.800   136315112.067                                                  
  25939901.213   101793774.897  
  23468639.443   123328576.813                                                  
  23468641.980    92096052.131  
  23698847.852   124538319.296                                                  
  23698850.819    92999419.342  
  25667847.269   134885461.077                                                  
  25667851.057   100726177.200  
  27335760.277   143650408.052                                                  
  27335763.637   107271433.252  
  26986629.821   141815709.301                                                  
  26986634.252   105901376.413  
  26501940.471   139268632.346                                                  
  26501945.671   103999316.523  
 21  8 31 20 49 44.0000000  0 19G10G15G18G23G24G32R 4R 5R14R15R20R21
                                E 3E 5E 9E15E24E31E36
  21953770.345   115367864.852    21953770.416    89897048.786    21953770.202  
  21953768.969    86151337.547  
  22122246.051   116253219.967    22122244.658    90586935.287    22122244.086  
                                
  21209803.598   111458281.429    21209802.312    86850613.122    21209801.901  
  21209806.404    83231852.941  
  20266662.843   106502064.638    20266661.109    82988634.742    20266660.788  
  20266665.076    79530787.504  
  20326430.668   106816159.405    20326431.151    83233393.673    20326430.597  
  20326431.758    79765346.231  
  23795889.549   125048263.423    23795891.318    97440215.806    23795890.692  
  23795890.335    93380209.453  
  22177655.676   118760367.187    22177656.212    92369187.122    22177656.248  
                                
  19827297.412   105988308.749    19827298.341    82435372.875    19827298.252  
                                
  21641492.032   115361363.091    21641495.213    89725535.598    21641495.320  
                                
  21199682.119   113284707.187    21199684.120    88110361.362    21199683.960  
                                
  21239138.494   113575225.373    21239142.300    88336297.505    21239141.246  
                                
  21402146.905   114527231.989    21402147.334    89076740.744    21402147.262  
                                
  25939541.260   136313238.404                                                  
  25939544.673   101792375.736  
  23468643.588   123328598.595                                                  
  23468646.126    92096068.397  
  23699207.538   124540209.383                                                  
  23699210.504    93000830.768  
  25667552.823   134883913.739                                                  
  25667556.611   100725021.720  
  27335275.437   143647860.162                                                  
  27335278.796   107269530.597  
  26986472.073   141814880.320                                                  
  26986476.522   105900757.364  
  26502538.565   139271775.292                                                  
  26502543.783   104001663.515  
 21  8 31 20 49 45.0000000  0 19G10G15G18G23G24G32R 4R 5R14R15R20R21
                                E 3E 5E 9E15E24E31E36
  21953304.285   115365415.773    21953304.357    89895140.413    21953304.160  
  21953302.909    86149508.690  
  22122779.031   116256020.749    22122777.637    90589117.710    22122777.065  
                                
  21210268.014   111460721.887    21210266.728    86852514.778    21210266.299  
  21210270.820    83233675.358  
  20266544.514   106501442.722    20266542.781    82988150.133    20266542.459  
  20266546.748    79530323.087  
  20326392.589   106815959.211    20326393.054    83233237.675    20326392.500  
  20326393.662    79765196.738  
  23795363.252   125045497.797    23795365.003    97438060.777    23795364.378  
  23795364.038    93378144.225  
  22178134.512   118762931.330    22178135.048    92371181.455    22178135.084  
                                
  19827359.167   105988638.819    19827360.096    82435629.594    19827359.989  
                                
  21641676.834   115362348.213    21641680.014    89726301.804    21641680.122  
                                
  21199170.958   113281975.771    21199172.977    88108236.927    21199172.816  
                                
  21239751.455   113578503.107    21239755.244    88338846.851    21239754.189  
                                
  21401969.877   114526284.677    21401970.306    89076003.949    21401970.234  
                                
  25939184.773   136311365.099                                                  
  25939188.186   101790976.846  
  23468647.805   123328620.812                                                  
  23468650.361    92096084.987  
  23699567.241   124542099.761                                                  
  23699570.225    93002242.414  
  25667258.484   134882367.044                                                  
  25667262.273   100723866.728  
  27334790.651   143645312.650                                                  
  27334794.010   107267628.243  
  26986314.450   141814051.981                                                  
  26986318.882   105900138.804  
  26503136.713   139274918.562                                                  
  26503141.930   104004010.771  
 21  8 31 20 49 46.0000000  0 19G10G15G18G23G24G32R 4R 5R14R15R20R21
                                E 3E 5E 9E15E24E31E36
  21952838.297   115362966.994    21952838.386    89893232.275    21952838.172  
  21952836.921    86147680.054  
  22123312.064   116258821.835    22123310.670    90591300.377    22123310.098  
                                
  21210732.537   111463162.999    21210731.251    86854416.940    21210730.840  
  21210735.343    83235498.256  
  20266426.257   106500821.341    20266424.524    82987665.942    20266424.202  
  20266428.491    79529859.071  
  20326354.653   106815759.856    20326355.118    83233082.334    20326354.564  
  20326355.726    79765047.869  
  23794837.045   125042732.487    23794838.814    97435905.997    23794838.189  
  23794837.849    93376079.203  
  22178613.402   118765495.731    22178613.938    92373175.986    22178613.974  
                                
  19827420.994   105988969.322    19827421.923    82435886.650    19827421.816  
                                
  21641861.814   115363334.327    21641864.994    89727068.784    21641865.102  
                                
  21198659.957   113279245.154    21198661.959    88106113.117    21198661.798  
                                
  21240364.542   113581781.546    21240368.330    88341396.746    21240367.275  
                                
  21401793.045   114525338.405    21401793.492    89075267.962    21401793.402  
                                
  25938828.357   136309492.073                                                  
  25938831.770   101789578.153  
  23468652.094   123328643.334                                                  
  23468654.631    92096101.803  
  23699927.016   124543990.329                                                  
  23699929.983    93003654.204  
  25666964.271   134880820.904                                                  
  25666968.059   100722712.147  
  27334305.935   143642765.431                                                  
  27334309.295   107265726.104  
  26986156.935   141813224.240                                                  
  26986161.367   105899520.677  
  26503734.914   139278062.102                                                  
  26503740.132   104006358.217  
 21  8 31 20 49 47.0000000  0 19G10G15G18G23G24G32R 4R 5R14R15R20R21
                                E 3E 5E 9E15E24E31E36
  21952372.344   115360518.311    21952372.416    89891324.208    21952372.201  
  21952370.968    86145851.494  
  22123845.097   116261622.995    22123843.703    90593483.096    22123843.131  
                                
  21211197.150   111465604.521    21211195.863    86856319.426    21211195.452  
  21211199.955    83237321.471  
  20266308.071   106500200.292    20266306.338    82987182.000    20266306.016  
  20266310.305    79529395.294  
  20326316.825   106815561.132    20326317.289    83232927.484    20326316.735  
  20326317.897    79764899.469  
  23794310.820   125039967.242    23794312.589    97433751.263    23794311.964  
  23794311.607    93374014.263  
  22179092.274   118768060.128    22179092.828    92375170.515    22179092.846  
                                
  19827482.857   105989300.018    19827483.786    82436143.858    19827483.697  
                                
  21642046.955   115364321.226    21642050.135    89727836.370    21642050.243  
                                
  21198149.064   113276515.125    21198151.065    88103989.761    21198150.905  
                                
  21240977.717   113585060.471    21240981.505    88343947.021    21240980.451  
                                
  21401616.356   114524392.955    21401616.785    89074532.611    21401616.713  
                                
  25938471.924   136307619.064                                                  
  25938475.337   101788179.482  
  23468656.400   123328665.961                                                  
  23468658.938    92096118.703  
  23700286.773   124545880.871                                                  
  23700289.740    93005065.970  
  25666670.111   134879275.098                                                  
  25666673.899   100721557.805  
  27333821.220   143640218.265                                                  
  27333824.580   107263824.000  
  26985999.491   141812396.828                                                  
  26986003.923   105898902.814  
  26504333.115   139281205.668                                                  
  26504338.351   104008705.672  
 21  8 31 20 49 48.0000000  0 19G10G15G18G23G24G32R 4R 5R14R15R20R21
                                E 3E 5E 9E15E24E31E36
  21951906.427   115358069.889    21951906.499    89889416.347    21951906.302  
  21951905.051    86144023.125  
  22124378.201   116264424.402    22124376.807    90595666.013    22124376.218  
                                
  21211661.869   111468046.631    21211660.583    86858222.366    21211660.154  
  21211664.675    83239145.128  
  20266189.993   106499579.709    20266188.259    82986698.432    20266187.938  
  20266192.226    79528931.873  
  20326279.157   106815363.204    20326279.621    83232773.254    20326279.068  
  20326280.229    79764751.663  
  23793784.649   125037202.237    23793786.418    97431596.714    23793785.793  
  23793785.435    93371949.498  
  22179571.199   118770624.714    22179571.753    92377165.188    22179571.789  
                                
  19827544.791   105989631.061    19827545.720    82436401.338    19827545.613  
                                
  21642232.274   115365309.051    21642235.455    89728604.679    21642235.562  
                                
  21197638.314   113273785.819    21197640.333    88101866.969    21197640.154  
                                
  21241591.018   113588340.062    21241594.806    88346497.814    21241593.752  
                                
  21401439.864   114523448.497    21401440.310    89073798.031    21401440.221  
                                
  25938115.562   136305746.279                                                  
  25938118.975   101786780.971  
  23468660.760   123328688.862                                                  
  23468663.298    92096135.804  
  23700646.548   124547771.545                                                  
  23700649.532    93006477.837  
  25666376.040   134877729.782                                                  
  25666379.829   100720403.839  
  27333336.559   143637671.328                                                  
  27333339.936   107261922.068  
  26985842.136   141811569.942                                                  
  26985846.568   105898285.331  
  26504931.352   139284349.424                                                  
  26504936.588   104011053.276  
 21  8 31 20 49 49.0000000  0 19G10G15G18G23G24G32R 4R 5R14R15R20R21
                                E 3E 5E 9E15E24E31E36
  21951440.528   115355621.609    21951440.600    89887508.598    21951440.403  
  21951439.152    86142194.859  
  22124911.305   116267225.952    22124909.912    90597849.037    22124909.322  
                                
  21212126.678   111470489.225    21212125.392    86860125.686    21212124.963  
  21212129.484    83240969.145  
  20266071.968   106498959.507    20266070.234    82986215.158    20266069.913  
  20266074.201    79528468.738  
  20326241.614   106815165.947    20326242.079    83232619.548    20326241.543  
  20326242.704    79764604.363  
  23793258.514   125034437.382    23793260.283    97429442.286    23793259.657  
  23793259.300    93369884.833  
  22180050.143   118773189.395    22180050.679    92379159.941    22180050.715  
                                
  19827606.760   105989962.376    19827607.690    82436659.025    19827607.600  
                                
  21642417.737   115366297.698    21642420.935    89729373.626    21642421.043  
                                
  21197127.671   113271057.082    21197129.690    88099744.621    21197129.511  
                                
  21242204.425   113591620.202    21242208.214    88349049.032    21242207.159  
                                
  21401263.532   114522504.914    21401263.979    89073064.131    21401263.889  
                                
  25937759.182   136303873.575                                                  
  25937762.595   101785382.524  
  23468665.138   123328711.909                                                  
  23468667.676    92096153.012  
  23701006.341   124549662.257                                                  
  23701009.325    93007889.734  
  25666082.059   134876184.854                                                  
  25666085.848   100719250.161  
  27332851.915   143635124.515                                                  
  27332855.275   107260020.223  
  26985684.853   141810743.463                                                  
  26985689.303   105897668.160  
  26505529.607   139287493.249                                                  
  26505534.825   104013400.944  
 21  8 31 20 49 50.0000000  0 19G10G15G18G23G24G32R 4R 5R14R15R20R21
                                E 3E 5E 9E15E24E31E36
  21950974.665   115353173.510    21950974.754    89885600.993    21950974.540  
  21950973.289    86140366.740  
  22125444.464   116270027.660    22125443.070    90600032.186    22125442.480  
                                
  21212591.577   111472932.335    21212590.308    86862029.408    21212589.879  
  21212594.400    83242793.533  
  20265954.014   106498339.702    20265952.281    82985732.197    20265951.959  
  20265956.248    79528005.898  
  20326204.214   106814969.401    20326204.697    83232466.395    20326204.143  
  20326205.304    79764457.589  
  23792732.414   125031672.686    23792734.183    97427287.984    23792733.557  
  23792733.200    93367820.287  
  22180529.104   118775754.220    22180529.640    92381154.802    22180529.676  
                                
  19827668.802   105990293.992    19827669.731    82436916.951    19827669.642  
                                
  21642603.360   115367287.184    21642606.541    89730143.224    21642606.648  
                                
  21196617.153   113268328.984    21196619.154    88097622.769    21196618.993  
                                
  21242817.941   113594900.919    21242821.729    88351600.700    21242820.674  
                                
  21401087.379   114521562.228    21401087.808    89072330.933    21401087.737  
                                
  25937402.856   136302001.004                                                  
  25937406.269   101783984.182  
  23468669.570   123328735.147                                                  
  23468672.125    92096170.367  
  23701366.134   124551553.019                                                  
  23701369.118    93009301.665  
  25665788.150   134874640.342                                                  
  25665791.938   100718096.790  
  27332367.289   143632577.818                                                  
  27332370.649   107258118.478  
  26985527.677   141809917.428                                                  
  26985532.109   105897051.309  
  26506127.880   139290637.223                                                  
  26506133.116   104015748.708  
 21  8 31 20 49 51.0000000  0 19G10G15G18G23G24G32R 4R 5R14R15R20R21
                                E 3E 5E 9E15E24E31E36
  21950508.837   115350725.484    21950508.909    89883693.436    21950508.712  
  21950507.461    86138538.665  
  22125977.622   116272829.442    22125976.228    90602215.391    22125975.656  
                                
  21213056.565   111475375.839    21213055.278    86863933.434    21213054.867  
  21213059.370    83244618.236  
  20265836.132   106497720.207    20265834.399    82985249.474    20265834.077  
  20265838.366    79527543.289  
  20326166.939   106814773.465    20326167.404    83232313.722    20326166.850  
  20326168.012    79764311.278  
  23792206.314   125028908.048    23792208.065    97425133.725    23792207.440  
  23792207.082    93365755.805  
  22181008.065   118778319.054    22181008.601    92383149.673    22181008.637  
                                
  19827730.861   105990625.796    19827731.790    82437175.021    19827731.683  
                                
  21642789.145   115368277.421    21642792.325    89730913.408    21642792.432  
                                
  21196106.706   113265601.429    21196108.725    88095501.340    21196108.547  
                                
  21243431.545   113598182.149    21243435.333    88354152.768    21243434.279  
                                
  21400911.369   114520620.328    21400911.798    89071598.346    21400911.727  
                                
  25937046.512   136300128.453                                                  
  25937049.925   101782585.846  
  23468674.001   123328758.467                                                  
  23468676.557    92096187.782  
  23701725.944   124553443.743                                                  
  23701728.911    93010713.571  
  25665494.294   134873096.142                                                  
  25665498.082   100716943.651  
  27331882.681   143630031.210                                                  
  27331886.041   107256216.790  
  26985370.537   141809091.721                                                  
  26985374.969   105896434.714  
  26506726.171   139293781.194                                                  
  26506731.406   104018096.474  
 21  8 31 20 49 52.0000000  0 19G10G15G18G23G24G32R 4R 5R14R15R20R21
                                E 3E 5E 9E15E24E31E36
  21950043.010   115348277.597    21950043.081    89881785.994    21950042.885  
  21950041.634    86136710.697  
  22126510.797   116275631.321    22126509.404    90604398.673    22126508.832  
                                
  21213521.642   111477819.814    21213520.355    86865837.831    21213519.944  
  21213524.447    83246443.278  
  20265718.322   106497101.071    20265716.589    82984767.030    20265716.249  
  20265720.556    79527080.945  
  20326129.790   106814578.198    20326130.254    83232161.563    20326129.700  
  20326130.862    79764165.459  
  23791680.250   125026143.545    23791682.019    97422979.563    23791681.376  
  23791681.018    93363691.388  
  22181487.045   118780883.933    22181487.581    92385144.579    22181487.616  
                                
  19827792.974   105990957.831    19827793.903    82437433.270    19827793.796  
                                
  21642975.054   115369268.481    21642978.235    89731684.231    21642978.342  
                                
  21195596.403   113262874.504    21195598.404    88093380.403    21195598.243  
                                
  21244045.256   113601463.908    21244049.045    88356705.243    21244047.990  
                                
  21400735.502   114519679.312    21400735.931    89070866.440    21400735.860  
                                
  25936690.204   136298255.985                                                  
  25936693.617   101781187.572  
  23468678.469   123328781.928                                                  
  23468681.024    92096205.299  
  23702085.737   124555334.487                                                  
  23702088.703    93012125.484  
  25665200.509   134871552.308                                                  
  25665204.297   100715790.790  
  27331398.109   143627484.684                                                  
  27331401.469   107254315.163  
  26985213.486   141808266.410                                                  
  26985217.936   105895818.406  
  26507324.461   139296925.232                                                  
  26507329.697   104020444.288  
 21  8 31 20 49 53.0000000  0 19G10G15G18G23G24G32R 4R 5R14R15R20R21
                                E 3E 5E 9E15E24E31E36
  21949577.200   115345829.765    21949577.271    89879878.592    21949577.075  
  21949575.824    86134882.775  
  22127043.991   116278433.265    22127042.597    90606582.005    22127042.026  
                                
  21213986.790   111480264.178    21213985.504    86867742.528    21213985.093  
  21213989.613    83248268.621  
  20265600.547   106496482.225    20265598.814    82984284.810    20265598.492  
  20265602.781    79526618.820  
  20326092.747   106814383.529    20326093.212    83232009.874    20326092.658  
  20326093.819    79764020.090  
  23791154.204   125023379.098    23791155.973    97420825.455    23791155.347  
  23791154.990    93361627.026  
  22181966.006   118783448.787    22181966.542    92387139.461    22181966.578  
                                
  19827855.122   105991290.047    19827856.051    82437691.658    19827855.944  
                                
  21643161.124   115370260.307    21643164.305    89732455.653    21643164.412  
                                
  21195086.189   113260148.100    21195088.208    88091259.869    21195088.029  
                                
  21244659.057   113604746.138    21244662.846    88359258.084    21244661.791  
                                
  21400559.796   114518739.085    21400560.225    89070135.153    21400560.154  
                                
  25936333.877   136296383.540                                                  
  25936337.290   101779789.324  
  23468682.954   123328805.468                                                  
  23468685.491    92096222.878  
  23702445.512   124557225.173                                                  
  23702448.496    93013537.362  
  25664906.796   134870008.791                                                  
  25664910.584   100714638.164  
  27330913.519   143624938.184                                                  
  27330916.879   107252413.567  
  26985056.507   141807441.417                                                  
  26985060.956   105895202.344  
  26507922.752   139300069.276                                                  
  26507927.970   104022792.109  
 21  8 31 20 49 54.0000000  0 19G10G15G18G23G24G32R 4R 5R14R15R20R21
                                E 3E 5E 9E15E24E31E36
  21949111.462   115343382.227    21949111.533    89877971.417    21949111.337  
  21949110.086    86133055.063  
  22127577.221   116281235.475    22127575.845    90608765.546    22127575.255  
                                
  21214452.064   111482709.169    21214450.795    86869647.716    21214450.366  
  21214454.887    83250094.415  
  20265482.898   106495863.881    20265481.164    82983802.984    20265480.825  
  20265485.131    79526157.069  
  20326055.830   106814189.671    20326056.294    83231858.815    20326055.758  
  20326056.920    79763875.330  
  23790628.193   125020614.895    23790629.962    97418671.530    23790629.337  
  23790628.962    93359562.850  
  22182445.021   118786013.864    22182445.557    92389134.520    22182445.593  
                                
  19827917.342   105991622.651    19827918.271    82437950.353    19827918.164  
                                
  21643347.355   115371253.103    21643350.554    89733227.826    21643350.661  
                                
  21194576.117   113257422.401    21194578.119    88089139.881    21194577.958  
                                
  21245272.966   113608029.035    21245276.772    88361811.443    21245275.717  
                                
  21400384.287   114517799.860    21400384.716    89069404.646    21400384.644  
                                
  25935977.587   136294511.309                                                  
  25935981.018   101778391.230  
  23468687.475   123328829.278                                                  
  23468690.030    92096240.656  
  23702805.341   124559116.011                                                  
  23702808.307    93014949.352  
  25664613.154   134868465.764                                                  
  25664616.942   100713485.908  
  27330428.965   143622391.922                                                  
  27330432.324   107250512.155  
  26984899.617   141806616.960                                                  
  26984904.066   105894586.676  
  26508521.078   139303213.526                                                  
  26508526.314   104025140.090  
 21  8 31 20 49 55.0000000  0 19G10G15G18G23G24G32R 4R 5R14R15R20R21
                                E 3E 5E 9E15E24E31E36
  21948645.724   115340934.844    21948645.795    89876064.366    21948645.581  
  21948644.348    86131227.483  
  22128110.504   116284037.850    22128109.128    90610949.215    22128108.538  
                                
  21214917.427   111485154.644    21214916.140    86871553.279    21214915.729  
  21214920.232    83251920.584  
  20265365.302   106495245.933    20265363.568    82983321.466    20265363.229  
  20265367.535    79525695.615  
  20326019.073   106813996.511    20326019.538    83231708.301    20326019.002  
  20326020.163    79763731.087  
  23790102.201   125017850.853    23790103.952    97416517.731    23790103.327  
  23790102.969    93357498.806  
  22182924.053   118788579.047    22182924.590    92391129.661    22182924.625  
                                
  19827979.616   105991955.536    19827980.545    82438209.261    19827980.437  
                                
  21643533.783   115372246.736    21643536.963    89734000.649    21643537.070  
                                
  21194066.171   113254697.335    21194068.172    88087020.383    21194068.012  
                                
  21245886.999   113611312.502    21245890.787    88364365.246    21245889.751  
                                
  21400208.938   114516861.533    21400209.367    89068674.836    21400209.295  
                                
  25935621.350   136292639.207                                                  
  25935624.781   101776993.232  
  23468692.049   123328853.273                                                  
  23468694.586    92096258.581  
  23703165.151   124561006.905                                                  
  23703168.118    93016361.383  
  25664319.602   134866923.166                                                  
  25664323.390   100712333.970  
  27329944.464   143619845.834                                                  
  27329947.824   107248610.835  
  26984742.798   141805792.934                                                  
  26984747.248   105893971.332  
  26509119.422   139306357.876                                                  
  26509124.676   104027488.141  
 21  8 31 20 49 56.0000000  0 19G10G15G18G23G24G32R 4R 5R14R15R20R21
                                E 3E 5E 9E15E24E31E36
  21948180.093   115338487.887    21948180.164    89874157.646    21948179.967  
  21948178.717    86129400.196  
  22128643.858   116286840.612    22128642.483    90613133.181    22128641.893  
                                
  21215382.933   111487600.880    21215381.646    86873459.434    21215381.235  
  21215385.738    83253747.314  
  20265247.831   106494628.634    20265246.079    82982840.454    20265245.758  
  20265250.064    79525234.644  
  20325982.513   106813804.319    20325982.978    83231558.543    20325982.424  
  20325983.585    79763587.567  
  23789576.298   125015087.242    23789578.067    97414364.268    23789577.441  
  23789577.066    93355435.056  
  22183403.158   118791144.611    22183403.712    92393125.097    22183403.747  
                                
  19828041.996   105992288.973    19828042.925    82438468.601    19828042.818  
                                
  21643720.371   115373241.467    21643723.569    89734774.328    21643723.677  
                                
  21193556.350   113251973.158    21193558.369    88084901.578    21193558.208  
                                
  21246501.175   113614596.781    21246504.963    88366919.686    21246503.927  
                                
  21400033.804   114515924.354    21400034.251    89067945.919    21400034.179  
                                
  25935265.167   136290767.454                                                  
  25935268.580   101775595.499  
  23468696.695   123328877.705                                                  
  23468699.250    92096276.821  
  23703525.051   124562898.101                                                  
  23703528.018    93017773.638  
  25664026.192   134865381.221                                                  
  25664029.981   100711182.518  
  27329460.017   143617300.114                                                  
  27329463.394   107246709.822  
  26984586.141   141804969.587                                                  
  26984590.572   105893356.501  
  26509717.838   139309502.601                                                  
  26509723.092   104029836.470  
 21  8 31 20 49 57.0000000  0 19G10G15G18G23G24G32R 4R 5R14R15R20R21
                                E 3E 5E 9E15E24E31E36
  21947714.444   115336040.891    21947714.515    89872250.894    21947714.319  
  21947713.068    86127572.903  
  22129177.195   116289643.348    22129175.819    90615317.130    22129175.230  
                                
  21215848.492   111490047.400    21215847.206    86875365.813    21215846.795  
  21215851.298    83255574.261  
  20265130.395   106494011.519    20265128.662    82982359.585    20265128.340  
  20265132.629    79524773.814  
  20325946.043   106813612.620    20325946.507    83231409.168    20325945.953  
  20325947.115    79763444.411  
  23789050.394   125012323.558    23789052.163    97412210.753    23789051.538  
  23789051.163    93353371.270  
  22183882.226   118793710.049    22183882.780    92395120.433    22183882.816  
                                
  19828104.395   105992622.493    19828105.324    82438728.003    19828105.217  
                                
  21643907.102   115374236.808    21643910.283    89735548.485    21643910.390  
                                
  21193046.654   113249249.416    21193048.655    88082783.115    21193048.494  
                                
  21247115.423   113617881.403    21247119.211    88369474.387    21247118.157  
                                
  21399858.777   114514987.839    21399859.223    89067217.514    21399859.134  
                                
  25934908.984   136288895.628                                                  
  25934912.397   101774197.704  
  23468701.323   123328902.099                                                  
  23468703.878    92096295.040  
  23703884.916   124564789.142                                                  
  23703887.882    93019185.774  
  25663732.801   134863839.483                                                  
  25663736.589   100710031.213  
  27328975.588   143614754.319                                                  
  27328978.929   107244808.752  
  26984429.483   141804146.456                                                  
  26984433.914   105892741.828  
  26510316.254   139312647.203                                                  
  26510321.489   104032184.716  
 21  8 31 20 49 58.0000000  0 19G10G15G18G23G24G32R 4R 5R14R15R20R21
                                E 3E 5E 9E15E24E31E36
  21947248.777   115333593.869    21947248.848    89870344.126    21947248.652  
  21947247.401    86125745.586  
  22129710.550   116292446.054    22129709.156    90617501.055    22129708.584  
                                
  21216314.105   111492494.240    21216312.819    86877272.437    21216312.408  
  21216316.911    83257401.440  
  20265012.996   106493394.616    20265011.263    82981878.879    20265010.941  
  20265015.229    79524313.138  
  20325909.661   106813421.432    20325910.126    83231260.188    20325909.572  
  20325910.733    79763301.643  
  23788524.473   125009559.839    23788526.242    97410057.205    23788525.617  
  23788525.242    93351307.460  
  22184361.295   118796275.394    22184361.831    92397115.704    22184361.867  
                                
  19828166.794   105992956.089    19828167.723    82438987.468    19828167.633  
                                
  21644093.959   115375232.807    21644097.157    89736323.148    21644097.264  
                                
  21192537.029   113246526.101    21192539.031    88080664.981    21192538.870  
                                
  21247729.724   113621166.399    21247733.530    88372029.386    21247732.476  
                                
  21399683.910   114514052.046    21399684.339    89066489.673    21399684.268  
                                
  25934552.747   136287023.717                                                  
  25934556.160   101772799.851  
  23468705.969   123328926.485                                                  
  23468708.524    92096313.252  
  23704244.726   124566680.033                                                  
  23704247.692    93020597.807  
  25663439.463   134862297.944                                                  
  25663443.251   100708880.072  
  27328491.123   143612208.488                                                  
  27328494.465   107242907.634  
  26984272.897   141803323.581                                                  
  26984277.346   105892127.335  
  26510914.634   139315791.737                                                  
  26510919.869   104034532.905  
 21  8 31 20 49 59.0000000  0 19G10G15G18G23G24G32R 4R 5R14R15R20R21
                                E 3E 5E 9E15E24E31E36
  21946783.182   115331147.153    21946783.271    89868437.593    21946783.057  
  21946781.824    86123918.484  
  22130243.922   116295249.042    22130242.546    90619685.204    22130241.957  
                                
  21216779.826   111494941.678    21216778.557    86879179.532    21216778.146  
  21216782.649    83259229.077  
  20264895.704   106492778.218    20264893.952    82981398.568    20264893.631  
  20264897.937    79523852.842  
  20325873.423   106813231.048    20325873.887    83231111.834    20325873.351  
  20325874.513    79763159.473  
  23787998.606   125006796.416    23788000.393    97407903.887    23787999.749  
  23787999.392    93349243.854  
  22184840.381   118798840.955    22184840.935    92399111.140    22184840.971  
                                
  19828229.282   105993290.096    19828230.211    82439247.249    19828230.103  
                                
  21644280.976   115376229.782    21644284.174    89737098.574    21644284.281  
                                
  21192027.530   113243803.521    21192029.531    88078547.423    21192029.370  
                                
  21248344.168   113624452.076    21248347.956    88374584.913    21248346.902  
                                
  21399509.223   114513117.273    21399509.670    89065762.627    21399509.580  
                                
  25934196.599   136285152.041                                                  
  25934200.012   101771402.170  
  23468710.669   123328951.152                                                  
  23468713.206    92096331.670  
  23704604.590   124568571.094                                                  
  23704607.557    93022009.961  
  25663146.215   134860756.950                                                  
  25663150.003   100707729.320  
  27328006.694   143609662.881                                                  
  27328010.035   107241006.711  
  26984116.400   141802501.214                                                  
  26984120.831   105891513.253  
  26511513.050   139318936.480                                                  
  26511518.285   104036881.250  
 21  8 31 20 50  0.0000000  0 19G10G15G18G23G24G32R 4R 5R14R15R20R21
                                E 3E 5E 9E15E24E31E36
  21946317.676   115328700.806    21946317.747    89866531.351    21946317.551  
  21946316.300    86122091.673  
  22130777.402   116298052.409    22130776.008    90621869.641    22130775.436  
                                
  21217245.707   111497389.845    21217244.420    86881087.194    21217244.009  
  21217248.512    83261057.251  
  20264778.536   106492162.438    20264776.803    82980918.740    20264776.464  
  20264780.770    79523393.003  
  20325837.381   106813041.585    20325837.846    83230964.205    20325837.292  
  20325838.453    79763017.994  
  23787472.828   125004033.342    23787474.597    97405750.844    23787473.971  
  23787473.596    93347180.526  
  22185319.557   118801406.835    22185320.111    92401106.822    22185320.147  
                                
  19828291.859   105993624.619    19828292.788    82439507.434    19828292.699  
                                
  21644468.225   115377227.847    21644471.424    89737874.846    21644471.531  
                                
  21191518.209   113241081.817    21191520.211    88076430.545    21191520.050  
                                
  21248958.755   113627738.526    21248962.544    88377141.040    21248961.489  
                                
  21399334.750   114512183.614    21399335.196    89065036.450    21399335.107  
                                
  25933840.488   136283280.705                                                  
  25933843.901   101770004.740  
  23468715.457   123328976.218                                                  
  23468717.995    92096350.388  
  23704964.473   124570462.417                                                  
  23704967.439    93023422.315  
  25662853.091   134859216.562                                                  
  25662856.879   100706579.034  
  27327522.354   143607117.652                                                  
  27327525.695   107239106.059  
  26983960.046   141801679.530                                                  
  26983964.495   105890899.647  
  26512111.555   139322081.557                                                  
  26512116.808   104039229.842  
 21  8 31 20 50  1.0000000  0 19G10G15G18G23G24G32R 4R 5R14R15R20R21
                                E 3E 5E 9E15E24E31E36
  21945852.188   115326254.717    21945852.259    89864625.313    21945852.045  
  21945850.812    86120265.053  
  22131310.917   116300855.998    22131309.524    90624054.256    22131308.952  
                                
  21217711.677   111499838.586    21217710.409    86882995.300    21217709.980  
  21217714.501    83262885.854  
  20264661.441   106491547.123    20264659.707    82980439.276    20264659.368  
  20264663.674    79522933.516  
  20325801.464   106812852.912    20325801.929    83230817.185    20325801.375  
  20325802.536    79762877.101  
  23786947.067   125001270.497    23786948.836    97403597.976    23786948.193  
  23786947.818    93345117.372  
  22185798.750   118803972.892    22185799.304    92403102.644    22185799.340  
                                
  19828354.508   105993959.516    19828355.437    82439767.912    19828355.347  
                                
  21644655.618   115378226.838    21644658.816    89738651.839    21644658.923  
                                
  21191009.014   113238360.842    21191011.015    88074314.231    21191010.854  
                                
  21249573.468   113631025.636    21249577.256    88379697.681    21249576.202  
                                
  21399160.455   114511250.914    21399160.902    89064311.019    21399160.813  
                                
  25933484.429   136281409.557                                                  
  25933487.842   101768607.452  
  23468720.264   123329001.539                                                  
  23468722.819    92096369.294  
  23705324.426   124572353.868                                                  
  23705327.392    93024834.760  
  25662560.057   134857676.672                                                  
  25662563.845   100705429.114  
  27327038.068   143604572.655                                                  
  27327041.409   107237205.566  
  26983803.781   141800858.342                                                  
  26983808.231   105890286.414  
  26512710.078   139325226.807                                                  
  26512715.313   104041578.568  
 21  8 31 20 50  2.0000000  0 19G10G15G18G23G24G32R 4R 5R14R15R20R21
                                E 3E 5E 9E15E24E31E36
  21945386.700   115323808.572    21945386.771    89862719.224    21945386.575  
  21945385.324    86118438.380  
  22131844.397   116303659.526    22131843.003    90626238.821    22131842.431  
                                
  21218177.719   111502287.603    21218176.433    86884903.625    21218176.022  
  21218180.525    83264714.666  
  20264544.381   106490931.995    20264542.647    82979959.951    20264542.308  
  20264546.614    79522474.161  
  20325765.637   106812664.711    20325766.119    83230670.535    20325765.565  
  20325766.727    79762736.562  
  23786421.289   124998507.588    23786423.058    97401445.064    23786422.433  
  23786422.058    93343054.169  
  22186277.926   118806538.856    22186278.480    92405098.390    22186278.516  
                                
  19828417.174   105994294.452    19828418.103    82440028.417    19828417.996  
                                
  21644843.153   115379226.456    21644846.352    89739429.320    21644846.459  
                                
  21190499.871   113235640.272    21190501.873    88072198.237    21190501.712  
                                
  21250188.233   113634313.074    21250192.022    88382254.578    21250190.967  
                                
  21398986.286   114510318.895    21398986.715    89063586.111    21398986.643  
                                
  25933128.336   136279538.303                                                  
  25933131.748   101767210.094  
  23468725.071   123329026.816                                                  
  23468727.626    92096388.172  
  23705684.326   124574245.159                                                  
  23705687.292    93026247.087  
  25662267.059   134856136.958                                                  
  25662270.847   100704279.327  
  27326553.746   143602027.561                                                  
  27326557.087   107235305.013  
  26983647.552   141800037.354                                                  
  26983652.002   105889673.347  
  26513308.583   139328371.952                                                  
  26513313.836   104043927.211  
 21  8 31 20 50  3.0000000  0 19G10G15G18G23G24G32R 4R 5R14R15R20R21
                                E 3E 5E 9E15E24E31E36
  21944921.265   115321362.657    21944921.337    89860813.318    21944921.140  
  21944919.889    86116611.887  
  22132377.930   116306463.274    22132376.554    90628423.565    22132375.965  
                                
  21218643.851   111504737.181    21218642.582    86886812.389    21218642.171  
  21218646.674    83266543.896  
  20264427.410   106490317.304    20264425.677    82979480.974    20264425.355  
  20264429.644    79522015.147  
  20325729.970   106812477.265    20325730.453    83230524.475    20325729.899  
  20325731.060    79762596.590  
  23785895.565   124995744.902    23785897.316    97399292.322    23785896.691  
  23785896.315    93340991.128  
  22186757.120   118809104.958    22186757.674    92407094.244    22186757.709  
                                
  19828479.877   105994629.686    19828480.806    82440289.155    19828480.717  
                                
  21645030.831   115380226.953    21645034.048    89740207.484    21645034.155  
                                
  21189990.890   113232920.374    21189992.892    88070082.765    21189992.731  
                                
  21250803.124   113637601.178    21250806.913    88384811.992    21250805.858  
                                
  21398812.277   114509387.821    21398812.724    89062861.945    21398812.635  
                                
  25932772.277   136277667.217                                                  
  25932775.690   101765812.860  
  23468729.931   123329052.329                                                  
  23468732.469    92096407.224  
  23706044.226   124576136.543                                                  
  23706047.192    93027659.487  
  25661974.167   134854597.696                                                  
  25661977.938   100703129.885  
  27326069.477   143599482.663                                                  
  27326072.819   107233404.602  
  26983491.413   141799216.844                                                  
  26983495.844   105889060.629  
  26513907.123   139331517.261                                                  
  26513912.377   104046275.970  
 21  8 31 20 50  4.0000000  0 19G10G15G18G23G24G32R 4R 5R14R15R20R21
                                E 3E 5E 9E15E24E31E36
  21944455.849   115318916.911    21944455.920    89858907.542    21944455.724  
  21944454.473    86114785.520  
  22132911.499   116309267.184    22132910.106    90630608.427    22132909.516  
                                
  21219110.089   111507187.258    21219108.803    86888721.537    21219108.392  
  21219112.895    83268373.501  
  20264310.511   106489703.021    20264308.778    82979002.312    20264308.456  
  20264312.745    79521556.427  
  20325694.447   106812290.531    20325694.911    83230378.971    20325694.357  
  20325695.519    79762457.146  
  23785369.876   124992982.368    23785371.627    97397139.707    23785371.002  
  23785370.626    93338928.206  
  22187236.367   118811671.155    22187236.903    92409090.176    22187236.957  
                                
  19828542.651   105994965.185    19828543.580    82440550.099    19828543.473  
                                
  21645218.706   115381228.322    21645221.905    89740986.327    21645222.012  
                                
  21189482.016   113230201.123    21189484.018    88067967.788    21189483.857  
                                
  21251418.123   113640889.808    21251421.911    88387369.811    21251420.857  
                                
  21398638.465   114508457.667    21398638.912    89062138.492    21398638.823  
                                
  25932416.237   136275796.265                                                  
  25932419.650   101764415.721  
  23468734.810   123329078.017                                                  
  23468737.365    92096426.404  
  23706404.162   124578027.985                                                  
  23706407.146    93029071.925  
  25661681.312   134853058.865                                                  
  25661685.100   100701980.756  
  27325585.209   143596937.898                                                  
  27325588.550   107231504.297  
  26983335.363   141798396.783                                                  
  26983339.794   105888448.243  
  26514505.664   139334662.661                                                  
  26514510.918   104048624.818  
 21  8 31 20 50  5.0000000  0 19G10G15G18G23G24G32R 4R 5R14R15R20R21
                                E 3E 5E 9E15E24E31E36
  21943990.468   115316471.363    21943990.557    89857001.918    21943990.343  
  21943989.110    86112959.295  
  22133445.086   116312071.255    22133443.710    90632793.419    22133443.121  
                                
  21219576.417   111509637.857    21219575.148    86890631.097    21219574.737  
  21219579.240    83270203.492  
  20264193.719   106489089.155    20264191.968    82978523.974    20264191.646  
  20264195.953    79521098.019  
  20325659.048   106812104.522    20325659.513    83230234.026    20325658.977  
  20325660.138    79762318.245  
  23784844.223   124990220.031    23784845.992    97394987.243    23784845.349  
  23784844.973    93336865.415  
  22187715.596   118814237.496    22187716.150    92411086.216    22187716.186  
                                
  19828605.460   105995300.992    19828606.389    82440811.282    19828606.300  
                                
  21645406.706   115382230.572    21645409.923    89741765.854    21645410.030  
                                
  21188973.267   113227482.502    21188975.269    88065853.307    21188975.108  
                                
  21252033.228   113644179.053    21252037.016    88389928.112    21252035.962  
                                
  21398464.814   114507528.422    21398465.261    89061415.748    21398465.172  
                                
  25932060.233   136273925.455                                                  
  25932063.646   101763018.683  
  23468739.741   123329103.904                                                  
  23468742.297    92096445.738  
  23706764.133   124579919.504                                                  
  23706767.100    93030484.417  
  25661388.582   134851520.451                                                  
  25661392.352   100700831.945  
  27325100.994   143594393.308                                                  
  27325104.353   107229604.115  
  26983179.402   141797577.177                                                  
  26983183.851   105887836.193  
  26515104.241   139337808.196                                                  
  26515109.494   104050973.753  
 21  8 31 20 50  6.0000000  0 19G10G15G18G23G24G32R 4R 5R14R15R20R21
                                E 3E 5E 9E15E24E31E36
  21943525.123   115314025.873    21943525.194    89855096.343    21943524.998  
  21943523.747    86111133.117  
  22133978.709   116314875.370    22133977.315    90634978.442    22133976.743  
                                
  21220042.834   111512088.840    21220041.548    86892540.952    21220041.137  
  21220045.640    83272033.771  
  20264076.945   106488475.568    20264075.212    82978045.854    20264074.872  
  20264079.179    79520639.820  
  20325623.775   106811919.100    20325624.239    83230089.544    20325623.685  
  20325624.847    79762179.776  
  23784318.552   124987457.720    23784320.321    97392834.793    23784319.696  
  23784319.303    93334802.662  
  22188194.843   118816803.823    22188195.397    92413082.245    22188195.433  
                                
  19828668.323   105995636.987    19828669.253    82441072.610    19828669.145  
                                
  21645594.885   115383233.542    21645598.084    89742545.945    21645598.191  
                                
  21188464.608   113224764.392    21188466.609    88063739.221    21188466.448  
                                
  21252648.405   113647468.713    21252652.193    88392486.734    21252651.139  
                                
  21398291.306   114506599.962    21398291.753    89060693.612    21398291.681  
                                
  25931704.246   136272054.635                                                  
  25931707.659   101761621.647  
  23468744.673   123329129.863                                                  
  23468747.229    92096465.120  
  23707124.051   124581810.950                                                  
  23707127.017    93031896.864  
  25661095.869   134849982.345                                                  
  25661099.658   100699683.348  
  27324616.779   143591848.748                                                  
  27324620.121   107227703.956  
  26983023.495   141796757.867                                                  
  26983027.944   105887224.375  
  26515702.817   139340953.720                                                  
  26515708.071   104053322.678  
 21  8 31 20 50  7.0000000  0 19G10G15G18G23G24G32R 4R 5R14R15R20R21
                                E 3E 5E 9E15E24E31E36
  21943059.813   115311580.717    21943059.885    89853191.025    21943059.670  
  21943058.437    86109307.193  
  22134512.367   116317679.810    22134510.973    90637163.722    22134510.402  
                                
  21220509.359   111514540.495    21220508.072    86894451.331    21220507.661  
  21220512.182    83273864.553  
  20263960.278   106487862.556    20263958.545    82977568.183    20263958.223  
  20263962.512    79520182.051  
  20325588.644   106811734.547    20325589.109    83229945.736    20325588.573  
  20325589.734    79762041.967  
  23783792.988   124984695.747    23783794.757    97390682.609    23783794.132  
  23783793.739    93332740.136  
  22188674.126   118819370.409    22188674.680    92415078.474    22188674.716  
                                
  19828731.276   105995973.484    19828732.205    82441334.329    19828732.098  
                                
  21645783.207   115384237.515    21645786.405    89743326.813    21645786.530  
                                
  21187956.091   113222047.092    21187958.092    88061625.770    21187957.931  
                                
  21253263.725   113650759.149    21253267.513    88395045.960    21253266.476  
                                
  21398117.994   114505672.572    21398118.441    89059972.312    21398118.352  
                                
  25931348.277   136270184.112                                                  
  25931351.690   101760224.825  
  23468749.677   123329156.158                                                  
  23468752.232    92096484.752  
  23707484.023   124583702.619                                                  
  23707486.989    93033309.474  
  25660803.300   134848444.800                                                  
  25660807.070   100698535.190  
  27324132.618   143589304.488                                                  
  27324135.960   107225804.026  
  26982867.695   141795939.171                                                  
  26982872.144   105886613.013  
  26516301.429   139344099.525                                                  
  26516306.701   104055671.809  
 21  8 31 20 50  8.0000000  0 19G10G15G18G23G24G32R 4R 5R14R15R20R21
                                E 3E 5E 9E15E24E31E36
  21942594.558   115309135.785    21942594.629    89851285.887    21942594.433  
  21942593.182    86107481.436  
  22135046.079   116320484.471    22135044.685    90639349.168    22135044.114  
                                
  21220976.008   111516992.711    21220974.722    86896362.146    21220974.311  
  21220978.814    83275695.746  
  20263843.736   106487249.996    20263842.003    82977090.861    20263841.664  
  20263845.970    79519724.620  
  20325553.657   106811550.768    20325554.139    83229802.530    20325553.585  
  20325554.747    79761904.725  
  23783267.425   124981933.979    23783269.194    97388530.596    23783268.568  
  23783268.175    93330677.797  
  22189153.481   118821937.165    22189154.017    92417074.838    22189154.070  
                                
  19828794.282   105996310.351    19828795.211    82441596.339    19828795.122  
                                
  21645971.707   115385242.388    21645974.923    89744108.378    21645975.031  
                                
  21187447.717   113219330.506    21187449.719    88059512.873    21187449.558  
                                
  21253879.170   113654050.194    21253882.958    88397605.665    21253881.921  
                                
  21397944.879   114504746.151    21397945.326    89059251.759    21397945.237  
                                
  25930992.380   136268313.762                                                  
  25930995.793   101758828.135  
  23468754.716   123329182.697                                                  
  23468757.271    92096504.577  
  23707844.012   124585594.399                                                  
  23707846.978    93034722.167  
  25660510.784   134846907.724                                                  
  25660514.554   100697387.385  
  27323648.493   143586760.424                                                  
  27323651.834   107223904.242  
  26982712.002   141795120.962                                                  
  26982716.469   105886002.002  
  26516900.113   139347245.500                                                  
  26516905.385   104058021.066  
 21  8 31 20 50  9.0000000  0 19G10G15G18G23G24G32R 4R 5R14R15R20R21
                                E 3E 5E 9E15E24E31E36
  21942129.391   115306691.275    21942129.463    89849381.074    21942129.266  
  21942128.015    86105655.991  
  22135579.863   116323289.513    22135578.487    90641534.917    22135577.897  
                                
  21221442.801   111519445.664    21221441.514    86898273.535    21221441.103  
  21221445.624    83277527.501  
  20263727.284   106486638.069    20263725.551    82976614.037    20263725.211  
  20263729.518    79519267.660  
  20325518.884   106811367.940    20325519.348    83229660.069    20325518.794  
  20325519.956    79761768.196  
  23782741.950   124979172.625    23782743.701    97386378.891    23782743.076  
  23782742.701    93328615.755  
  22189632.871   118824504.299    22189633.407    92419071.498    22189633.461  
                                
  19828857.378   105996647.728    19828858.307    82441858.744    19828858.218  
                                
  21646160.440   115386248.367    21646163.638    89744890.804    21646163.763  
                                
  21186939.504   113216614.798    21186941.506    88057400.659    21186941.345  
                                
  21254494.775   113657342.037    21254498.563    88400165.984    21254497.509  
                                
  21397771.979   114503820.868    21397772.407    89058532.094    21397772.336  
                                
  25930636.518   136266443.764                                                  
  25930639.931   101757431.717  
  23468759.880   123329209.653                                                  
  23468762.435    92096524.704  
  23708204.055   124587486.470                                                  
  23708207.021    93036135.081  
  25660218.429   134845371.323                                                  
  25660222.217   100696240.057  
  27323164.439   143584216.750                                                  
  27323167.798   107222004.750  
  26982556.398   141794303.404                                                  
  26982560.848   105885391.505  
  26517498.833   139350391.810                                                  
  26517504.086   104060370.591  
 21  8 31 20 50 10.0000000  0 19G10G15G18G23G24G32R 4R 5R14R15R20R21
                                E 3E 5E 9E15E24E31E36
  21941664.225   115304246.738    21941664.296    89847476.241    21941664.100  
  21941662.849    86103830.519  
  22136113.628   116326094.523    22136112.252    90643720.637    22136111.663  
                                
  21221909.629   111521898.915    21221908.360    86900185.160    21221907.949  
  21221912.452    83279359.472  
  20263610.867   106486026.334    20263609.134    82976137.360    20263608.794  
  20263613.101    79518810.846  
  20325484.182   106811185.597    20325484.646    83229517.983    20325484.093  
  20325485.254    79761632.030  
  23782216.458   124976411.215    23782218.227    97384227.143    23782217.602  
  23782217.209    93326553.659  
  22190112.225   118827071.313    22190112.779    92421068.062    22190112.815  
                                
  19828920.509   105996985.150    19828921.438    82442121.181    19828921.331  
                                
  21646349.279   115387255.014    21646352.478    89745673.754    21646352.585  
                                
  21186431.381   113213899.498    21186433.382    88055288.759    21186433.221  
                                
  21255110.452   113660634.298    21255114.241    88402726.627    21255113.186  
                                
  21397599.185   114502896.257    21397599.614    89057812.950    21397599.543  
                                
  25930280.657   136264573.684                                                  
  25930284.070   101756035.222  
  23468764.990   123329236.577                                                  
  23468767.546    92096544.807  
  23708564.098   124589378.394                                                  
  23708567.064    93037547.873  
  25659926.074   134843835.093                                                  
  25659929.862   100695092.881  
  27322680.403   143581673.017                                                  
  27322683.744   107220105.207  
  26982400.866   141793486.081                                                  
  26982405.316   105884781.165  
  26518097.534   139353538.011                                                  
  26518102.788   104062720.032  
 21  8 31 20 50 11.0000000  0 19G10G15G18G23G24G32R 4R 5R14R15R20R21
                                E 3E 5E 9E15E24E31E36
  21941199.058   115301802.416    21941199.148    89845571.574    21941198.951  
  21941197.700    86102005.213  
  22136647.447   116328899.727    22136646.072    90645906.510    22136645.482  
                                
  21222376.582   111524352.707    21222375.314    86902097.207    21222374.885  
  21222379.406    83281191.847  
  20263494.558   106485415.047    20263492.824    82975661.031    20263492.485  
  20263496.791    79518354.364  
  20325449.623   106811003.998    20325450.088    83229376.478    20325449.552  
  20325450.713    79761496.423  
  23781691.019   124973650.002    23781692.788    97382075.557    23781692.163  
  23781691.770    93324491.723  
  22190591.615   118829638.449    22190592.169    92423064.726    22190592.205  
                                
  19828983.694   105997322.880    19828984.623    82442383.861    19828984.516  
                                
  21646538.298   115388262.556    21646541.496    89746457.398    21646541.622  
                                
  21185923.382   113211184.893    21185925.384    88053177.400    21185925.223  
                                
  21255726.219   113663927.135    21255730.007    88405287.723    21255728.971  
                                
  21397426.588   114501972.590    21397427.017    89057094.545    21397426.946  
                                
  25929924.813   136262703.778                                                  
  25929928.226   101754638.870  
  23468770.155   123329263.726                                                  
  23468772.710    92096565.086  
  23708924.123   124591270.409                                                  
  23708927.089    93038960.737  
  25659633.844   134842299.334                                                  
  25659637.632   100693946.042  
  27322196.367   143579129.458                                                  
  27322199.708   107218205.798  
  26982245.442   141792669.245                                                  
  26982249.891   105884171.190  
  26518696.272   139356684.391                                                  
  26518701.543   104065069.584  
 21  8 31 20 50 12.0000000  0 19G10G15G18G23G24G32R 4R 5R14R15R20R21
                                E 3E 5E 9E15E24E31E36
  21940733.981   115299358.370    21940734.053    89843667.120    21940733.856  
  21940732.605    86100180.120  
  22137181.302   116331705.200    22137179.926    90648092.589    22137179.337  
                                
  21222843.643   111526807.115    21222842.356    86904009.735    21222841.945  
  21222846.448    83283024.689  
  20263378.320   106484804.265    20263376.586    82975185.094    20263376.247  
  20263380.553    79517898.265  
  20325415.225   106810823.228    20325415.690    83229235.617    20325415.136  
  20325416.315    79761361.434  
  23781165.634   124970889.079    23781167.403    97379924.187    23781166.778  
  23781166.385    93322429.995  
  22191071.077   118832205.816    22191071.613    92425061.566    22191071.667  
                                
  19829046.932   105997660.997    19829047.861    82442646.839    19829047.772  
                                
  21646727.477   115389271.057    21646730.694    89747241.787    21646730.801  
                                
  21185415.509   113208471.055    21185417.510    88051066.638    21185417.350  
                                
  21256342.128   113667220.665    21256345.917    88407849.352    21256344.862  
                                
  21397254.170   114501049.973    21397254.599    89056376.954    21397254.527  
                                
  25929569.041   136260834.094                                                  
  25929572.454   101753242.675  
  23468775.372   123329291.175                                                  
  23468777.928    92096585.579  
  23709284.202   124593162.585                                                  
  23709287.168    93040373.728  
  25659341.721   134840764.110                                                  
  25659345.491   100692799.606  
  27321712.384   143576586.151                                                  
  27321715.726   107216306.584  
  26982090.088   141791852.943                                                  
  26982094.538   105883561.614  
  26519295.045   139359830.973                                                  
  26519300.298   104067419.311  
 21  8 31 20 50 13.0000000  0 19G10G15G18G23G24G32R 4R 5R14R15R20R21
                                E 3E 5E 9E15E24E31E36
  21940268.886   115296914.253    21940268.958    89841762.611    21940268.761  
  21940267.528    86098354.964  
  22137715.157   116334510.571    22137713.764    90650278.589    22137713.192  
                                
  21223310.739   111529261.781    21223309.470    86905922.458    21223309.059  
  21223313.562    83284857.712  
  20263262.118   106484193.638    20263260.384    82974709.286    20263260.045  
  20263264.351    79517442.275  
  20325380.917   106810642.914    20325381.381    83229095.114    20325380.845  
  20325382.007    79761226.776  
  23780640.232   124968128.062    23780642.001    97377772.745    23780641.375  
  23780640.982    93320368.186  
  22191550.485   118834773.069    22191551.039    92427058.314    22191551.075  
                                
  19829110.206   105997999.142    19829111.118    82442909.841    19829111.028  
                                
  21646916.800   115390280.141    21646919.998    89748026.628    21646920.105  
                                
  21184907.725   113205757.603    21184909.744    88048956.177    21184909.583  
                                
  21256958.092   113670514.493    21256961.880    88410411.221    21256960.825  
                                
  21397081.859   114500127.979    21397082.288    89055659.848    21397082.216  
                                
  25929213.215   136258964.284                                                  
  25929216.628   101751846.391  
  23468780.590   123329318.548                                                  
  23468783.145    92096606.021  
  23709644.209   124595054.565                                                  
  23709647.175    93041786.570  
  25659049.580   134839229.018                                                  
  25659053.351   100691653.280  
  27321228.384   143574042.747                                                  
  27321231.743   107214407.295  
  26981934.789   141791036.823                                                  
  26981939.256   105882952.173  
  26519893.782   139362977.418                                                  
  26519899.053   104069768.920  
 21  8 31 20 50 14.0000000  0 19G10G15G18G23G24G32R 4R 5R14R15R20R21
                                E 3E 5E 9E15E24E31E36
  21939803.774   115294470.157    21939803.863    89839858.123    21939803.649  
  21939802.416    86096529.829  
  22138249.012   116337315.965    22138247.636    90652464.609    22138247.047  
                                
  21223777.907   111531716.779    21223776.638    86907835.443    21223776.227  
  21223780.730    83286690.994  
  20263145.969   106483583.250    20263144.236    82974233.656    20263143.914  
  20263148.202    79516986.466  
  20325346.716   106810463.133    20325347.180    83228955.021    20325346.626  
  20325347.788    79761092.532  
  23780114.829   124965367.028    23780116.598    97375621.290    23780115.972  
  23780115.579    93318306.379  
  22192029.893   118837340.253    22192030.447    92429055.010    22192030.483  
                                
  19829173.481   105998337.429    19829174.410    82443172.953    19829174.303  
                                
  21647106.211   115391289.892    21647109.428    89748811.990    21647109.535  
                                
  21184400.030   113203044.615    21184402.050    88046846.078    21184401.889  
                                
  21257574.144   113673808.740    21257577.914    88412973.411    21257576.878  
                                
  21396909.691   114499206.709    21396910.138    89054943.307    21396910.048  
                                
  25928857.407   136257094.430                                                  
  25928860.820   101750450.071  
  23468785.790   123329345.944                                                  
  23468788.345    92096626.482  
  23710004.234   124596946.436                                                  
  23710007.200    93043199.335  
  25658757.529   134837694.196                                                  
  25658761.299   100690507.144  
  27320744.419   143571499.332                                                  
  27320747.761   107212507.983  
  26981779.560   141790220.993                                                  
  26981784.010   105882342.935  
  26520492.537   139366123.807                                                  
  26520497.809   104072118.501  
 21  8 31 20 50 15.0000000  0 19G10G15G18G23G24G32R 4R 5R14R15R20R21
                                E 3E 5E 9E15E24E31E36
  21939338.732   115292026.260    21939338.804    89837953.788    21939338.607  
  21939337.356    86094704.839  
  22138782.885   116340121.545    22138781.509    90654650.777    22138780.919  
                                
  21224245.182   111534172.325    21224243.913    86909748.851    21224243.502  
  21224248.023    83288524.670  
  20263029.892   106482973.292    20263028.158    82973758.365    20263027.837  
  20263032.125    79516530.978  
  20325312.621   106810284.096    20325313.086    83228815.517    20325312.550  
  20325313.711    79760958.834  
  23779589.461   124962606.199    23779591.213    97373469.997    23779590.587  
  23779590.194    93316244.736  
  22192509.319   118839907.572    22192509.873    92431051.809    22192509.909  
                                
  19829236.826   105998676.060    19829237.756    82443436.333    19829237.666  
                                
  21647295.819   115392300.530    21647299.018    89749598.042    21647299.125  
                                
  21183892.461   113200332.273    21183894.462    88044736.478    21183894.301  
                                
  21258190.286   113677103.587    21258194.074    88415536.067    21258193.020  
                                
  21396737.720   114498286.398    21396738.166    89054227.509    21396738.077  
                                
  25928501.599   136255224.731                                                  
  25928505.012   101749053.872  
  23468791.043   123329373.548                                                  
  23468793.599    92096647.093  
  23710364.277   124598838.401                                                  
  23710367.243    93044612.162  
  25658465.531   134836159.811                                                  
  25658469.302   100689361.346  
  27320260.437   143568956.072                                                  
  27320263.778   107210608.808  
  26981624.386   141789405.610                                                  
  26981628.835   105881734.055  
  26521091.310   139369270.355                                                  
  26521096.582   104074468.182  
 21  8 31 20 50 16.0000000  0 19G10G15G18G23G24G32R 4R 5R14R15R20R21
                                E 3E 5E 9E15E24E31E36
  21938873.727   115289582.677    21938873.816    89836049.700    21938873.602  
  21938872.369    86092880.090  
  22139316.829   116342927.408    22139315.453    90656837.162    22139314.864  
                                
  21224712.582   111536628.497    21224711.295    86911662.751    21224710.884  
  21224715.405    83290358.829  
  20262913.922   106482363.875    20262912.188    82973283.496    20262911.849  
  20262916.155    79516075.894  
  20325278.724   106810105.899    20325279.188    83228676.662    20325278.635  
  20325279.796    79760825.769  
  23779064.148   124959845.678    23779065.899    97371318.940    23779065.274  
  23779064.881    93314183.302  
  22192988.799   118842475.145    22192989.352    92433048.808    22192989.406  
                                
  19829300.261   105999015.121    19829301.191    82443700.044    19829301.083  
                                
  21647485.588   115393312.165    21647488.787    89750384.872    21647488.912  
                                
  21183385.034   113197620.694    21183387.035    88042627.472    21183386.875  
                                
  21258806.570   113680399.153    21258810.359    88418099.285    21258809.322  
                                
  21396565.945   114497367.145    21396566.373    89053512.532    21396566.302  
                                
  25928145.844   136253355.294                                                  
  25928149.257   101747657.864  
  23468796.368   123329401.475                                                  
  23468798.906    92096667.950  
  23710724.320   124600730.548                                                  
  23710727.286    93046025.131  
  25658173.659   134834625.984                                                  
  25658177.429   100688215.949  
  27319776.543   143566413.108                                                  
  27319779.885   107208709.840  
  26981469.336   141788590.805                                                  
  26981473.786   105881125.595  
  26521690.101   139372417.119                                                  
  26521695.373   104076818.050  
 21  8 31 20 50 17.0000000  0 19G10G15G18G23G24G32R 4R 5R14R15R20R21
                                E 3E 5E 9E15E24E31E36
  21938408.739   115287139.159    21938408.810    89834145.660    21938408.614  
  21938407.363    86091055.383  
  22139850.774   116345733.325    22139849.380    90659023.590    22139848.808  
                                
  21225180.053   111539085.067    21225178.785    86913576.959    21225178.374  
  21225182.877    83292193.274  
  20262798.005   106481754.736    20262796.272    82972808.843    20262795.950  
  20262800.239    79515621.019  
  20325244.934   106809928.303    20325245.398    83228538.276    20325244.844  
  20325246.006    79760693.144  
  23778538.852   124957085.184    23778540.621    97369167.905    23778539.978  
  23778539.585    93312121.896  
  22193468.278   118845042.679    22193468.814    92435045.779    22193468.868  
                                
  19829363.714   105999354.355    19829364.643    82443963.891    19829364.554  
                                
  21647675.518   115394324.566    21647678.735    89751172.294    21647678.842  
                                
  21182877.679   113194909.661    21182879.698    88040518.891    21182879.537  
                                
  21259422.945   113683695.164    21259426.733    88420662.845    21259425.696  
                                
  21396394.295   114496448.657    21396394.742    89052798.157    21396394.652  
                                
  25927790.126   136251485.857                                                  
  25927793.539   101746261.851  
  23468801.693   123329429.464                                                  
  23468804.249    92096688.848  
  23711084.381   124602622.639                                                  
  23711087.347    93047438.057  
  25657881.822   134833092.438                                                  
  25657885.592   100687070.775  
  27319292.615   143563870.171                                                  
  27319295.956   107206810.897  
  26981314.340   141787776.313                                                  
  26981318.808   105880517.371  
  26522288.928   139375563.895                                                  
  26522294.199   104079167.911  
 21  8 31 20 50 18.0000000  0 19G10G15G18G23G24G32R 4R 5R14R15R20R21
                                E 3E 5E 9E15E24E31E36
  21937943.823   115284695.946    21937943.894    89832241.857    21937943.698  
  21937942.447    86089230.901  
  22140384.789   116348539.526    22140383.396    90661210.241    22140382.824  
                                
  21225647.632   111541542.257    21225646.363    86915491.655    21225645.952  
  21225650.455    83294028.193  
  20262682.196   106481146.132    20262680.463    82972334.603    20262680.123  
  20262684.430    79515166.540  
  20325211.286   106809751.538    20325211.751    83228400.534    20325211.215  
  20325212.376    79760561.144  
  23778013.592   124954324.989    23778015.361    97367017.111    23778014.736  
  23778014.343    93310060.707  
  22193947.793   118847610.461    22193948.329    92437042.939    22193948.383  
                                
  19829427.257   105999693.980    19829428.186    82444228.046    19829428.079  
                                
  21647865.609   115395337.942    21647868.825    89751960.473    21647868.933  
                                
  21182370.502   113192199.428    21182372.504    88038410.934    21182372.343  
                                
  21260039.462   113686991.862    21260043.232    88423226.941    21260042.196  
                                
  21396222.824   114495531.188    21396223.270    89052084.573    21396223.199  
                                
  25927434.425   136249616.683                                                  
  25927437.838   101744866.038  
  23468807.072   123329457.761                                                  
  23468809.627    92096709.981  
  23711444.477   124604514.912                                                  
  23711447.443    93048851.111  
  25657590.110   134831559.447                                                  
  25657593.880   100685926.002  
  27318808.757   143561327.503                                                  
  27318812.099   107204912.159  
  26981159.452   141786962.379                                                  
  26981163.919   105879909.572  
  26522887.791   139378710.904                                                  
  26522893.062   104081517.936  
 21  8 31 20 50 19.0000000  0 19G10G15G18G23G24G32R 4R 5R14R15R20R21
                                E 3E 5E 9E15E24E31E36
  21937478.942   115282252.965    21937479.014    89830338.236    21937478.817  
  21937477.566    86087406.602  
  22140918.841   116351345.965    22140917.447    90663397.074    22140916.875  
                                
  21226115.336   111544000.028    21226114.067    86917406.801    21226113.656  
  21226118.159    83295863.541  
  20262566.459   106480538.002    20262564.725    82971860.738    20262564.404  
  20262568.692    79514712.420  
  20325177.800   106809575.556    20325178.264    83228263.405    20325177.728  
  20325178.890    79760429.727  
  23777488.386   124951565.017    23777490.137    97364866.485    23777489.512  
  23777489.119    93307999.704  
  22194427.326   118850178.423    22194427.880    92439040.237    22194427.934  
                                
  19829490.852   106000033.963    19829491.782    82444492.475    19829491.692  
                                
  21648055.878   115396352.233    21648059.095    89752749.366    21648059.202  
                                
  21181863.451   113189489.899    21181865.470    88036303.525    21181865.309  
                                
  21260656.086   113690289.205    21260659.856    88425791.541    21260658.820  
                                
  21396051.567   114494614.690    21396052.014    89051371.741    21396051.924  
                                
  25927078.778   136247747.686                                                  
  25927082.191   101743470.362  
  23468812.522   123329486.322                                                  
  23468815.077    92096731.307  
  23711804.592   124606407.318                                                  
  23711807.558    93050264.269  
  25657298.487   134830026.940                                                  
  25657302.276   100684781.598  
  27318324.971   143558785.077                                                  
  27318328.313   107203013.589  
  26981004.670   141786148.968                                                  
  26981009.138   105879302.152  
  26523486.671   139381858.094                                                  
  26523491.960   104083868.108  
 21  8 31 20 50 20.0000000  0 19G10G15G18G23G24G32R 4R 5R14R15R20R21
                                E 3E 5E 9E15E24E31E36
  21937014.097   115279810.280    21937014.169    89828434.843    21937013.972  
  21937012.739    86085582.517  
  22141452.928   116354152.654    22141451.534    90665584.104    22141450.962  
                                
  21226583.147   111546458.403    21226581.878    86919322.414    21226581.467  
  21226585.970    83297699.336  
  20262450.846   106479930.375    20262449.113    82971387.262    20262448.791  
  20262453.080    79514258.667  
  20325144.474   106809400.375    20325144.938    83228126.903    20325144.385  
  20325145.546    79760298.915  
  23776963.233   124948805.339    23776965.002    97362716.087    23776964.377  
  23776963.984    93305938.888  
  22194906.931   118852746.612    22194907.485    92441037.720    22194907.538  
                                
  19829554.538   106000374.343    19829555.467    82444757.217    19829555.360  
                                
  21648246.344   115397367.464    21648249.561    89753538.988    21648249.668  
                                
  21181356.543   113186781.101    21181358.544    88034196.682    21181358.383  
                                
  21261272.835   113693587.238    21261276.606    88428356.673    21261275.569  
                                
  21395880.489   114493699.214    21395880.936    89050659.702    21395880.846  
                                
  25926723.148   136245878.924                                                  
  25926726.561   101742074.858  
  23468818.008   123329515.147                                                  
  23468820.563    92096752.830  
  23712164.724   124608299.861                                                  
  23712167.690    93051677.534  
  25657006.954   134828494.941                                                  
  25657010.725   100683637.577  
  27317841.185   143556242.873                                                  
  27317844.545   107201115.195  
  26980849.996   141785336.079                                                  
  26980854.445   105878695.120  
  26524085.605   139385005.486                                                  
  26524090.894   104086218.429  
 21  8 31 20 50 21.0000000  0 19G10G15G18G23G24G32R 4R 5R14R15R20R21
                                E 3E 5E 9E15E24E31E36
  21936549.271   115277367.640    21936549.360    89826531.489    21936549.146  
  21936547.913    86083758.478  
  22141987.033   116356959.401    22141985.657    90667771.179    22141985.068  
                                
  21227051.029   111548917.174    21227049.761    86921238.337    21227049.350  
  21227053.853    83299535.434  
  20262335.269   106479323.038    20262333.536    82970914.013    20262333.214  
  20262337.503    79513805.139  
  20325111.255   106809225.793    20325111.720    83227990.865    20325111.166  
  20325112.328    79760168.545  
  23776438.098   124946045.675    23776439.850    97360565.706    23776439.224  
  23776438.831    93303878.115  
  22195386.518   118855314.807    22195387.072    92443035.205    22195387.125  
                                
  19829618.241   106000714.890    19829619.170    82445022.087    19829619.063  
                                
  21648436.935   115398383.442    21648440.152    89754329.195    21648440.259  
                                
  21180849.723   113184072.807    21180851.725    88032090.234    21180851.564  
                                
  21261889.656   113696885.701    21261893.444    88430922.147    21261892.390  
                                
  21395709.572   114492784.572    21395710.001    89049948.313    21395709.929  
                                
  25926367.537   136244010.159                                                  
  25926370.950   101740679.360  
  23468823.494   123329544.060                                                  
  23468826.049    92096774.426  
  23712524.856   124610192.369                                                  
  23712527.822    93053090.768  
  25656715.493   134826963.253                                                  
  25656719.263   100682493.786  
  27317357.435   143553700.702                                                  
  27317360.777   107199216.831  
  26980695.357   141784523.512                                                  
  26980699.807   105878088.337  
  26524684.557   139388152.902                                                  
  26524689.846   104088568.768  
 21  8 31 20 50 22.0000000  0 19G10G15G18G23G24G32R 4R 5R14R15R20R21
                                E 3E 5E 9E15E24E31E36
  21936084.497   115274925.143    21936084.569    89824628.244    21936084.372  
  21936083.139    86081934.526  
  22142521.156   116359766.242    22142519.762    90669958.328    22142519.191  
                                
  21227519.001   111551376.383    21227517.733    86923154.606    21227517.322  
  21227521.842    83301371.852  
  20262219.764   106478716.042    20262218.013    82970441.026    20262217.691  
  20262221.997    79513351.862  
  20325078.144   106809051.854    20325078.591    83227855.330    20325078.055  
  20325079.216    79760038.659  
  23775912.964   124943286.131    23775914.733    97358415.415    23775914.107  
  23775913.696    93301817.417  
  22195866.122   118857883.031    22195866.676    92445032.713    22195866.712  
                                
  19829681.997   106001055.665    19829682.927    82445287.136    19829682.819  
                                
  21648627.687   115399400.206    21648630.903    89755120.012    21648631.011  
                                
  21180342.994   113181365.102    21180344.995    88029984.243    21180344.834  
                                
  21262506.584   113700184.686    21262510.372    88433488.026    21262509.318  
                                
  21395538.797   114491870.745    21395539.244    89049237.554    21395539.155  
                                
  25926011.944   136242141.470                                                  
  25926015.356   101739283.906  
  23468829.015   123329573.085                                                  
  23468831.570    92096796.098  
  23712884.988   124612084.847                                                  
  23712887.937    93054503.987  
  25656424.067   134825431.908                                                  
  25656427.837   100681350.249  
  27316873.685   143551158.633                                                  
  27316877.044   107197318.531  
  26980540.808   141783711.319                                                  
  26980545.258   105877481.820  
  26525283.473   139391300.336                                                  
  26525288.762   104090919.129  
 21  8 31 20 50 23.0000000  0 19G10G15G18G23G24G32R 4R 5R14R15R20R21
                                E 3E 5E 9E15E24E31E36
  21935619.742   115272482.913    21935619.813    89822725.210    21935619.617  
  21935618.384    86080110.788  
  22143055.333   116362573.362    22143053.939    90672145.694    22143053.367  
                                
  21227987.098   111553836.199    21227985.829    86925071.348    21227985.401  
  21227989.921    83303208.734  
  20262104.366   106478109.559    20262102.614    82969968.444    20262102.293  
  20262106.599    79512898.969  
  20325045.194   106808878.745    20325045.658    83227720.438    20325045.122  
  20325046.284    79759909.383  
  23775387.882   124940526.852    23775389.651    97356265.334    23775389.026  
  23775388.615    93299756.921  
  22196345.745   118860451.442    22196346.299    92447030.366    22196346.352  
                                
  19829745.808   106001396.830    19829746.737    82445552.487    19829746.647  
                                
  21648818.600   115400417.946    21648821.816    89755911.587    21648821.923  
                                
  21179836.425   113178658.181    21179838.444    88027878.862    21179838.265  
                                
  21263123.637   113703484.341    21263127.425    88436054.420    21263126.371  
                                
  21395368.202   114490957.895    21395368.649    89048527.558    21395368.559  
                                
  25925656.386   136240273.018                                                  
  25925659.799   101737888.634  
  23468834.608   123329602.400                                                  
  23468837.163    92096817.993  
  23713245.156   124613977.505                                                  
  23713248.123    93055917.331  
  25656132.766   134823901.094                                                  
  25656136.554   100680207.109  
  27316390.024   143548616.820                                                  
  27316393.366   107195420.410  
  26980386.348   141782899.674                                                  
  26980390.816   105876875.728  
  26525882.460   139394447.998                                                  
  26525887.749   104093269.660  
 21  8 31 20 50 24.0000000  0 19G10G15G18G23G24G32R 4R 5R14R15R20R21
                                E 3E 5E 9E15E24E31E36
  21935155.058   115270040.956    21935155.129    89820822.387    21935154.933  
  21935153.700    86078287.248  
  22143589.563   116365380.722    22143588.169    90674333.246    22143587.597  
                                
  21228455.302   111556296.620    21228454.034    86926988.556    21228453.623  
  21228458.126    83305046.054  
  20261989.039   106477503.566    20261987.306    82969496.240    20261986.966  
  20261991.273    79512446.440  
  20325012.404   106808706.425    20325012.869    83227586.163    20325012.332  
  20325013.494    79759780.707  
  23774862.873   124937767.827    23774864.642    97354115.452    23774864.016  
  23774863.605    93297696.608  
  22196825.439   118863020.061    22196825.993    92449028.183    22196826.028  
                                
  19829809.707   106001738.374    19829810.636    82445818.133    19829810.529  
                                
  21649009.709   115401436.615    21649012.925    89756703.885    21649013.032  
                                
  21179330.017   113175952.000    21179332.018    88025774.055    21179331.857  
                                
  21263740.815   113706784.646    21263744.603    88438621.324    21263743.549  
                                
  21395197.803   114490046.026    21395198.250    89047818.329    21395198.160  
                                
  25925300.864   136238404.761                                                  
  25925304.277   101736493.509  
  23468840.237   123329631.999                                                  
  23468842.792    92096840.088  
  23713605.325   124615870.306                                                  
  23713608.291    93057330.786  
  25655841.555   134822370.785                                                  
  25655845.325   100679064.344  
  27315906.328   143546075.206                                                  
  27315909.669   107193522.480  
  26980231.996   141782088.542                                                  
  26980236.463   105876270.018  
  26526481.465   139397595.860                                                  
  26526486.755   104095620.334  
 21  8 31 20 50 25.0000000  0 19G10G15G18G23G24G32R 4R 5R14R15R20R21
                                E 3E 5E 9E15E24E31E36
  21934690.392   115267599.104    21934690.463    89818919.645    21934690.267  
  21934689.034    86076463.790  
  22144123.793   116368188.176    22144122.399    90676520.872    22144121.827  
                                
  21228923.578   111558757.466    21228922.309    86928906.099    21228921.898  
  21228926.401    83306883.701  
  20261873.802   106476897.904    20261872.068    82969024.296    20261871.729  
  20261876.035    79511994.160  
  20324979.739   106808534.742    20324980.204    83227452.386    20324979.650  
  20324980.829    79759652.498  
  23774337.845   124935008.894    23774339.614    97351965.638    23774338.989  
  23774338.578    93295636.381  
  22197305.115   118865588.729    22197305.669    92451026.038    22197305.704  
                                
  19829873.643   106002080.145    19829874.572    82446083.955    19829874.465  
                                
  21649200.961   115402456.070    21649204.177    89757496.795    21649204.285  
                                
  21178823.698   113173246.380    21178825.699    88023669.684    21178825.538  
                                
  21264358.083   113710085.441    21264361.871    88441188.606    21264360.817  
                                
  21395027.565   114489135.026    21395028.011    89047109.776    21395027.922  
                                
  25924945.359   136236536.565                                                  
  25924948.772   101735098.430  
  23468845.883   123329661.696                                                  
  23468848.439    92096862.271  
  23713965.528   124617763.093                                                  
  23713968.477    93058744.233  
  25655550.415   134820840.816                                                  
  25655554.203   100677921.835  
  27315422.702   143543533.701                                                  
  27315426.044   107191624.605  
  26980077.715   141781277.778                                                  
  26980082.182   105875664.583  
  26527080.507   139400743.764                                                  
  26527085.796   104097971.039  
 21  8 31 20 50 26.0000000  0 19G10G15G18G23G24G32R 4R 5R14R15R20R21
                                E 3E 5E 9E15E24E31E36
  21934225.744   115265157.435    21934225.815    89817017.048    21934225.619  
  21934224.386    86074640.466  
  22144658.077   116370995.783    22144656.683    90678708.616    22144656.111  
                                
  21229391.979   111561218.816    21229390.710    86930824.028    21229390.299  
  21229394.802    83308721.719  
  20261758.618   106476292.645    20261756.885    82968552.665    20261756.545  
  20261760.852    79511542.178  
  20324947.218   106808363.764    20324947.682    83227319.156    20324947.128  
  20324948.290    79759524.819  
  23773812.853   124932250.120    23773814.622    97349815.941    23773813.997  
  23773813.586    93293576.264  
  22197784.809   118868157.534    22197785.362    92453023.997    22197785.416  
                                
  19829937.632   106002422.215    19829938.561    82446350.009    19829938.454  
                                
  21649392.374   115403476.406    21649395.590    89758290.389    21649395.698  
                                
  21178317.486   113170541.378    21178319.506    88021565.795    21178319.327  
                                
  21264975.458   113713386.803    21264979.246    88443756.328    21264978.191  
                                
  21394857.505   114488224.956    21394857.934    89046401.945    21394857.863  
                                
  25924589.873   136234668.480                                                  
  25924593.286   101733703.434  
  23468851.566   123329691.583                                                  
  23468854.121    92096884.585  
  23714325.714   124619655.930                                                  
  23714328.680    93060157.717  
  25655259.364   134819311.256                                                  
  25655263.134   100676779.632  
  27314939.113   143540992.363                                                  
  27314942.472   107189726.835  
  26979923.523   141780467.456                                                  
  26979927.972   105875059.467  
  26527679.548   139403891.775                                                  
  26527684.837   104100321.816  
 21  8 31 20 50 27.0000000  0 19G10G15G18G23G24G32R 4R 5R14R15R20R21
                                E 3E 5E 9E15E24E31E36
  21933761.149   115262715.971    21933761.221    89815114.609    21933761.024  
  21933759.791    86072817.303  
  22145192.396   116373803.592    22145191.003    90680896.524    22145190.431  
                                
  21229860.451   111563680.704    21229859.182    86932742.379    21229858.771  
  21229863.274    83310560.144  
  20261643.506   106475687.823    20261641.772    82968081.373    20261641.451  
  20261645.739    79511090.530  
  20324914.821   106808193.533    20324915.268    83227186.507    20324914.732  
  20324915.893    79759397.704  
  23773287.915   124929491.553    23773289.684    97347666.411    23773289.058  
  23773288.647    93291516.296  
  22198264.538   118870726.485    22198265.092    92455022.068    22198265.146  
                                
  19830001.674   106002764.592    19830002.603    82446616.302    19830002.514  
                                
  21649583.948   115404497.625    21649587.164    89759084.669    21649587.271  
                                
  21177811.400   113167837.050    21177813.401    88019462.434    21177813.240  
                                
  21265592.957   113716688.787    21265596.728    88446324.535    21265595.691  
                                
  21394687.607   114487315.803    21394688.035    89045694.826    21394687.964  
                                
  25924234.405   136232800.569                                                  
  25924237.818   101732308.563  
  23468857.302   123329721.685                                                  
  23468859.857    92096907.063  
  23714685.918   124621548.857                                                  
  23714688.884    93061571.263  
  25654968.367   134817782.167                                                  
  25654972.155   100675637.776  
  27314455.542   143538451.163                                                  
  27314458.883   107187829.199  
  26979769.403   141779657.610                                                  
  26979773.870   105874454.716  
  26528278.625   139407039.934                                                  
  26528283.932   104102672.711  
 21  8 31 20 50 28.0000000  0 19G10G15G18G23G24G32R 4R 5R14R15R20R21
                                E 3E 5E 9E15E24E31E36
  21933296.608   115260274.695    21933296.680    89813212.315    21933296.483  
  21933295.250    86070994.266  
  22145726.716   116376611.569    22145725.340    90683084.553    22145724.750  
                                
  21230329.030   111566143.100    21230327.761    86934661.129    21230327.351  
  21230331.871    83312398.945  
  20261528.501   106475083.409    20261526.767    82967610.401    20261526.446  
  20261530.734    79510639.177  
  20324882.568   106808024.016    20324883.032    83227054.418    20324882.478  
  20324883.640    79759271.114  
  23772763.030   124926733.145    23772764.781    97345517.005    23772764.156  
  23772763.745    93289456.443  
  22198744.304   118873295.490    22198744.858    92457020.179    22198744.911  
                                
  19830065.788   106003107.247    19830066.717    82446882.811    19830066.610  
                                
  21649775.700   115405519.709    21649778.917    89759879.620    21649779.024  
                                
  21177305.456   113165133.393    21177307.458    88017359.592    21177307.297  
                                
  21266210.547   113719991.304    21266214.317    88448893.155    21266213.280  
                                
  21394517.851   114486407.531    21394518.298    89044988.393    21394518.208  
                                
  25923878.990   136230932.777                                                  
  25923882.403   101730913.783  
  23468863.073   123329751.971                                                  
  23468865.629    92096929.682  
  23715046.157   124623441.847                                                  
  23715049.124    93062984.861  
  25654677.477   134816253.464                                                  
  25654681.247   100674496.221  
  27313971.988   143535910.130                                                  
  27313975.329   107185931.675  
  26979615.372   141778848.180                                                  
  26979619.839   105873850.283  
  26528877.719   139410188.198                                                  
  26528883.009   104105023.690  
 21  8 31 20 50 29.0000000  0 19G10G15G18G23G24G32R 4R 5R14R15R20R21
                                E 3E 5E 9E15E24E31E36
  21932832.103   115257833.697    21932832.192    89811310.242    21932831.978  
  21932830.745    86069171.434  
  22146261.125   116379419.807    22146259.731    90685272.788    22146259.159  
                                
  21230797.735   111568606.100    21230796.466    86936580.350    21230796.055  
  21230800.558    83314238.190  
  20261413.585   106474479.493    20261411.852    82967139.815    20261411.530  
  20261415.819    79510188.197  
  20324850.457   106807855.300    20324850.922    83226922.946    20324850.386  
  20324851.547    79759145.116  
  23772238.163   124923975.007    23772239.914    97343367.809    23772239.307  
  23772238.878    93287396.799  
  22199224.087   118875864.702    22199224.641    92459018.455    22199224.677  
                                
  19830129.956   106003450.281    19830130.885    82447149.615    19830130.778  
                                
  21649967.614   115406542.738    21649970.830    89760675.308    21649970.937  
                                
  21176799.638   113162430.477    21176801.639    88015257.329    21176801.478  
                                
  21266828.243   113723294.521    21266832.031    88451462.321    21266830.977  
                                
  21394348.310   114485500.263    21394348.756    89044282.740    21394348.685  
                                
  25923523.593   136229065.198                                                  
  25923527.006   101729519.162  
  23468868.881   123329782.540                                                  
  23468871.454    92096952.502  
  23715406.397   124625334.988                                                  
  23715409.363    93064398.564  
  25654386.659   134814725.282                                                  
  25654390.429   100673355.046  
  27313488.488   143533369.332                                                  
  27313491.812   107184034.334  
  26979461.466   141778039.314                                                  
  26979465.915   105873246.239  
  26529476.868   139413336.667                                                  
  26529482.157   104107374.818  
 21  8 31 20 50 30.0000000  0 19G10G15G18G23G24G32R 4R 5R14R15R20R21
                                E 3E 5E 9E15E24E31E36
  21932367.669   115255393.169    21932367.758    89809408.529    21932367.544  
  21932366.311    86067348.966  
  22146795.587   116382228.505    22146794.193    90687461.379    22146793.622  
                                
  21231266.582   111571069.898    21231265.313    86938500.190    21231264.902  
  21231269.405    83316078.041  
  20261298.794   106473876.282    20261297.061    82966669.783    20261296.722  
  20261301.028    79509737.752  
  20324818.525   106807687.587    20324818.990    83226792.264    20324818.436  
  20324819.597    79759019.889  
  23771713.368   124921217.307    23771715.137    97341218.955    23771714.512  
  23771714.101    93285337.488  
  22199703.942   118878434.374    22199704.496    92461017.086    22199704.549  
                                
  19830194.231   106003793.947    19830195.160    82447416.912    19830195.053  
                                
  21650159.741   115407566.899    21650162.958    89761471.880    21650163.065  
                                
  21176293.998   113159728.503    21176296.017    88013155.796    21176295.857  
                                
  21267446.118   113726598.589    21267449.906    88454032.154    21267448.870  
                                
  21394179.001   114484594.230    21394179.447    89043578.050    21394179.358  
                                
  25923168.303   136227198.046                                                  
  25923171.716   101728124.861  
  23468874.796   123329813.586                                                  
  23468877.351    92096975.691  
  23715766.726   124627228.485                                                  
  23715769.692    93065812.543  
  25654096.019   134813197.834                                                  
  25654099.789   100672214.409  
  27313005.059   143530828.986                                                  
  27313008.383   107182137.334  
  26979307.667   141777231.161                                                  
  26979312.134   105872642.757  
  26530076.070   139416485.556                                                  
  26530081.377   104109726.252  
 21  8 31 20 50 31.0000000  0 19G10G15G18G23G24G32R 4R 5R14R15R20R21
                                E 3E 5E 9E15E24E31E36
  21931903.253   115252952.668    21931903.342    89807506.840    21931903.128  
  21931901.913    86065526.518  
  22147330.068   116385037.219    22147328.692    90689649.989    22147328.102  
                                
  21231735.483   111573534.057    21231734.232    86940420.314    21231733.803  
  21231738.324    83317918.156  
  20261184.057   106473273.326    20261182.324    82966199.947    20261182.002  
  20261186.291    79509287.488  
  20324786.718   106807520.438    20324787.183    83226662.015    20324786.647  
  20324787.808    79758895.063  
  23771188.626   124918459.647    23771190.377    97339070.132    23771189.752  
  23771189.341    93283278.201  
  22200183.814   118881004.022    22200184.368    92463015.701    22200184.404  
                                
  19830258.559   106004137.769    19830259.471    82447684.329    19830259.381  
                                
  21650352.012   115408591.777    21650355.228    89762269.007    21650355.336  
                                
  21175788.466   113157027.019    21175790.467    88011054.639    21175790.306  
                                
  21268064.082   113729903.080    21268067.871    88456602.314    21268066.816  
                                
  21394009.835   114483688.949    21394010.263    89042873.940    21394010.192  
                                
  25922812.977   136225330.869                                                  
  25922816.390   101726730.551  
  23468880.710   123329844.671                                                  
  23468883.265    92096998.903  
  23716127.037   124629121.885                                                  
  23716129.985    93067226.448  
  25653805.379   134811670.636                                                  
  25653809.150   100671073.975  
  27312521.667   143528288.660                                                  
  27312524.990   107180240.331  
  26979153.940   141776423.302                                                  
  26979158.407   105872039.497  
  26530675.272   139419634.398                                                  
  26530680.579   104112077.662  
 21  8 31 20 50 32.0000000  0 19G10G15G18G23G24G32R 4R 5R14R15R20R21
                                E 3E 5E 9E15E24E31E36
  21931438.927   115250512.507    21931438.998    89805605.418    21931438.802  
  21931437.569    86063704.318  
  22147864.619   116387846.231    22147863.226    90691838.830    22147862.654  
                                
  21232204.527   111575998.870    21232203.258    86942340.948    21232202.847  
  21232207.350    83319758.767  
  20261069.428   106472670.931    20261067.694    82965730.546    20261067.355  
  20261071.661    79508837.650  
  20324755.090   106807354.158    20324755.555    83226532.451    20324755.001  
  20324756.162    79758770.893  
  23770663.920   124915702.310    23770665.671    97336921.556    23770665.046  
  23770664.635    93281219.144  
  22200663.740   118883573.925    22200664.294    92465014.507    22200664.348  
                                
  19830322.959   106004482.051    19830323.888    82447952.101    19830323.781  
                                
  21650544.461   115409617.689    21650547.678    89763066.936    21650547.803  
                                
  21175283.058   113154326.340    21175285.060    88008954.116    21175284.899  
                                
  21268682.190   113733208.342    21268685.960    88459173.067    21268684.924  
                                
  21393840.865   114482784.733    21393841.294    89042170.661    21393841.222  
                                
  25922457.723   136223463.981                                                  
  25922461.136   101725336.442  
  23468886.678   123329876.096                                                  
  23468889.252    92097022.372  
  23716487.366   124631015.499                                                  
  23716490.332    93068640.506  
  25653514.883   134810144.021                                                  
  25653518.653   100669933.966  
  27312038.309   143525748.619                                                  
  27312041.651   107178343.551  
  26979000.338   141775616.053                                                  
  26979004.805   105871436.665  
  26531274.545   139422783.519                                                  
  26531279.852   104114429.272  
 21  8 31 20 50 33.0000000  0 19G10G15G18G23G24G32R 4R 5R14R15R20R21
                                E 3E 5E 9E15E24E31E36
  21930974.600   115248072.533    21930974.672    89803704.142    21930974.475  
  21930973.242    86061882.264  
  22148399.189   116390655.431    22148397.795    90694027.813    22148397.224  
                                
  21232673.660   111578464.206    21232672.410    86944261.989    21232671.981  
  21232676.502    83321599.761  
  20260954.869   106472068.944    20260953.118    82965261.470    20260952.796  
  20260957.103    79508388.118  
  20324723.569   106807188.596    20324724.034    83226403.439    20324723.498  
  20324724.659    79758647.266  
  23770139.232   124912945.143    23770141.001    97334773.114    23770140.376  
  23770139.947    93279160.223  
  22201143.667   118886143.911    22201144.221    92467013.381    22201144.274  
                                
  19830387.413   106004826.619    19830388.342    82448220.098    19830388.253  
                                
  21650737.089   115410644.445    21650740.306    89763865.527    21650740.431  
                                
  21174777.776   113151626.309    21174779.777    88006854.092    21174779.616  
                                
  21269300.386   113736514.154    21269304.175    88461744.258    21269303.120  
                                
  21393672.056   114481881.406    21393672.485    89041468.076    21393672.414  
                                
  25922102.487   136221597.214                                                  
  25922105.900   101723942.434  
  23468892.700   123329907.706                                                  
  23468895.256    92097045.975  
  23716847.730   124632909.184                                                  
  23716850.696    93070054.621  
  25653224.475   134808617.820                                                  
  25653228.246   100668794.271  
  27311554.970   143523208.734                                                  
  27311558.312   107176446.883  
  26978846.807   141774809.235                                                  
  26978851.274   105870834.169  
  26531873.801   139425932.731                                                  
  26531879.090   104116780.965  
 21  8 31 20 50 34.0000000  0 19G10G15G18G23G24G32R 4R 5R14R15R20R21
                                E 3E 5E 9E15E24E31E36
  21930510.327   115245632.762    21930510.416    89801803.022    21930510.202  
  21930508.987    86060060.355  
  22148933.795   116393464.796    22148932.401    90696216.931    22148931.829  
                                
  21233142.901   111580930.040    21233141.632    86946183.416    21233141.221  
  21233145.724    83323441.135  
  20260840.400   106471467.382    20260838.667    82964792.720    20260838.345  
  20260842.634    79507938.895  
  20324692.209   106807023.754    20324692.674    83226274.995    20324692.137  
  20324693.299    79758524.165  
  23769614.580   124910188.132    23769616.349    97332624.801    23769615.723  
  23769615.295    93277101.425  
  22201623.611   118888714.032    22201624.165    92469012.359    22201624.218  
                                
  19830451.938   106005171.488    19830452.867    82448488.328    19830452.760  
                                
  21650929.860   115411672.086    21650933.077    89764664.805    21650933.202  
                                
  21174272.619   113148926.926    21174274.620    88004754.574    21174274.459  
                                
  21269918.708   113739820.578    21269922.479    88464315.919    21269921.442  
                                
  21393503.409   114480979.024    21393503.837    89040766.226    21393503.766  
                                
  25921747.287   136219730.603                                                  
  25921750.700   101722548.532  
  23468898.758   123329939.527                                                  
  23468901.313    92097069.737  
  23717208.113   124634802.942                                                  
  23717211.079    93071468.785  
  25652934.104   134807092.045                                                  
  25652937.874   100667654.900  
  27311071.685   143520669.018                                                  
  27311075.026   107174550.363  
  26978693.348   141774002.863                                                  
  26978697.815   105870232.013  
  26532473.128   139429082.102                                                  
  26532478.435   104119132.759  
 21  8 31 20 50 35.0000000  0 19G10G15G18G23G24G32R 4R 5R14R15R20R21
                                E 3E 5E 9E15E24E31E36
  21930046.072   115243193.103    21930046.161    89799901.987    21930045.947  
  21930044.732    86058238.538  
  22149468.418   116396274.278    22149467.024    90698406.135    22149466.452  
                                
  21233612.213   111583396.336    21233610.944    86948105.202    21233610.533  
  21233615.036    83325282.847  
  20260725.985   106470866.163    20260724.252    82964324.238    20260723.930  
  20260728.219    79507489.936  
  20324660.974   106806859.565    20324661.438    83226147.054    20324660.885  
  20324662.046    79758401.559  
  23769089.981   124907431.256    23769091.732    97330476.583    23769091.107  
  23769090.696    93275042.723  
  22202103.573   118891284.209    22202104.127    92471011.384    22202104.180  
                                
  19830516.481   106005516.561    19830517.410    82448756.722    19830517.321  
                                
  21651122.792   115412700.512    21651126.027    89765464.694    21651126.134  
                                
  21173767.586   113146228.148    21173769.588    88002655.525    21173769.427  
                                
  21270537.119   113743127.497    21270540.908    88466887.965    21270539.853  
                                
  21393334.939   114480077.509    21393335.368    89040065.045    21393335.297  
                                
  25921392.086   136217864.038                                                  
  25921395.499   101721154.678  
  23468904.833   123329971.462                                                  
  23468907.389    92097093.588  
  23717568.459   124636696.686                                                  
  23717571.426    93072882.952  
  25652643.839   134805566.646                                                  
  25652647.610   100666515.805  
  27310588.399   143518129.403                                                  
  27310591.741   107172653.888  
  26978539.960   141773196.864                                                  
  26978544.427   105869630.146  
  26533072.437   139432231.490                                                  
  26533077.744   104121484.579  
 21  8 31 20 50 36.0000000  0 19G10G15G18G23G24G32R 4R 5R14R15R20R21
                                E 3E 5E 9E15E24E31E36
  21929581.817   115240753.476    21929581.906    89798000.981    21929581.710  
  21929580.477    86056416.732  
  22150003.041   116399083.760    22150001.665    90700595.342    22150001.076  
                                
  21234081.596   111585862.983    21234080.328    86950027.265    21234079.917  
  21234084.438    83327124.822  
  20260611.623   106470265.194    20260609.890    82963855.950    20260609.550  
  20260613.857    79507041.160  
  20324629.846   106806695.940    20324630.293    83226019.556    20324629.757  
  20324630.918    79758279.371  
  23768565.364   124904674.386    23768567.116    97328328.379    23768566.490  
  23768566.079    93272984.017  
  22202583.535   118893854.324    22202584.089    92473010.362    22202584.142  
                                
  19830581.059   106005861.762    19830581.989    82449025.210    19830581.881  
                                
  21651315.849   115413729.665    21651319.084    89766265.146    21651319.191  
                                
  21173262.644   113143529.872    21173264.645    88000556.865    21173264.484  
                                
  21271155.602   113746434.834    21271159.390    88469460.336    21271158.354  
                                
  21393166.613   114479176.738    21393167.042    89039364.449    21393166.971  
                                
  25921036.904   136215997.462                                                  
  25921040.299   101719760.801  
  23468910.909   123330003.436                                                  
  23468913.464    92097117.464  
  23717928.824   124638590.341                                                  
  23717931.790    93074297.039  
  25652353.611   134804041.498                                                  
  25652357.381   100665376.892  
  27310105.131   143515589.773                                                  
  27310108.473   107170757.419  
  26978386.644   141772391.161                                                  
  26978391.111   105869028.480  
  26533671.746   139435380.872                                                  
  26533677.053   104123836.379  
 21  8 31 20 50 37.0000000  0 19G10G15G18G23G24G32R 4R 5R14R15R20R21
                                E 3E 5E 9E15E24E31E36
  21929117.598   115238313.902    21929117.669    89796100.014    21929117.472  
  21929116.240    86054594.977  
  22150537.682   116401893.280    22150536.306    90702784.578    22150535.717  
                                
  21234551.069   111588330.018    21234549.801    86951949.630    21234549.390  
  21234553.893    83328967.083  
  20260497.315   106469664.512    20260495.582    82963387.884    20260495.260  
  20260499.549    79506592.603  
  20324598.790   106806532.897    20324599.254    83225892.509    20324598.718  
  20324599.880    79758157.620  
  23768040.748   124901917.560    23768042.499    97326180.203    23768041.873  
  23768041.462    93270925.353  
  22203063.479   118896424.438    22203064.033    92475009.340    22203064.086  
                                
  19830645.674   106006207.139    19830646.603    82449293.839    19830646.496  
                                
  21651509.067   115414759.540    21651512.301    89767066.156    21651512.408  
                                
  21172757.790   113140832.124    21172759.791    87998458.617    21172759.631  
                                
  21271774.192   113749742.617    21271777.962    88472033.051    21271776.926  
                                
  21392998.430   114478276.728    21392998.877    89038664.442    21392998.787  
                                
  25920681.685   136214130.889                                                  
  25920685.098   101718366.929  
  23468917.020   123330035.477                                                  
  23468919.575    92097141.389  
  23718289.153   124640483.940                                                  
  23718292.119    93075711.086  
  25652063.436   134802516.647                                                  
  25652067.224   100664238.209  
  27309621.864   143513050.187                                                  
  27309625.205   107168860.975  
  26978233.381   141771585.782                                                  
  26978237.849   105868427.060  
  26534271.055   139438530.230                                                  
  26534276.362   104126188.171  
 21  8 31 20 50 38.0000000  0 19G10G15G18G23G24G32R 4R 5R14R15R20R21
                                E 3E 5E 9E15E24E31E36
  21928653.450   115235874.785    21928653.521    89794199.404    21928653.325  
  21928652.110    86052773.559  
  22151072.395   116404703.229    22151071.001    90704974.144    22151070.429  
                                
  21235020.667   111590797.813    21235019.399    86953872.583    21235018.988  
  21235023.491    83330809.922  
  20260383.132   106469064.506    20260381.399    82962920.349    20260381.077  
  20260385.384    79506144.544  
  20324567.966   106806370.839    20324568.412    83225766.228    20324567.876  
  20324569.038    79758036.603  
  23767516.238   124899161.168    23767517.989    97324032.365    23767517.364  
  23767516.953    93268867.008  
  22203543.494   118898994.942    22203544.066    92477008.618    22203544.120  
                                
  19830710.395   106006553.083    19830711.307    82449562.906    19830711.217  
                                
  21651702.481   115415790.533    21651705.698    89767868.037    21651705.823  
                                
  21172253.115   113138135.262    21172255.117    87996361.057    21172254.956  
                                
  21272392.907   113753051.220    21272396.695    88474606.409    21272395.659  
                                
  21392830.461   114477377.869    21392830.890    89037965.329    21392830.818  
                                
  25920326.556   136212264.691                                                  
  25920329.969   101716973.351  
  23468923.203   123330067.959                                                  
  23468925.758    92097165.649  
  23718649.553   124642377.851                                                  
  23718652.519    93077125.375  
  25651773.403   134800992.486                                                  
  25651777.174   100663100.034  
  27309138.685   143510511.006                                                  
  27309142.009   107166964.829  
  26978080.280   141770781.118                                                  
  26978084.747   105867826.157  
  26534870.436   139441679.976                                                  
  26534875.743   104128540.245  
 21  8 31 20 50 39.0000000  0 19G10G15G18G23G24G32R 4R 5R14R15R20R21
                                E 3E 5E 9E15E24E31E36
  21928189.302   115233435.701    21928189.373    89792298.816    21928189.177  
  21928187.944    86050952.162  
  22151607.125   116407513.204    22151605.732    90707163.735    22151605.160  
                                
  21235490.337   111593265.977    21235489.086    86955795.828    21235488.675  
  21235493.178    83332653.025  
  20260269.020   106468464.757    20260267.287    82962453.013    20260266.965  
  20260271.254    79505696.678  
  20324537.231   106806209.347    20324537.695    83225640.393    20324537.142  
  20324538.303    79757916.006  
  23766991.711   124896404.796    23766993.480    97321884.543    23766992.855  
  23766992.426    93266808.672  
  22204023.510   118901565.412    22204024.082    92479007.868    22204024.135  
                                
  19830775.135   106006899.168    19830776.064    82449832.083    19830775.957  
                                
  21651896.021   115416822.212    21651899.255    89768670.457    21651899.362  
                                
  21171748.530   113135438.922    21171750.531    87994263.902    21171750.370  
                                
  21273011.711   113756360.242    21273015.499    88477180.090    21273014.463  
                                
  21392662.617   114476479.805    21392663.046    89037266.833    21392662.975  
                                
  25919971.445   136210398.490                                                  
  25919974.858   101715579.751  
  23468929.385   123330100.493                                                  
  23468931.959    92097189.937  
  23719009.953   124644271.677                                                  
  23719012.902    93078539.593  
  25651483.407   134799468.595                                                  
  25651487.177   100661962.065  
  27308655.489   143507971.830                                                  
  27308658.813   107165068.705  
  26977927.196   141769976.712                                                  
  26977931.663   105867225.480  
  26535469.798   139444829.667                                                  
  26535475.088   104130892.284  
 21  8 31 20 50 40.0000000  0 19G10G15G18G23G24G32R 4R 5R14R15R20R21
                                E 3E 5E 9E15E24E31E36
  21927725.154   115230996.643    21927725.243    89790398.254    21927725.047  
  21927723.814    86049130.788  
  22152141.856   116410323.188    22152140.462    90709353.333    22152139.890  
                                
  21235960.078   111595734.494    21235958.827    86957719.347    21235958.416  
  21235962.919    83334496.398  
  20260154.945   106467865.270    20260153.211    82961985.875    20260152.872  
  20260157.178    79505249.009  
  20324506.603   106806048.416    20324507.068    83225514.992    20324506.532  
  20324507.693    79757795.831  
  23766467.184   124893648.428    23766468.953    97319736.726    23766468.327  
  23766467.898    93264750.349  
  22204503.543   118904135.868    22204504.115    92481007.111    22204504.169  
                                
  19830839.910   106007245.392    19830840.821    82450101.367    19830840.732  
                                
  21652089.685   115417854.601    21652092.919    89769473.423    21652093.027  
                                
  21171244.034   113132743.086    21171246.053    87992167.145    21171245.892  
                                
  21273630.605   113759669.702    21273634.393    88479754.115    21273633.339  
                                
  21392494.934   114475582.515    21392495.381    89036568.940    21392495.292  
                                
  25919616.299   136208532.266                                                  
  25919619.712   101714186.144  
  23468935.586   123330133.051                                                  
  23468938.141    92097214.252  
  23719370.300   124646165.423                                                  
  23719373.266    93079953.756  
  25651193.482   134797944.973                                                  
  25651197.253   100660824.296  
  27308172.257   143505432.632                                                  
  27308175.581   107163172.570  
  26977774.183   141769172.629                                                  
  26977778.668   105866625.024  
  26536069.161   139447979.324                                                  
  26536074.450   104133244.308  
 21  8 31 20 50 41.0000000  0 19G10G15G18G23G24G32R 4R 5R14R15R20R21
                                E 3E 5E 9E15E24E31E36
  21927261.042   115228557.662    21927261.131    89788497.751    21927260.917  
  21927259.702    86047309.475  
  22152676.569   116413133.221    22152675.193    90711542.967    22152674.603  
                                
  21236429.908   111598203.404    21236428.639    86959643.173    21236428.228  
  21236432.749    83336340.062  
  20260040.904   106467266.067    20260039.171    82961518.969    20260038.850  
  20260043.138    79504801.555  
  20324476.101   106805888.072    20324476.566    83225390.048    20324476.012  
  20324477.173    79757676.098  
  23765942.674   124890892.127    23765944.425    97317588.957    23765943.800  
  23765943.371    93262692.077  
  22204983.541   118906706.270    22204984.113    92483006.308    22204984.166  
                                
  19830904.703   106007591.790    19830905.632    82450370.790    19830905.525  
                                
  21652283.510   115418887.730    21652286.727    89770276.971    21652286.852  
                                
  21170739.663   113130047.785    21170741.664    87990070.800    21170741.503  
                                
  21274249.570   113762979.587    21274253.358    88482328.467    21274252.304  
                                
  21392327.412   114474685.999    21392327.841    89035871.652    21392327.770  
                                
  25919261.187   136206666.051                                                  
  25919264.600   101712792.544  
  23468941.786   123330165.679                                                  
  23468944.342    92097238.619  
  23719730.665   124648059.107                                                  
  23719733.631    93081367.865  
  25650903.593   134796421.645                                                  
  25650907.363   100659686.753  
  27307689.097   143502893.512                                                  
  27307692.420   107161276.463  
  26977621.224   141768368.843                                                  
  26977625.674   105866024.807  
  26536668.524   139451128.991                                                  
  26536673.831   104135596.328  
 21  8 31 20 50 42.0000000  0 19G10G15G18G23G24G32R 4R 5R14R15R20R21
                                E 3E 5E 9E15E24E31E36
  21926796.965   115226118.889    21926797.037    89786597.411    21926796.840  
  21926795.625    86045488.318  
  22153211.353   116415943.463    22153209.959    90713732.761    22153209.387  
                                
  21236899.827   111600672.866    21236898.559    86961567.427    21236898.148  
  21236902.668    83338184.141  
  20259926.989   106466667.325    20259925.238    82961052.412    20259924.917  
  20259929.223    79504354.438  
  20324445.741   106805728.503    20324446.206    83225265.709    20324445.652  
  20324446.814    79757556.930  
  23765418.218   124888136.034    23765419.970    97315441.352    23765419.344  
  23765418.933    93260633.952  
  22205463.592   118909276.857    22205464.146    92485005.651    22205464.200  
                                
  19830969.568   106007938.523    19830970.497    82450640.470    19830970.390  
                                
  21652477.479   115419921.767    21652480.713    89771081.222    21652480.820  
                                
  21170235.381   113127353.143    21170237.382    87987974.972    21170237.221  
                                
  21274868.660   113766290.125    21274872.448    88484903.330    21274871.394  
                                
  21392160.051   114473790.412    21392160.480    89035175.085    21392160.408  
                                
  25918906.076   136204799.997                                                  
  25918909.489   101711399.065  
  23468948.041   123330198.545                                                  
  23468950.596    92097263.162  
  23720091.047   124649952.886                                                  
  23720094.013    93082782.052  
  25650613.811   134794898.790                                                  
  25650617.581   100658549.553  
  27307205.954   143500354.577                                                  
  27307209.277   107159380.507  
  26977468.373   141767565.564                                                  
  26977472.840   105865424.947  
  26537267.905   139454278.805                                                  
  26537273.230   104137948.459  
 21  8 31 20 50 43.0000000  0 19G10G15G18G23G24G32R 4R 5R14R15R20R21
                                E 3E 5E 9E15E24E31E36
  21926332.907   115223680.298    21926332.978    89784697.212    21926332.782  
  21926331.567    86043667.292  
  22153746.137   116418753.855    22153744.761    90715922.679    22153744.189  
                                
  21237369.836   111603142.811    21237368.585    86963492.062    21237368.174  
  21237372.677    83340028.585  
  20259813.110   106466068.971    20259811.377    82960586.162    20259811.055  
  20259815.344    79503907.617  
  20324415.507   106805569.614    20324415.972    83225141.902    20324415.418  
  20324416.579    79757438.284  
  23764893.780   124885380.094    23764895.532    97313293.871    23764894.906  
  23764894.477    93258575.947  
  22205943.644   118911847.546    22205944.198    92487005.076    22205944.269  
                                
  19831034.486   106008285.520    19831035.397    82450910.358    19831035.308  
                                
  21652671.608   115420956.653    21652674.842    89771886.133    21652674.949  
                                
  21169731.224   113124659.101    21169733.226    87985879.608    21169733.065  
                                
  21275487.839   113769601.198    21275491.628    88487478.605    21275490.591  
                                
  21391992.851   114472895.721    21391993.297    89034479.214    21391993.208  
                                
  25918551.001   136202934.064                                                  
  25918554.414   101710005.677  
  23468954.331   123330231.584                                                  
  23468956.886    92097287.830  
  23720451.430   124651846.717                                                  
  23720454.378    93084196.277  
  25650324.101   134793376.354                                                  
  25650327.871   100657412.665  
  27306722.847   143497815.778                                                  
  27306726.171   107157484.653  
  26977315.593   141766762.702                                                  
  26977320.042   105864825.405  
  26537867.339   139457428.735                                                  
  26537872.646   104140300.667  
 21  8 31 20 50 44.0000000  0 19G10G15G18G23G24G32R 4R 5R14R15R20R21
                                E 3E 5E 9E15E24E31E36
  21925868.902   115221241.883    21925868.973    89782797.146    21925868.777  
  21925867.562    86041846.393  
  22154280.975   116421564.399    22154279.599    90718112.714    22154279.009  
                                
  21237839.952   111605613.262    21237838.702    86965417.088    21237838.291  
  21237842.794    83341873.398  
  20259699.320   106465471.015    20259697.587    82960120.224    20259697.265  
  20259701.554    79503461.089  
  20324385.398   106805411.430    20324385.845    83225018.641    20324385.308  
  20324386.470    79757320.159  
  23764369.342   124882624.301    23764371.112    97311146.493    23764370.486  
  23764370.057    93256518.060  
  22206423.731   118914418.339    22206424.302    92489004.582    22206424.356  
                                
  19831099.458   106008632.799    19831100.369    82451180.463    19831100.280  
                                
  21652865.915   115421992.372    21652869.150    89772691.692    21652869.257  
                                
  21169227.193   113121965.697    21169229.194    87983784.738    21169229.033  
                                
  21276107.144   113772912.826    21276110.914    88490054.318    21276109.878  
                                
  21391825.829   114472001.957    21391826.258    89033784.064    21391826.186  
                                
  25918195.944   136201068.250                                                  
  25918199.356   101708612.373  
  23468960.638   123330264.790                                                  
  23468963.211    92097312.633  
  23720811.830   124653740.602                                                  
  23720814.796    93085610.537  
  25650034.462   134791854.308                                                  
  25650038.232   100656276.070  
  27306239.758   143495277.134                                                  
  27306243.082   107155588.903  
  26977162.884   141765960.271                                                  
  26977167.369   105864226.185  
  26538466.755   139460578.737                                                  
  26538472.062   104142652.949  
 21  8 31 20 50 45.0000000  0 19G10G15G18G23G24G32R 4R 5R14R15R20R21
                                E 3E 5E 9E15E24E31E36
  21925404.897   115218803.573    21925404.986    89780897.162    21925404.772  
  21925403.557    86040025.582  
  22154815.830   116424375.034    22154814.454    90720302.819    22154813.865  
                                
  21238310.158   111608084.138    21238308.907    86967342.442    21238308.496  
  21238312.999    83343718.528  
  20259585.602   106464873.391    20259583.868    82959654.541    20259583.547  
  20259587.853    79503014.812  
  20324355.414   106805253.873    20324355.860    83224895.870    20324355.324  
  20324356.486    79757202.510  
  23763844.958   124879868.595    23763846.709    97308999.194    23763846.102  
  23763845.673    93254460.235  
  22206903.818   118916989.159    22206904.372    92491004.104    22206904.443  
                                
  19831164.465   106008980.301    19831165.376    82451450.743    19831165.287  
                                
  21653060.348   115423028.859    21653063.583    89773497.849    21653063.690  
                                
  21168723.268   113119272.890    21168725.270    87981690.338    21168725.109  
                                
  21276726.520   113776224.962    21276730.308    88492630.424    21276729.254  
                                
  21391658.950   114471109.015    21391659.397    89033089.554    21391659.307  
                                
  25917840.922   136199202.487                                                  
  25917844.335   101707219.101  
  23468966.982   123330298.110                                                  
  23468969.537    92097337.511  
  23721172.212   124655634.457                                                  
  23721175.161    93087024.779  
  25649744.876   134790332.609                                                  
  25649748.647   100655139.747  
  27305756.669   143492738.531                                                  
  27305759.993   107153693.206  
  26977010.265   141765158.189                                                  
  26977014.732   105863627.235  
  26539066.190   139463728.800                                                  
  26539071.497   104145005.251  
 21  8 31 20 50 46.0000000  0 19G10G15G18G23G24G32R 4R 5R14R15R20R21
                                E 3E 5E 9E15E24E31E36
  21924940.910   115216365.375    21924940.999    89778997.270    21924940.785  
  21924939.570    86038204.852  
  22155350.686   116427185.781    22155349.292    90722493.011    22155348.720  
                                
  21238780.435   111610555.463    21238779.184    86969268.152    21238778.773  
  21238783.276    83345564.004  
  20259471.937   106464276.114    20259470.204    82959189.132    20259469.882  
  20259474.171    79502568.797  
  20324325.554   106805096.989    20324326.019    83224773.622    20324325.465  
  20324326.627    79757085.351  
  23763320.592   124877113.019    23763322.343    97306851.994    23763321.717  
  23763321.306    93252402.499  
  22207383.905   118919560.010    22207384.459    92493003.654    22207384.512  
                                
  19831229.508   106009328.054    19831230.438    82451721.215    19831230.348  
                                
  21653254.960   115424066.138    21653258.176    89774304.623    21653258.301  
                                
  21168219.469   113116580.716    21168221.488    87979596.420    21168221.310  
                                
  21277346.003   113779537.570    21277349.774    88495206.894    21277348.737  
                                
  21391492.250   114470216.942    21391492.697    89032395.717    21391492.607  
                                
  25917485.864   136197336.788                                                  
  25917489.277   101705825.891  
  23468973.361   123330331.557                                                  
  23468975.916    92097362.492  
  23721532.595   124657528.317                                                  
  23721535.561    93088439.030  
  25649455.398   134788811.277                                                  
  25649459.151   100654003.685  
  27305273.616   143490200.057                                                  
  27305276.939   107151797.593  
  26976857.699   141764356.513                                                  
  26976862.184   105863028.578  
  26539665.642   139466878.892                                                  
  26539670.949   104147357.606  
 21  8 31 20 50 47.0000000  0 19G10G15G18G23G24G32R 4R 5R14R15R20R21
                                E 3E 5E 9E15E24E31E36
  21924476.977   115213927.286    21924477.048    89777097.460    21924476.851  
  21924475.636    86036384.196  
  22155885.577   116429996.572    22155884.183    90724683.238    22155883.612  
                                
  21239250.801   111613027.199    21239249.550    86971194.180    21239249.139  
  21239253.642    83347409.772  
  20259358.344   106463679.156    20259356.610    82958723.968    20259356.271  
  20259360.577    79502123.010  
  20324295.820   106804940.721    20324296.285    83224651.853    20324295.731  
  20324296.893    79756968.655  
  23762796.225   124874357.508    23762797.976    97304704.845    23762797.369  
  23762796.940    93250344.812  
  22207863.992   118922130.875    22207864.546    92495003.219    22207864.599  
                                
  19831294.605   106009676.025    19831295.534    82451991.859    19831295.445  
                                
  21653449.679   115425104.206    21653452.913    89775112.009    21653453.020  
                                
  21167715.759   113113889.118    21167717.778    87977502.957    21167717.618  
                                
  21277965.576   113782850.676    21277969.346    88497783.750    21277968.310  
                                
  21391325.693   114469325.673    21391326.140    89031702.508    21391326.050  
                                
  25917130.860   136195471.125                                                  
  25917134.273   101704432.701  
  23468979.740   123330365.104                                                  
  23468982.313    92097387.541  
  23721892.995   124659422.146                                                  
  23721895.944    93089853.250  
  25649165.956   134787290.264                                                  
  25649169.726   100652867.860  
  27304790.562   143487661.618                                                  
  27304793.886   107149902.014  
  26976705.205   141763555.165                                                  
  26976709.672   105862430.169  
  26540265.094   139470029.037                                                  
  26540270.419   104149709.970  
 21  8 31 20 50 48.0000000  0 19G10G15G18G23G24G32R 4R 5R14R15R20R21
                                E 3E 5E 9E15E24E31E36
  21924013.079   115211489.548    21924013.168    89775197.927    21924012.972  
  21924011.757    86034563.812  
  22156420.504   116432807.732    22156419.110    90726873.753    22156418.539  
                                
  21239721.275   111615499.624    21239720.024    86973120.740    21239719.613  
  21239724.116    83349256.068  
  20259244.857   106463082.785    20259243.124    82958259.264    20259242.802  
  20259247.109    79501677.673  
  20324266.247   106804785.342    20324266.712    83224530.778    20324266.158  
  20324267.337    79756852.628  
  23762271.948   124871602.345    23762273.699    97302557.972    23762273.074  
  23762272.645    93248287.390  
  22208344.150   118924702.045    22208344.704    92497003.018    22208344.758  
                                
  19831359.791   106010024.471    19831360.721    82452262.872    19831360.613  
                                
  21653644.630   115426143.342    21653647.864    89775920.224    21653647.971  
                                
  21167212.228   113111198.331    21167214.229    87975410.123    21167214.069  
                                
  21278585.292   113786164.538    21278589.062    88500361.198    21278588.026  
                                
  21391159.350   114468435.515    21391159.779    89031010.165    21391159.707  
                                
  25916775.874   136193605.772                                                  
  25916779.287   101703039.752  
  23468986.191   123330399.011                                                  
  23468988.764    92097412.864  
  23722253.396   124661316.212                                                  
  23722256.362    93091267.655  
  25648876.620   134785769.853                                                  
  25648880.391   100651732.490  
  27304307.580   143485123.537                                                  
  27304310.904   107148006.690  
  26976552.835   141762754.448                                                  
  26976557.303   105861832.235  
  26540864.582   139473179.437                                                  
  26540869.889   104152062.559  
 21  8 31 20 50 49.0000000  0 19G10G15G18G23G24G32R 4R 5R14R15R20R21
                                E 3E 5E 9E15E24E31E36
  21923549.253   115209052.157    21923549.342    89773298.664    21923549.128  
  21923547.912    86032743.683  
  22156955.521   116435619.192    22156954.127    90729064.498    22156953.555  
                                
  21240191.891   111617972.704    21240190.640    86975047.818    21240190.229  
  21240194.732    83351102.847  
  20259131.478   106462486.975    20259129.745    82957795.000    20259129.423  
  20259133.712    79501232.747  
  20324236.853   106804630.825    20324237.317    83224410.378    20324236.763  
  20324237.925    79756737.247  
  23761747.707   124868847.500    23761749.458    97300411.346    23761748.832  
  23761748.404    93246230.211  
  22208824.345   118927273.505    22208824.898    92499003.040    22208824.952  
                                
  19831425.067   106010373.359    19831425.978    82452534.229    19831425.889  
                                
  21653839.759   115427183.502    21653842.994    89776729.235    21653843.101  
                                
  21166708.822   113108508.305    21166710.823    87973317.883    21166710.662  
                                
  21279205.132   113789479.120    21279208.921    88502939.204    21279207.884  
                                
  21390993.186   114467546.401    21390993.615    89030318.632    21390993.526  
                                
  25916420.978   136191740.695                                                  
  25916424.391   101701646.989  
  23468992.713   123330433.271                                                  
  23468995.286    92097438.440  
  23722613.885   124663210.507                                                  
  23722616.851    93092682.219  
  25648587.428   134784250.017                                                  
  25648591.181   100650597.545  
  27303824.652   143482585.747                                                  
  27303827.976   107146111.598  
  26976400.574   141761954.314                                                  
  26976405.041   105861234.740  
  26541464.159   139476330.131                                                  
  26541469.466   104154415.345  
 21  8 31 20 50 50.0000000  0 19G10G15G18G23G24G32R 4R 5R14R15R20R21
                                E 3E 5E 9E15E24E31E36
  21923085.480   115206614.960    21923085.551    89771399.547    21923085.355  
  21923084.140    86030923.700  
  22157490.555   116438430.834    22157489.179    90731255.386    22157488.607  
                                
  21240662.597   111620446.309    21240661.346    86976975.302    21240660.935  
  21240665.438    83352950.021  
  20259018.171   106461891.584    20259016.438    82957331.057    20259016.116  
  20259020.405    79500788.144  
  20324207.601   106804477.043    20324208.066    83224290.545    20324207.512  
  20324208.673    79756622.400  
  23761223.501   124866092.842    23761225.252    97298264.864    23761224.645  
  23761224.198    93244173.161  
  22209304.557   118929845.094    22209305.128    92501003.167    22209305.182  
                                
  19831490.378   106010722.553    19831491.307    82452805.825    19831491.218  
                                
  21654035.068   115428224.505    21654038.284    89777538.904    21654038.409  
                                
  21166205.541   113105818.927    21166207.560    87971226.147    21166207.381  
                                
  21279825.098   113792794.281    21279828.868    88505517.657    21279827.832  
                                
  21390827.201   114466658.185    21390827.630    89029627.800    21390827.558  
                                
  25916066.081   136189875.762                                                  
  25916069.494   101700254.350  
  23468999.271   123330467.722                                                  
  23469001.826    92097464.164  
  23722974.375   124665104.864                                                  
  23722977.341    93094096.832  
  25648298.272   134782730.612                                                  
  25648302.042   100649462.936  
  27303341.760   143480048.130                                                  
  27303345.083   107144216.622  
  26976248.383   141761154.645                                                  
  26976252.850   105860637.586  
  26542063.718   139479480.933                                                  
  26542069.043   104156768.219  
 21  8 31 20 50 51.0000000  0 19G10G15G18G23G24G32R 4R 5R14R15R20R21
                                E 3E 5E 9E15E24E31E36
  21922621.761   115204178.074    21922621.832    89769500.674    21922621.636  
  21922620.421    86029103.945  
  22158025.643   116441242.778    22158024.267    90733446.515    22158023.677  
                                
  21241133.428   111622920.545    21241132.177    86978903.274    21241131.766  
  21241136.269    83354797.665  
  20258904.989   106461296.736    20258903.255    82956867.542    20258902.916  
  20258907.222    79500343.937  
  20324178.475   106804324.099    20324178.939    83224171.368    20324178.385  
  20324179.547    79756508.193  
  23760699.367   124863338.489    23760701.118    97296118.620    23760700.493  
  23760700.064    93242116.340  
  22209784.822   118932416.943    22209785.394    92503003.494    22209785.448  
                                
  19831555.779   106011072.160    19831556.708    82453077.742    19831556.619  
                                
  21654230.519   115429266.472    21654233.753    89778349.320    21654233.879  
                                
  21165702.421   113103130.366    21165704.422    87969135.046    21165704.261  
                                
  21280445.171   113796110.149    21280448.959    88508096.662    21280447.923  
                                
  21390661.430   114465771.022    21390661.859    89028937.784    21390661.769  
                                
  25915711.238   136188011.079                                                  
  25915714.651   101698861.896  
  23469005.883   123330502.477                                                  
  23469008.438    92097490.125  
  23723334.882   124666999.402                                                  
  23723337.849    93095511.591  
  25648009.258   134781211.768                                                  
  25648013.028   100648328.723  
  27302858.903   143477510.774                                                  
  27302862.227   107142321.847  
  26976096.318   141760355.542                                                  
  26976100.785   105860040.858  
  26542663.349   139482632.000                                                  
  26542668.656   104159121.273  
 21  8 31 20 50 52.0000000  0 19G10G15G18G23G24G32R 4R 5R14R15R20R21
                                E 3E 5E 9E15E24E31E36
  21922158.060   115201741.402    21922158.149    89767601.971    21922157.935  
  21922156.720    86027284.352  
  22158560.784   116444054.907    22158559.390    90735637.778    22158558.819  
                                
  21241604.366   111625395.321    21241603.115    86980831.670    21241602.704  
  21241607.207    83356645.705  
  20258791.878   106460702.325    20258790.126    82956404.362    20258789.805  
  20258794.111    79499900.057  
  20324149.509   106804171.895    20324149.973    83224052.770    20324149.419  
  20324150.581    79756394.532  
  23760175.286   124860584.325    23760177.037    97293972.517    23760176.412  
  23760175.983    93240059.656  
  22210265.142   118934988.924    22210265.696    92505003.923    22210265.767  
                                
  19831621.251   106011422.068    19831622.162    82453349.890    19831622.073  
                                
  21654426.167   115430309.290    21654429.384    89779160.404    21654429.509  
                                
  21165199.408   113100442.513    21165201.409    87967044.498    21165201.248  
                                
  21281065.369   113799426.630    21281069.157    88510676.151    21281068.121  
                                
  21390495.802   114464884.809    21390496.249    89028248.509    21390496.159  
                                
  25915356.449   136186146.574                                                  
  25915359.862   101697469.561  
  23469012.530   123330537.468                                                  
  23469015.103    92097516.252  
  23723695.426   124668894.038                                                  
  23723698.392    93096926.410  
  25647720.298   134779693.361                                                  
  25647724.068   100647194.848  
  27302376.100   143474973.620                                                  
  27302379.424   107140427.226  
  26975944.342   141759556.920                                                  
  26975948.809   105859444.473  
  26543263.015   139485783.184                                                  
  26543268.340   104161474.432  
 21  8 31 20 50 53.0000000  0 19G10G15G18G23G24G32R 4R 5R14R15R20R21
                                E 3E 5E 9E15E24E31E36
  21921694.394   115199304.806    21921694.466    89765703.327    21921694.269  
  21921693.054    86025464.823  
  22159095.944   116446867.109    22159094.550    90737829.102    22159093.978  
                                
  21242075.375   111627870.499    21242074.125    86982760.381    21242073.714  
  21242078.217    83358494.059  
  20258678.802   106460108.223    20258677.069    82955941.425    20258676.748  
  20258681.054    79499456.411  
  20324120.668   106804020.307    20324121.133    83223934.650    20324120.579  
  20324121.740    79756281.338  
  23759651.188   124857830.233    23759652.939    97291826.479    23759652.314  
  23759651.885    93238003.034  
  22210745.443   118937560.922    22210745.997    92507004.364    22210746.069  
                                
  19831686.723   106011772.165    19831687.634    82453622.190    19831687.545  
                                
  21654621.922   115431352.885    21654625.157    89779972.089    21654625.282  
                                
  21164696.520   113097755.220    21164698.521    87964954.384    21164698.360  
                                
  21281685.656   113802743.573    21281689.445    88513255.998    21281688.390  
                                
  21390330.353   114463999.420    21390330.799    89027559.879    21390330.710  
                                
  25915001.623   136184282.067                                                  
  25915005.036   101696077.251  
  23469019.195   123330572.528                                                  
  23469021.768    92097542.438  
  23724055.951   124670788.635                                                  
  23724058.917    93098341.202  
  25647431.427   134778175.292                                                  
  25647435.198   100646061.227  
  27301893.315   143472436.534                                                  
  27301896.638   107138532.642  
  26975792.437   141758758.641                                                  
  26975796.904   105858848.356  
  26543862.664   139488934.397                                                  
  26543867.989   104163827.606  
 21  8 31 20 50 54.0000000  0 19G10G15G18G23G24G32R 4R 5R14R15R20R21
                                E 3E 5E 9E15E24E31E36
  21921230.783   115196868.468    21921230.872    89763804.880    21921230.658  
  21921229.460    86023645.473  
  22159631.103   116449679.528    22159629.727    90740020.602    22159629.155  
                                
  21242546.492   111630346.243    21242545.241    86984689.530    21242544.830  
  21242549.333    83360342.823  
  20258565.852   106459514.590    20258564.119    82955478.854    20258563.797  
  20258568.086    79499013.111  
  20324091.971   106803869.500    20324092.435    83223817.138    20324091.881  
  20324093.061    79756168.716  
  23759127.125   124855076.353    23759128.876    97289680.598    23759128.251  
  23759127.822    93235946.574  
  22211225.780   118940133.076    22211226.334    92509004.926    22211226.388  
                                
  19831752.284   106012122.640    19831753.214    82453894.782    19831753.106  
                                
  21654817.874   115432397.406    21654821.090    89780784.494    21654821.215  
                                
  21164193.757   113095068.617    21164195.758    87962864.806    21164195.598  
                                
  21282306.051   113806061.132    21282309.839    88515836.320    21282308.785  
                                
  21390165.082   114463114.979    21390165.529    89026871.975    21390165.439  
                                
  25914646.870   136182417.762                                                  
  25914650.283   101694685.073  
  23469025.914   123330607.839                                                  
  23469028.487    92097568.808  
  23724416.512   124672683.344                                                  
  23724419.461    93099756.089  
  25647142.646   134776657.678                                                  
  25647146.399   100644927.952  
  27301410.565   143469899.639                                                  
  27301413.871   107136638.225  
  26975640.622   141757960.847                                                  
  26975645.107   105858252.598  
  26544462.349   139492085.777                                                  
  26544467.674   104166180.901  
 21  8 31 20 50 55.0000000  0 19G10G15G18G23G24G32R 4R 5R14R15R20R21
                                E 3E 5E 9E15E24E31E36
  21920767.224   115194432.413    21920767.314    89761906.655    21920767.099  
  21920765.902    86021826.341  
  22160166.352   116452492.230    22160164.976    90742212.315    22160164.404  
                                
  21243017.734   111632822.609    21243016.483    86986619.168    21243016.072  
  21243020.575    83362192.055  
  20258452.992   106458921.476    20258451.240    82955016.685    20258450.919  
  20258455.225    79498570.202  
  20324063.434   106803719.497    20324063.898    83223700.250    20324063.344  
  20324064.506    79756056.705  
  23758603.152   124852322.770    23758604.903    97287534.951    23758604.277  
  23758603.849    93233890.330  
  22211706.135   118942705.413    22211706.689    92511005.630    22211706.761  
                                
  19831817.935   106012473.534    19831818.847    82454167.701    19831818.757  
                                
  21655014.022   115433442.924    21655017.239    89781597.675    21655017.364  
                                
  21163691.137   113092382.757    21163693.138    87960775.804    21163692.978  
                                
  21282926.589   113809379.398    21282930.359    88518417.196    21282929.323  
                                
  21389999.972   114462231.524    21390000.401    89026184.844    21390000.330  
                                
  25914292.152   136180553.695                                                  
  25914295.565   101693293.068  
  23469032.722   123330643.463                                                  
  23469035.277    92097595.402  
  23724777.091   124674578.220                                                  
  23724780.058    93101171.093  
  25646853.954   134775140.620                                                  
  25646857.707   100643795.076  
  27300927.833   143467363.011                                                  
  27300931.157   107134743.990  
  26975488.896   141757163.590                                                  
  26975493.363   105857657.261  
  26545062.087   139495237.381                                                  
  26545067.412   104168534.374  
 21  8 31 20 50 56.0000000  0 19G10G15G18G23G24G32R 4R 5R14R15R20R21
                                E 3E 5E 9E15E24E31E36
  21920303.684   115191996.600    21920303.773    89760008.619    21920303.577  
  21920302.362    86020007.392  
  22160701.636   116455305.136    22160700.242    90744404.188    22160699.671  
                                
  21243489.065   111635299.518    21243487.814    86988549.223    21243487.403  
  21243491.906    83364041.697  
  20258340.220   106458328.820    20258338.487    82954554.878    20258338.147  
  20258342.454    79498127.632  
  20324035.040   106803570.260    20324035.504    83223583.961    20324034.951  
  20324036.112    79755945.259  
  23758079.196   124849569.406    23758080.965    97285389.477    23758080.340  
  23758079.893    93231834.238  
  22212186.544   118945277.935    22212187.116    92513006.483    22212187.170  
                                
  19831883.640   106012824.788    19831884.569    82454440.894    19831884.462  
                                
  21655210.313   115434489.371    21655213.548    89782411.578    21655213.673  
                                
  21163188.642   113089697.628    21163190.662    87958687.372    21163190.483  
                                
  21283547.233   113812698.271    21283551.022    88520998.532    21283549.985  
                                
  21389835.077   114461349.067    21389835.506    89025498.488    21389835.416  
                                
  25913937.469   136178689.812                                                  
  25913940.882   101691901.206  
  23469039.530   123330679.304                                                  
  23469042.103    92097622.169  
  23725137.688   124676473.216                                                  
  23725140.654    93102586.186  
  25646565.352   134773624.012                                                  
  25646569.104   100642662.555  
  27300445.191   143464826.615                                                  
  27300448.515   107132849.923  
  26975337.313   141756366.863                                                  
  26975341.780   105857062.295  
  26545661.842   139498389.143                                                  
  26545667.150   104170887.955  
 21  8 31 20 50 57.0000000  0 19G10G15G18G23G24G32R 4R 5R14R15R20R21
                                E 3E 5E 9E15E24E31E36
  21919840.197   115189560.920    21919840.287    89758110.684    21919840.072  
  21919838.875    86018188.542  
  22161236.939   116458118.183    22161235.563    90746596.171    22161234.991  
                                
  21243960.504   111637776.912    21243959.253    86990479.659    21243958.842  
  21243963.345    83365891.692  
  20258227.502   106457736.537    20258225.769    82954093.358    20258225.447  
  20258229.736    79497685.345  
  20324006.771   106803421.706    20324007.236    83223468.207    20324006.682  
  20324007.843    79755834.331  
  23757555.276   124846816.163    23757557.028    97283244.093    23757556.402  
  23757555.956    93229778.249  
  22212666.971   118947850.561    22212667.525    92515007.410    22212667.596  
                                
  19831949.398   106013176.278    19831950.309    82454714.278    19831950.220  
                                
  21655406.783   115435536.628    21655410.018    89783226.111    21655410.143  
                                
  21162686.255   113087013.105    21162688.274    87956599.407    21162688.095  
                                
  21284167.985   113816017.684    21284171.774    88523580.295    21284170.737  
                                
  21389670.324   114460467.522    21389670.753    89024812.841    21389670.682  
                                
  25913582.805   136176826.015                                                  
  25913586.200   101690509.413  
  23469046.392   123330715.307                                                  
  23469048.947    92097649.054  
  23725498.303   124678368.230                                                  
  23725501.269    93104001.296  
  25646276.820   134772107.803                                                  
  25646280.573   100641530.317  
  27299962.531   143462290.309                                                  
  27299965.855   107130955.936  
  26975185.766   141755570.530                                                  
  26975190.251   105856467.624  
  26546261.616   139501540.978                                                  
  26546266.941   104173241.603  
 21  8 31 20 50 58.0000000  0 19G10G15G18G23G24G32R 4R 5R14R15R20R21
                                E 3E 5E 9E15E24E31E36
  21919376.729   115187125.351    21919376.818    89756212.843    21919376.621  
  21919375.406    86016369.767  
  22161772.277   116460931.313    22161770.883    90748788.220    22161770.311  
                                
  21244432.014   111640254.713    21244430.763    86992410.416    21244430.352  
  21244434.873    83367741.992  
  20258114.856   106457144.571    20258113.123    82953632.088    20258112.783  
  20258117.090    79497243.288  
  20323978.609   106803273.769    20323979.074    83223352.931    20323978.520  
  20323979.682    79755723.849  
  23757031.357   124844063.005    23757033.108    97281098.773    23757032.482  
  23757032.036    93227722.324  
  22213147.397   118950423.227    22213147.951    92517008.369    22213148.023  
                                
  19832015.191   106013527.957    19832016.103    82454987.803    19832016.013  
                                
  21655603.378   115436584.622    21655606.613    89784041.220    21655606.738  
                                
  21162183.992   113084329.133    21162185.994    87954511.879    21162185.833  
                                
  21284788.827   113819337.557    21284792.597    88526162.418    21284791.561  
                                
  21389505.751   114459586.810    21389506.197    89024127.843    21389506.108  
                                
  25913228.141   136174962.238                                                  
  25913231.536   101689117.641  
  23469053.253   123330751.398                                                  
  23469055.809    92097676.005  
  23725858.918   124680263.206                                                  
  23725861.884    93105416.371  
  25645988.361   134770591.906                                                  
  25645992.113   100640398.321  
  27299479.924   143459754.083                                                  
  27299483.248   107129061.983  
  26975034.290   141754774.529                                                  
  26975038.757   105855873.210  
  26546861.408   139504692.843                                                  
  26546866.733   104175595.255  
 21  8 31 20 50 59.0000000  0 19G10G15G18G23G24G32R 4R 5R14R15R20R21
                                E 3E 5E 9E15E24E31E36
  21918913.242   115184689.718    21918913.313    89754314.947    21918913.117  
  21918911.902    86014550.954  
  22162307.561   116463744.381    22162306.185    90750980.218    22162305.613  
                                
  21244903.577   111642732.779    21244902.326    86994341.371    21244901.915  
  21244906.418    83369592.500  
  20258002.246   106456552.778    20258000.512    82953170.946    20258000.173  
  20258004.479    79496801.366  
  20323950.537   106803126.310    20323951.002    83223238.028    20323950.448  
  20323951.609    79755613.743  
  23756507.437   124841309.776    23756509.188    97278953.402    23756508.563  
  23756508.134    93225666.342  
  22213627.788   118952995.730    22213628.342    92519009.201    22213628.414  
                                
  19832080.985   106013879.677    19832081.896    82455261.364    19832081.807  
                                
  21655800.098   115437633.206    21655803.333    89784856.783    21655803.458  
                                
  21161681.801   113081645.562    21161683.803    87952424.656    21161683.642  
                                
  21285409.722   113822657.755    21285413.492    88528744.795    21285412.456  
                                
  21389341.302   114458706.719    21389341.731    89023443.331    21389341.642  
                                
  25912873.458   136173098.382                                                  
  25912876.871   101687725.789  
  23469060.115   123330787.441                                                  
  23469062.670    92097702.921  
  23726219.479   124682158.011                                                  
  23726222.445    93106831.325  
  25645699.919   134769076.210                                                  
  25645703.689   100639266.460  
  27298997.264   143457217.748                                                  
  27299000.570   107127167.989  
  26974882.850   141753978.748                                                  
  26974887.335   105855278.968  
  26547461.164   139507844.578                                                  
  26547466.489   104177948.826  
 21  8 31 20 51  0.0000000  0 19G10G15G18G23G24G32R 4R 5R14R15R20R21
                                E 3E 5E 9E15E24E31E36
  21918449.809   115182254.369    21918449.880    89752417.275    21918449.684  
  21918448.486    86012732.356  
  22162842.935   116466557.695    22162841.541    90753172.414    22162840.969  
                                
  21245375.248   111645211.445    21245373.997    86996272.802    21245373.586  
  21245378.089    83371443.457  
  20257889.724   106455961.486    20257887.991    82952710.202    20257887.651  
  20257891.958    79496359.822  
  20323922.644   106802979.661    20323923.090    83223123.756    20323922.537  
  20323923.716    79755504.234  
  23755983.553   124838556.800    23755985.304    97276808.226    23755984.679  
  23755984.250    93223610.559  
  22214108.233   118955568.435    22214108.804    92521010.193    22214108.858  
                                
  19832146.850   106014231.791    19832147.780    82455535.228    19832147.672  
                                
  21655996.979   115438682.734    21656000.214    89785673.082    21656000.339  
                                
  21161179.753   113078962.739    21161181.754    87950338.017    21161181.594  
                                
  21286030.742   113825978.622    21286034.512    88531327.691    21286033.476  
                                
  21389176.979   114457827.585    21389177.425    89022759.560    21389177.336  
                                
  25912518.812   136171234.729                                                  
  25912522.225   101686334.104  
  23469067.030   123330823.779                                                  
  23469069.586    92097730.058  
  23726580.094   124684052.981                                                  
  23726583.042    93108246.400  
  25645411.602   134767561.025                                                  
  25645415.355   100638135.004  
  27298514.658   143454681.689                                                  
  27298517.963   107125274.176  
  26974731.517   141753183.497                                                  
  26974735.985   105854685.113  
  26548060.955   139510996.513                                                  
  26548066.262   104180302.555  
 21  8 31 20 51  1.0000000  0 19G10G15G18G23G24G32R 4R 5R14R15R20R21
                                E 3E 5E 9E15E24E31E36
  21917986.411   115179819.135    21917986.483    89750519.688    21917986.286  
  21917985.089    86010913.831  
  22163378.291   116469371.115    22163376.915    90755364.689    22163376.343  
                                
  21245847.008   111647690.550    21245845.757    86998204.567    21245845.346  
  21245849.849    83373294.731  
  20257777.257   106455370.532    20257775.523    82952249.716    20257775.202  
  20257779.490    79495918.521  
  20323894.857   106802833.649    20323895.322    83223009.981    20323894.768  
  20323895.930    79755395.201  
  23755459.705   124835803.932    23755461.456    97274663.134    23755460.813  
  23755460.384    93221554.843  
  22214588.677   118958141.196    22214589.249    92523011.227    22214589.302  
                                
  19832212.769   106014584.135    19832213.698    82455809.276    19832213.591  
                                
  21656194.039   115439733.056    21656197.273    89786489.995    21656197.380  
                                
  21160677.812   113076280.502    21160679.814    87948251.834    21160679.653  
                                
  21286651.851   113829299.976    21286655.621    88533910.964    21286654.585  
                                
  21389012.869   114456949.326    21389013.298    89022076.467    21389013.227  
                                
  25912164.183   136169371.140                                                  
  25912167.596   101684942.466  
  23469073.946   123330860.204                                                  
  23469076.519    92097757.261  
  23726940.673   124685947.928                                                  
  23726943.639    93109661.449  
  25645123.339   134766046.190                                                  
  25645127.110   100637003.789  
  27298032.069   143452145.683                                                  
  27298035.375   107123380.414  
  26974580.256   141752388.608                                                  
  26974584.723   105854091.529  
  26548660.765   139514148.510                                                  
  26548666.090   104182656.305  
 21  8 31 20 51  2.0000000  0 19G10G15G18G23G24G32R 4R 5R14R15R20R21
                                E 3E 5E 9E15E24E31E36
  21917523.014   115177384.033    21917523.085    89748622.208    21917522.889  
  21917521.692    86009095.412  
  22163913.700   116472184.626    22163912.306    90757557.033    22163911.735  
                                
  21246318.857   111650170.115    21246317.607    87000136.693    21246317.196  
  21246321.699    83375146.348  
  20257664.896   106454779.945    20257663.163    82951789.518    20257662.823  
  20257667.130    79495477.496  
  20323867.196   106802688.311    20323867.661    83222896.733    20323867.107  
  20323868.268    79755286.666  
  23754935.874   124833051.182    23754937.625    97272518.138    23754937.000  
  23754936.571    93219499.223  
  22215069.139   118960714.041    22215069.711    92525012.329    22215069.765  
                                
  19832278.724   106014936.745    19832279.653    82456083.525    19832279.564  
                                
  21656391.224   115440784.230    21656394.458    89787307.575    21656394.583  
                                
  21160175.961   113073598.885    21160177.962    87946166.137    21160177.801  
                                
  21287273.068   113832621.853    21287276.838    88536494.648    21287275.802  
                                
  21388848.921   114456071.976    21388849.350    89021394.084    21388849.279  
                                
  25911809.555   136167507.618                                                  
  25911812.950   101683550.884  
  23469080.915   123330896.788                                                  
  23469083.470    92097784.580  
  23727301.269   124687842.883                                                  
  23727304.236    93111076.517  
  25644835.130   134764531.724                                                  
  25644838.900   100635872.859  
  27297549.498   143449609.804                                                  
  27297552.804   107121486.733  
  26974429.066   141751594.136                                                  
  26974433.551   105853498.245  
  26549260.574   139517300.551                                                  
  26549265.899   104185010.098  
 21  8 31 20 51  3.0000000  0 19G10G15G18G23G24G32R 4R 5R14R15R20R21
                                E 3E 5E 9E15E24E31E36
  21917059.706   115174949.321    21917059.777    89746725.027    21917059.581  
  21917058.384    86007277.288  
  22164449.163   116474998.516    22164447.788    90759749.674    22164447.216  
                                
  21246790.832   111652650.378    21246789.581    87002069.366    21246789.170  
  21246793.673    83376998.501  
  20257552.607   106454189.966    20257550.874    82951329.794    20257550.552  
  20257554.859    79495036.929  
  20323839.731   106802543.884    20323840.178    83222784.192    20323839.624  
  20323840.804    79755178.814  
  23754412.115   124830298.807    23754413.867    97270373.426    23754413.241  
  23754412.794    93217443.876  
  22215549.655   118963287.199    22215550.209    92527013.674    22215550.281  
                                
  19832344.786   106015289.847    19832345.715    82456358.163    19832345.608  
                                
  21656588.641   115441836.505    21656591.875    89788126.008    21656591.982  
                                
  21159674.288   113070918.106    21159676.307    87944081.087    21159676.128  
                                
  21287894.409   113835944.476    21287898.180    88539078.908    21287897.143  
                                
  21388685.169   114455195.728    21388685.598    89020712.558    21388685.527  
                                
  25911455.015   136165644.434                                                  
  25911458.428   101682159.538  
  23469087.955   123330933.762                                                  
  23469090.510    92097812.186  
  23727661.938   124689738.117                                                  
  23727664.904    93112491.783  
  25644547.081   134763017.895                                                  
  25644550.834   100634742.400  
  27297067.017   143447074.299                                                  
  27297070.340   107119593.337  
  26974278.002   141750800.273                                                  
  26974282.469   105852905.443  
  26549860.437   139520452.908                                                  
  26549865.762   104187364.137  
 21  8 31 20 51  4.0000000  0 19G10G15G18G23G24G32R 4R 5R14R15R20R21
                                E 3E 5E 9E15E24E31E36
  21916596.452   115172514.865    21916596.523    89744828.051    21916596.326  
  21916595.129    86005459.347  
  22164984.662   116477812.643    22164983.286    90761942.501    22164982.715  
                                
  21247262.931   111655131.225    21247261.681    87004002.494    21247261.270  
  21247265.790    83378851.075  
  20257440.426   106453600.467    20257438.692    82950870.444    20257438.353  
  20257442.659    79494596.721  
  20323812.392   106802400.245    20323812.839    83222672.266    20323812.303  
  20323813.464    79755071.554  
  23753888.392   124827546.661    23753890.143    97268228.899    23753889.518  
  23753889.071    93215388.706  
  22216030.225   118965860.561    22216030.779    92529015.176    22216030.850  
                                
  19832410.919   106015643.305    19832411.830    82456633.074    19832411.741  
                                
  21656786.200   115442889.691    21656789.435    89788945.153    21656789.560  
                                
  21159172.758   113068238.032    21159174.759    87941996.589    21159174.599  
                                
  21288515.894   113839267.758    21288519.664    88541663.679    21288518.610  
                                
  21388521.614   114454320.449    21388522.043    89020031.785    21388521.954  
                                
  25911100.494   136163781.458                                                  
  25911103.907   101680768.355  
  23469095.049   123330970.982                                                  
  23469097.604    92097839.983  
  23728022.588   124691633.463                                                  
  23728025.555    93113907.145  
  25644259.086   134761504.553                                                  
  25644262.839   100633612.307  
  27296584.571   143444539.009                                                  
  27296587.877   107117700.101  
  26974127.044   141750006.960                                                  
  26974131.529   105852313.027  
  26550460.372   139523605.463                                                  
  26550465.715   104189718.309  
 21  8 31 20 51  5.0000000  0 19G10G15G18G23G24G32R 4R 5R14R15R20R21
                                E 3E 5E 9E15E24E31E36
  21916133.143   115170080.302    21916133.233    89742930.991    21916133.018  
  21916131.821    86003641.337  
  22165520.161   116480626.641    22165518.785    90764135.224    22165518.213  
                                
  21247735.067   111657612.284    21247733.816    87005935.788    21247733.405  
  21247737.908    83380703.818  
  20257328.297   106453011.095    20257326.546    82950411.196    20257326.225  
  20257330.531    79494156.603  
  20323785.124   106802257.027    20323785.588    83222560.667    20323785.034  
  20323786.196    79754964.605  
  23753364.651   124824794.413    23753366.384    97266084.288    23753365.759  
  23753365.330    93213333.462  
  22216510.741   118968433.708    22216511.294    92531016.510    22216511.366  
                                
  19832477.034   106015996.759    19832477.945    82456907.978    19832477.856  
                                
  21656983.885   115443943.422    21656987.120    89789764.724    21656987.245  
                                
  21158671.300   113065558.340    21158673.301    87939912.384    21158673.140  
                                
  21289137.414   113842591.316    21289141.185    88544248.664    21289140.148  
                                
  21388358.131   114453445.770    21388358.559    89019351.479    21388358.488  
                                
  25910745.955   136161918.304                                                  
  25910749.368   101679377.043  
  23469102.107   123331008.118                                                  
  23469104.680    92097867.709  
  23728383.239   124693528.588                                                  
  23728386.187    93115322.334  
  25643971.127   134759991.337                                                  
  25643974.897   100632482.315  
  27296102.072   143442003.555                                                  
  27296105.377   107115806.760  
  26973976.122   141749213.793                                                  
  26973980.590   105851720.723  
  26551060.235   139526757.823                                                  
  26551065.560   104192072.344  
 21  8 31 20 51  6.0000000  0 19G10G15G18G23G24G32R 4R 5R14R15R20R21
                                E 3E 5E 9E15E24E31E36
  21915669.907   115167645.978    21915669.996    89741034.117    21915669.800  
  21915668.603    86001823.497  
  22166055.696   116483440.848    22166054.320    90766328.112    22166053.748  
                                
  21248207.291   111660093.903    21248206.058    87007869.513    21248205.647  
  21248210.150    83382556.971  
  20257216.205   106452422.178    20257214.472    82949952.297    20257214.150  
  20257218.457    79493716.830  
  20323758.016   106802114.574    20323758.463    83222449.667    20323757.927  
  20323759.089    79754858.230  
  23752840.946   124822042.367    23752842.697    97263939.839    23752842.072  
  23752841.643    93211278.370  
  22216991.274   118971007.010    22216991.846    92533017.967    22216991.900  
                                
  19832543.221   106016350.548    19832544.132    82457183.147    19832544.043  
                                
  21657181.713   115444998.036    21657184.948    89790584.982    21657185.073  
                                
  21158169.966   113062879.366    21158171.968    87937828.743    21158171.807  
                                
  21289759.042   113845915.480    21289762.812    88546834.122    21289761.776  
                                
  21388194.879   114452572.050    21388195.308    89018671.919    21388195.219  
                                
  25910391.433   136160055.340                                                  
  25910394.828   101677985.879  
  23469109.219   123331045.476                                                  
  23469111.774    92097895.607  
  23728743.889   124695423.828                                                  
  23728746.856    93116737.602  
  25643683.257   134758478.599                                                  
  25643687.027   100631352.666  
  27295619.644   143439468.341                                                  
  27295622.949   107113913.578  
  26973825.272   141748421.102                                                  
  26973829.739   105851128.780  
  26551660.134   139529910.357                                                  
  26551665.459   104194426.509  
 21  8 31 20 51  7.0000000  0 19G10G15G18G23G24G32R 4R 5R14R15R20R21
                                E 3E 5E 9E15E24E31E36
  21915206.742   115165211.915    21915206.813    89739137.442    21915206.617  
  21915205.420    86000005.848  
  22166591.266   116486255.295    22166589.872    90768521.188    22166589.301  
                                
  21248679.641   111662576.100    21248678.408    87009803.692    21248677.997  
  21248682.500    83384410.553  
  20257104.256   106451833.741    20257102.522    82949493.777    20257102.183  
  20257106.489    79493277.411  
  20323731.052   106801972.893    20323731.517    83222339.266    20323730.963  
  20323732.124    79754752.431  
  23752317.312   124819290.582    23752319.063    97261795.593    23752318.438  
  23752317.991    93209223.454  
  22217471.862   118973580.519    22217472.416    92535019.583    22217472.487  
                                
  19832609.462   106016704.707    19832610.391    82457458.607    19832610.301  
                                
  21657379.720   115446053.577    21657382.954    89791405.958    21657383.079  
                                
  21157668.758   113060201.127    21157670.760    87935745.670    21157670.599  
                                
  21290380.812   113849240.307    21290384.583    88549420.099    21290383.546  
                                
  21388031.789   114451699.323    21388032.217    89017993.131    21388032.128  
                                
  25910036.965   136158192.570                                                  
  25910040.378   101676594.843  
  23469116.367   123331083.096                                                  
  23469118.940    92097923.701  
  23729104.558   124697319.188                                                  
  23729107.524    93118152.975  
  25643395.494   134756966.349                                                  
  25643399.265   100630223.388  
  27295137.269   143436933.347                                                  
  27295140.575   107112020.557  
  26973674.529   141747628.945                                                  
  26973678.996   105850537.230  
  26552260.086   139533063.067                                                  
  26552265.411   104196780.803  
 21  8 31 20 51  8.0000000  0 19G10G15G18G23G24G32R 4R 5R14R15R20R21
                                E 3E 5E 9E15E24E31E36
  21914743.577   115162778.007    21914743.666    89737240.891    21914743.470  
  21914742.272    85998188.319  
  22167126.872   116489069.871    22167125.478    90770714.364    22167124.907  
                                
  21249152.080   111665058.769    21249150.847    87011738.240    21249150.418  
  21249154.939    83386264.497  
  20256992.342   106451245.690    20256990.609    82949035.551    20256990.269  
  20256994.576    79492838.281  
  20323704.231   106801831.910    20323704.695    83222229.410    20323704.141  
  20323705.303    79754647.148  
  23751793.678   124816538.908    23751795.411    97259651.434    23751794.786  
  23751794.357    93207168.649  
  22217952.467   118976154.102    22217953.039    92537021.256    22217953.110  
                                
  19832675.773   106017059.129    19832676.685    82457734.268    19832676.595  
                                
  21657577.905   115447109.959    21657581.140    89792227.586    21657581.265  
                                
  21157167.675   113057523.482    21157169.694    87933663.053    21157169.533  
                                
  21291002.672   113852565.665    21291006.443    88552006.491    21291005.406  
                                
  21387868.859   114450827.474    21387869.288    89017315.024    21387869.216  
                                
  25909682.516   136156329.911                                                  
  25909685.911   101675203.894  
  23469123.568   123331120.883                                                  
  23469126.141    92097951.919  
  23729465.244   124699214.587                                                  
  23729468.210    93119568.370  
  25643107.803   134755454.492                                                  
  25643111.573   100629094.406  
  27294654.895   143434398.483                                                  
  27294658.201   107110127.643  
  26973523.857   141746837.184                                                  
  26973528.343   105849945.984  
  26552860.039   139536215.864                                                  
  26552865.364   104199135.167  
 21  8 31 20 51  9.0000000  0 19G10G15G18G23G24G32R 4R 5R14R15R20R21
                                E 3E 5E 9E15E24E31E36
  21914280.465   115160344.372    21914280.555    89735344.552    21914280.358  
  21914279.161    85996370.986  
  22167662.496   116491884.708    22167661.120    90772907.739    22167660.548  
                                
  21249624.644   111667542.035    21249623.394    87013673.247    21249622.983  
  21249627.486    83388118.872  
  20256880.535   106450658.131    20256878.802    82948577.717    20256878.463  
  20256882.769    79492399.515  
  20323677.552   106801691.717    20323678.017    83222120.166    20323677.463  
  20323678.624    79754542.456  
  23751270.134   124813787.531    23751271.885    97257507.509    23751271.259  
  23751270.813    93205114.023  
  22218433.108   118978727.898    22218433.680    92539023.095    22218433.733  
                                
  19832742.139   106017413.935    19832743.068    82458010.229    19832742.961  
                                
  21657776.269   115448167.316    21657779.504    89793049.977    21657779.611  
                                
  21156666.735   113054846.574    21156668.736    87931581.011    21156668.575  
                                
  21291624.657   113855891.677    21291628.428    88554593.387    21291627.391  
                                
  21387706.126   114449956.626    21387706.572    89016637.696    21387706.483  
                                
  25909328.101   136154467.452                                                  
  25909331.514   101673813.097  
  23469130.805   123331158.925                                                  
  23469133.360    92097980.327  
  23729825.948   124701110.123                                                  
  23729828.914    93120983.863  
  25642820.201   134753943.136                                                  
  25642823.953   100627965.799  
  27294172.574   143431863.847                                                  
  27294175.880   107108234.905  
  26973373.275   141746045.942                                                  
  26973377.760   105849355.128  
  26553460.045   139539368.853                                                  
  26553465.370   104201489.670  
 21  8 31 20 51 10.0000000  0 19G10G15G18G23G24G32R 4R 5R14R15R20R21
                                E 3E 5E 9E15E24E31E36
  21913817.407   115157910.966    21913817.497    89733448.391    21913817.300  
  21913816.103    85994553.836  
  22168198.192   116494699.763    22168196.816    90775101.288    22168196.244  
                                
  21250097.298   111670025.851    21250096.047    87015608.694    21250095.636  
  21250100.139    83389973.675  
  20256768.818   106450071.039    20256767.085    82948120.236    20256766.746  
  20256771.052    79491961.107  
  20323651.035   106801552.301    20323651.481    83222011.530    20323650.927  
  20323652.107    79754438.344  
  23750746.589   124811036.339    23750748.322    97255363.720    23750747.697  
  23750747.268    93203059.572  
  22218913.785   118981301.861    22218914.339    92541025.062    22218914.410  
                                
  19832808.576   106017769.085    19832809.505    82458286.456    19832809.416  
                                
  21657974.794   115449225.577    21657978.029    89793873.066    21657978.154  
                                
  21156165.920   113052170.387    21156167.939    87929499.535    21156167.778  
                                
  21292246.749   113859218.328    21292250.520    88557180.780    21292249.483  
                                
  21387543.571   114449086.725    21387544.000    89015961.106    21387543.911  
                                
  25908973.705   136152605.174                                                  
  25908977.118   101672422.451  
  23469138.096   123331197.231                                                  
  23469140.651    92098008.932  
  23730186.688   124703005.794                                                  
  23730189.654    93122399.462  
  25642532.706   134752432.280                                                  
  25642536.459   100626837.558  
  27293690.272   143429329.428                                                  
  27293693.560   107106342.319  
  26973222.818   141745255.225                                                  
  26973227.303   105848764.652  
  26554060.087   139542522.032                                                  
  26554065.412   104203844.308  
 21  8 31 20 51 11.0000000  0 19G10G15G18G23G24G32R 4R 5R14R15R20R21
                                E 3E 5E 9E15E24E31E36
  21913354.332   115155477.425    21913354.421    89731552.126    21913354.207  
  21913353.009    85992736.584  
  22168733.851   116497514.656    22168732.475    90777294.711    22168731.904  
                                
  21250569.987   111672509.853    21250568.736    87017544.277    21250568.325  
  21250572.828    83391828.611  
  20256657.119   106449484.035    20256655.386    82947662.835    20256655.046  
  20256659.353    79491522.751  
  20323624.571   106801413.270    20323625.035    83221903.194    20323624.481  
  20323625.643    79754334.527  
  23750223.009   124808284.997    23750224.742    97253219.818    23750224.117  
  23750223.688    93201005.012  
  22219394.408   118983875.603    22219394.980    92543026.856    22219395.051  
                                
  19832875.013   106018124.184    19832875.924    82458562.642    19832875.835  
                                
  21658173.408   115450284.353    21658176.661    89794696.559    21658176.768  
                                
  21155665.176   113049494.538    21155667.195    87927418.321    21155667.034  
                                
  21292868.895   113862545.197    21292872.666    88559768.342    21292871.629  
                                
  21387381.106   114448217.425    21387381.535    89015284.984    21387381.463  
                                
  25908619.309   136150742.712                                                  
  25908622.704   101671031.645  
  23469145.350   123331235.385                                                  
  23469147.906    92098037.422  
  23730547.374   124704901.181                                                  
  23730550.340    93123814.850  
  25642245.194   134750921.511                                                  
  25642248.964   100625709.384  
  27293207.951   143426794.846                                                  
  27293211.257   107104449.611  
  26973072.361   141744464.600                                                  
  26973076.828   105848174.261  
  26554660.057   139545674.965                                                  
  26554665.382   104206198.775  
 21  8 31 20 51 12.0000000  0 19G10G15G18G23G24G32R 4R 5R14R15R20R21
                                E 3E 5E 9E15E24E31E36
  21912891.292   115153044.192    21912891.381    89729656.100    21912891.167  
  21912889.969    85990919.559  
  22169269.547   116500329.822    22169268.171    90779488.347    22169267.599  
                                
  21251042.784   111674994.486    21251041.551    87019480.357    21251041.140  
  21251045.643    83393684.017  
  20256545.509   106448897.559    20256543.758    82947205.838    20256543.436  
  20256547.743    79491084.800  
  20323598.267   106801275.072    20323598.714    83221795.510    20323598.160  
  20323599.339    79754231.327  
  23749699.500   124805533.955    23749701.251    97251076.150    23749700.626  
  23749700.179    93198950.668  
  22219875.102   118986449.587    22219875.674    92545028.839    22219875.728  
                                
  19832941.522   106018479.693    19832942.433    82458839.151    19832942.344  
                                
  21658372.237   115451344.090    21658375.471    89795520.799    21658375.596  
                                
  21155164.558   113046819.468    21155166.559    87925337.718    21155166.398  
                                
  21293491.148   113865872.777    21293494.919    88562356.458    21293493.882  
                                
  21387218.855   114447349.179    21387219.284    89014609.679    21387219.213  
                                
  25908264.930   136148880.500                                                  
  25908268.343   101669641.031  
  23469152.659   123331273.850                                                  
  23469155.232    92098066.147  
  23730908.078   124706796.755                                                  
  23730911.044    93125230.374  
  25641957.806   134749411.277                                                  
  25641961.577   100624581.620  
  27292725.720   143424260.559                                                  
  27292729.025   107102557.118  
  26972922.029   141743674.570                                                  
  26972926.514   105847584.297  
  26555260.081   139548828.156                                                  
  26555265.388   104208553.430  
 21  8 31 20 51 13.0000000  0 19G10G15G18G23G24G32R 4R 5R14R15R20R21
                                E 3E 5E 9E15E24E31E36
  21912428.305   115150611.162    21912428.377    89727760.232    21912428.180  
  21912426.983    85989102.690  
  22169805.314   116503145.179    22169803.920    90781682.130    22169803.348  
                                
  21251515.687   111677479.623    21251514.454    87021416.823    21251514.026  
  21251518.546    83395539.806  
  20256433.989   106448311.505    20256432.255    82946749.173    20256431.916  
  20256436.222    79490647.167  
  20323572.107   106801137.605    20323572.554    83221688.390    20323572.000  
  20323573.179    79754128.675  
  23749176.027   124802783.094    23749177.760    97248932.620    23749177.135  
  23749176.706    93196896.457  
  22220355.797   118989023.688    22220356.369    92547030.915    22220356.422  
                                
  19833008.084   106018835.526    19833009.013    82459115.908    19833008.906  
                                
  21658571.191   115452404.712    21658574.425    89796345.729    21658574.550  
                                
  21154664.082   113044145.048    21154666.083    87923257.614    21154665.922  
                                
  21294113.544   113869200.906    21294117.314    88564944.996    21294116.260  
                                
  21387056.783   114446481.860    21387057.212    89013935.095    21387057.123  
                                
  25907910.588   136147018.428                                                  
  25907914.000   101668250.530  
  23469160.039   123331312.517                                                  
  23469162.612    92098095.022  
  23731268.818   124708692.406                                                  
  23731271.784    93126645.956  
  25641670.508   134747901.489                                                  
  25641674.261   100623454.179  
  27292243.470   143421726.416                                                  
  27292246.758   107100664.745  
  26972771.768   141742884.977                                                  
  26972776.253   105846994.672  
  26555860.141   139551981.461                                                  
  26555865.466   104210908.167  
 21  8 31 20 51 14.0000000  0 19G10G15G18G23G24G32R 4R 5R14R15R20R21
                                E 3E 5E 9E15E24E31E36
  21911965.373   115148178.404    21911965.462    89725864.577    21911965.247  
  21911964.050    85987286.019  
  22170341.081   116505960.764    22170339.687    90783876.092    22170339.133  
                                
  21251988.716   111679965.351    21251987.465    87023353.756    21251987.054  
  21251991.557    83397396.030  
  20256322.557   106447725.936    20256320.824    82946292.886    20256320.485  
  20256324.791    79490209.892  
  20323546.108   106801000.936    20323546.554    83221581.895    20323546.000  
  20323547.162    79754026.617  
  23748652.608   124800032.483    23748654.341    97246789.289    23748653.715  
  23748653.287    93194842.424  
  22220836.509   118991597.965    22220837.081    92549033.131    22220837.153  
                                
  19833074.735   106019191.760    19833075.646    82459392.981    19833075.557  
                                
  21658770.341   115453466.271    21658773.575    89797171.389    21658773.700  
                                
  21154163.731   113041471.357    21154165.733    87921178.076    21154165.572  
                                
  21294736.029   113872529.675    21294739.800    88567534.038    21294738.763  
                                
  21386894.872   114445615.485    21386895.301    89013261.248    21386895.229  
                                
  25907556.281   136145156.550                                                  
  25907559.693   101666860.168  
  23469167.436   123331351.440                                                  
  23469170.010    92098124.090  
  23731629.576   124710588.186                                                  
  23731632.542    93128061.637  
  25641383.299   134746392.199                                                  
  25641387.070   100622327.108  
  27291761.275   143419192.508                                                  
  27291764.581   107098772.548  
  26972621.633   141742095.907                                                  
  26972626.100   105846405.423  
  26556460.236   139555134.961                                                  
  26556465.561   104213263.051  
 21  8 31 20 51 15.0000000  0 19G10G15G18G23G24G32R 4R 5R14R15R20R21
                                E 3E 5E 9E15E24E31E36
  21911502.440   115145745.764    21911502.529    89723969.013    21911502.315  
  21911501.135    85985469.434  
  22170876.901   116508776.467    22170875.507    90786070.147    22170874.936  
                                
  21252461.816   111682451.527    21252460.584    87025291.031    21252460.173  
  21252464.676    83399252.582  
  20256211.180   106447140.725    20256209.446    82945836.879    20256209.125  
  20256213.431    79489772.881  
  20323520.215   106800864.910    20323520.662    83221475.903    20323520.108  
  20323521.288    79753925.043  
  23748129.188   124797281.969    23748130.939    97244646.036    23748130.314  
  23748129.867    93192788.465  
  22221317.258   118994172.317    22221317.829    92551035.402    22221317.901  
                                
  19833141.422   106019548.241    19833142.334    82459670.242    19833142.244  
                                
  21658969.616   115454528.610    21658972.851    89797997.650    21658972.976  
                                
  21153663.488   113038798.271    21153665.507    87919099.016    21153665.347  
                                
  21295358.622   113875858.959    21295362.410    88570123.484    21295361.356  
                                
  21386733.139   114444749.950    21386733.568    89012588.052    21386733.479  
                                
  25907201.991   136143294.762                                                  
  25907205.404   101665469.862  
  23469174.870   123331390.503                                                  
  23469177.443    92098153.254  
  23731990.333   124712483.981                                                  
  23731993.282    93129477.328  
  25641096.162   134744883.259                                                  
  25641099.914   100621200.310  
  27291279.115   143416658.709                                                  
  27291282.421   107096880.414  
  26972471.533   141741307.201                                                  
  26972476.000   105845816.469  
  26557060.314   139558288.495                                                  
  26557065.621   104215617.963  
 21  8 31 20 51 16.0000000  0 19G10G15G18G23G24G32R 4R 5R14R15R20R21
                                E 3E 5E 9E15E24E31E36
  21911039.578   115143313.403    21911039.668    89722073.667    21911039.471  
  21911038.274    85983653.063  
  22171412.775   116511592.417    22171411.381    90788264.391    22171410.810  
                                
  21252935.024   111684938.302    21252933.791    87027228.780    21252933.380  
  21252937.883    83401109.593  
  20256099.927   106446556.022    20256098.194    82945381.264    20256097.872  
  20256102.161    79489336.252  
  20323494.502   106800729.708    20323494.949    83221370.548    20323494.395  
  20323495.556    79753824.072  
  23747605.840   124794531.719    23747607.574    97242502.991    23747606.948  
  23747606.519    93190734.730  
  22221798.059   118996746.887    22221798.613    92553037.846    22221798.685  
                                
  19833208.181   106019905.107    19833209.092    82459947.807    19833209.003  
                                
  21659169.106   115455591.916    21659172.340    89798824.668    21659172.466  
                                
  21153163.406   113036125.964    21153165.425    87917020.553    21153165.264  
                                
  21295981.339   113879188.889    21295985.110    88572713.432    21295984.073  
                                
  21386571.568   114443885.464    21386571.997    89011915.676    21386571.925  
                                
  25906847.756   136141433.178                                                  
  25906851.169   101664079.717  
  23469182.357   123331429.845                                                  
  23469184.930    92098182.635  
  23732351.109   124714379.919                                                  
  23732354.075    93130893.126  
  25640809.114   134743374.850                                                  
  25640812.866   100620073.905  
  27290796.991   143414125.142                                                  
  27290800.297   107094988.475  
  26972321.558   141740519.070                                                  
  26972326.043   105845227.910  
  26557660.480   139561442.261                                                  
  26557665.787   104217973.050  
 21  8 31 20 51 17.0000000  0 19G10G15G18G23G24G32R 4R 5R14R15R20R21
                                E 3E 5E 9E15E24E31E36
  21910576.753   115140881.217    21910576.842    89720178.460    21910576.646  
  21910575.448    85981836.821  
  22171948.649   116514408.537    22171947.256    90790458.770    22171946.684  
                                
  21253408.339   111687425.572    21253407.106    87029166.911    21253406.695  
  21253411.198    83402966.971  
  20255988.728   106445971.714    20255986.995    82944925.959    20255986.673  
  20255990.980    79488899.918  
  20323468.896   106800595.199    20323469.360    83221265.738    20323468.806  
  20323469.968    79753723.631  
  23747082.510   124791781.633    23747084.243    97240360.074    23747083.618  
  23747083.189    93188681.095  
  22222278.843   118999321.529    22222279.415    92555040.345    22222279.487  
                                
  19833274.993   106020262.236    19833275.905    82460225.572    19833275.815  
                                
  21659368.739   115456656.086    21659371.973    89799652.354    21659372.098  
                                
  21152663.430   113033454.299    21152665.432    87914942.593    21152665.271  
                                
  21296604.164   113882519.387    21296607.935    88575303.818    21296606.898  
                                
  21386410.193   114443021.922    21386410.621    89011244.030    21386410.550  
                                
  25906493.520   136139571.728                                                  
  25906496.933   101662689.671  
  23469189.880   123331469.357                                                  
  23469192.435    92098212.143  
  23732711.902   124716275.916                                                  
  23732714.851    93132308.966  
  25640522.155   134741866.851                                                  
  25640525.926   100618947.794  
  27290314.885   143411591.729                                                  
  27290318.190   107093096.648  
  26972171.655   141739731.346                                                  
  26972176.140   105844639.688  
  26558260.647   139564596.133                                                  
  26558265.972   104220328.203  
 21  8 31 20 51 18.0000000  0 19G10G15G18G23G24G32R 4R 5R14R15R20R21
                                E 3E 5E 9E15E24E31E36
  21910113.963   115138449.234    21910114.052    89718283.404    21910113.856  
  21910112.677    85980020.725  
  22172484.577   116517224.815    22172483.183    90792653.270    22172482.612  
                                
  21253881.761   111689913.363    21253880.510    87031105.449    21253880.099  
  21253884.620    83404824.730  
  20255877.619   106445387.826    20255875.885    82944470.979    20255875.546  
  20255879.852    79488463.898  
  20323443.450   106800461.420    20323443.897    83221161.495    20323443.343  
  20323444.504    79753623.730  
  23746559.216   124789031.747    23746560.967    97238217.305    23746560.342  
  23746559.913    93186627.595  
  22222759.663   119001896.320    22222760.235    92557042.958    22222760.306  
                                
  19833341.841   106020619.628    19833342.770    82460503.545    19833342.663  
                                
  21659568.532   115457721.134    21659571.767    89800480.722    21659571.892  
                                
  21152163.580   113030783.290    21152165.599    87912865.146    21152165.439  
                                
  21297227.096   113885850.460    21297230.867    88577894.651    21297229.830  
                                
  21386248.996   114442159.273    21386249.425    89010573.081    21386249.336  
                                
  25906139.338   136137710.390                                                  
  25906142.734   101661299.726  
  23469197.439   123331509.081                                                  
  23469199.994    92098241.807  
  23733072.714   124718171.972                                                  
  23733075.680    93133724.854  
  25640235.268   134740359.278                                                  
  25640239.021   100617822.018  
  27289832.832   143409058.476                                                  
  27289836.138   107091204.935  
  26972021.841   141738944.075                                                  
  26972026.308   105844051.788  
  26558860.832   139567750.116                                                  
  26558866.157   104222683.435  
 21  8 31 20 51 19.0000000  0 19G10G15G18G23G24G32R 4R 5R14R15R20R21
                                E 3E 5E 9E15E24E31E36
  21909651.173   115136017.255    21909651.245    89716388.357    21909651.048  
  21909649.869    85978204.641  
  22173020.505   116520041.084    22173019.111    90794847.766    22173018.539  
                                
  21254355.236   111692401.473    21254353.985    87033044.236    21254353.574  
  21254358.077    83406682.732  
  20255766.563   106444804.173    20255764.829    82944016.190    20255764.508  
  20255768.814    79488028.054  
  20323418.076   106800328.170    20323418.523    83221057.664    20323417.969  
  20323419.148    79753524.227  
  23746035.939   124786281.825    23746037.673    97236074.507    23746037.047  
  23746036.601    93184574.098  
  22223240.465   119004471.043    22223241.037    92559045.520    22223241.108  
                                
  19833408.725   106020977.145    19833409.654    82460781.612    19833409.547  
                                
  21659768.469   115458786.842    21659771.703    89801309.609    21659771.810  
                                
  21151663.837   113028112.776    21151665.856    87910788.080    21151665.696  
                                
  21297850.100   113889181.925    21297853.870    88580485.788    21297852.834  
                                
  21386087.925   114441297.321    21386088.354    89009902.674    21386088.282  
                                
  25905785.121   136135849.028                                                  
  25905788.534   101659909.740  
  23469204.979   123331548.802                                                  
  23469207.552    92098271.469  
  23733433.507   124720067.922                                                  
  23733436.473    93135140.656  
  25639948.452   134738851.964                                                  
  25639952.205   100616696.419  
  27289350.762   143406525.208                                                  
  27289354.049   107089313.209  
  26971872.081   141738157.073                                                  
  26971876.548   105843464.097  
  26559461.017   139570904.020                                                  
  26559466.324   104225038.623  
 21  8 31 20 51 20.0000000  0 19G10G15G18G23G24G32R 4R 5R14R15R20R21
                                E 3E 5E 9E15E24E31E36
  21909188.437   115133585.504    21909188.526    89714493.488    21909188.312  
  21909187.133    85976388.721  
  22173556.450   116522857.553    22173555.057    90797042.417    22173554.485  
                                
  21254828.801   111694890.123    21254827.568    87034983.441    21254827.139  
  21254831.660    83408541.141  
  20255655.578   106444220.972    20255653.845    82943561.745    20255653.505  
  20255657.812    79487592.546  
  20323392.863   106800195.671    20323393.310    83220954.415    20323392.756  
  20323393.935    79753425.278  
  23745512.681   124783532.127    23745514.414    97233931.887    23745513.789  
  23745513.360    93182520.752  
  22223721.320   119007045.924    22223721.892    92561048.206    22223721.963  
                                
  19833475.680   106021335.017    19833476.592    82461059.957    19833476.502  
                                
  21659968.548   115459853.429    21659971.783    89802139.178    21659971.890  
                                
  21151164.219   113025442.919    21151166.239    87908711.527    21151166.078  
                                
  21298473.210   113892514.005    21298476.981    88583077.401    21298475.944  
                                
  21385927.032   114440436.331    21385927.461    89009233.015    21385927.390  
                                
  25905430.957   136133987.828                                                  
  25905434.352   101658519.891  
  23469212.592   123331588.760                                                  
  23469215.165    92098301.306  
  23733794.301   124721963.960                                                  
  23733797.267    93136556.533  
  25639661.690   134737345.104                                                  
  25639665.443   100615571.171  
  27288868.709   143403992.139                                                  
  27288871.997   107087421.642  
  26971722.410   141737370.556                                                  
  26971726.895   105842876.763  
  26560061.184   139574058.071                                                  
  26560066.509   104227393.925  
 21  8 31 20 51 21.0000000  0 19G10G15G18G23G24G32R 4R 5R14R15R20R21
                                E 3E 5E 9E15E24E31E36
  21908725.754   115131154.137    21908725.844    89712598.914    21908725.647  
  21908724.450    85974573.092  
  22174092.485   116525674.386    22174091.092    90799237.349    22174090.520  
                                
  21255302.509   111697379.488    21255301.276    87036923.205    21255300.865  
  21255305.368    83410400.081  
  20255544.737   106443638.379    20255542.986    82943107.776    20255542.664  
  20255546.970    79487157.490  
  20323367.828   106800064.078    20323368.275    83220851.878    20323367.721  
  20323368.883    79753327.018  
  23744989.512   124780782.816    23744991.263    97231789.574    23744990.619  
  23744990.191    93180467.677  
  22224202.211   119009621.101    22224202.783    92563051.116    22224202.855  
                                
  19833542.707   106021693.406    19833543.618    82461338.701    19833543.529  
                                
  21660168.842   115460921.078    21660172.077    89802969.575    21660172.202  
                                
  21150664.744   113022773.924    21150666.746    87906635.644    21150666.585  
                                
  21299096.464   113895846.834    21299100.234    88585669.597    21299099.198  
                                
  21385766.336   114439576.476    21385766.765    89008564.239    21385766.676  
                                
  25905076.828   136132126.950                                                  
  25905080.224   101657130.277  
  23469220.275   123331629.097                                                  
  23469222.848    92098331.430  
  23734155.166   124723860.274                                                  
  23734158.132    93137972.603  
  25639375.053   134735838.857                                                  
  25639378.824   100614446.383  
  27288386.763   143401459.425                                                  
  27288390.069   107085530.332  
  26971572.864   141736584.678                                                  
  26971577.349   105842289.899  
  26560661.458   139577212.471                                                  
  26560666.783   104229749.464  
