     2.11           OBSERVATION DATA    M (MIXED)           RINEX VERSION / TYPE
CONVBIN 2.4.3                           20210901 004858 UTC PGM / RUN BY / DATE 
log: logs/21_08_31_18_18_24_okdt_SW.rtcm                    COMMENT             
format: RTCM 3, station ID: 2696                            COMMENT             
2696                                                        MARKER NAME         
                                                            MARKER NUMBER       
                                                            OBSERVER / AGENCY   
                    SWFT                                    REC # / TYPE / VERS 
                    NULL                                    ANT # / TYPE        
  -686782.6115 -5211230.4450  3600696.6734                  APPROX POSITION XYZ 
        0.0000        0.0000        0.0000                  ANTENNA: DELTA H/E/N
     1     1                                                WAVELENGTH FACT L1/2
     5    C1    L1    P2    L2    C2                        # / TYPES OF OBSERV 
  2021     8    31    18    18   29.0000000     GPS         TIME OF FIRST OBS   
  2021     8    31    18    48   27.0000000     GPS         TIME OF LAST OBS    
                                                            END OF HEADER       
 21  8 31 18 18 29.0000000  0 10G 5G10G13G15G18G23G29E 5E 9E36
  22586022.354   118690345.438    22586023.176    92485982.489                  
  24345574.360   127936776.036    24345579.381    99690973.663                  
  21750749.260   114300954.970    21750749.600    89065677.999                  
  20291957.088   106634959.128    20291957.535    83092176.895                  
  21037674.248   110553725.276    21037675.178    86145762.180                  
  21636474.357   113700434.585    21636475.715    88597741.617                  
  20910162.580   109883640.276    20910163.259    85623613.918                  
  24146580.578   126891115.258                                                  
  22297533.197   117174311.200                                                  
  23635912.564   124207502.355                                                  
 21  8 31 18 18 30.0000000  0 10G 5G10G13G15G18G23G29E 5E 9E36
  22586535.714   118693043.130    22586536.536    92488084.581                  
  24345091.825   127934240.311    24345096.864    99688997.777                  
  21750999.605   114302270.519    21750999.963    89066703.102                  
  20291932.768   106634831.339    20291933.215    83092077.321                  
  21037356.966   110552057.984    21037357.895    86144462.992                  
  21636159.773   113698781.484    21636161.149    88596453.489                  
  20910544.084   109885645.073    20910544.763    85625176.097                  
  24146227.826   126889261.470                                                  
  22297696.520   117175169.380                                                  
  23635942.584   124207660.164                                                  
 21  8 31 18 18 31.0000000  0 15G 5G10G13G15G18G23G29C19C20C22C29C35
                                E 5E 9E36
  22587049.108   118695740.903    22587049.895    92490186.743                  
  24344609.326   127931704.757    24344614.365    99687022.022                  
  21751250.058   114303586.727    21751250.415    89067728.719                  
  20291908.574   106634704.265    20291909.038    83091978.301                  
  21037039.719   110550390.898    21037040.666    86143163.966                  
  21635845.260   113697128.683    21635846.618    88595165.589                  
  20910925.677   109887650.440    20910926.374    85626738.719                  
                 112341700.868                   112341700.868    21574042.760  
                 132643582.177                   132643582.177    25472803.863  
                 119203817.003                   119203817.003    22891837.352  
                 122688867.862                   122688867.862    23561110.225  
                 112415249.619                   112415249.619    21588168.241  
  24145875.127   126887408.043                                                  
  22297859.896   117176027.982                                                  
  23635972.657   124207818.219                                                  
 21  8 31 18 18 32.0000000  0 15G 5G10G13G15G18G23G29C19C20C22C29C35
                                E 5E 9E36
  22587562.486   118698438.759    22587563.308    92492288.968                  
  24344126.844   127929169.382    24344131.883    99685046.405                  
  21751500.635   114304903.579    21751500.992    89068754.837                  
  20291884.540   106634577.911    20291885.004    83091879.840                  
  21036722.526   110548724.008    21036723.473    86141865.090                  
  21635530.801   113695476.192    21635532.159    88593877.939                  
  20911307.395   109889656.382    20911308.092    85628301.793                  
                 112342859.115                   112342859.115    21574265.194  
                 132646487.102                   132646487.102    25473361.716  
                 119202078.563                   119202078.563    22891503.523  
                 122691521.181                   122691521.181    23561619.760  
                 112415328.259                   112415328.259    21588183.340  
  24145522.500   126885554.974                                                  
  22298023.362   117176886.986                                                  
  23636002.785   124207976.515                                                  
 21  8 31 18 18 33.0000000  0 15G 5G10G13G15G18G23G29C19C20C22C29C35
                                E 5E 9E36
  22588075.880   118701136.696    22588076.702    92494391.255                  
  24343644.416   127926634.189    24343649.455    99683070.935                  
  21751751.355   114306221.075    21751751.713    89069781.458                  
  20291860.613   106634452.258    20291861.078    83091781.929                  
  21036405.351   110547057.320    21036406.298    86140566.370                  
  21635216.396   113693824.006    21635217.754    88592590.519                  
  20911689.220   109891662.894    20911689.917    85629865.306                  
                 112344017.710                   112344017.710    21574487.699  
                 132649392.068                   132649392.068    25473919.605  
                 119200340.489                   119200340.489    22891169.748  
                 122694174.796                   122694174.796    23562129.367  
                 112415407.386                   112415407.386    21588198.547  
  24145169.944   126883702.266                                                  
  22298186.900   117177746.415                                                  
  23636032.965   124208135.051                                                  
 21  8 31 18 18 34.0000000  0 15G 5G10G13G15G18G23G29C19C20C22C29C35
                                E 5E 9E36
  22588589.293   118703834.710    22588590.115    92496493.605                  
  24343162.024   127924099.151    24343167.045    99681095.583                  
  21752002.201   114307539.218    21752002.558    89070808.577                  
  20291836.847   106634327.312    20291837.312    83091684.575                  
  21036088.248   110545390.832    21036089.177    86139267.808                  
  21634902.062   113692172.126    21634903.420    88591303.340                  
  20912071.153   109893669.971    20912071.867    85631429.262                  
                 112345176.664                   112345176.664    21574710.258  
                 132652297.071                   132652297.071    25474477.458  
                 119198602.784                   119198602.784    22890836.026  
                 122696828.710                   122696828.710    23562639.027  
                 112415487.000                   112415487.000    21588213.843  
  24144817.442   126881849.907                                                  
  22298350.526   117178606.253                                                  
  23636063.164   124208293.837                                                  
 21  8 31 18 18 35.0000000  0 15G 5G10G13G15G18G23G29C19C20C22C29C35
                                E 5E 9E36
  22589102.724   118706532.810    22589103.546    92498596.016                  
  24342679.632   127921564.298    24342684.671    99679120.371                  
  21752253.153   114308858.015    21752253.528    89071836.216                  
  20291813.207   106634203.091    20291813.671    83091587.773                  
  21035771.162   110543724.544    21035772.109    86137969.402                  
  21634587.781   113690520.551    21634589.121    88590016.398                  
  20912453.192   109895677.633    20912453.907    85632993.672                  
                 112346335.966                   112346335.966    21574932.906  
                 132655202.109                   132655202.109    25475035.365  
                 119196865.457                   119196865.457    22890502.375  
                 122699482.921                   122699482.921    23563148.741  
                 112415567.101                   112415567.101    21588229.228  
  24144465.029   126879997.906                                                  
  22298514.224   117179466.516                                                  
  23636093.416   124208452.858                                                  
 21  8 31 18 18 36.0000000  0 15G 5G10G13G15G18G23G29C19C20C22C29C35
                                E 5E 9E36
  22589616.154   118709230.979    22589616.976    92500698.488                  
  24342197.294   127919029.613    24342202.333    99677145.298                  
  21752504.249   114310177.446    21752504.588    89072864.339                  
  20291789.709   106634079.577    20291790.156    83091491.531                  
  21035454.112   110542058.461    21035455.059    86136671.155                  
  21634273.554   113688869.278    21634274.895    88588729.692                  
  20912835.357   109897685.864    20912836.054    85634558.527                  
                 112347495.626                   112347495.626    21575155.607  
                 132658107.191                   132658107.191    25475593.235  
                 119195128.497                   119195128.497    22890168.814  
                 122702137.429                   122702137.429    23563658.526  
                 112415647.684                   112415647.684    21588244.685  
  24144112.652   126878146.272                                                  
  22298677.994   117180327.175                                                  
  23636123.740   124208612.134                                                  
 21  8 31 18 18 37.0000000  0 15G 5G10G13G15G18G23G29C19C20C22C29C35
                                E 5E 9E36
  22590129.639   118711929.234    22590130.443    92502801.024                  
  24341715.009   127916495.100    24341720.048    99675170.351                  
  21752755.434   114311497.537    21752755.809    89073892.982                  
  20291766.336   106633956.776    20291766.801    83091395.844                  
  21035137.097   110540392.575    21035138.044    86135373.062                  
  21633959.381   113687218.314    21633960.739    88587443.226                  
  20913217.611   109899694.661    20913218.326    85636123.823                  
                 112348655.632                   112348655.632    21575378.363  
                 132661012.314                   132661012.314    25476151.142  
                 119193391.906                   119193391.906    22889835.325  
                 122704792.239                   122704792.239    23564168.347  
                 112415728.752                   112415728.752    21588260.266  
  24143760.382   126876294.996                                                  
  22298841.853   117181188.271                                                  
  23636154.099   124208771.642                                                  
 21  8 31 18 18 38.0000000  0 15G 5G10G13G15G18G23G29C19C20C22C29C35
                                E 5E 9E36
  22590643.105   118714627.568    22590643.927    92504903.622                  
  24341232.742   127913960.761    24341237.763    99673195.543                  
  21753006.761   114312818.273    21753007.119    89074922.129                  
  20291743.106   106633834.694    20291743.553    83091300.715                  
  21034820.137   110538726.894    21034821.084    86134075.129                  
  21633645.280   113685567.651    21633646.620    88586157.000                  
  20913600.008   109901704.036    20913600.687    85637689.566                  
                 112349815.993                   112349815.993    21575601.207  
                 132663917.471                   132663917.471    25476709.049  
                 119191655.687                   119191655.687    22889501.907  
                 122707447.342                   122707447.342    23564678.222  
                 112415810.310                   112415810.310    21588275.920  
  24143408.166   126874444.069                                                  
  22299005.801   117182049.766                                                  
  23636184.495   124208931.393                                                  
 21  8 31 18 18 39.0000000  0 15G 5G10G13G15G18G23G29C19C20C22C29C35
                                E 5E 9E36
  22591156.607   118717325.981    22591157.411    92507006.277                  
  24340750.492   127911426.606    24340755.531    99671220.880                  
  21753258.214   114314139.649    21753258.572    89075951.773                  
  20291720.002   106633713.325    20291720.484    83091206.140                  
  21034503.194   110537061.409    21034504.141    86132777.351                  
  21633331.214   113683917.297    21633332.554    88584871.007                  
  20913982.477   109903713.978    20913983.156    85639255.759                  
                 112350976.706                   112350976.706    21575824.105  
                 132666822.673                   132666822.673    25477266.955  
                 119189919.841                   119189919.841    22889168.560  
                 122710102.746                   122710102.746    23565188.168  
                 112415892.352                   112415892.352    21588291.680  
  24143056.003   126872593.512                                                  
  22299169.821   117182911.687                                                  
  23636214.943   124209091.388                                                  
 21  8 31 18 18 40.0000000  0 15G 5G10G13G15G18G23G29C19C20C22C29C35
                                E 5E 9E36
  22591670.091   118720024.488    22591670.913    92509109.012                  
  24340268.297   127908892.625    24340273.336    99669246.351                  
  21753509.774   114315461.668    21753510.132    89076981.918                  
  20291697.040   106633592.667    20291697.523    83091112.125                  
  21034186.322   110535396.119    21034187.252    86131479.722                  
  21633017.219   113682267.242    21633018.577    88583585.255                  
  20914365.053   109905724.492    20914365.768    85640822.390                  
                 112352137.773                   112352137.773    21576047.057  
                 132669727.911                   132669727.911    25477824.880  
                 119188184.363                   119188184.363    22888835.285  
                 122712758.448                   122712758.448    23565698.186  
                 112415974.875                   112415974.875    21588307.512  
  24142703.912   126870743.284                                                  
  22299333.912   117183774.025                                                  
  23636245.428   124209251.621                                                  
 21  8 31 18 18 41.0000000  0 15G 5G10G13G15G18G23G29C19C20C22C29C35
                                E 5E 9E36
  22592183.647   118722723.077    22592184.451    92511211.804                  
  24339786.119   127906358.799    24339791.158    99667271.946                  
  21753761.477   114316784.339    21753761.835    89078012.570                  
  20291674.221   106633472.724    20291674.686    83091018.661                  
  21033869.469   110533731.036    21033870.398    86130182.253                  
  21632703.296   113680617.501    21632704.636    88582299.738                  
  20914747.754   109907735.587    20914748.468    85642389.477                  
                 112353299.192                   112353299.192    21576270.098  
                 132672633.188                   132672633.188    25478382.804  
                 119186449.258                   119186449.258    22888502.063  
                 122715414.445                   122715414.445    23566208.221  
                 112416057.886                   112416057.886    21588323.451  
  24142351.892   126868893.466                                                  
  22299498.093   117184636.761                                                  
  23636275.984   124209412.132                                                  
 21  8 31 18 18 42.0000000  0 15G 5G10G13G15G18G23G29C19C20C22C29C35
                                E 5E 9E36
  22592697.185   118725421.757    22592698.007    92513314.672                  
  24339303.977   127903825.164    24339309.016    99665297.683                  
  21754013.306   114318107.652    21754013.663    89079043.723                  
  20291651.546   106633353.489    20291651.992    83090925.750                  
  21033552.633   110532066.148    21033553.580    86128884.942                  
  21632389.427   113678968.053    21632390.767    88581014.456                  
  20915130.562   109909747.245    20915131.259    85643957.003                  
                 112354460.961                   112354460.961    21576493.229  
                 132675538.503                   132675538.503    25478940.747  
                 119184714.520                   119184714.520    22888168.913  
                 122718070.743                   122718070.743    23566718.346  
                 112416141.386                   112416141.386    21588339.498  
  24141999.961   126867043.971                                                  
  22299662.345   117185499.926                                                  
  23636306.558   124209572.855                                                  
 21  8 31 18 18 43.0000000  0 15G 5G10G13G15G18G23G29C19C20C22C29C35
                                E 5E 9E36
  22593210.741   118728120.511    22593211.563    92515417.597                  
  24338821.889   127901291.697    24338826.928    99663323.554                  
  21754265.241   114319431.613    21754265.598    89080075.379                  
  20291628.977   106633234.969    20291629.442    83090833.395                  
  21033235.851   110530401.470    21033236.798    86127587.788                  
  21632075.575   113677318.917    21632076.933    88579729.417                  
  20915513.477   109911759.481    20915514.174    85645524.977                  
                 112355623.086                   112355623.086    21576716.377  
                 132678443.858                   132678443.858    25479498.671  
                 119182980.156                   119182980.156    22887835.853  
                 122720727.336                   122720727.336    23567228.525  
                 112416225.368                   112416225.368    21588355.616  
  24141648.085   126865194.835                                                  
  22299826.686   117186363.499                                                  
  23636337.203   124209733.827                                                  
 21  8 31 18 18 44.0000000  0 15G 5G10G13G15G18G23G29C19C20C22C29C35
                                E 5E 9E36
  22593724.296   118730819.335    22593725.118    92517520.579                  
  24338339.818   127898758.402    24338344.839    99661349.558                  
  21754517.301   114320756.226    21754517.659    89081107.547                  
  20291606.551   106633117.157    20291607.016    83090741.598                  
  21032919.123   110528736.989    21032920.052    86126290.788                  
  21631761.813   113675670.085    21631763.171    88578444.613                  
  20915896.500   109913772.281    20915897.196    85647093.391                  
                 112356785.558                   112356785.558    21576939.615  
                 132681349.254                   132681349.254    25480056.631  
                 119181246.165                   119181246.165    22887502.863  
                 122723384.228                   122723384.228    23567738.739  
                 112416309.836                   112416309.836    21588371.841  
  24141296.279   126863346.062                                                  
  22299991.099   117187227.489                                                  
  23636367.867   124209895.046                                                  
 21  8 31 18 18 45.0000000  0 15G 5G10G13G15G18G23G29C19C20C22C29C35
                                E 5E 9E36
  22594237.906   118733518.264    22594238.728    92519623.641                  
  24337857.783   127896225.286    24337862.805    99659375.702                  
  21754769.505   114322081.476    21754769.862    89082140.207                  
  20291584.287   106633000.064    20291584.733    83090650.351                  
  21032602.412   110527072.708    21032603.359    86124993.950                  
  21631448.122   113674021.559    21631449.463    88577160.047                  
  20916279.647   109915785.656    20916280.344    85648662.259                  
                 112357948.388                   112357948.388    21577162.942  
                 132684254.685                   132684254.685    25480614.592  
                 119179512.539                   119179512.539    22887169.946  
                 122726041.417                   122726041.417    23568249.025  
                 112416394.792                   112416394.792    21588388.155  
  24140944.545   126861497.644                                                  
  22300155.583   117188091.895                                                  
  23636398.601   124210056.505                                                  
 21  8 31 18 18 46.0000000  0 15G 5G10G13G15G18G23G29C19C20C22C29C35
                                E 5E 9E36
  22594751.497   118736217.264    22594752.319    92521726.757                  
  24337375.784   127893692.332    24337380.806    99657401.981                  
  21755021.797   114323407.374    21755022.155    89083173.374                  
  20291562.147   106632883.683    20291562.594    83090559.668                  
  21032285.755   110525408.629    21032286.702    86123697.261                  
  21631134.485   113672373.341    21631135.826    88575875.722                  
  20916662.884   109917799.600    20916663.581    85650231.566                  
                 112359111.566                   112359111.566    21577386.323  
                 132687160.156                   132687160.156    25481172.552  
                 119177779.289                   119177779.289    22886837.081  
                 122728698.902                   122728698.902    23568759.382  
                 112416480.231                   112416480.231    21588404.577  
  24140592.865   126859649.593                                                  
  22300320.157   117188956.710                                                  
  23636429.354   124210218.219                                                  
 21  8 31 18 18 47.0000000  0 15G 5G10G13G15G18G23G29C19C20C22C29C35
                                E 5E 9E36
  22595265.124   118738916.344    22595265.946    92523829.929                  
  24336893.803   127891159.563    24336898.824    99655428.392                  
  21755274.233   114324733.918    21755274.608    89084207.047                  
  20291540.114   106632768.016    20291540.579    83090469.540                  
  21031969.116   110523744.750    21031970.081    86122400.734                  
  21630820.884   113670725.419    21630822.242    88574591.629                  
  20917046.246   109919814.114    20917046.925    85651801.312                  
                 112360275.096                   112360275.096    21577609.757  
                 132690065.663                   132690065.663    25481730.548  
                 119176046.406                   119176046.406    22886504.307  
                 122731356.686                   122731356.686    23569269.775  
                 112416566.156                   112416566.156    21588421.088  
  24140241.256   126857801.894                                                  
  22300484.802   117189821.941                                                  
  23636460.178   124210380.157                                                  
 21  8 31 18 18 48.0000000  0 15G 5G10G13G15G18G23G29C19C20C22C29C35
                                E 5E 9E36
  22595778.734   118741615.496    22595779.556    92525933.167                  
  24336411.858   127888626.958    24336416.879    99653454.938                  
  21755526.794   114326061.113    21755527.151    89085241.223                  
  20291518.243   106632653.065    20291518.725    83090379.970                  
  21031652.549   110522081.071    21031653.478    86121104.362                  
  21630507.354   113669077.806    21630508.694    88573307.774                  
  20917429.697   109921829.208    20917430.376    85653371.516                  
                 112361438.981                   112361438.981    21577833.263  
                 132692971.216                   132692971.216    25482288.526  
                 119174313.897                   119174313.897    22886171.603  
                 122734014.765                   122734014.765    23569780.221  
                 112416652.566                   112416652.566    21588437.652  
  24139889.719   126855954.559                                                  
  22300649.519   117190687.591                                                  
  23636491.038   124210542.344                                                  
 21  8 31 18 18 49.0000000  0 15G 5G10G13G15G18G23G29C19C20C22C29C35
                                E 5E 9E36
  22596292.397   118744314.728    22596293.219    92528036.465                  
  24335929.966   127886094.529    24335934.987    99651481.617                  
  21755779.480   114327388.957    21755779.837    89086275.906                  
  20291496.496   106632538.821    20291496.979    83090290.946                  
  21031335.999   110520417.596    21031336.946    86119808.149                  
  21630193.878   113667430.500    21630195.218    88572024.160                  
  20917813.256   109923844.860    20917813.953    85654942.151                  
                 112362603.215                   112362603.215    21578056.840  
                 132695876.801                   132695876.801    25482846.504  
                 119172581.758                   119172581.758    22885838.953  
                 122736673.146                   122736673.146    23570290.739  
                 112416739.465                   112416739.465    21588454.360  
  24139538.235   126854107.573                                                  
  22300814.343   117191553.655                                                  
  23636521.951   124210704.780                                                  
 21  8 31 18 18 50.0000000  0 15G 5G10G13G15G18G23G29C19C20C22C29C35
                                E 5E 9E36
  22596806.060   118747014.036    22596806.882    92530139.820                  
  24335448.074   127883562.284    24335453.095    99649508.442                  
  21756032.273   114328717.449    21756032.648    89087311.098                  
  20291474.892   106632425.293    20291475.357    83090202.481                  
  21031019.485   110518754.325    21031020.414    86118512.093                  
  21629880.455   113665783.500    21629881.813    88570740.781                  
  20918196.940   109925861.085    20918197.619    85656513.238                  
                 112363767.801                   112363767.801    21578280.506  
                 132698782.427                   132698782.427    25483404.500  
                 119170849.988                   119170849.988    22885506.375  
                 122739331.820                   122739331.820    23570801.329  
                 112416826.846                   112416826.846    21588471.139  
  24139186.841   126852260.960                                                  
  22300979.220   117192420.136                                                  
  23636552.918   124210867.466                                                  
 21  8 31 18 18 51.0000000  0 15G 5G10G13G15G18G23G29C19C20C22C29C35
                                E 5E 9E36
  22597319.740   118749713.426    22597320.562    92532243.238                  
  24334966.236   127881030.202    24334971.257    99647535.395                  
  21756285.209   114330046.587    21756285.566    89088346.785                  
  20291453.432   106632312.473    20291453.896    83090114.571                  
  21030703.007   110517091.249    21030703.954    86117216.192                  
  21629567.122   113664136.796    21629568.462    88569457.637                  
  20918580.713   109927877.878    20918581.427    85658084.763                  
                 112364932.727                   112364932.727    21578504.209  
                 132701688.070                   132701688.070    25483962.496  
                 119169118.579                   119169118.579    22885173.886  
                 122741990.788                   122741990.788    23571311.936  
                 112416914.728                   112416914.728    21588488.025  
  24138835.518   126850414.699                                                  
  22301144.187   117193287.031                                                  
  23636583.921   124211030.387                                                  
 21  8 31 18 18 52.0000000  0 15G 5G10G13G15G18G23G29C19C20C22C29C35
                                E 5E 9E36
  22597833.421   118752412.890    22597834.243    92534346.719                  
  24334484.434   127878498.301    24334489.455    99645562.485                  
  21756538.252   114331376.359    21756538.627    89089382.973                  
  20291432.096   106632200.374    20291432.561    83090027.223                  
  21030386.582   110515428.380    21030387.529    86115920.450                  
  21629253.824   113662490.403    21629255.164    88568174.734                  
  20918964.629   109929895.250    20918965.308    85659656.743                  
                 112366098.017                   112366098.017    21578727.982  
                 132704593.771                   132704593.771    25484520.528  
                 119167387.551                   119167387.551    22884841.469  
                 122744650.059                   122744650.059    23571822.615  
                 112417003.083                   112417003.083    21588504.983  
  24138484.231   126848568.793                                                  
  22301309.225   117194154.337                                                  
  23636614.959   124211193.554                                                  
 21  8 31 18 18 53.0000000  0 15G 5G10G13G15G18G23G29C19C20C22C29C35
                                E 5E 9E36
  22598347.138   118755112.442    22598347.960    92536450.266                  
  24334002.667   127875966.573    24334007.688    99643589.710                  
  21756791.420   114332706.782    21756791.778    89090419.664                  
  20291410.903   106632088.988    20291411.386    83089940.427                  
  21030070.175   110513765.706    21030071.122    86114624.860                  
  21628940.580   113660844.316    21628941.920    88566892.070                  
  20919348.616   109931913.191    20919349.295    85661229.164                  
                 112367263.655                   112367263.655    21578951.846  
                 132707499.513                   132707499.513    25485078.524  
                 119165656.894                   119165656.894    22884509.105  
                 122747309.626                   122747309.626    23572333.383  
                 112417091.922                   112417091.922    21588522.048  
  24138133.051   126846723.251                                                  
  22301474.353   117195022.062                                                  
  23636646.051   124211356.976                                                  
 21  8 31 18 18 54.0000000  0 15G 5G10G13G15G18G23G29C19C20C22C29C35
                                E 5E 9E36
  22598860.854   118757812.076    22598861.676    92538553.872                  
  24333520.918   127873435.016    24333525.939    99641617.070                  
  21757044.714   114334037.845    21757045.071    89091456.856                  
  20291389.836   106631978.315    20291390.301    83089854.188                  
  21029753.822   110512103.248    21029754.751    86113329.433                  
  21628627.408   113659198.539    21628628.748    88565609.649                  
  20919732.729   109933931.704    20919733.426    85662802.027                  
                 112368429.648                   112368429.648    21579175.762  
                 132710405.290                   132710405.290    25485636.556  
                 119163926.610                   119163926.610    22884176.813  
                 122749969.490                   122749969.490    23572844.187  
                 112417181.245                   112417181.245    21588539.202  
  24137781.925   126844878.067                                                  
  22301639.552   117195890.198                                                  
  23636677.215   124211520.636                                                  
 21  8 31 18 18 55.0000000  0 15G 5G10G13G15G18G23G29C19C20C22C29C35
                                E 5E 9E36
  22599374.607   118760511.798    22599375.429    92540657.551                  
  24333039.223   127870903.632    24333044.244    99639644.565                  
  21757298.132   114335369.559    21757298.508    89092494.555                  
  20291368.911   106631868.356    20291369.376    83089768.503                  
  21029437.504   110510440.976    21029438.434    86112034.164                  
  21628314.253   113657553.068    21628315.611    88564327.461                  
  20920116.948   109935950.789    20920117.645    85664375.343                  
                 112369595.993                   112369595.993    21579399.733  
                 132713311.105                   132713311.105    25486194.587  
                 119162196.698                   119162196.698    22883844.592  
                 122752629.653                   122752629.653    23573355.026  
                 112417271.058                   112417271.058    21588556.445  
  24137430.852   126843033.232                                                  
  22301804.841   117196758.751                                                  
  23636708.396   124211684.543                                                  
 21  8 31 18 18 56.0000000  0 15G 5G10G13G15G18G23G29C19C20C22C29C35
                                E 5E 9E36
  22599888.359   118763211.590    22599889.181    92542761.290                  
  24332557.545   127868372.417    24332562.566    99637672.191                  
  21757551.676   114336701.919    21757552.033    89093532.758                  
  20291348.147   106631759.112    20291348.594    83089683.383                  
  21029121.223   110508778.911    21029122.152    86110739.043                  
  21628001.206   113655907.896    21628002.546    88563045.507                  
  20920501.275   109937970.444    20920501.954    85665949.102                  
                 112370762.687                   112370762.687    21579623.774  
                 132716216.960                   132716216.960    25486752.619  
                 119160467.156                   119160467.156    22883512.460  
                 122755290.110                   122755290.110    23573865.937  
                 112417361.356                   112417361.356    21588573.778  
  24137079.887   126841188.769                                                  
  22301970.201   117197627.720                                                  
  23636739.632   124211848.693                                                  
 21  8 31 18 18 57.0000000  0 15G 5G10G13G15G18G23G29C19C20C22C29C35
                                E 5E 9E36
  22600402.111   118765911.464    22600402.933    92544865.081                  
  24332075.904   127865841.394    24332080.925    99635699.969                  
  21757805.345   114338034.921    21757805.702    89094571.461                  
  20291327.473   106631650.578    20291327.938    83089598.809                  
  21028804.977   110507117.050    21028805.924    86109444.089                  
  21627688.194   113654263.023    21627689.534    88561763.792                  
  20920885.692   109939990.677    20920886.406    85667523.305                  
                 112371929.733                   112371929.733    21579847.906  
                 132719122.850                   132719122.850    25487310.686  
                 119158737.985                   119158737.985    22883180.400  
                 122757950.863                   122757950.863    23574376.920  
                 112417452.139                   112417452.139    21588591.219  
  24136728.957   126839344.656                                                  
  22302135.614   117198497.094                                                  
  23636770.920   124212013.086                                                  
 21  8 31 18 18 58.0000000  0 15G 5G10G13G15G18G23G29C19C20C22C29C35
                                E 5E 9E36
  22600915.899   118768611.409    22600916.721    92546968.937                  
  24331594.280   127863310.532    24331599.319    99633727.867                  
  21758059.120   114339368.564    21758059.478    89095610.661                  
  20291306.959   106631542.755    20291307.424    83089514.789                  
  21028488.784   110505455.387    21028489.714    86108149.286                  
  21627375.236   113652618.461    21627376.576    88560482.316                  
  20921270.269   109942011.476    20921270.948    85669097.953                  
                 112373097.128                   112373097.128    21580072.108  
                 132722028.784                   132722028.784    25487868.718  
                 119157009.184                   119157009.184    22882848.394  
                 122760611.919                   122760611.919    23574887.938  
                 112417543.411                   112417543.411    21588608.748  
  24136378.099   126837500.901                                                  
  22302301.135   117199366.894                                                  
  23636802.245   124212177.715                                                  
 21  8 31 18 18 59.0000000  0 15G 5G10G13G15G18G23G29C19C20C22C29C35
                                E 5E 9E36
  22601429.705   118771311.425    22601430.527    92549072.843                  
  24331112.728   127860779.843    24331117.749    99631755.906                  
  21758313.021   114340702.872    21758313.379    89096650.384                  
  20291286.589   106631435.645    20291287.035    83089431.328                  
  21028172.628   110503793.934    21028173.557    86106854.648                  
  21627062.367   113650974.208    21627063.707    88559201.079                  
  20921654.899   109944032.850    20921655.596    85670673.050                  
                 112374264.880                   112374264.880    21580296.347  
                 132724934.753                   132724934.753    25488426.786  
                 119155280.753                   119155280.753    22882516.477  
                 122763273.266                   122763273.266    23575399.028  
                 112417635.169                   112417635.169    21588626.367  
  24136027.312   126835657.513                                                  
  22302466.745   117200237.105                                                  
  23636833.623   124212342.601                                                  
 21  8 31 18 19  0.0000000  0 15G 5G10G13G15G18G23G29C19C20C22C29C35
                                E 5E 9E36
  22601943.529   118774011.540    22601944.333    92551176.828                  
  24330631.175   127858249.333    24330636.196    99629784.082                  
  21758567.065   114342037.797    21758567.423    89097690.587                  
  20291266.343   106631329.242    20291266.808    83089348.419                  
  21027856.471   110502132.673    21027857.418    86105560.161                  
  21626749.516   113649330.253    21626750.857    88557920.078                  
  20922039.673   109946054.788    20922040.352    85672248.586                  
                 112375432.981                   112375432.981    21580520.674  
                 132727840.757                   132727840.757    25488984.853  
                 119153552.696                   119153552.696    22882184.613  
                 122765934.909                   122765934.909    23575910.154  
                 112417727.406                   112417727.406    21588644.075  
  24135676.597   126833814.474                                                  
  22302632.427   117201107.724                                                  
  23636865.036   124212507.720                                                  
 21  8 31 18 19  1.0000000  0 15G 5G10G13G15G18G23G29C19C20C22C29C35
                                E 5E 9E36
  22602457.335   118776711.731    22602458.157    92553280.871                  
  24330149.659   127855718.994    24330154.680    99627812.391                  
  21758821.216   114343373.390    21758821.574    89098731.309                  
  20291246.223   106631223.552    20291246.687    83089266.063                  
  21027540.404   110500471.616    21027541.333    86104265.831                  
  21626436.737   113647686.604    21626438.077    88556639.312                  
  20922424.536   109948077.304    20922425.233    85673824.570                  
                 112376601.429                   112376601.429    21580745.056  
                 132730746.804                   132730746.804    25489542.938  
                 119151825.011                   119151825.011    22881852.839  
                 122768596.852                   122768596.852    23576421.369  
                 112417820.138                   112417820.138    21588661.873  
  24135325.935   126831971.805                                                  
  22302798.162   117201978.759                                                  
  23636896.522   124212673.085                                                  
 21  8 31 18 19  2.0000000  0 15G 5G10G13G15G18G23G29C19C20C22C29C35
                                E 5E 9E36
  22602971.176   118779411.999    22602972.016    92555384.976                  
  24329668.178   127853188.824    24329673.199    99625840.833                  
  21759075.475   114344709.621    21759075.832    89099772.523                  
  20291226.245   106631118.563    20291226.692    83089184.254                  
  21027224.337   110498810.765    21027225.284    86102971.659                  
  21626124.011   113646043.266    21626125.351    88555358.789                  
  20922809.524   109950100.392    20922810.221    85675401.000                  
                 112377770.231                   112377770.231    21580969.526  
                 132733652.886                   132733652.886    25490101.024  
                 119150097.696                   119150097.696    22881521.119  
                 122771259.094                   122771259.094    23576932.619  
                 112417913.353                   112417913.353    21588679.777  
  24134975.363   126830129.494                                                  
  22302964.004   117202850.211                                                  
  23636928.043   124212838.708                                                  
 21  8 31 18 19  3.0000000  0 15G 5G10G13G15G18G23G29C19C20C22C29C35
                                E 5E 9E36
  22603485.036   118782112.343    22603485.876    92557489.140                  
  24329186.733   127850658.837    24329191.754    99623869.414                  
  21759329.876   114346046.500    21759330.233    89100814.249                  
  20291206.393   106631014.302    20291206.857    83089103.007                  
  21026908.341   110497150.114    21026909.288    86101677.648                  
  21625811.357   113644400.227    21625812.697    88554078.499                  
  20923194.620   109952124.046    20923195.316    85676977.876                  
                 112378939.382                   112378939.382    21581194.033  
                 132736559.003                   132736559.003    25490659.091  
                 119148370.750                   119148370.750    22881189.487  
                 122773921.630                   122773921.630    23577443.941  
                 112418007.050                   112418007.050    21588697.772  
  24134624.844   126828287.531                                                  
  22303129.900   117203722.079                                                  
  23636959.599   124213004.563                                                  
 21  8 31 18 19  4.0000000  0 15G 5G10G13G15G18G23G29C19C20C22C29C35
                                E 5E 9E36
  22603998.913   118784812.769    22603999.735    92559593.366                  
  24328705.341   127848129.019    24328710.363    99621898.128                  
  21759584.420   114347384.024    21759584.778    89101856.476                  
  20291186.701   106630910.751    20291187.165    83089022.320                  
  21026592.363   110495489.671    21026593.292    86100383.794                  
  21625498.756   113642757.497    21625500.096    88552798.454                  
  20923579.822   109954148.278    20923580.501    85678555.195                  
                 112380108.887                   112380108.887    21581418.646  
                 132739465.164                   132739465.164    25491217.194  
                 119146644.177                   119146644.177    22880857.892  
                 122776584.460                   122776584.460    23577955.299  
                 112418101.235                   112418101.235    21588715.873  
  24134274.397   126826445.933                                                  
  22303295.903   117204594.359                                                  
  23636991.192   124213170.659                                                  
 21  8 31 18 19  5.0000000  0 15G 5G10G13G15G18G23G29C19C20C22C29C35
                                E 5E 9E36
  22604512.826   118787513.268    22604513.648    92561697.652                  
  24328223.968   127845599.363    24328228.989    99619926.972                  
  21759839.054   114348722.194    21759839.411    89102899.206                  
  20291167.116   106630807.902    20291167.581    83088942.180                  
  21026276.421   110493829.413    21026277.368    86099090.091                  
  21625186.227   113641115.062    21625187.567    88551518.633                  
  20923965.114   109956173.071    20923965.829    85680132.956                  
                 112381278.742                   112381278.742    21581643.278  
                 132742371.357                   132742371.357    25491775.298  
                 119144917.972                   119144917.972    22880526.404  
                 122779247.589                   122779247.589    23578466.746  
                 112418195.907                   112418195.907    21588734.064  
  24133924.021   126824604.702                                                  
  22303461.960   117205467.046                                                  
  23637022.856   124213337.004                                                  
 21  8 31 18 19  6.0000000  0 15G 5G10G13G15G18G23G29C19C20C22C29C35
                                E 5E 9E36
  22605026.722   118790213.874    22605027.543    92563802.019                  
  24327742.594   127843069.875    24327747.615    99617955.944                  
  21760093.812   114350060.990    21760094.188    89103942.421                  
  20291147.675   106630705.774    20291148.157    83088862.598                  
  21025960.514   110492169.372    21025961.479    86097796.548                  
  21624873.716   113639472.930    21624875.074    88550239.052                  
  20924350.549   109958198.436    20924351.246    85681711.165                  
                 112382448.949                   112382448.949    21581868.017  
                 132745277.590                   132745277.590    25492333.419  
                 119143192.140                   119143192.140    22880194.987  
                 122781911.015                   122781911.015    23578978.211  
                 112418291.066                   112418291.066    21588752.326  
  24133573.734   126822763.902                                                  
  22303628.124   117206340.180                                                  
  23637054.555   124213503.610                                                  
 21  8 31 18 19  7.0000000  0 15G 5G10G13G15G18G23G29C19C20C22C29C35
                                E 5E 9E36
  22605540.635   118792914.546    22605541.457    92565906.437                  
  24327261.292   127840540.559    24327266.313    99615985.051                  
  21760348.714   114351400.442    21760349.071    89104986.152                  
  20291128.376   106630604.351    20291128.859    83088783.571                  
  21025644.679   110490509.534    21025645.626    86096503.172                  
  21624561.294   113637831.112    21624562.634    88548959.715                  
  20924736.055   109960224.371    20924736.752    85683289.813                  
                 112383619.504                   112383619.504    21582092.809  
                 132748183.858                   132748183.858    25492891.540  
                 119141466.680                   119141466.680    22879863.624  
                 122784574.737                   122784574.737    23579489.766  
                 112418386.712                   112418386.712    21588770.695  
  24133223.519   126820923.513                                                  
  22303794.360   117207213.739                                                  
  23637086.308   124213670.457                                                  
 21  8 31 18 19  8.0000000  0 15G 5G10G13G15G18G23G29C19C20C22C29C35
                                E 5E 9E36
  22606054.583   118795615.278    22606055.405    92568010.903                  
  24326780.026   127838011.475    24326785.047    99614014.339                  
  21760603.723   114352740.558    21760604.080    89106030.398                  
  20291109.221   106630503.640    20291109.685    83088705.093                  
  21025328.862   110488849.886    21025329.791    86095209.937                  
  21624248.943   113636189.605    21624250.283    88547680.617                  
  20925121.686   109962250.871    20925122.383    85684868.902                  
                 112384790.411                   112384790.411    21582317.655  
                 132751090.167                   132751090.167    25493449.661  
                 119139741.589                   119139741.589    22879532.332  
                 122787238.753                   122787238.753    23580001.356  
                 112418482.840                   112418482.840    21588789.154  
  24132873.304   126819083.091                                                  
  22303960.649   117208087.603                                                  
  23637118.097   124213837.506                                                  
 21  8 31 18 19  9.0000000  0 15G 5G10G13G15G18G23G29C19C20C22C29C35
                                E 5E 9E36
  22606568.514   118798316.097    22606569.336    92570115.438                  
  24326298.777   127835482.524    24326303.798    99612043.727                  
  21760858.857   114354081.298    21760859.214    89107075.129                  
  20291090.208   106630403.652    20291090.655    83088627.180                  
  21025013.081   110487190.450    21025014.028    86093916.870                  
  21623936.628   113634548.398    21623937.969    88546401.754                  
  20925507.425   109964277.941    20925508.122    85686448.437                  
                 112385961.668                   112385961.668    21582542.608  
                 132753996.511                   132753996.511    25494007.800  
                 119138016.871                   119138016.871    22879201.112  
                 122789903.072                   122789903.072    23580513.000  
                 112418579.456                   112418579.456    21588807.720  
  24132523.197   126817243.339                                                  
  22304127.027   117208961.965                                                  
  23637149.940   124214004.846                                                  
 21  8 31 18 19 10.0000000  0 15G 5G10G13G15G18G23G29C19C20C22C29C35
                                E 5E 9E36
  22607082.499   118801017.007    22607083.321    92572220.043                  
  24325817.564   127832953.751    24325822.585    99610073.257                  
  21761114.116   114355422.690    21761114.473    89108120.372                  
  20291071.303   106630304.368    20291071.767    83088549.812                  
  21024697.317   110485531.210    21024698.282    86092623.958                  
  21623624.367   113632907.492    21623625.707    88545123.126                  
  20925893.289   109966305.589    20925893.986    85688028.422                  
                 112387133.273                   112387133.273    21582767.597  
                 132756902.896                   132756902.896    25494565.939  
                 119136292.527                   119136292.527    22878869.981  
                 122792567.681                   122792567.681    23581024.715  
                 112418676.561                   112418676.561    21588826.357  
  24132173.178   126815403.897                                                  
  22304293.477   117209836.719                                                  
  23637181.818   124214172.406                                                  
 21  8 31 18 19 11.0000000  0 15G 5G10G13G15G18G23G29C19C20C22C29C35
                                E 5E 9E36
  22607596.484   118803718.003    22607597.306    92574324.715                  
  24325336.405   127830425.157    24325341.426    99608102.925                  
  21761369.500   114356764.722    21761369.857    89109166.109                  
  20291052.540   106630205.797    20291053.005    83088473.008                  
  21024381.625   110483872.175    21024382.554    86091331.204                  
  21623312.160   113631266.886    21623313.518    88543844.734                  
  20926279.242   109968333.801    20926279.921    85689608.847                  
                 112388305.236                   112388305.236    21582992.657  
                 132759809.312                   132759809.312    25495124.095  
                 119134568.550                   119134568.550    22878538.904  
                 122795232.589                   122795232.589    23581536.484  
                 112418774.152                   112418774.152    21588845.102  
  24131823.195   126813564.805                                                  
  22304460.017   117210711.894                                                  
  23637213.768   124214340.221                                                  
 21  8 31 18 19 12.0000000  0 15G 5G10G13G15G18G23G29C19C20C22C29C35
                                E 5E 9E36
  22608110.468   118806419.060    22608111.308    92576429.430                  
  24324855.246   127827896.734    24324860.267    99606132.727                  
  21761624.991   114358107.394    21761625.366    89110212.349                  
  20291033.921   106630107.942    20291034.385    83088396.757                  
  21024065.969   110482213.346    21024066.898    86090038.610                  
  21623000.041   113629626.594    21623001.382    88542566.587                  
  20926665.302   109970362.591    20926665.999    85691189.720                  
                 112389477.544                   112389477.544    21583217.771  
                 132762715.770                   132762715.770    25495682.234  
                 119132844.945                   119132844.945    22878207.898  
                 122797897.792                   122797897.792    23582048.324  
                 112418872.225                   112418872.225    21588863.936  
  24131473.302   126811726.089                                                  
  22304626.645   117211587.493                                                  
  23637245.736   124214508.280                                                  
 21  8 31 18 19 13.0000000  0 15G 5G10G13G15G18G23G29C19C20C22C29C35
                                E 5E 9E36
  22608624.488   118809120.199    22608625.293    92578534.214                  
  24324374.140   127825368.478    24324379.162    99604162.659                  
  21761880.625   114359450.720    21761880.983    89111259.089                  
  20291015.444   106630010.800    20291015.909    83088321.062                  
  21023750.348   110480554.720    21023751.278    86088746.176                  
  21622687.941   113627986.601    21622689.299    88541288.672                  
  20927051.487   109972391.947    20927052.166    85692771.036                  
                 112390650.199                   112390650.199    21583442.974  
                 132765622.265                   132765622.265    25496240.391  
                 119131121.710                   119131121.710    22877876.981  
                 122800563.294                   122800563.294    23582560.200  
                 112418970.790                   112418970.790    21588882.859  
  24131123.480   126809887.718                                                  
  22304793.345   117212463.493                                                  
  23637277.757   124214676.583                                                  
 21  8 31 18 19 14.0000000  0 15G 5G10G13G15G18G23G29C19C20C22C29C35
                                E 5E 9E36
  22609138.509   118811821.415    22609139.313    92580639.060                  
  24323893.053   127822840.395    24323898.074    99602192.727                  
  21762136.385   114360794.691    21762136.742    89112306.344                  
  20290997.075   106629914.368    20290997.539    83088245.918                  
  21023434.746   110478896.293    21023435.675    86087453.891                  
  21622375.912   113626346.917    21622377.252    88540010.991                  
  20927437.762   109974421.866    20927438.459    85694352.794                  
                 112391823.212                   112391823.212    21583668.231  
                 132768528.798                   132768528.798    25496798.584  
                 119129398.849                   119129398.849    22877546.119  
                 122803229.089                   122803229.089    23583072.147  
                 112419069.840                   112419069.840    21588901.872  
  24130773.712   126808049.715                                                  
  22304960.117   117213339.913                                                  
  23637309.832   124214845.140                                                  
 21  8 31 18 19 15.0000000  0 15G 5G10G13G15G18G23G29C19C20C22C29C35
                                E 5E 9E36
  22609652.547   118814522.680    22609653.351    92582743.930                  
  24323412.001   127820312.579    24323417.022    99600223.050                  
  21762392.233   114362139.300    21762392.626    89113354.089                  
  20290978.884   106629818.637    20290979.349    83088171.320                  
  21023119.197   110477238.071    21023120.144    86086161.777                  
  21622063.955   113624707.540    21622065.295    88538733.557                  
  20927824.144   109976452.343    20927824.841    85695934.972                  
                 112392996.570                   112392996.570    21583893.578  
                 132771435.363                   132771435.363    25497356.758  
                 119127676.361                   119127676.361    22877215.345  
                 122805895.179                   122805895.179    23583584.149  
                 112419169.370                   112419169.370    21588920.991  
  24130424.015   126806212.052                                                  
  22305126.978   117214216.747                                                  
  23637341.961   124215014.000                                                  
 21  8 31 18 19 16.0000000  0 15G 5G10G13G15G18G23G29C19C20C22C29C35
                                E 5E 9E36
  22610166.603   118817224.042    22610167.425    92584848.888                  
  24322931.002   127817784.848    24322936.023    99598253.394                  
  21762648.243   114363484.559    21762648.600    89114402.343                  
  20290960.801   106629723.626    20290961.265    83088097.285                  
  21022803.683   110475580.043    21022804.612    86084869.809                  
  21621752.069   113623068.457    21621753.391    88537456.352                  
  20928210.633   109978483.404    20928211.348    85697517.617                  
                 112394170.278                   112394170.278    21584118.977  
                 132774341.968                   132774341.968    25497914.933  
                 119125954.239                   119125954.239    22876884.625  
                 122808561.570                   122808561.570    23584096.185  
                 112419269.395                   112419269.395    21588940.201  
  24130074.408   126804374.767                                                  
  22305293.928   117215094.000                                                  
  23637374.143   124215183.048                                                  
 21  8 31 18 19 17.0000000  0 15G 5G10G13G15G18G23G29C19C20C22C29C35
                                E 5E 9E36
  22610680.659   118819925.493    22610681.499    92586953.909                  
  24322450.022   127815257.281    24322455.043    99596283.864                  
  21762904.360   114364830.456    21762904.717    89115451.098                  
  20290942.842   106629629.321    20290943.325    83088023.804                  
  21022488.206   110473922.215    21022489.153    86083577.997                  
  21621440.201   113621429.679    21621441.559    88536179.382                  
  20928597.265   109980515.040    20928597.962    85699100.708                  
                 112395344.337                   112395344.337    21584344.449  
                 132777248.609                   132777248.609    25498473.126  
                 119124232.489                   119124232.489    22876553.977  
                 122811228.253                   122811228.253    23584608.294  
                 112419369.902                   112419369.902    21588959.499  
  24129724.836   126802537.832                                                  
  22305460.914   117215971.656                                                  
  23637406.343   124215352.310                                                  
 21  8 31 18 19 18.0000000  0 15G 5G10G13G15G18G23G29C19C20C22C29C35
                                E 5E 9E36
  22611194.769   118822627.019    22611195.573    92589058.995                  
  24321969.077   127812729.894    24321974.080    99594314.474                  
  21763160.601   114366176.995    21763160.959    89116500.347                  
  20290925.045   106629535.730    20290925.491    83087950.875                  
  21022172.782   110472264.598    21022173.729    86082286.348                  
  21621128.422   113619791.212    21621129.762    88534902.657                  
  20928983.986   109982547.239    20928984.665    85700684.237                  
                 112396518.745                   112396518.745    21584569.974  
                 132780155.290                   132780155.290    25499031.318  
                 119122511.114                   119122511.114    22876223.400  
                 122813895.235                   122813895.235    23585120.456  
                 112419470.898                   112419470.898    21588978.905  
  24129375.354   126800701.269                                                  
  22305628.025   117216849.722                                                  
  23637438.596   124215521.839                                                  
 21  8 31 18 19 19.0000000  0 15G 5G10G13G15G18G23G29C19C20C22C29C35
                                E 5E 9E36
  22611708.843   118825328.622    22611709.682    92591164.140                  
  24321488.168   127810202.685    24321493.171    99592345.218                  
  21763416.968   114367524.188    21763417.326    89117550.108                  
  20290907.354   106629442.843    20290907.819    83087878.496                  
  21021857.376   110470607.180    21021858.323    86080994.851                  
  21620816.679   113618153.036    21620818.019    88533626.156                  
  20929370.797   109984580.011    20929371.494    85702268.220                  
                 112397693.508                   112397693.508    21584795.588  
                 132783062.003                   132783062.003    25499589.546  
                 119120790.106                   119120790.106    22875892.894  
                 122816562.507                   122816562.507    23585632.671  
                 112419572.379                   112419572.379    21588998.400  
  24129025.943   126798865.047                                                  
  22305795.172   117217728.199                                                  
  23637470.921   124215691.605                                                  
 21  8 31 18 19 20.0000000  0 15G 5G10G13G15G18G23G29C19C20C22C29C35
                                E 5E 9E36
  22612222.952   118828030.298    22612223.774    92593269.336                  
  24321007.277   127807675.644    24321012.298    99590376.095                  
  21763673.442   114368872.025    21763673.800    89118600.363                  
  20290889.825   106629350.675    20290890.272    83087806.677                  
  21021542.023   110468949.968    21021542.952    86079703.515                  
  21620505.026   113616515.179    21620506.366    88532349.897                  
  20929757.715   109986613.355    20929758.412    85703852.637                  
                 112398868.617                   112398868.617    21585021.238  
                 132785968.757                   132785968.757    25500147.739  
                 119119069.473                   119119069.473    22875562.461  
                 122819230.083                   122819230.083    23586144.958  
                 112419674.343                   112419674.343    21589017.984  
  24128676.586   126797029.194                                                  
  22305962.444   117218607.093                                                  
  23637503.264   124215861.621                                                  
 21  8 31 18 19 21.0000000  0 15G 5G10G13G15G18G23G29C19C20C22C29C35
                                E 5E 9E36
  22612737.098   118830732.065    22612737.920    92595374.609                  
  24320526.439   127805148.784    24320531.443    99588407.113                  
  21763930.059   114370220.506    21763930.417    89119651.124                  
  20290872.420   106629259.223    20290872.885    83087735.406                  
  21021226.706   110467292.961    21021227.635    86078412.336                  
  21620193.408   113614877.640    21620194.748    88531073.890                  
  20930144.758   109988647.271    20930145.455    85705437.500                  
                 112400044.075                   112400044.075    21585246.977  
                 132788875.546                   132788875.546    25500705.967  
                 119117349.206                   119117349.206    22875232.098  
                 122821897.949                   122821897.949    23586657.299  
                 112419776.798                   112419776.798    21589037.640  
  24128327.300   126795193.700                                                  
  22306129.752   117219486.397                                                  
  23637535.661   124216031.872                                                  
 21  8 31 18 19 22.0000000  0 15G 5G10G13G15G18G23G29C19C20C22C29C35
                                E 5E 9E36
  22613251.243   118833433.921    22613252.065    92597479.946                  
  24320045.620   127802622.095    24320050.623    99586438.258                  
  21764186.784   114371569.628    21764187.141    89120702.387                  
  20290855.159   106629168.481    20290855.624    83087664.696                  
  21020911.425   110465636.157    21020912.354    86077121.317                  
  21619881.843   113613240.379    21619883.184    88529798.098                  
  20930531.926   109990681.750    20930532.623    85707022.804                  
                 112401219.888                   112401219.888    21585472.788  
                 132791782.372                   132791782.372    25501264.178  
                 119115629.318                   119115629.318    22874901.825  
                 122824566.114                   122824566.114    23587169.693  
                 112419879.739                   112419879.739    21589057.421  
  24127978.103   126793358.566                                                  
  22306297.184   117220366.121                                                  
  23637568.129   124216202.378                                                  
 21  8 31 18 19 23.0000000  0 15G 5G10G13G15G18G23G29C19C20C22C29C35
                                E 5E 9E36
  22613765.406   118836135.852    22613766.228    92599585.345                  
  24319564.836   127800095.582    24319569.839    99584469.551                  
  21764443.633   114372919.404    21764444.008    89121754.156                  
  20290838.023   106629078.458    20290838.487    83087594.548                  
  21020596.180   110463979.555    21020597.127    86075830.457                  
  21619570.333   113611603.438    21619571.673    88528522.562                  
  20930919.184   109992716.805    20930919.881    85708608.558                  
                 112402396.044                   112402396.044    21585698.635  
                 132794689.234                   132794689.234    25501822.424  
                 119113909.792                   119113909.792    22874571.605  
                 122827234.573                   122827234.573    23587682.141  
                 112419983.168                   112419983.168    21589077.274  
  24127628.943   126791523.796                                                  
  22306464.653   117221246.250                                                  
  23637600.597   124216373.134                                                  
 21  8 31 18 19 24.0000000  0 15G 5G10G13G15G18G23G29C19C20C22C29C35
                                E 5E 9E36
  22614279.588   118838837.842    22614280.392    92601690.789                  
  24319084.088   127797569.245    24319089.109    99582500.977                  
  21764700.625   114374269.816    21764700.983    89122806.426                  
  20290821.011   106628989.136    20290821.476    83087524.949                  
  21020280.988   110462323.159    21020281.917    86074539.758                  
  21619258.894   113609966.805    21619260.234    88527247.266                  
  20931306.548   109994752.417    20931307.245    85710194.750                  
                 112403572.552                   112403572.552    21585924.589  
                 132797596.133                   132797596.133    25502380.652  
                 119112190.645                   119112190.645    22874241.457  
                 122829903.329                   122829903.329    23588194.660  
                 112420087.078                   112420087.078    21589097.234  
  24127279.871   126789689.379                                                  
  22306632.229   117222126.808                                                  
  23637633.136   124216544.130                                                  
 21  8 31 18 19 25.0000000  0 15G 5G10G13G15G18G23G29C19C20C22C29C35
                                E 5E 9E36
  22614793.769   118841539.918    22614794.573    92603796.305                  
  24318603.357   127795043.116    24318608.378    99580532.585                  
  21764957.725   114375620.863    21764958.082    89123859.185                  
  20290804.161   106628900.531    20290804.643    83087455.903                  
  21019965.814   110460666.968    21019966.761    86073249.227                  
  21618947.526   113608330.469    21618948.866    88525972.196                  
  20931694.020   109996788.610    20931694.717    85711781.394                  
                 112404749.414                   112404749.414    21586150.578  
                 132800503.050                   132800503.050    25502938.916  
                 119110471.864                   119110471.864    22873911.381  
                 122832572.355                   122832572.355    23588707.215  
                 112420191.487                   112420191.487    21589117.283  
  24126930.854   126787855.337                                                  
  22306799.858   117223007.762                                                  
  23637665.747   124216715.379                                                  
 21  8 31 18 19 26.0000000  0 15G 5G10G13G15G18G23G29C19C20C22C29C35
                                E 5E 9E36
  22615307.968   118844242.078    22615308.807    92605901.882                  
  24318122.681   127792517.116    24318127.702    99578564.278                  
  21765214.931   114376972.564    21765215.307    89124912.458                  
  20290787.435   106628812.641    20290787.900    83087387.413                  
  21019650.694   110459010.979    21019651.641    86071958.844                  
  21618636.176   113606694.437    21618637.516    88524697.367                  
  20932081.599   109998825.367    20932082.296    85713368.481                  
                 112405926.622                   112405926.622    21586376.657  
                 132803410.025                   132803410.025    25503497.162  
                 119108753.458                   119108753.458    22873581.376  
                 122835241.698                   122835241.698    23589219.842  
                 112420296.376                   112420296.376    21589137.421  
  24126581.925   126786021.641                                                  
  22306967.577   117223889.138                                                  
  23637698.358   124216886.862                                                  
 21  8 31 18 19 27.0000000  0 15G 5G10G13G15G18G23G29C19C20C22C29C35
                                E 5E 9E36
  22615822.185   118846944.324    22615823.024    92608007.528                  
  24317642.040   127789991.305    24317647.043    99576596.113                  
  21765472.281   114378324.907    21765472.639    89125966.230                  
  20290770.853   106628725.456    20290771.318    83087319.481                  
  21019335.592   110457355.188    21019336.539    86070668.616                  
  21618324.915   113605058.711    21618326.256    88523422.777                  
  20932469.304   110000862.696    20932469.983    85714956.003                  
                 112407104.177                   112407104.177    21586602.807  
                 132806317.032                   132806317.032    25504055.426  
                 119107035.422                   119107035.422    22873251.460  
                 122837911.343                   122837911.343    23589732.522  
                 112420401.751                   112420401.751    21589157.667  
  24126233.068   126784188.312                                                  
  22307135.385   117224770.925                                                  
  23637731.041   124217058.598                                                  
 21  8 31 18 19 28.0000000  0 15G 5G10G13G15G18G23G29C19C20C22C29C35
                                E 5E 9E36
  22616336.419   118849646.640    22616337.241    92610113.227                  
  24317161.416   127787465.672    24317166.420    99574628.090                  
  21765729.738   114379677.899    21765730.095    89127020.507                  
  20290754.396   106628638.983    20290754.860    83087252.102                  
  21019020.561   110455699.601    21019021.508    86069378.551                  
  21618013.709   113603423.293    21618015.049    88522148.425                  
  20932857.079   110002900.591    20932857.776    85716543.974                  
                 112408282.086                   112408282.086    21586828.993  
                 132809224.079                   132809224.079    25504613.708  
                 119105317.757                   119105317.757    22872921.598  
                 122840581.283                   122840581.283    23590245.256  
                 112420507.608                   112420507.608    21589178.002  
  24125884.265   126782355.347                                                  
  22307303.264   117225653.129                                                  
  23637763.777   124217230.583                                                  
 21  8 31 18 19 29.0000000  0 15G 5G10G13G15G18G23G29C19C20C22C29C35
                                E 5E 9E36
  22616850.672   118852349.038    22616851.494    92612218.991                  
  24316680.847   127784940.192    24316685.832    99572660.183                  
  21765987.338   114381031.531    21765987.695    89128075.290                  
  20290738.081   106628553.236    20290738.546    83087185.282                  
  21018705.548   110454044.223    21018706.477    86068088.644                  
  21617702.555   113601788.175    21617703.895    88520874.309                  
  20933244.998   110004939.058    20933245.695    85718132.390                  
                 112409460.341                   112409460.341    21587055.287  
                 132812131.156                   132812131.156    25505171.954  
                 119103600.465                   119103600.465    22872591.807  
                 122843251.513                   122843251.513    23590758.043  
                 112420613.957                   112420613.957    21589198.426  
  24125535.515   126780522.734                                                  
  22307471.215   117226535.746                                                  
  23637796.549   124217402.797                                                  
 21  8 31 18 19 30.0000000  0 15G 5G10G13G15G18G23G29C19C20C22C29C35
                                E 5E 9E36
  22617364.942   118855051.527    22617365.764    92614324.825                  
  24316200.277   127782414.893    24316205.299    99570692.423                  
  21766245.045   114382385.796    21766245.402    89129130.561                  
  20290721.892   106628468.195    20290722.356    83087119.016                  
  21018390.589   110452389.042    21018391.518    86066798.894                  
  21617391.456   113600153.367    21617392.796    88519600.433                  
  20933633.024   110006978.089    20933633.721    85719721.245                  
                 112410638.945                   112410638.945    21587281.598  
                 132815038.273                   132815038.273    25505730.254  
                 119101883.542                   119101883.542    22872262.088  
                 122845922.042                   122845922.042    23591270.902  
                 112420720.789                   112420720.789    21589218.922  
  24125186.837   126778690.485                                                  
  22307639.255   117227418.777                                                  
  23637829.356   124217575.278                                                  
 21  8 31 18 19 31.0000000  0 15G 5G10G13G15G18G23G29C19C20C22C29C35
                                E 5E 9E36
  22617879.213   118857754.086    22617880.035    92616430.715                  
  24315719.779   127779889.780    24315724.783    99568724.804                  
  21766502.877   114383740.722    21766503.234    89130186.348                  
  20290705.845   106628383.868    20290706.328    83087053.305                  
  21018075.647   110450734.071    21018076.576    86065509.305                  
  21617080.427   113598518.859    21617081.767    88518326.788                  
  20934021.139   110009017.695    20934021.836    85721310.546                  
                 112411817.898                   112411817.898    21587508.016  
                 132817945.426                   132817945.426    25506288.536  
                 119100166.992                   119100166.992    22871932.440  
                 122848592.862                   122848592.862    23591783.797  
                 112420828.109                   112420828.109    21589239.542  
  24124838.266   126776858.597                                                  
  22307807.367   117228302.225                                                  
  23637862.235   124217747.996                                                  
 21  8 31 18 19 32.0000000  0 15G 5G10G13G15G18G23G29C19C20C22C29C35
                                E 5E 9E36
  22618393.519   118860456.716    22618394.341    92618536.656                  
  24315239.299   127777364.840    24315244.303    99566757.316                  
  21766760.816   114385096.282    21766761.192    89131242.626                  
  20290689.942   106628300.251    20290690.407    83086988.153                  
  21017760.759   110449079.298    21017761.706    86064219.871                  
  21616769.435   113596884.661    21616770.775    88517053.390                  
  20934409.361   110011057.868    20934410.058    85722900.293                  
                 112412997.203                   112412997.203    21587734.488  
                 132820852.619                   132820852.619    25506846.836  
                 119098450.813                   119098450.813    22871602.864  
                 122851263.985                   122851263.985    23592296.763  
                 112420935.917                   112420935.917    21589260.235  
  24124489.713   126775027.058                                                  
  22307975.568   117229186.081                                                  
  23637895.132   124217920.953                                                  
 21  8 31 18 19 33.0000000  0 15G 5G10G13G15G18G23G29C19C20C22C29C35
                                E 5E 9E36
  22618907.825   118863159.428    22618908.647    92620642.668                  
  24314758.837   127774840.064    24314763.840    99564789.961                  
  21767018.899   114386452.487    21767019.256    89132299.409                  
  20290674.164   106628217.347    20290674.628    83086923.550                  
  21017445.907   110447424.727    21017446.836    86062930.597                  
  21616458.514   113595250.766    21616459.854    88515780.223                  
  20934797.727   110013098.609    20934798.424    85724490.481                  
                 112414176.854                   112414176.854    21587961.014  
                 132823759.841                   132823759.841    25507405.135  
                 119096735.004                   119096735.004    22871273.359  
                 122853935.398                   122853935.398    23592809.782  
                 112421044.211                   112421044.211    21589281.034  
  24124141.267   126773195.892                                                  
  22308143.841   117230070.357                                                  
  23637928.118   124218094.173                                                  
 21  8 31 18 19 34.0000000  0 15G 5G10G13G15G18G23G29C19C20C22C29C35
                                E 5E 9E36
  22619422.131   118865862.220    22619422.971    92622748.739                  
  24314278.428   127772315.473    24314283.432    99562822.749                  
  21767277.106   114387809.344    21767277.481    89133356.700                  
  20290658.528   106628135.159    20290658.975    83086859.508                  
  21017131.073   110445770.367    21017132.020    86061641.485                  
  21616147.664   113593617.171    21616149.004    88514507.298                  
  20935186.163   110015139.923    20935186.860    85726081.113                  
                 112415356.860                   112415356.860    21588187.647  
                 132826667.100                   132826667.100    25507963.435  
                 119095019.567                   119095019.567    22870943.926  
                 122856607.108                   122856607.108    23593322.838  
                 112421152.991                   112421152.991    21589301.941  
  24123792.874   126771365.089                                                  
  22308312.185   117230955.040                                                  
  23637961.122   124218267.620                                                  
 21  8 31 18 19 35.0000000  0 15G 5G10G13G15G18G23G29C19C20C22C29C35
                                E 5E 9E36
  22619936.473   118868565.087    22619937.313    92624854.867                  
  24313798.037   127769791.046    24313803.041    99560855.663                  
  21767535.421   114389166.837    21767535.796    89134414.489                  
  20290643.018   106628053.681    20290643.483    83086796.021                  
  21016816.292   110444116.206    21016817.239    86060352.532                  
  21615836.868   113591983.892    21615838.209    88513234.608                  
  20935574.725   110017181.806    20935575.422    85727672.191                  
                 112416537.212                   112416537.212    21588414.315  
                 132829574.398                   132829574.398    25508521.753  
                 119093304.500                   119093304.500    22870614.564  
                 122859279.112                   122859279.112    23593835.982  
                 112421262.262                   112421262.262    21589322.919  
  24123444.536   126769534.636                                                  
  22308480.618   117231840.137                                                  
  23637994.180   124218441.316                                                  
 21  8 31 18 19 36.0000000  0 15G 5G10G13G15G18G23G29C19C20C22C29C35
                                E 5E 9E36
  22620450.833   118871268.034    22620451.655    92626961.062                  
  24313317.700   127767266.792    24313322.704    99558888.719                  
  21767793.878   114390524.962    21767794.236    89135472.766                  
  20290627.633   106627972.913    20290628.097    83086733.082                  
  21016501.583   110442462.249    21016502.512    86059063.731                  
  21615526.108   113590350.909    21615527.448    88511962.157                  
  20935963.377   110019224.253    20935964.073    85729263.710                  
                 112417717.910                   112417717.910    21588641.055  
                 132832481.734                   132832481.734    25509080.088  
                 119091589.810                   119091589.810    22870285.273  
                 122861951.415                   122861951.415    23594349.163  
                 112421372.016                   112421372.016    21589344.005  
  24123096.304   126767704.556                                                  
  22308649.123   117232725.648                                                  
  23638027.273   124218615.261                                                  
 21  8 31 18 19 37.0000000  0 15G 5G10G13G15G18G23G29C19C20C22C29C35
                                E 5E 9E36
  22620965.193   118873971.063    22620966.033    92629067.316                  
  24312837.381   127764742.715    24312842.384    99556921.906                  
  21768052.443   114391883.749    21768052.800    89136531.564                  
  20290612.426   106627892.853    20290612.873    83086670.695                  
  21016186.873   110440808.499    21016187.820    86057775.097                  
  21615215.420   113588718.229    21615216.760    88510689.941                  
  20936352.153   110021267.268    20936352.868    85730855.668                  
                 112418898.956                   112418898.956    21588867.867  
                 132835389.101                   132835389.101    25509638.424  
                 119089875.484                   119089875.484    22869956.055  
                 122864624.009                   122864624.009    23594862.415  
                 112421482.258                   112421482.258    21589365.162  
  24122748.108   126765874.821                                                  
  22308817.700   117233611.567                                                  
  23638060.420   124218789.453                                                  
 21  8 31 18 19 38.0000000  0 15G 5G10G13G15G18G23G29C19C20C22C29C35
                                E 5E 9E36
  22621479.607   118876674.168    22621480.429    92631173.632                  
  24312357.079   127762218.804    24312362.101    99554955.227                  
  21768311.133   114393243.176    21768311.508    89137590.855                  
  20290597.327   106627813.517    20290597.774    83086608.875                  
  21015872.218   110439154.949    21015873.165    86056486.617                  
  21614904.784   113587085.854    21614906.125    88509417.960                  
  20936741.036   110023310.848    20936741.733    85732448.065                  
                 112420080.355                   112420080.355    21589094.732  
                 132838296.503                   132838296.503    25510196.759  
                 119088161.536                   119088161.536    22869626.925  
                 122867296.900                   122867296.900    23595375.720  
                 112421592.983                   112421592.983    21589386.426  
  24122400.002   126764045.466                                                  
  22308986.365   117234497.905                                                  
  23638093.621   124218963.894                                                  
 21  8 31 18 19 39.0000000  0 15G 5G10G13G15G18G23G29C19C20C22C29C35
                                E 5E 9E36
  22621994.002   118879377.379    22621994.824    92633280.028                  
  24311876.832   127759695.085    24311881.835    99552988.692                  
  21768569.948   114394603.246    21768570.305    89138650.648                  
  20290582.353   106627734.883    20290582.817    83086547.606                  
  21015557.598   110437501.602    21015558.545    86055198.294                  
  21614594.221   113585453.790    21614595.561    88508146.222                  
  20937130.027   110025354.993    20937130.724    85734040.906                  
                 112421262.102                   112421262.102    21589321.686  
                 132841203.946                   132841203.946    25510755.095  
                 119086447.954                   119086447.954    22869297.831  
                 122869970.081                   122869970.081    23595889.079  
                 112421704.200                   112421704.200    21589407.779  
  24122051.931   126762216.462                                                  
  22309155.120   117235384.658                                                  
  23638126.857   124219138.567                                                  
 21  8 31 18 19 40.0000000  0 15G 5G10G13G15G18G23G29C19C20C22C29C35
                                E 5E 9E36
  22622508.416   118882080.673    22622509.238    92635386.487                  
  24311396.619   127757171.533    24311401.623    99551022.286                  
  21768828.888   114395963.962    21768829.245    89139710.945                  
  20290567.521   106627656.964    20290567.986    83086486.891                  
  21015242.996   110435848.454    21015243.943    86053910.125                  
  21614283.693   113583822.023    21614285.033    88506874.715                  
  20937519.125   110027399.711    20937519.822    85735634.190                  
                 112422444.199                   112422444.199    21589548.677  
                 132844111.421                   132844111.421    25511313.466  
                 119084734.747                   119084734.747    22868968.845  
                 122872643.562                   122872643.562    23596402.474  
                 112421815.902                   112421815.902    21589429.240  
  24121703.968   126760387.805                                                  
  22309323.947   117236271.821                                                  
  23638160.147   124219313.495                                                  
 21  8 31 18 19 41.0000000  0 15G 5G10G13G15G18G23G29C19C20C22C29C35
                                E 5E 9E36
  22623022.865   118884784.036    22623023.687    92637493.005                  
  24310916.443   127754648.153    24310921.446    99549056.021                  
  21769087.935   114397325.314    21769088.292    89140771.739                  
  20290552.833   106627579.759    20290553.298    83086426.731                  
  21014928.465   110434195.511    21014929.395    86052622.122                  
  21613973.237   113582190.563    21613974.577    88505603.450                  
  20937908.313   110029444.992    20937909.027    85737227.918                  
                 112423626.641                   112423626.641    21589775.756  
                 132847018.934                   132847018.934    25511871.801  
                 119083021.910                   119083021.910    22868639.894  
                 122875317.339                   122875317.339    23596915.959  
                 112421928.092                   112421928.092    21589450.772  
  24121356.040   126758559.514                                                  
  22309492.845   117237159.391                                                  
  23638193.473   124219488.667                                                  
 21  8 31 18 19 42.0000000  0 15G 5G10G13G15G18G23G29C19C20C22C29C35
                                E 5E 9E36
  22623537.296   118887487.485    22623538.136    92639599.590                  
  24310436.285   127752124.939    24310441.288    99547089.879                  
  21769347.125   114398687.300    21769347.483    89141833.027                  
  20290538.288   106627503.273    20290538.734    83086367.133                  
  21014613.953   110432542.780    21014614.900    86051334.277                  
  21613662.834   113580559.409    21613664.174    88504332.419                  
  20938297.643   110031490.840    20938298.340    85738822.083                  
                 112424809.432                   112424809.432    21590002.907  
                 132849926.482                   132849926.482    25512430.173  
                 119081309.444                   119081309.444    22868311.032  
                 122877991.410                   122877991.410    23597429.479  
                 112422040.769                   112422040.769    21589472.412  
  24121008.202   126756731.591                                                  
  22309661.814   117238047.382                                                  
  23638226.852   124219664.097                                                  
 21  8 31 18 19 43.0000000  0 15G 5G10G13G15G18G23G29C19C20C22C29C35
                                E 5E 9E36
  22624051.763   118890191.013    22624052.603    92641706.235                  
  24309956.162   127749601.909    24309961.165    99545123.886                  
  21769606.423   114400049.946    21769606.780    89142894.827                  
  20290523.867   106627427.493    20290524.314    83086308.082                  
  21014299.494   110430890.251    21014300.441    86050046.595                  
  21613352.502   113578928.557    21613353.843    88503061.630                  
  20938687.062   110033537.257    20938687.759    85740416.696                  
                 112425992.576                   112425992.576    21590230.112  
                 132852834.062                   132852834.062    25512988.544  
                 119079597.351                   119079597.351    22867982.260  
                 122880665.772                   122880665.772    23597943.088  
                 112422153.933                   112422153.933    21589494.158  
  24120660.435   126754904.031                                                  
  22309830.855   117238935.780                                                  
  23638260.285   124219839.753                                                  
 21  8 31 18 19 44.0000000  0 15G 5G10G13G15G18G23G29C19C20C22C29C35
                                E 5E 9E36
  22624566.248   118892894.587    22624567.088    92643812.915                  
  24309476.075   127747079.052    24309481.078    99543158.024                  
  21769865.845   114401413.227    21769866.202    89143957.126                  
  20290509.572   106627352.427    20290510.037    83086249.587                  
  21013985.052   110429237.922    21013985.999    86048759.065                  
  21613042.225   113577298.010    21613043.565    88501791.071                  
  20939076.607   110035584.249    20939077.304    85742011.754                  
                 112427176.068                   112427176.068    21590457.406  
                 132855741.679                   132855741.679    25513546.915  
                 119077885.628                   119077885.628    22867653.542  
                 122883340.433                   122883340.433    23598456.715  
                 112422267.586                   112422267.586    21589515.976  
  24120312.721   126753076.829                                                  
  22310000.003   117239824.590                                                  
  23638293.754   124220015.659                                                  
 21  8 31 18 19 45.0000000  0 15G 5G10G13G15G18G23G29C19C20C22C29C35
                                E 5E 9E36
  22625080.733   118895598.294    22625081.555    92645919.695                  
  24308996.023   127744556.359    24309001.027    99541192.292                  
  21770125.375   114402777.161    21770125.768    89145019.930                  
  20290495.420   106627278.077    20290495.884    83086191.656                  
  21013670.683   110427585.798    21013671.612    86047471.696                  
  21612732.001   113575667.766    21612733.341    88500520.753                  
  20939466.223   110037631.801    20939466.920    85743607.245                  
                 112428359.903                   112428359.903    21590684.735  
                 132858649.331                   132858649.331    25514105.304  
                 119076174.276                   119076174.276    22867324.877  
                 122886015.386                   122886015.386    23598970.396  
                 112422381.722                   112422381.722    21589537.902  
  24119965.080   126751249.976                                                  
  22310169.223   117240713.815                                                  
  23638327.276   124220191.820                                                  
 21  8 31 18 19 46.0000000  0 15G 5G10G13G15G18G23G29C19C20C22C29C35
                                E 5E 9E36
  22625595.236   118898302.036    22625596.075    92648026.507                  
  24308516.026   127742033.855    24308520.993    99539226.706                  
  21770385.065   114404141.724    21770385.423    89146083.227                  
  20290481.428   106627204.437    20290481.875    83086134.274                  
  21013356.313   110425933.874    21013357.260    86046184.485                  
  21612421.812   113574037.832    21612423.152    88499250.673                  
  20939855.982   110039679.929    20939856.679    85745203.187                  
                 112429544.090                   112429544.090    21590912.137  
                 132861557.019                   132861557.019    25514663.693  
                 119074463.300                   119074463.300    22866996.301  
                 122888690.637                   122888690.637    23599484.166  
                 112422496.347                   112422496.347    21589559.898  
  24119617.527   126749423.494                                                  
  22310338.496   117241603.446                                                  
  23638360.834   124220368.212                                                  
 21  8 31 18 19 47.0000000  0 15G 5G10G13G15G18G23G29C19C20C22C29C35
                                E 5E 9E36
  22626109.756   118901005.878    22626110.596    92650133.399                  
  24308036.028   127739511.514    24308041.013    99537261.251                  
  21770644.845   114405506.938    21770645.220    89147147.031                  
  20290467.544   106627131.504    20290468.009    83086077.441                  
  21013042.015   110424282.164    21013042.962    86044897.438                  
  21612111.713   113572408.198    21612113.053    88497980.833                  
  20940245.813   110041728.626    20940246.528    85746799.574                  
                 112430728.626                   112430728.626    21591139.627  
                 132864464.747                   132864464.747    25515222.100  
                 119072752.693                   119072752.693    22866667.797  
                 122891366.180                   122891366.180    23599997.972  
                 112422611.460                   112422611.460    21589582.020  
  24119270.028   126747597.366                                                  
  22310507.877   117242493.497                                                  
  23638394.464   124220544.860                                                  
 21  8 31 18 19 48.0000000  0 15G 5G10G13G15G18G23G29C19C20C22C29C35
                                E 5E 9E36
  22626624.295   118903709.782    22626625.135    92652240.337                  
  24307556.084   127736989.368    24307561.087    99535295.937                  
  21770904.768   114406872.777    21770905.125    89148211.321                  
  20290453.785   106627059.293    20290454.267    83086021.173                  
  21012727.734   110422630.653    21012728.681    86043610.542                  
  21611801.686   113570778.878    21611803.008    88496711.230                  
  20940635.787   110043777.886    20940636.501    85748396.402                  
                 112431913.508                   112431913.508    21591367.153  
                 132867372.504                   132867372.504    25515780.507  
                 119071042.452                   119071042.452    22866339.382  
                 122894042.019                   122894042.019    23600511.831  
                 112422727.058                   112422727.058    21589604.213  
  24118922.583   126745771.605                                                  
  22310677.329   117243383.952                                                  
  23638428.111   124220721.755                                                  
 21  8 31 18 19 49.0000000  0 15G 5G10G13G15G18G23G29C19C20C22C29C35
                                E 5E 9E36
  22627138.851   118906413.759    22627139.673    92654347.329                  
  24307076.158   127734467.374    24307081.161    99533330.754                  
  21771164.798   114408239.267    21771165.155    89149276.116                  
  20290440.187   106626987.784    20290440.633    83085965.454                  
  21012413.508   110420979.348    21012414.437    86042323.813                  
  21611491.676   113569149.854    21611493.016    88495441.863                  
  20941025.867   110045827.716    20941026.564    85749993.672                  
                 112433098.739                   112433098.739    21591594.787  
                 132870280.296                   132870280.296    25516338.914  
                 119069332.589                   119069332.589    22866011.003  
                 122896718.151                   122896718.151    23601025.762  
                 112422843.148                   112422843.148    21589626.496  
  24118575.227   126743946.202                                                  
  22310846.852   117244274.833                                                  
  23638461.848   124220898.890                                                  
 21  8 31 18 19 50.0000000  0 15G 5G10G13G15G18G23G29C19C20C22C29C35
                                E 5E 9E36
  22627653.425   118909117.809    22627654.265    92656454.379                  
  24306596.267   127731945.559    24306601.253    99531365.703                  
  21771424.953   114409606.403    21771425.328    89150341.417                  
  20290426.713   106626916.987    20290427.178    83085910.285                  
  21012099.317   110419328.246    21012100.264    86041037.237                  
  21611181.738   113567521.130    21611183.078    88494172.727                  
  20941416.037   110047878.109    20941416.734    85751591.383                  
                 112434284.316                   112434284.316    21591822.456  
                 132873188.129                   132873188.129    25516897.339  
                 119067623.099                   119067623.099    22865682.713  
                 122899394.578                   122899394.578    23601539.747  
                 112422959.723                   112422959.723    21589648.904  
  24118227.942   126742121.160                                                  
  22311016.465   117245166.113                                                  
  23638495.585   124221076.277                                                  
 21  8 31 18 19 51.0000000  0 15G 5G10G13G15G18G23G29C19C20C22C29C35
                                E 5E 9E36
  22628168.000   118911821.950    22628168.840    92658561.500                  
  24306116.413   127729423.914    24306121.398    99529400.789                  
  21771685.233   114410974.179    21771685.608    89151407.219                  
  20290413.383   106626846.910    20290413.848    83085855.679                  
  21011785.161   110417677.343    21011786.108    86039750.824                  
  21610871.853   113565892.710    21610873.193    88492903.829                  
  20941806.315   110049929.074    20941807.012    85753189.531                  
                 112435470.242                   112435470.242    21592050.197  
                 132876095.999                   132876095.999    25517455.764  
                 119065913.966                   119065913.966    22865354.495  
                 122902071.313                   122902071.313    23602053.785  
                 112423076.805                   112423076.805    21589671.383  
  24117880.694   126740296.476                                                  
  22311186.131   117246057.804                                                  
  23638529.393   124221253.911                                                  
 21  8 31 18 19 52.0000000  0 15G 5G10G13G15G18G23G29C19C20C22C29C35
                                E 5E 9E36
  22628682.592   118914526.153    22628683.414    92660668.673                  
  24305636.594   127726902.465    24305641.597    99527436.024                  
  21771945.638   114412342.600    21771945.996    89152473.519                  
  20290400.178   106626777.542    20290400.643    83085801.624                  
  21011471.042   110416026.654    21011471.989    86038464.571                  
  21610562.040   113564264.617    21610563.380    88491635.185                  
  20942196.717   110051980.602    20942197.414    85754788.125                  
                 112436656.517                   112436656.517    21592278.027  
                 132879003.899                   132879003.899    25518014.207  
                 119064205.214                   119064205.214    22865026.348  
                 122904748.329                   122904748.329    23602567.877  
                 112423194.351                   112423194.351    21589693.952  
  24117533.534   126738472.153                                                  
  22311355.905   117246949.917                                                  
  23638563.237   124221431.783                                                  
 21  8 31 18 19 53.0000000  0 15G 5G10G13G15G18G23G29C19C20C22C29C35
                                E 5E 9E36
  22629197.202   118917230.446    22629198.042    92662775.915                  
  24305156.792   127724381.167    24305161.796    99525471.378                  
  21772206.169   114413711.664    21772206.526    89153540.324                  
  20290387.098   106626708.888    20290387.580    83085748.130                  
  21011156.958   110414376.164    21011157.905    86037178.473                  
  21610252.281   113562636.802    21610253.621    88490366.758                  
  20942587.227   110054032.700    20942587.924    85756387.160                  
                 112437843.141                   112437843.141    21592505.893  
                 132881911.833                   132881911.833    25518572.631  
                 119062496.837                   119062496.837    22864698.273  
                 122907425.640                   122907425.640    23603082.040  
                 112423312.387                   112423312.387    21589716.628  
  24117186.464   126736648.196                                                  
  22311525.732   117247842.442                                                  
  23638597.134   124221609.907                                                  
 21  8 31 18 19 54.0000000  0 15G 5G10G13G15G18G23G29C19C20C22C29C35
                                E 5E 9E36
  22629711.848   118919934.814    22629712.652    92664883.212                  
  24304677.063   127721860.047    24304682.048    99523506.872                  
  21772466.806   114415081.368    21772467.164    89154607.626                  
  20290374.179   106626640.941    20290374.643    83085695.189                  
  21010842.928   110412725.875    21010843.857    86035892.535                  
  21609942.575   113561009.301    21609943.915    88489098.575                  
  20942977.826   110056085.353    20942978.523    85757986.629                  
                 112439030.113                   112439030.113    21592733.848  
                 132884819.799                   132884819.799    25519131.074  
                 119060788.829                   119060788.829    22864370.252  
                 122910103.247                   122910103.247    23603596.239  
                 112423430.910                   112423430.910    21589739.375  
  24116839.448   126734824.598                                                  
  22311695.666   117248735.371                                                  
  23638631.085   124221788.274                                                  
 21  8 31 18 19 55.0000000  0 15G 5G10G13G15G18G23G29C19C20C22C29C35
                                E 5E 9E36
  22630226.475   118922639.263    22630227.297    92666990.575                  
  24304197.333   127719339.109    24304202.319    99521542.505                  
  21772727.587   114416451.708    21772727.944    89155675.421                  
  20290361.384   106626573.710    20290361.849    83085642.796                  
  21010528.915   110411075.793    21010529.862    86034606.762                  
  21609632.940   113559382.102    21609634.280    88487830.628                  
  20943368.532   110058138.578    20943369.247    85759586.547                  
                 112440217.429                   112440217.429    21592961.839  
                 132887727.804                   132887727.804    25519689.535  
                 119059081.191                   119059081.191    22864042.337  
                 122912781.144                   122912781.144    23604110.492  
                 112423549.922                   112423549.922    21589762.247  
  24116492.485   126733001.352                                                  
  22311865.654   117249628.708                                                  
  23638665.055   124221966.891                                                  
 21  8 31 18 19 56.0000000  0 15G 5G10G13G15G18G23G29C19C20C22C29C35
                                E 5E 9E36
  22630741.121   118925343.797    22630741.961    92669098.004                  
  24303717.639   127716818.348    24303722.642    99519578.273                  
  21772988.457   114417822.703    21772988.814    89156743.726                  
  20290348.715   106626507.200    20290349.198    83085590.968                  
  21010214.957   110409425.923    21010215.904    86033321.144                  
  21609323.341   113557755.206    21609324.682    88486562.921                  
  20943759.363   110060192.372    20943760.060    85761186.906                  
                 112441405.097                   112441405.097    21593189.919  
                 132890635.843                   132890635.843    25520247.977  
                 119057373.931                   119057373.931    22863714.476  
                 122915459.339                   122915459.339    23604624.816  
                 112423669.417                   112423669.417    21589785.173  
  24116145.594   126731178.473                                                  
  22312035.732   117250522.465                                                  
  23638699.095   124222145.749                                                  
 21  8 31 18 19 57.0000000  0 15G 5G10G13G15G18G23G29C19C20C22C29C35
                                E 5E 9E36
  22631255.803   118928048.379    22631256.625    92671205.468                  
  24303237.999   127714297.756    24303242.984    99517614.182                  
  21773249.487   114419194.341    21773249.845    89157812.535                  
  20290336.207   106626441.384    20290336.654    83085539.687                  
  21009901.034   110407776.247    21009901.981    86032035.684                  
  21609013.814   113556128.618    21609015.154    88485295.445                  
  20944150.302   110062246.735    20944150.999    85762787.706                  
                 112442593.111                   112442593.111    21593418.088  
                 132893543.917                   132893543.917    25520806.456  
                 119055667.037                   119055667.037    22863386.687  
                 122918137.824                   122918137.824    23605139.194  
                 112423789.407                   112423789.407    21589808.224  
  24115798.792   126729355.966                                                  
  22312205.899   117251416.641                                                  
  23638733.171   124222324.858                                                  
 21  8 31 18 19 58.0000000  0 15G 5G10G13G15G18G23G29C19C20C22C29C35
                                E 5E 9E36
  22631770.484   118930753.060    22631771.306    92673313.007                  
  24302758.359   127711777.329    24302763.362    99515650.216                  
  21773510.625   114420566.606    21773510.983    89158881.835                  
  20290323.824   106626376.289    20290324.288    83085488.964                  
  21009587.164   110406126.784    21009588.093    86030750.391                  
  21608704.341   113554502.332    21608705.681    88484028.214                  
  20944541.347   110064301.659    20944542.044    85764388.950                  
                 112443781.473                   112443781.473    21593646.276  
                 132896452.029                   132896452.029    25521364.916  
                 119053960.515                   119053960.515    22863058.951  
                 122920816.605                   122920816.605    23605653.625  
                 112423909.878                   112423909.878    21589831.365  
  24115452.043   126727533.805                                                  
  22312376.119   117252311.216                                                  
  23638767.319   124222504.212                                                  
 21  8 31 18 19 59.0000000  0 15G 5G10G13G15G18G23G29C19C20C22C29C35
                                E 5E 9E36
  22632285.183   118933457.800    22632286.005    92675420.601                  
  24302278.772   127709257.087    24302283.775    99513686.390                  
  21773771.853   114421939.532    21773772.246    89159951.645                  
  20290311.565   106626311.910    20290312.012    83085438.801                  
  21009273.313   110404477.519    21009274.260    86029465.247                  
  21608394.921   113552876.357    21608396.261    88482761.218                  
  20944932.483   110066357.164    20944933.197    85765990.638                  
                 112444970.185                   112444970.185    21593874.553  
                 132899360.167                   132899360.167    25521923.395  
                 119052254.368                   119052254.368    22862731.323  
                 122923495.684                   122923495.684    23606168.128  
                 112424030.836                   112424030.836    21589854.594  
  24115105.366   126725712.009                                                  
  22312546.446   117253206.214                                                  
  23638801.502   124222683.812                                                  
 21  8 31 18 20  0.0000000  0 15G 5G10G13G15G18G23G29C19C20C22C29C35
                                E 5E 9E36
  22632799.883   118936162.624    22632800.723    92677528.254                  
  24301799.221   127706737.015    24301804.224    99511722.700                  
  21774033.241   114423313.086    21774033.616    89161021.949                  
  20290299.468   106626248.241    20290299.915    83085389.187                  
  21008959.497   110402828.461    21008960.444    86028180.265                  
  21608085.572   113551250.675    21608086.894    88481494.458                  
  20945323.743   110068413.226    20945324.440    85767592.762                  
                 112446159.240                   112446159.240    21594102.919  
                 132902268.342                   132902268.342    25522481.891  
                 119050548.591                   119050548.591    22862403.748  
                 122926175.056                   122926175.056    23606682.666  
                 112424152.285                   112424152.285    21589877.913  
  24114758.761   126723890.573                                                  
  22312716.845   117254101.617                                                  
  23638835.722   124222863.653                                                  
 21  8 31 18 20  1.0000000  0 15G 5G10G13G15G18G23G29C19C20C22C29C35
                                E 5E 9E36
  22633314.600   118938867.520    22633315.440    92679635.965                  
  24301319.706   127704217.116    24301324.709    99509759.145                  
  21774294.754   114424687.288    21774295.111    89162092.758                  
  20290287.460   106626185.274    20290287.925    83085340.121                  
  21008645.735   110401179.612    21008646.682    86026895.452                  
  21607776.277   113549625.314    21607777.617    88480227.938                  
  20945715.092   110070469.855    20945715.825    85769195.332                  
                 112447348.643                   112447348.643    21594331.321  
                 132905176.556                   132905176.556    25523040.388  
                 119048843.183                   119048843.183    22862076.226  
                 122928854.715                   122928854.715    23607197.258  
                 112424274.219                   112424274.219    21589901.340  
  24114412.227   126722069.507                                                  
  22312887.298   117254997.431                                                  
  23638869.976   124223043.746                                                  
 21  8 31 18 20  2.0000000  0 15G 5G10G13G15G18G23G29C19C20C22C29C35
                                E 5E 9E36
  22633829.353   118941572.512    22633830.175    92681743.749                  
  24300840.226   127701697.399    24300845.194    99507795.727                  
  21774556.374   114426062.133    21774556.732    89163164.063                  
  20290275.613   106626123.028    20290276.078    83085291.618                  
  21008332.026   110399530.969    21008332.955    86025610.793                  
  21607467.036   113548000.246    21607468.376    88478961.653                  
  20946106.585   110072527.059    20946107.281    85770798.344                  
                 112448538.399                   112448538.399    21594559.794  
                 132908084.802                   132908084.802    25523598.884  
                 119047138.150                   119047138.150    22861748.794  
                 122931534.675                   122931534.675    23607711.922  
                 112424396.645                   112424396.645    21589924.837  
  24114065.765   126720248.794                                                  
  22313057.840   117255893.655                                                  
  23638904.303   124223224.091                                                  
 21  8 31 18 20  3.0000000  0 15G 5G10G13G15G18G23G29C19C20C22C29C35
                                E 5E 9E36
  22634344.106   118944277.563    22634344.946    92683851.583                  
  24300360.764   127699177.852    24300365.768    99505832.446                  
  21774818.120   114427437.614    21774818.477    89164235.863                  
  20290263.927   106626061.487    20290264.373    83085243.664                  
  21008018.318   110397882.525    21008019.265    86024326.293                  
  21607157.866   113546375.480    21607159.188    88477695.607                  
  20946498.166   110074584.829    20946498.863    85772401.801                  
                 112449728.497                   112449728.497    21594788.357  
                 132910993.082                   132910993.082    25524157.380  
                 119045433.489                   119045433.489    22861421.434  
                 122934214.925                   122934214.925    23608226.639  
                 112424519.554                   112424519.554    21589948.442  
  24113719.356   126718428.447                                                  
  22313228.471   117256790.297                                                  
  23638938.683   124223404.680                                                  
 21  8 31 18 20  4.0000000  0 15G 5G10G13G15G18G23G29C19C20C22C29C35
                                E 5E 9E36
  22634858.877   118946982.687    22634859.699    92685959.470                  
  24299881.339   127696658.470    24299886.324    99503869.298                  
  21775079.972   114428813.741    21775080.365    89165308.172                  
  20290252.348   106626000.653    20290252.794    83085196.261                  
  21007704.681   110396234.280    21007705.628    86023041.944                  
  21606848.714   113544751.019    21606850.054    88476429.793                  
  20946889.837   110076643.157    20946890.552    85774005.695                  
                 112450918.942                   112450918.942    21595016.955  
                 132913901.395                   132913901.395    25524715.894  
                 119043729.195                   119043729.195    22861094.145  
                 122936895.472                   122936895.472    23608741.428  
                 112424642.954                   112424642.954    21589972.137  
  24113373.018   126716608.452                                                  
  22313399.174   117257687.343                                                  
  23638973.081   124223585.512                                                  
 21  8 31 18 20  5.0000000  0 15G 5G10G13G15G18G23G29C19C20C22C29C35
                                E 5E 9E36
  22635373.665   118949687.893    22635374.505    92688067.423                  
  24299401.966   127694139.281    24299406.934    99501906.293                  
  21775341.986   114430190.508    21775342.343    89166380.977                  
  20290240.893   106625940.544    20290241.358    83085149.422                  
  21007391.061   110394586.259    21007392.008    86021757.774                  
  21606539.651   113543126.875    21606540.992    88475164.222                  
  20947281.634   110078702.060    20947282.366    85775610.030                  
                 112452109.735                   112452109.735    21595245.643  
                 132916809.745                   132916809.745    25525274.426  
                 119042025.278                   119042025.278    22860766.927  
                 122939576.312                   122939576.312    23609256.234  
                 112424766.836                   112424766.836    21589995.938  
  24113026.752   126714788.836                                                  
  22313569.966   117258584.812                                                  
  23639007.532   124223766.597                                                  
 21  8 31 18 20  6.0000000  0 15G 5G10G13G15G18G23G29C19C20C22C29C35
                                E 5E 9E36
  22635888.454   118952393.173    22635889.294    92690175.431                  
  24298922.594   127691620.245    24298927.579    99499943.410                  
  21775604.089   114431567.903    21775604.464    89167454.274                  
  20290229.600   106625881.145    20290230.065    83085103.140                  
  21007077.496   110392938.434    21007078.443    86020473.755                  
  21606230.660   113541503.028    21606231.983    88473898.891                  
  20947673.555   110080761.535    20947674.252    85777214.821                  
                 112453300.875                   112453300.875    21595474.384  
                 132919718.130                   132919718.130    25525832.941  
                 119040321.731                   119040321.731    22860439.781  
                 122942257.446                   122942257.446    23609771.112  
                 112424891.211                   112424891.211    21590019.811  
  24112680.576   126712969.657                                                  
  22313740.812   117259482.700                                                  
  23639042.037   124223947.925                                                  
 21  8 31 18 20  7.0000000  0 15G 5G10G13G15G18G23G29C19C20C22C29C35
                                E 5E 9E36
  22636403.278   118955098.538    22636404.100    92692283.507                  
  24298443.257   127689101.379    24298448.261    99497980.660                  
  21775866.317   114432945.947    21775866.674    89168528.070                  
  20290218.414   106625822.453    20290218.879    83085057.406                  
  21006763.966   110391290.821    21006764.895    86019189.898                  
  21605921.705   113539879.485    21605923.045    88472633.788                  
  20948065.566   110082821.570    20948066.262    85778820.039                  
                 112454492.363                   112454492.363    21595703.197  
                 132922626.544                   132922626.544    25526391.473  
                 119038618.554                   119038618.554    22860112.707  
                 122944938.871                   122944938.871    23610286.062  
                 112425016.070                   112425016.070    21590043.791  
  24112334.489   126711150.883                                                  
  22313911.765   117260380.988                                                  
  23639076.596   124224129.500                                                  
 21  8 31 18 20  8.0000000  0 15G 5G10G13G15G18G23G29C19C20C22C29C35
                                E 5E 9E36
  22636918.103   118957803.953    22636918.943    92694391.620                  
  24297963.975   127686582.719    24297968.960    99496018.070                  
  21776128.687   114434324.659    21776129.045    89169602.396                  
  20290207.371   106625764.462    20290207.854    83085012.216                  
  21006450.472   110389643.398    21006451.419    86017906.196                  
  21605612.821   113538256.245    21605614.143    88471368.930                  
  20948457.683   110084882.149    20948458.380    85780425.686                  
                 112455684.198                   112455684.198    21595932.081  
                 132925534.996                   132925534.996    25526950.023  
                 119036915.751                   119036915.751    22859785.686  
                 122947620.590                   122947620.590    23610801.065  
                 112425141.421                   112425141.421    21590067.879  
  24111988.366   126709332.073                                                  
  22314082.754   117261279.668                                                  
  23639111.208   124224311.313                                                  
 21  8 31 18 20  9.0000000  0 15G 5G10G13G15G18G23G29C19C20C22C29C35
                                E 5E 9E36
  22637432.945   118960509.464    22637433.785    92696499.813                  
  24297484.727   127684064.222    24297489.713    99494055.605                  
  21776391.165   114435703.994    21776391.523    89170677.199                  
  20290196.507   106625707.199    20290196.954    83084967.598                  
  21006137.013   110387996.186    21006137.960    86016622.657                  
  21605303.973   113536633.313    21605305.313    88470104.308                  
  20948849.908   110086943.317    20948850.623    85782031.789                  
                 112456876.381                   112456876.381    21596161.019  
                 132928443.480                   132928443.480    25527508.555  
                 119035213.317                   119035213.317    22859458.754  
                 122950302.605                   122950302.605    23611316.122  
                 112425267.258                   112425267.258    21590092.038  
  24111642.386   126707513.942                                                  
  22314253.867   117262178.786                                                  
  23639145.838   124224493.375                                                  
 21  8 31 18 20 10.0000000  0 15G 5G10G13G15G18G23G29C19C20C22C29C35
                                E 5E 9E36
  22637947.805   118963215.058    22637948.645    92698608.064                  
  24297005.498   127681545.893    24297010.483    99492093.273                  
  21776653.769   114437083.968    21776654.126    89171752.504                  
  20290185.732   106625650.641    20290186.196    83084923.524                  
  21005823.608   110386349.189    21005824.538    86015339.278                  
  21604995.196   113535010.675    21604996.536    88468839.919                  
  20949242.241   110089005.046    20949242.938    85783638.331                  
                 112458068.911                   112458068.911    21596390.046  
                 132931351.999                   132931351.999    25528067.105  
                 119033511.259                   119033511.259    22859131.876  
                 122952984.913                   122952984.913    23611831.214  
                 112425393.583                   112425393.583    21590116.304  
  24111296.459   126705696.113                                                  
  22314425.035   117263078.303                                                  
  23639180.540   124224675.686                                                  
 21  8 31 18 20 11.0000000  0 15G 5G10G13G15G18G23G29C19C20C22C29C35
                                E 5E 9E36
  22638462.683   118965920.743    22638463.505    92700716.392                  
  24296526.322   127679027.738    24296531.308    99490131.078                  
  21776916.479   114438464.591    21776916.854    89172828.312                  
  20290175.100   106625594.801    20290175.564    83084880.012                  
  21005510.222   110384702.388    21005511.169    86014056.059                  
  21604686.473   113533388.356    21604687.813    88467575.772                  
  20949634.680   110091067.341    20949635.377    85785245.312                  
                 112459261.786                   112459261.786    21596619.127  
                 132934260.556                   132934260.556    25528625.654  
                 119031809.570                   119031809.570    22858805.105  
                 122955667.516                   122955667.516    23612346.396  
                 112425520.391                   112425520.391    21590140.642  
  24110950.622   126703878.653                                                  
  22314596.291   117263978.237                                                  
  23639215.277   124224858.247                                                  
 21  8 31 18 20 12.0000000  0 15G 5G10G13G15G18G23G29C19C20C22C29C35
                                E 5E 9E36
  22638977.561   118968626.504    22638978.401    92702824.775                  
  24296047.164   127676509.755    24296052.132    99488169.012                  
  21777179.314   114439845.841    21777179.708    89173904.613                  
  20290164.628   106625539.672    20290165.075    83084837.059                  
  21005196.906   110383055.796    21005197.817    86012773.000                  
  21604377.821   113531766.328    21604379.162    88466311.854                  
  20950027.245   110093130.202    20950027.942    85786852.739                  
                 112460455.008                   112460455.008    21596848.262  
                 132937169.142                   132937169.142    25529184.240  
                 119030108.250                   119030108.250    22858478.388  
                 122958350.409                   122958350.409    23612861.614  
                 112425647.691                   112425647.691    21590165.104  
  24110604.839   126702061.555                                                  
  22314767.620   117264878.587                                                  
  23639250.068   124225041.054                                                  
 21  8 31 18 20 13.0000000  0 15G 5G10G13G15G18G23G29C19C20C22C29C35
                                E 5E 9E36
  22639492.457   118971332.332    22639493.297    92704933.210                  
  24295568.024   127673991.948    24295573.028    99486207.089                  
  21777442.293   114441227.743    21777442.668    89174981.418                  
  20290154.264   106625485.246    20290154.711    83084794.647                  
  21004883.609   110381409.406    21004884.538    86011490.099                  
  21604069.223   113530144.614    21604070.563    88465048.179                  
  20950419.899   110095193.624    20950420.596    85788460.598                  
                 112461648.578                   112461648.578    21597077.486  
                 132940077.762                   132940077.762    25529742.808  
                 119028407.306                   119028407.306    22858151.724  
                 122961033.596                   122961033.596    23613376.903  
                 112425775.481                   112425775.481    21590189.638  
  24110259.127   126700244.820                                                  
  22314939.019   117265779.340                                                  
  23639284.895   124225224.117                                                  
 21  8 31 18 20 14.0000000  0 15G 5G10G13G15G18G23G29C19C20C22C29C35
                                E 5E 9E36
  22640007.389   118974038.246    22640008.229    92707041.714                  
  24295088.938   127671474.318    24295093.924    99484245.297                  
  21777705.379   114442610.285    21777705.754    89176058.723                  
  20290144.043   106625431.540    20290144.508    83084752.796                  
  21004570.347   110379763.227    21004571.276    86010207.360                  
  21603760.661   113528523.190    21603762.001    88463784.739                  
  20950812.660   110097257.630    20950813.357    85790068.914                  
                 112462842.492                   112462842.492    21597306.763  
                 132942986.415                   132942986.415    25530301.376  
                 119026706.730                   119026706.730    22857825.132  
                 122963717.077                   122963717.077    23613892.227  
                 112425903.755                   112425903.755    21590214.262  
  24109913.486   126698428.446                                                  
  22315110.526   117266680.500                                                  
  23639319.776   124225407.411                                                  
 21  8 31 18 20 15.0000000  0 15G 5G10G13G15G18G23G29C19C20C22C29C35
                                E 5E 9E36
  22640522.321   118976744.238    22640523.160    92709150.285                  
  24294609.887   127668956.863    24294614.855    99482283.648                  
  21777968.607   114443993.461    21777968.964    89177136.520                  
  20290133.965   106625378.524    20290134.412    83084711.473                  
  21004257.121   110378117.222    21004258.068    86008924.747                  
  21603452.188   113526902.075    21603453.528    88462521.523                  
  20951205.546   110099322.235    20951206.243    85791677.711                  
                 112464036.757                   112464036.757    21597536.094  
                 132945895.103                   132945895.103    25530859.961  
                 119025006.530                   119025006.530    22857498.647  
                 122966400.854                   122966400.854    23614407.624  
                 112426032.517                   112426032.517    21590238.993  
  24109567.899   126696612.595                                                  
  22315282.087   117267582.089                                                  
  23639354.692   124225590.858                                                  
 21  8 31 18 20 16.0000000  0 15G 5G10G13G15G18G23G29C19C20C22C29C35
                                E 5E 9E36
  22641037.252   118979450.284    22641038.092    92711258.894                  
  24294130.855   127666439.582    24294135.840    99480322.133                  
  21778231.925   114445377.282    21778232.300    89178214.825                  
  20290123.994   106625326.238    20290124.459    83084670.735                  
  21003943.948   110376471.448    21003944.877    86007642.328                  
  21603143.769   113525281.271    21603145.073    88461258.558                  
  20951598.522   110101387.368    20951599.218    85793286.905                  
                 112465231.366                   112465231.366    21597765.514  
                 132948803.825                   132948803.825    25531418.565  
                 119023306.699                   119023306.699    22857172.198  
                 122969084.922                   122969084.922    23614923.055  
                 112426161.770                   112426161.770    21590263.813  
  24109222.402   126694796.946                                                  
  22315453.719   117268484.080                                                  
  23639389.679   124225774.658                                                  
 21  8 31 18 20 17.0000000  0 15G 5G10G13G15G18G23G29C19C20C22C29C35
                                E 5E 9E36
  22641552.220   118982156.418    22641553.059    92713367.567                  
  24293651.858   127663922.474    24293656.861    99478360.750                  
  21778495.386   114446761.743    21778495.743    89179293.626                  
  20290114.184   106625274.659    20290114.649    83084630.544                  
  21003630.793   110374825.886    21003631.740    86006360.069                  
  21602835.385   113523660.765    21602836.725    88459995.831                  
  20951991.604   110103453.064    20951992.319    85794896.543                  
                 112466426.321                   112466426.321    21597995.006  
                 132951712.580                   132951712.580    25531977.168  
                 119021607.243                   119021607.243    22856845.838  
                 122971769.284                   122971769.284    23615438.577  
                 112426291.509                   112426291.509    21590288.740  
  24108876.958   126692981.655                                                  
  22315625.440   117269386.481                                                  
  23639424.702   124225958.700                                                  
 21  8 31 18 20 18.0000000  0 15G 5G10G13G15G18G23G29C19C20C22C29C35
                                E 5E 9E36
  22642067.205   118984862.628    22642068.045    92715476.300                  
  24293172.896   127661405.538    24293177.900    99476399.504                  
  21778758.954   114448146.844    21778759.311    89180372.923                  
  20290104.499   106625223.802    20290104.964    83084590.915                  
  21003317.692   110373180.529    21003318.639    86005077.973                  
  21602527.055   113522040.571    21602528.395    88458733.340                  
  20952384.794   110105519.323    20952385.491    85796506.613                  
                 112467621.624                   112467621.624    21598224.534  
                 132954621.366                   132954621.366    25532535.754  
                 119019908.157                   119019908.157    22856519.568  
                 122974453.936                   122974453.936    23615954.134  
                 112426421.734                   112426421.734    21590313.739  
  24108531.585   126691166.725                                                  
  22315797.233   117270289.299                                                  
  23639459.779   124226142.995                                                  
 21  8 31 18 20 19.0000000  0 15G 5G10G13G15G18G23G29C19C20C22C29C35
                                E 5E 9E36
  22642582.172   118987568.911    22642583.012    92717585.094                  
  24292693.989   127658888.782    24292698.956    99474438.397                  
  21779022.665   114449532.591    21779023.022    89181452.723                  
  20290094.957   106625173.643    20290095.422    83084551.828                  
  21003004.645   110371535.363    21003005.556    86003796.028                  
  21602218.815   113520420.677    21602220.137    88457471.087                  
  20952778.091   110107586.155    20952778.824    85798117.129                  
                 112468817.274                   112468817.274    21598454.169  
                 132957530.190                   132957530.190    25533094.358  
                 119018209.442                   119018209.442    22856193.333  
                 122977138.885                   122977138.885    23616469.745  
                 112426552.450                   112426552.450    21590338.845  
  24108186.284   126689352.165                                                  
  22315969.115   117271192.529                                                  
  23639494.874   124226327.543                                                  
 21  8 31 18 20 20.0000000  0 15G 5G10G13G15G18G23G29C19C20C22C29C35
                                E 5E 9E36
  22643097.175   118990275.259    22643098.015    92719693.935                  
  24292215.099   127656372.191    24292220.084    99472477.419                  
  21779286.483   114450918.977    21779286.841    89182533.028                  
  20290085.558   106625124.207    20290086.023    83084513.304                  
  21002691.598   110369890.422    21002692.545    86002514.254                  
  21601910.627   113518801.087    21601911.932    88456209.067                  
  20953171.514   110109653.547    20953172.229    85799728.087                  
                 112470013.266                   112470013.266    21598683.839  
                 132960439.046                   132960439.046    25533652.979  
                 119016511.097                   119016511.097    22855867.188  
                 122979824.128                   122979824.128    23616985.427  
                 112426683.648                   112426683.648    21590364.040  
  24107841.037   126687537.966                                                  
  22316141.086   117272096.168                                                  
  23639530.058   124226512.328                                                  
 21  8 31 18 20 21.0000000  0 15G 5G10G13G15G18G23G29C19C20C22C29C35
                                E 5E 9E36
  22643612.196   118992981.692    22643613.036    92721802.843                  
  24291736.227   127653855.828    24291741.195    99470516.637                  
  21779550.427   114452305.988    21779550.784    89183613.809                  
  20290076.284   106625075.477    20290076.749    83084475.333                  
  21002378.622   110368245.687    21002379.569    86001232.644                  
  21601602.476   113517181.800    21601603.798    88454947.284                  
  20953565.043   110111721.503    20953565.740    85801339.476                  
                 112471209.611                   112471209.611    21598913.581  
                 132963347.917                   132963347.917    25534211.600  
                 119014813.125                   119014813.125    22855541.096  
                 122982509.636                   122982509.636    23617501.162  
                 112426815.347                   112426815.347    21590389.325  
  24107495.879   126685724.125                                                  
  22316313.111   117273000.216                                                  
  23639565.260   124226697.363                                                  
 21  8 31 18 20 22.0000000  0 15G 5G10G13G15G18G23G29C19C20C22C29C35
                                E 5E 9E36
  22644127.235   118995688.204    22644128.075    92723911.812                  
  24291257.409   127651339.591    24291262.376    99468555.934                  
  21779814.477   114453693.656    21779814.852    89184695.109                  
  20290067.135   106625027.461    20290067.600    83084437.918                  
  21002065.681   110366601.152    21002066.629    85999951.191                  
  21601294.396   113515562.820    21601295.719    88453685.742                  
  20953958.662   110113790.019    20953959.377    85802951.309                  
                 112472406.298                   112472406.298    21599143.377  
                 132966256.840                   132966256.840    25534770.240  
                 119013115.527                   119013115.527    22855215.093  
                 122985195.466                   122985195.466    23618016.934  
                 112426947.529                   112426947.529    21590414.717  
  24107150.774   126683910.647                                                  
  22316485.226   117273904.672                                                  
  23639600.516   124226882.650                                                  
 21  8 31 18 20 23.0000000  0 15G 5G10G13G15G18G23G29C19C20C22C29C35
                                E 5E 9E36
  22644642.274   118998394.781    22644643.114    92726020.832                  
  24290778.626   127648823.525    24290783.576    99466595.362                  
  21780078.689   114455081.964    21780079.046    89185776.905                  
  20290058.147   106624980.157    20290058.594    83084401.058                  
  21001752.777   110364956.816    21001753.706    85998669.890                  
  21600986.352   113513944.143    21600987.692    88452424.438                  
  20954352.406   110115859.099    20954353.103    85804563.579                  
                 112473603.332                   112473603.332    21599373.262  
                 132969165.798                   132969165.798    25535328.861  
                 119011418.301                   119011418.301    22854889.162  
                 122987881.581                   122987881.581    23618532.777  
                 112427080.196                   112427080.196    21590440.198  
  24106805.759   126682097.519                                                  
  22316657.412   117274809.536                                                  
  23639635.825   124227068.168                                                  
 21  8 31 18 20 24.0000000  0 15G 5G10G13G15G18G23G29C19C20C22C29C35
                                E 5E 9E36
  22645157.349   119001101.443    22645158.188    92728129.917                  
  24290299.861   127646307.640    24290304.829    99464634.937                  
  21780342.971   114456470.909    21780343.347    89186859.202                  
  20290049.284   106624933.567    20290049.749    83084364.754                  
  21001439.908   110363312.695    21001440.837    85997388.759                  
  21600678.398   113512325.775    21600679.738    88451163.371                  
  20954746.239   110117928.751    20954746.936    85806176.292                  
                 112474800.712                   112474800.712    21599603.201  
                 132972074.785                   132972074.785    25535887.500  
                 119009721.445                   119009721.445    22854563.303  
                 122990567.995                   122990567.995    23619048.673  
                 112427213.348                   112427213.348    21590465.768  
  24106460.798   126680284.761                                                  
  22316829.687   117275714.816                                                  
  23639671.152   124227253.934                                                  
 21  8 31 18 20 25.0000000  0 15G 5G10G13G15G18G23G29C19C20C22C29C35
                                E 5E 9E36
  22645672.423   119003808.181    22645673.263    92730239.066                  
  24289821.114   127643791.934    24289826.100    99462674.645                  
  21780607.415   114457860.505    21780607.772    89187942.000                  
  20290040.546   106624887.690    20290041.028    83084329.008                  
  21001127.075   110361668.779    21001128.022    85996107.785                  
  21600370.496   113510707.711    21600371.819    88449902.542                  
  20955140.180   110119998.972    20955140.895    85807789.454                  
                 112475998.434                   112475998.434    21599833.228  
                 132974983.807                   132974983.807    25536446.157  
                 119008024.961                   119008024.961    22854237.497  
                 122993254.704                   122993254.704    23619564.641  
                 112427346.992                   112427346.992    21590491.428  
  24106115.926   126678472.366                                                  
  22317002.034   117276620.513                                                  
  23639706.568   124227439.948                                                  
 21  8 31 18 20 26.0000000  0 15G 5G10G13G15G18G23G29C19C20C22C29C35
                                E 5E 9E36
  22646187.498   119006514.992    22646188.338    92732348.270                  
  24289342.439   127641276.387    24289347.407    99460714.481                  
  21780871.966   114459250.735    21780872.341    89189025.301                  
  20290031.969   106624842.526    20290032.416    83084293.813                  
  21000814.278   110360025.062    21000815.225    85994826.969                  
  21600062.649   113509089.950    21600063.971    88448641.949                  
  20955534.245   110122069.759    20955534.960    85809403.050                  
                 112477196.509                   112477196.509    21600063.292  
                 132977892.864                   132977892.864    25537004.815  
                 119006328.849                   119006328.849    22853911.780  
                 122995941.700                   122995941.700    23620080.645  
                 112427481.122                   112427481.122    21590517.178  
  24105771.107   126676660.335                                                  
  22317174.452   117277526.609                                                  
  23639742.021   124227626.221                                                  
 21  8 31 18 20 27.0000000  0 15G 5G10G13G15G18G23G29C19C20C22C29C35
                                E 5E 9E36
  22646702.608   119009221.871    22646703.448    92734457.524                  
  24288863.781   127638761.022    24288868.767    99458754.460                  
  21781136.642   114460641.605    21781136.999    89190109.093                  
  20290023.499   106624798.069    20290023.964    83084259.175                  
  21000501.534   110358381.560    21000502.481    85993546.316                  
  21599754.855   113507472.485    21599756.177    88447381.589                  
  20955928.418   110124141.104    20955929.115    85811017.089                  
                 112478394.927                   112478394.927    21600293.445  
                 132980801.950                   132980801.950    25537563.472  
                 119004633.109                   119004633.109    22853586.135  
                 122998628.993                   122998628.993    23620596.720  
                 112427615.743                   112427615.743    21590543.034  
  24105426.342   126674848.660                                                  
  22317346.959   117278433.122                                                  
  23639777.508   124227812.732                                                  
 21  8 31 18 20 28.0000000  0 15G 5G10G13G15G18G23G29C19C20C22C29C35
                                E 5E 9E36
  22647217.718   119011928.827    22647218.558    92736566.840                  
  24288385.142   127636245.839    24288390.127    99456794.577                  
  21781401.443   114462033.118    21781401.800    89191193.391                  
  20290015.172   106624754.331    20290015.637    83084225.094                  
  21000188.844   110356738.263    21000189.756    85992265.824                  
  21599447.115   113505855.333    21599448.437    88446121.469                  
  20956322.680   110126213.015    20956323.395    85812631.564                  
                 112479593.687                   112479593.687    21600523.634  
                 132983711.071                   132983711.071    25538122.147  
                 119002937.739                   119002937.739    22853260.562  
                 123001316.579                   123001316.579    23621112.831  
                 112427750.847                   112427750.847    21590568.980  
  24105081.667   126673037.345                                                  
  22317519.538   117279340.036                                                  
  23639813.032   124227999.495                                                  
 21  8 31 18 20 29.0000000  0 15G 5G10G13G15G18G23G29C19C20C22C29C35
                                E 5E 9E36
  22647732.864   119014635.858    22647733.704    92738676.215                  
  24287906.556   127633730.817    24287911.541    99454834.825                  
  21781666.351   114463425.273    21781666.726    89192278.187                  
  20290006.988   106624711.303    20290007.435    83084191.566                  
  20999876.154   110355095.168    20999877.101    85990985.493                  
  21599139.446   113504238.476    21599140.786    88444861.582                  
  20956717.067   110128285.496    20956717.782    85814246.481                  
                 112480792.797                   112480792.797    21600753.912  
                 132986620.224                   132986620.224    25538680.822  
                 119001242.743                   119001242.743    22852935.060  
                 123004004.453                   123004004.453    23621629.014  
                 112427886.442                   112427886.442    21590595.015  
  24104737.062   126671226.403                                                  
  22317692.207   117280247.371                                                  
  23639848.645   124228186.504                                                  
 21  8 31 18 20 30.0000000  0 15G 5G10G13G15G18G23G29C19C20C22C29C35
                                E 5E 9E36
  22648247.993   119017342.957    22648248.832    92740785.641                  
  24287428.005   127631215.989    24287432.973    99452875.218                  
  21781931.402   114464818.062    21781931.760    89193363.477                  
  20289998.947   106624668.980    20289999.394    83084158.582                  
  20999563.518   110353452.282    20999564.465    85989705.320                  
  21598831.813   113502621.929    21598833.153    88443601.938                  
  20957111.562   110130358.534    20957112.259    85815861.836                  
                 112481992.250                   112481992.250    21600984.262  
                 132989529.411                   132989529.411    25539239.497  
                 118999548.117                   118999548.117    22852609.611  
                 123006692.624                   123006692.624    23622145.268  
                 112428022.526                   112428022.526    21590621.157  
  24104392.494   126669415.813                                                  
  22317864.947   117281155.113                                                  
  23639884.258   124228373.751                                                  
 21  8 31 18 20 31.0000000  0 15G 5G10G13G15G18G23G29C19C20C22C29C35
                                E 5E 9E36
  22648763.157   119020050.142    22648763.996    92742895.133                  
  24286949.455   127628701.307    24286954.441    99450915.731                  
  21782196.561   114466211.499    21782196.918    89194449.271                  
  20289991.013   106624627.375    20289991.478    83084126.165                  
  20999250.935   110351809.598    20999251.882    85988425.309                  
  21598524.269   113501005.685    21598525.591    88442342.524                  
  20957506.146   110132432.145    20957506.860    85817477.636                  
                 112483192.052                   112483192.052    21601214.683  
                 132992438.628                   132992438.628    25539798.172  
                 118997853.866                   118997853.866    22852284.252  
                 123009381.086                   123009381.086    23622661.540  
                 112428159.098                   112428159.098    21590647.371  
  24104048.033   126667605.581                                                  
  22318037.758   117282063.263                                                  
  23639919.942   124228561.245                                                  
 21  8 31 18 20 32.0000000  0 15G 5G10G13G15G18G23G29C19C20C22C29C35
                                E 5E 9E36
  22649278.338   119022757.390    22649279.178    92745004.679                  
  24286470.976   127626186.820    24286475.962    99448956.390                  
  21782461.844   114467605.574    21782462.202    89195535.562                  
  20289983.240   106624586.484    20289983.705    83084094.301                  
  20998938.388   110350167.126    20998939.317    85987145.458                  
  21598216.761   113499389.746    21598218.083    88441083.351                  
  20957900.837   110134506.321    20957901.551    85819093.880                  
                 112484392.194                   112484392.194    21601445.157  
                 132995347.883                   132995347.883    25540356.865  
                 118996159.985                   118996159.985    22851958.964  
                 123012069.841                   123012069.841    23623177.901  
                 112428296.159                   112428296.159    21590673.692  
  24103703.625   126665795.719                                                  
  22318210.641   117282971.827                                                  
  23639955.680   124228748.988                                                  
 21  8 31 18 20 33.0000000  0 15G 5G10G13G15G18G23G29C19C20C22C29C35
                                E 5E 9E36
  22649793.520   119025464.715    22649794.360    92747114.281                  
  24285992.515   127623672.499    24285997.483    99446997.179                  
  21782727.235   114469000.294    21782727.628    89196622.355                  
  20289975.574   106624546.305    20289976.039    83084062.991                  
  20998625.877   110348524.859    20998626.806    85985865.770                  
  21597909.307   113497774.112    21597910.647    88439824.418                  
  20958295.653   110136581.059    20958296.367    85820710.556                  
                 112485592.688                   112485592.688    21601675.703  
                 132998257.169                   132998257.169    25540915.557  
                 118994466.475                   118994466.475    22851633.748  
                 123014758.887                   123014758.887    23623694.298  
                 112428433.708                   112428433.708    21590700.121  
  24103359.307   126663986.218                                                  
  22318383.613   117283880.805                                                  
  23639991.436   124228936.995                                                  
 21  8 31 18 20 34.0000000  0 15G 5G10G13G15G18G23G29C19C20C22C29C35
                                E 5E 9E36
  22650308.720   119028172.117    22650309.560    92749223.944                  
  24285514.072   127621158.361    24285519.058    99445038.112                  
  21782992.787   114470395.644    21782993.144    89197709.645                  
  20289968.087   106624506.831    20289968.534    83084032.234                  
  20998313.401   110346882.800    20998314.348    85984586.246                  
  21597601.924   113496158.780    21597603.264    88438565.718                  
  20958690.576   110138656.359    20958691.273    85822327.671                  
                 112486793.525                   112486793.525    21601906.303  
                 133001166.485                   133001166.485    25541474.286  
                 118992773.341                   118992773.341    22851308.603  
                 123017448.227                   123017448.227    23624210.766  
                 112428571.743                   112428571.743    21590726.620  
  24103015.025   126662177.075                                                  
  22318556.657   117284790.179                                                  
  23640027.264   124229125.243                                                  
 21  8 31 18 20 35.0000000  0 15G 5G10G13G15G18G23G29C19C20C22C29C35
                                E 5E 9E36
  22650823.937   119030879.586    22650824.777    92751333.660                  
  24285035.701   127618644.386    24285040.668    99443079.171                  
  21783258.428   114471791.649    21783258.785    89198797.437                  
  20289960.707   106624468.084    20289961.154    83084002.042                  
  20998000.961   110345240.944    20998001.908    85983306.879                  
  21597294.594   113494543.754    21597295.917    88437307.258                  
  20959085.606   110140732.235    20959086.321    85823945.234                  
                 112487994.708                   112487994.708    21602136.974  
                 133004075.836                   133004075.836    25542032.979  
                 118991080.573                   118991080.573    22850983.512  
                 123020137.861                   123020137.861    23624727.288  
                 112428710.269                   112428710.269    21590753.245  
  24102670.814   126660368.301                                                  
  22318729.807   117285699.981                                                  
  23640063.145   124229313.734                                                  
 21  8 31 18 20 36.0000000  0 15G 5G10G13G15G18G23G29C19C20C22C29C35
                                E 5E 9E36
  22651339.173   119033587.137    22651340.013    92753443.440                  
  24284557.347   127616130.597    24284562.297    99441120.379                  
  21783524.194   114473188.274    21783524.569    89199885.718                  
  20289953.452   106624430.042    20289953.917    83083972.401                  
  20997688.557   110343599.296    20997689.504    85982027.671                  
  21596987.319   113492929.027    21596988.659    88436049.027                  
  20959480.744   110142808.677    20959481.441    85825563.239                  
                 112489196.234                   112489196.234    21602367.717  
                 133006985.218                   133006985.218    25542591.708  
                 118989388.183                   118989388.183    22850658.493  
                 123022827.785                   123022827.785    23625243.846  
                 112428849.281                   112428849.281    21590779.924  
  24102326.692   126658559.892                                                  
  22318902.994   117286610.188                                                  
  23640099.061   124229502.469                                                  
 21  8 31 18 20 37.0000000  0 15G 5G10G13G15G18G23G29C19C20C22C29C35
                                E 5E 9E36
  22651854.426   119036294.767    22651855.266    92755553.278                  
  24284078.993   127613616.978    24284083.979    99439161.715                  
  21783790.085   114474585.550    21783790.460    89200974.504                  
  20289946.358   106624392.707    20289946.823    83083943.305                  
  20997376.224   110341957.851    20997377.136    85980748.625                  
  21596680.096   113491314.605    21596681.437    88434791.040                  
  20959875.971   110144885.671    20959876.686    85827181.680                  
                 112490398.109                   112490398.109    21602598.513  
                 133009894.633                   133009894.633    25543150.418  
                 118987696.159                   118987696.159    22850333.580  
                 123025518.000                   123025518.000    23625760.475  
                 112428988.781                   112428988.781    21590806.727  
  24101982.642   126656751.828                                                  
  22319076.288   117287520.797                                                  
  23640135.014   124229691.448                                                  
 21  8 31 18 20 38.0000000  0 15G 5G10G13G15G18G23G29C19C20C22C29C35
                                E 5E 9E36
  22652369.679   119039002.462    22652370.519    92757663.167                  
  24283600.729   127611103.535    24283605.679    99437203.192                  
  21784056.101   114475983.465    21784056.458    89202063.789                  
  20289939.372   106624356.094    20289939.836    83083914.777                  
  20997063.892   110340316.620    20997064.821    85979469.741                  
  21596372.946   113489700.494    21596374.286    88433533.289                  
  20960271.323   110146963.234    20960272.038    85828800.558                  
                 112491600.324                   112491600.324    21602829.399  
                 133012804.082                   133012804.082    25543709.165  
                 118986004.511                   118986004.511    22850008.703  
                 123028208.509                   123028208.509    23626277.158  
                 112429128.773                   112429128.773    21590833.602  
  24101638.645   126654944.138                                                  
  22319249.653   117288431.829                                                  
  23640171.020   124229880.685                                                  
 21  8 31 18 20 39.0000000  0 15G 5G10G13G15G18G23G29C19C20C22C29C35
                                E 5E 9E36
  22652884.933   119041710.239    22652885.772    92759773.128                  
  24283122.464   127608590.262    24283127.414    99435244.798                  
  21784322.242   114477382.020    21784322.599    89203153.570                  
  20289932.563   106624320.188    20289933.028    83083886.796                  
  20996751.613   110338675.594    20996752.560    85978191.020                  
  21596065.867   113488086.679    21596067.189    88432275.773                  
  20960666.783   110149041.366    20960667.480    85830419.882                  
                 112492802.891                   112492802.891    21603060.338  
                 133015713.563                   133015713.563    25544267.875  
                 118984313.235                   118984313.235    22849683.916  
                 123030899.311                   123030899.311    23626793.894  
                 112429269.250                   112429269.250    21590860.584  
  24101294.720   126653136.805                                                  
  22319423.108   117289343.263                                                  
  23640207.080   124230070.165                                                  
 21  8 31 18 20 40.0000000  0 15G 5G10G13G15G18G23G29C19C20C22C29C35
                                E 5E 9E36
  22653400.239   119044418.089    22653401.079    92761883.141                  
  24282644.218   127606077.177    24282649.203    99433286.552                  
  21784588.508   114478781.206    21784588.866    89204243.847                  
  20289925.863   106624284.992    20289926.327    83083859.375                  
  20996439.387   110337034.774    20996440.316    85976912.461                  
  21595758.805   113486473.173    21595760.146    88431018.496                  
  20961062.331   110151120.065    20961063.064    85832039.649                  
                 112494005.796                   112494005.796    21603291.331  
                 133018623.074                   133018623.074    25544826.640  
                 118982622.331                   118982622.331    22849359.200  
                 123033590.407                   123033590.407    23627310.702  
                 112429410.219                   112429410.219    21590887.638  
  24100950.867   126651329.845                                                  
  22319596.598   117290255.105                                                  
  23640243.175   124230259.898                                                  
 21  8 31 18 20 41.0000000  0 15G 5G10G13G15G18G23G29C19C20C22C29C35
                                E 5E 9E36
  22653915.546   119047126.013    22653916.386    92763993.207                  
  24282166.043   127603564.253    24282170.993    99431328.429                  
  21784854.882   114480181.044    21784855.239    89205334.630                  
  20289919.305   106624250.507    20289919.751    83083832.504                  
  20996127.180   110335394.165    20996128.127    85975634.062                  
  21595451.816   113484859.971    21595453.156    88429761.458                  
  20961458.023   110153199.333    20961458.720    85833659.856                  
                 112495209.052                   112495209.052    21603522.413  
                 133021532.616                   133021532.616    25545385.386  
                 118980931.796                   118980931.796    22849034.538  
                 123036281.788                   123036281.788    23627827.564  
                 112429551.671                   112429551.671    21590914.817  
  24100607.084   126649523.249                                                  
  22319770.195   117291167.360                                                  
  23640279.342   124230449.868                                                  
 21  8 31 18 20 42.0000000  0 15G 5G10G13G15G18G23G29C19C20C22C29C35
                                E 5E 9E36
  22654430.853   119049834.039    22654431.693    92766103.360                  
  24281687.886   127601051.505    24281692.835    99429370.444                  
  21785121.380   114481581.512    21785121.738    89206425.902                  
  20289912.872   106624216.737    20289913.336    83083806.187                  
  20995815.026   110333753.755    20995815.955    85974355.821                  
  21595144.897   113483247.075    21595146.237    88428504.653                  
  20961853.804   110155279.153    20961854.501    85835280.492                  
                 112496412.648                   112496412.648    21603753.567  
                 133024442.196                   133024442.196    25545944.133  
                 118979241.636                   118979241.636    22848709.965  
                 123038973.469                   123038973.469    23628344.461  
                 112429693.616                   112429693.616    21590942.085  
  24100263.356   126647717.005                                                  
  22319943.882   117292080.032                                                  
  23640315.545   124230640.093                                                  
 21  8 31 18 20 43.0000000  0 15G 5G10G13G15G18G23G29C19C20C22C29C35
                                E 5E 9E36
  22654946.178   119052542.121    22654947.018    92768213.551                  
  24281209.746   127598538.922    24281214.714    99427412.594                  
  21785388.004   114482982.629    21785388.361    89207517.679                  
  20289906.582   106624183.675    20289907.047    83083780.427                  
  20995502.908   110332113.554    20995503.837    85973077.747                  
  21594838.032   113481634.481    21594839.355    88427248.087                  
  20962249.674   110157359.539    20962250.371    85836901.570                  
                 112497616.594                   112497616.594    21603984.756  
                 133027351.806                   133027351.806    25546502.897  
                 118977551.849                   118977551.849    22848385.463  
                 123041665.437                   123041665.437    23628861.412  
                 112429836.048                   112429836.048    21590969.425  
  24099919.717   126645911.125                                                  
  22320117.641   117292993.100                                                  
  23640351.783   124230830.554                                                  
 21  8 31 18 20 44.0000000  0 15G 5G10G13G15G18G23G29C19C20C22C29C35
                                E 5E 9E36
  22655461.539   119055250.285    22655462.378    92770323.805                  
  24280731.643   127596026.524    24280736.628    99425454.879                  
  21785654.735   114484384.380    21785655.092    89208609.952                  
  20289900.417   106624151.337    20289900.882    83083755.226                  
  20995190.825   110330473.561    20995191.754    85971799.828                  
  21594531.221   113480022.187    21594532.561    88425991.758                  
  20962645.652   110159440.491    20962646.384    85838523.094                  
                 112498820.882                   112498820.882    21604216.035  
                 133030261.444                   133030261.444    25547061.661  
                 118975862.430                   118975862.430    22848061.016  
                 123044357.699                   123044357.699    23629378.434  
                 112429978.968                   112429978.968    21590996.872  
  24099576.131   126644105.609                                                  
  22320291.453   117293906.597                                                  
  23640388.075   124231021.278                                                  
 21  8 31 18 20 45.0000000  0 15G 5G10G13G15G18G23G29C19C20C22C29C35
                                E 5E 9E36
  22655976.899   119057958.508    22655977.739    92772434.108                  
  24280253.575   127593514.304    24280258.560    99423497.310                  
  21785921.609   114485786.773    21785921.984    89209702.726                  
  20289894.395   106624119.704    20289894.860    83083730.579                  
  20994878.778   110328833.783    20994879.725    85970522.078                  
  21594224.482   113478410.200    21594225.804    88424735.660                  
  20963041.772   110161522.016    20963042.487    85840145.059                  
                 112500025.517                   112500025.517    21604447.368  
                 133033171.118                   133033171.118    25547620.444  
                 118974173.387                   118974173.387    22847736.657  
                 123047050.255                   123047050.255    23629895.528  
                 112430122.379                   112430122.379    21591024.426  
  24099232.617   126642300.453                                                  
  22320465.372   117294820.487                                                  
  23640424.421   124231212.243                                                  
 21  8 31 18 20 46.0000000  0 15G 5G10G13G15G18G23G29C19C20C22C29C35
                                E 5E 9E36
  22656492.259   119060666.816    22656493.099    92774544.481                  
  24279775.561   127591002.246    24279780.528    99421539.864                  
  21786188.608   114487189.801    21786188.965    89210795.997                  
  20289888.516   106624088.781    20289888.981    83083706.481                  
  20994566.785   110327194.204    20994567.714    85969244.484                  
  21593917.778   113476798.516    21593919.118    88423479.805                  
  20963437.982   110163604.095    20963438.679    85841767.458                  
                 112501230.492                   112501230.492    21604678.771  
                 133036080.820                   133036080.820    25548179.226  
                 118972484.713                   118972484.713    22847412.352  
                 123049743.099                   123049743.099    23630412.657  
                 112430266.279                   112430266.279    21591052.033  
  24098889.174   126640495.656                                                  
  22320639.363   117295734.800                                                  
  23640460.802   124231403.458                                                  
 21  8 31 18 20 47.0000000  0 15G 5G10G13G15G18G23G29C19C20C22C29C35
                                E 5E 9E36
  22657007.656   119063375.195    22657008.496    92776654.903                  
  24279297.564   127588490.382    24279302.532    99419582.569                  
  21786455.696   114488593.477    21786456.071    89211889.770                  
  20289882.780   106624058.568    20289883.245    83083682.938                  
  20994254.828   110325554.836    20994255.757    85967967.055                  
  21593611.145   113475187.134    21593612.486    88422224.185                  
  20963834.299   110165686.734    20963834.996    85843390.294                  
                 112502435.815                   112502435.815    21604910.247  
                 133038990.557                   133038990.557    25548738.008  
                 118970796.415                   118970796.415    22847088.137  
                 123052436.233                   123052436.233    23630929.840  
                 112430410.664                   112430410.664    21591079.784  
  24098545.803   126638691.226                                                  
  22320813.425   117296649.508                                                  
  23640497.237   124231594.922                                                  
 21  8 31 18 20 48.0000000  0 15G 5G10G13G15G18G23G29C19C20C22C29C35
                                E 5E 9E36
  22657523.052   119066083.656    22657523.892    92778765.390                  
  24278819.604   127585978.679    24278824.553    99417625.403                  
  21786722.945   114489997.777    21786723.303    89212984.028                  
  20289877.152   106624029.062    20289877.616    83083659.949                  
  20993942.906   110323915.679    20993943.835    85966689.790                  
  21593304.567   113473576.066    21593305.907    88420968.805                  
  20964230.724   110167769.946    20964231.420    85845013.574                  
                 112503641.485                   112503641.485    21605141.776  
                 133041900.329                   133041900.329    25549296.772  
                 118969108.485                   118969108.485    22846763.993  
                 123055129.664                   123055129.664    23631447.095  
                 112430555.538                   112430555.538    21591107.606  
  24098202.504   126636887.168                                                  
  22320987.558   117297564.639                                                  
  23640533.725   124231786.635                                                  
 21  8 31 18 20 49.0000000  0 15G 5G10G13G15G18G23G29C19C20C22C29C35
                                E 5E 9E36
  22658038.484   119068792.184    22658039.324    92780875.933                  
  24278341.679   127583467.149    24278346.646    99415668.364                  
  21786990.284   114491402.727    21786990.659    89214078.794                  
  20289871.684   106624000.266    20289872.148    83083637.511                  
  20993631.020   110322276.722    20993631.931    85965412.681                  
  21592998.041   113471965.289    21592999.381    88419713.656                  
  20964627.237   110169853.710    20964627.952    85846637.288                  
                 112504847.495                   112504847.495    21605373.376  
                 133044810.128                   133044810.128    25549855.573  
                 118967420.925                   118967420.925    22846439.920  
                 123057823.386                   123057823.386    23631964.403  
                 112430700.903                   112430700.903    21591135.517  
  24097859.275   126635083.474                                                  
  22321161.781   117298480.176                                                  
  23640570.232   124231978.595                                                  
 21  8 31 18 20 50.0000000  0 15G 5G10G13G15G18G23G29C19C20C22C29C35
                                E 5E 9E36
  22658553.898   119071500.785    22658554.738    92782986.532                  
  24277863.772   127580955.801    24277868.739    99413711.472                  
  21787257.765   114492808.313    21787258.140    89215174.056                  
  20289866.341   106623972.186    20289866.805    83083615.628                  
  20993319.188   110320637.977    20993320.099    85964135.734                  
  21592691.588   113470354.828    21592692.928    88418458.749                  
  20965023.876   110171938.051    20965024.573    85848261.446                  
                 112506053.851                   112506053.851    21605605.048  
                 133047719.961                   133047719.961    25550414.373  
                 118965733.743                   118965733.743    22846115.919  
                 123060517.399                   123060517.399    23632481.765  
                 112430846.754                   112430846.754    21591163.518  
  24097516.101   126633280.126                                                  
  22321336.076   117299396.126                                                  
  23640606.828   124232170.807                                                  
 21  8 31 18 20 51.0000000  0 15G 5G10G13G15G18G23G29C19C20C22C29C35
                                E 5E 9E36
  22659069.348   119074209.454    22659070.206    92785097.179                  
  24277385.918   127578444.629    24277390.886    99411754.715                  
  21787525.354   114494214.536    21787525.711    89216269.816                  
  20289861.123   106623944.820    20289861.588    83083594.306                  
  20993007.356   110318999.437    20993008.303    85962858.954                  
  21592385.187   113468744.667    21592386.528    88417204.083                  
  20965420.622   110174022.945    20965421.337    85849886.040                  
                 112507260.547                   112507260.547    21605836.773  
                 133050629.823                   133050629.823    25550973.208  
                 118964046.907                   118964046.907    22845791.971  
                 123063211.696                   123063211.696    23632999.163  
                 112430993.091                   112430993.091    21591191.626  
  24097173.016   126631477.145                                                  
  22321510.460   117300312.472                                                  
  23640643.441   124232363.263                                                  
 21  8 31 18 20 52.0000000  0 15G 5G10G13G15G18G23G29C19C20C22C29C35
                                E 5E 9E36
  22659584.798   119076918.203    22659585.655    92787207.894                  
  24276908.083   127575933.625    24276913.033    99409798.095                  
  21787793.085   114495621.407    21787793.443    89217366.077                  
  20289856.066   106623918.160    20289856.513    83083573.532                  
  20992695.595   110317361.102    20992696.542    85961582.329                  
  21592078.841   113467134.808    21592080.163    88415949.649                  
  20965817.457   110176108.402    20965818.172    85851511.071                  
                 112508467.595                   112508467.595    21606068.588  
                 133053539.717                   133053539.717    25551532.026  
                 118962360.469                   118962360.469    22845468.095  
                 123065906.293                   123065906.293    23633516.632  
                 112431139.922                   112431139.922    21591219.823  
  24096829.984   126629674.528                                                  
  22321684.915   117301229.237                                                  
  23640680.126   124232555.960                                                  
 21  8 31 18 20 53.0000000  0 15G 5G10G13G15G18G23G29C19C20C22C29C35
                                E 5E 9E36
  22660100.283   119079627.042    22660101.123    92789318.675                  
  24276430.283   127573422.796    24276435.268    99407841.603                  
  21788060.924   114497028.918    21788061.281    89218462.839                  
  20289851.116   106623892.220    20289851.581    83083553.321                  
  20992383.887   110315722.981    20992384.817    85960305.872                  
  21591772.548   113465525.249    21591773.888    88414695.445                  
  20966214.417   110178194.431    20966215.132    85853136.546                  
                 112509674.980                   112509674.980    21606300.439  
                 133056449.650                   133056449.650    25552090.844  
                 118960674.398                   118960674.398    22845144.326  
                 123068601.178                   123068601.178    23634034.154  
                 112431287.238                   112431287.238    21591248.128  
  24096487.024   126627872.278                                                  
  22321859.460   117302146.423                                                  
  23640716.847   124232748.923                                                  
 21  8 31 18 20 54.0000000  0 15G 5G10G13G15G18G23G29C19C20C22C29C35
                                E 5E 9E36
  22660615.769   119082335.934    22660616.627    92791429.500                  
  24275952.519   127570912.144    24275957.487    99405885.255                  
  21788328.888   114498437.051    21788329.245    89219560.086                  
  20289846.328   106623866.992    20289846.774    83083533.663                  
  20992072.198   110314085.060    20992073.127    85959029.569                  
  21591466.327   113463916.000    21591467.649    88413441.485                  
  20966611.503   110180281.011    20966612.200    85854762.453                  
                 112510882.714                   112510882.714    21606532.379  
                 133059359.605                   133059359.605    25552649.662  
                 118958988.704                   118958988.704    22844820.593  
                 123071296.360                   123071296.360    23634551.748  
                 112431435.046                   112431435.046    21591276.504  
  24096144.135   126626070.386                                                  
  22322034.058   117303064.007                                                  
  23640753.604   124232942.118                                                  
 21  8 31 18 20 55.0000000  0 15G 5G10G13G15G18G23G29C19C20C22C29C35
                                E 5E 9E36
  22661131.272   119085044.917    22661132.112    92793540.394                  
  24275474.808   127568401.661    24275479.758    99403929.030                  
  21788596.959   114499845.839    21788597.316    89220657.845                  
  20289841.646   106623842.478    20289842.093    83083514.559                  
  20991760.544   110312447.350    20991761.474    85957753.434                  
  21591160.141   113462307.054    21591161.481    88412187.763                  
  20967008.660   110182368.164    20967009.374    85856388.804                  
                 112512090.792                   112512090.792    21606764.372  
                 133062269.598                   133062269.598    25553208.498  
                 118957303.380                   118957303.380    22844496.932  
                 123073991.829                   123073991.829    23635069.378  
                 112431583.342                   112431583.342    21591304.987  
  24095801.318   126624268.863                                                  
  22322208.763   117303982.005                                                  
  23640790.414   124233135.566                                                  
 21  8 31 18 20 56.0000000  0 15G 5G10G13G15G18G23G29C19C20C22C29C35
                                E 5E 9E36
  22661646.776   119087753.967    22661647.633    92795651.345                  
  24274997.098   127565891.355    24275002.066    99401972.952                  
  21788865.155   114501255.258    21788865.548    89221756.091                  
  20289837.125   106623818.676    20289837.572    83083496.012                  
  20991448.944   110310809.852    20991449.874    85956477.461                  
  21590854.027   113460698.410    21590855.367    88410934.274                  
  20967405.942   110184455.880    20967406.656    85858015.598                  
                 112513299.215                   112513299.215    21606996.437  
                 133065179.617                   133065179.617    25553767.334  
                 118955618.426                   118955618.426    22844173.360  
                 123076687.590                   123076687.590    23635587.080  
                 112431732.124                   112431732.124    21591333.542  
  24095458.572   126622467.690                                                  
  22322383.522   117304900.411                                                  
  23640827.278   124233329.269                                                  
 21  8 31 18 20 57.0000000  0 15G 5G10G13G15G18G23G29C19C20C22C29C35
                                E 5E 9E36
  22662162.315   119090463.094    22662163.155    92797762.348                  
  24274519.441   127563381.234    24274524.409    99400017.016                  
  21789133.494   114502665.322    21789133.852    89222854.839                  
  20289832.711   106623795.591    20289833.176    83083478.024                  
  20991137.380   110309172.556    20991138.291    85955201.644                  
  21590547.984   113459090.074    21590549.306    88409681.027                  
  20967803.349   110186544.160    20967804.046    85859642.824                  
                 112514507.982                   112514507.982    21607228.574  
                 133068089.672                   133068089.672    25554326.188  
                 118953933.849                   118953933.849    22843849.859  
                 123079383.643                   123079383.643    23636104.817  
                 112431881.403                   112431881.403    21591362.222  
  24095115.880   126620666.896                                                  
  22322558.353   117305819.222                                                  
  23640864.177   124233523.210                                                  
 21  8 31 18 20 58.0000000  0 15G 5G10G13G15G18G23G29C19C20C22C29C35
                                E 5E 9E36
  22662677.854   119093172.286    22662678.694    92799873.406                  
  24274041.802   127560871.277    24274046.752    99398061.212                  
  21789401.941   114504076.011    21789402.298    89223954.078                  
  20289828.459   106623773.216    20289828.923    83083460.591                  
  20990825.834   110307535.468    20990826.781    85953925.991                  
  21590241.977   113457482.043    21590243.299    88408428.016                  
  20968200.827   110188632.991    20968201.542    85861270.487                  
                 112515717.091                   112515717.091    21607460.782  
                 133070999.755                   133070999.755    25554885.041  
                 118952249.635                   118952249.635    22843526.412  
                 123082079.988                   123082079.988    23636622.625  
                 112432031.165                   112432031.165    21591390.973  
  24094773.277   126618866.465                                                  
  22322733.273   117306738.450                                                  
  23640901.148   124233717.405                                                  
 21  8 31 18 20 59.0000000  0 15G 5G10G13G15G18G23G29C19C20C22C29C35
                                E 5E 9E36
  22663193.411   119095881.556    22663194.269    92801984.524                  
  24273564.217   127558361.496    24273569.184    99396105.538                  
  21789670.494   114505487.348    21789670.887    89225053.824                  
  20289824.349   106623751.551    20289824.795    83083443.707                  
  20990514.359   110305898.595    20990515.306    85952650.503                  
  21589936.041   113455874.308    21589937.364    88407175.234                  
  20968598.413   110190722.395    20968599.146    85862898.594                  
                 112516926.547                   112516926.547    21607693.043  
                 133073909.870                   133073909.870    25555443.895  
                 118950565.800                   118950565.800    22843203.054  
                 123084776.626                   123084776.626    23637140.505  
                 112432181.413                   112432181.413    21591419.831  
  24094430.746   126617066.380                                                  
  22322908.282   117307658.077                                                  
  23640938.137   124233911.839                                                  
 21  8 31 18 21  0.0000000  0 15G 5G10G13G15G18G23G29C19C20C22C29C35
                                E 5E 9E36
  22663708.986   119098590.880    22663709.844    92804095.687                  
  24273086.631   127555851.894    24273091.599    99394150.004                  
  21789939.209   114506899.320    21789939.566    89226154.059                  
  20289820.364   106623730.602    20289820.828    83083427.383                  
  20990202.902   110304261.921    20990203.849    85951375.175                  
  21589630.141   113454266.891    21589631.482    88405922.703                  
  20968996.142   110192812.368    20968996.839    85864527.140                  
                 112518136.343                   112518136.343    21607925.358  
                 133076820.015                   133076820.015    25556002.767  
                 118948882.340                   118948882.340    22842879.785  
                 123087473.555                   123087473.555    23637658.403  
                 112432332.157                   112432332.157    21591448.779  
  24094088.268   126615266.680                                                  
  22323083.363   117308578.129                                                  
  23640975.180   124234106.528                                                  
 21  8 31 18 21  1.0000000  0 15G 5G10G13G15G18G23G29C19C20C22C29C35
                                E 5E 9E36
  22664224.561   119101300.288    22664225.419    92806206.915                  
  24272609.118   127553342.462    24272614.085    99392194.605                  
  21790207.994   114508311.934    21790208.387    89227254.797                  
  20289816.504   106623710.360    20289816.969    83083411.610                  
  20989891.498   110302625.461    20989892.445    85950100.016                  
  21589324.313   113452659.761    21589325.653    88404670.399                  
  20969393.942   110194902.898    20969394.657    85866156.129                  
                 112519346.485                   112519346.485    21608157.763  
                 133079730.197                   133079730.197    25556561.620  
                 118947199.246                   118947199.246    22842556.552  
                 123090170.772                   123090170.772    23638176.372  
                 112432483.382                   112432483.382    21591477.816  
  24093745.862   126613467.329                                                  
  22323258.515   117309498.575                                                  
  23641012.276   124234301.463                                                  
 21  8 31 18 21  2.0000000  0 15G 5G10G13G15G18G23G29C19C20C22C29C35
                                E 5E 9E36
  22664740.154   119104009.782    22664741.011    92808318.206                  
  24272131.622   127550833.210    24272136.571    99390239.344                  
  21790476.941   114509725.188    21790477.298    89228356.036                  
  20289812.805   106623690.831    20289813.252    83083396.395                  
  20989580.148   110300989.209    20989581.060    85948825.011                  
  21589018.556   113451052.945    21589019.879    88403418.328                  
  20969791.885   110196993.992    20969792.582    85867785.551                  
                 112520556.972                   112520556.972    21608390.221  
                 133082640.402                   133082640.402    25557120.492  
                 118945516.527                   118945516.527    22842233.391  
                 123092868.280                   123092868.280    23638694.413  
                 112432635.101                   112432635.101    21591506.961  
  24093403.527   126611668.339                                                  
  22323433.756   117310419.446                                                  
  23641049.425   124234496.651                                                  
 21  8 31 18 21  3.0000000  0 15G 5G10G13G15G18G23G29C19C20C22C29C35
                                E 5E 9E36
  22665255.782   119106719.363    22665256.640    92810429.566                  
  24271654.161   127548324.130    24271659.129    99388284.219                  
  21790745.995   114511139.081    21790746.352    89229457.769                  
  20289809.214   106623672.013    20289809.678    83083381.731                  
  20989268.799   110299353.169    20989269.746    85947550.176                  
  21588712.835   113449446.426    21588714.175    88402166.496                  
  20970189.900   110199085.643    20970190.615    85869415.411                  
                 112521767.801                   112521767.801    21608622.733  
                 133085550.645                   133085550.645    25557679.381  
                 118943834.181                   118943834.181    22841910.319  
                 123095566.082                   123095566.082    23639212.508  
                 112432787.308                   112432787.308    21591536.177  
  24093061.264   126609869.716                                                  
  22323609.051   117311340.710                                                  
  23641086.593   124234692.088                                                  
 21  8 31 18 21  4.0000000  0 15G 5G10G13G15G18G23G29C19C20C22C29C35
                                E 5E 9E36
  22665771.393   119109428.980    22665772.269    92812540.958                  
  24271176.719   127545815.227    24271181.686    99386329.231                  
  21791015.174   114512553.615    21791015.531    89230560.003                  
  20289805.765   106623653.898    20289806.212    83083367.616                  
  20988957.520   110297717.329    20988958.431    85946275.493                  
  21588407.203   113447840.214    21588408.526    88400914.905                  
  20970588.039   110201177.864    20970588.736    85871045.706                  
                 112522978.972                   112522978.972    21608855.334  
                 133088460.915                   133088460.915    25558238.289  
                 118942152.207                   118942152.207    22841587.319  
                 123098264.177                   123098264.177    23639730.638  
                 112432940.004                   112432940.004    21591565.517  
  24092719.054   126608071.454                                                  
  22323784.454   117312262.388                                                  
  23641123.832   124234887.769                                                  
 21  8 31 18 21  5.0000000  0 15G 5G10G13G15G18G23G29C19C20C22C29C35
                                E 5E 9E36
  22666287.057   119112138.703    22666287.897    92814652.426                  
  24270699.348   127543306.493    24270704.280    99384374.374                  
  21791284.460   114513968.782    21791284.835    89231662.730                  
  20289802.459   106623636.503    20289802.924    83083354.059                  
  20988646.260   110296081.697    20988647.207    85945000.977                  
  21588101.607   113446234.302    21588102.912    88399663.543                  
  20970986.286   110203270.645    20970987.001    85872676.445                  
                 112524190.489                   112524190.489    21609088.006  
                 133091371.216                   133091371.216    25558797.160  
                 118940470.604                   118940470.604    22841264.372  
                 123100962.560                   123100962.560    23640248.840  
                 112433093.191                   112433093.191    21591594.912  
  24092376.916   126606273.555                                                  
  22323959.927   117313184.474                                                  
  23641161.125   124235083.699                                                  
 21  8 31 18 21  6.0000000  0 15G 5G10G13G15G18G23G29C19C20C22C29C35
                                E 5E 9E36
  22666802.721   119114848.504    22666803.561    92816763.962                  
  24270221.959   127540797.939    24270226.927    99382419.661                  
  21791553.871   114515384.574    21791554.264    89232765.945                  
  20289799.278   106623619.832    20289799.743    83083341.071                  
  20988335.053   110294446.279    20988335.982    85943726.625                  
  21587796.065   113444628.704    21587797.387    88398412.430                  
  20971384.623   110205363.990    20971385.337    85874307.624                  
                 112525402.352                   112525402.352    21609320.715  
                 133094281.550                   133094281.550    25559356.067  
                 118938789.375                   118938789.375    22840941.514  
                 123103661.231                   123103661.231    23640767.077  
                 112433246.864                   112433246.864    21591624.432  
  24092034.885   126604476.097                                                  
  22324135.473   117314106.997                                                  
  23641198.453   124235279.879                                                  
 21  8 31 18 21  7.0000000  0 15G 5G10G13G15G18G23G29C19C20C22C29C35
                                E 5E 9E36
  22667318.386   119117558.362    22667319.226    92818875.539                  
  24269744.642   127538289.564    24269749.591    99380465.083                  
  21791823.426   114516801.012    21791823.801    89233869.665                  
  20289796.241   106623603.863    20289796.705    83083328.630                  
  20988023.882   110292811.066    20988024.829    85942452.434                  
  21587490.576   113443023.405    21587491.898    88397161.550                  
  20971783.084   110207457.892    20971783.799    85875939.234                  
                 112526614.556                   112526614.556    21609553.512  
                 133097191.915                   133097191.915    25559914.975  
                 118937108.517                   118937108.517    22840618.746  
                 123106360.195                   123106360.195    23641285.404  
                 112433401.028                   112433401.028    21591654.041  
  24091692.926   126602679.038                                                  
  22324311.107   117315029.942                                                  
  23641235.835   124235476.331                                                  
 21  8 31 18 21  8.0000000  0 15G 5G10G13G15G18G23G29C19C20C22C29C35
                                E 5E 9E36
  22667834.068   119120268.304    22667834.926    92820987.180                  
  24269267.342   127535781.353    24269272.292    99378510.633                  
  21792093.087   114518218.110    21792093.462    89234973.890                  
  20289793.346   106623588.577    20289793.793    83083316.714                  
  20987712.764   110291176.059    20987713.675    85941178.402                  
  21587185.159   113441418.394    21587186.481    88395910.894                  
  20972181.653   110209552.360    20972182.367    85877571.285                  
                 112527827.102                   112527827.102    21609786.381  
                 133100102.309                   133100102.309    25560473.882  
                 118935428.028                   118935428.028    22840296.014  
                 123109059.453                   123109059.453    23641803.766  
                 112433555.681                   112433555.681    21591683.739  
  24091350.948   126600882.017                                                  
  22324486.796   117315953.187                                                  
  23641273.253   124235672.981                                                  
 21  8 31 18 21  9.0000000  0 15G 5G10G13G15G18G23G29C19C20C22C29C35
                                E 5E 9E36
  22668349.768   119122978.312    22668350.626    92823098.874                  
  24268790.078   127533273.324    24268795.046    99376556.329                  
  21792362.873   114519635.821    21792363.249    89236078.601                  
  20289790.558   106623574.034    20289791.023    83083305.387                  
  20987401.664   110289541.266    20987402.594    85939904.540                  
  21586879.795   113439813.703    21586881.117    88394660.485                  
  20972580.328   110211647.386    20972581.043    85879203.773                  
                 112529039.992                   112529039.992    21610019.304  
                 133103012.730                   133103012.730    25561032.807  
                 118933747.915                   118933747.915    22839973.353  
                 123111758.999                   123111758.999    23642322.182  
                 112433710.819                   112433710.819    21591713.544  
  24091009.096   126599085.600                                                  
  22324662.573   117316876.934                                                  
  23641310.742   124235869.906                                                  
 21  8 31 18 21 10.0000000  0 15G 5G10G13G15G18G23G29C19C20C22C29C35
                                E 5E 9E36
  22668865.486   119125688.407    22668866.326    92825210.632                  
  24268312.833   127530765.476    24268317.800    99374602.165                  
  21792632.785   114521054.175    21792633.142    89237183.816                  
  20289787.932   106623560.210    20289788.396    83083294.612                  
  20987090.600   110287906.678    20987091.547    85938630.835                  
  21586574.503   113438209.316    21586575.825    88393410.316                  
  20972979.093   110213742.975    20972979.826    85880836.702                  
                 112530253.228                   112530253.228    21610252.281  
                 133105923.188                   133105923.188    25561591.715  
                 118932068.171                   118932068.171    22839650.781  
                 123114458.836                   123114458.836    23642840.652  
                 112433866.452                   112433866.452    21591743.421  
  24090667.315   126597289.527                                                  
  22324838.440   117317801.071                                                  
  23641348.267   124236067.089                                                  
 21  8 31 18 21 11.0000000  0 15G 5G10G13G15G18G23G29C19C20C22C29C35
                                E 5E 9E36
  22669381.204   119128398.566    22669382.061    92827322.445                  
  24267835.640   127528257.788    24267840.608    99372648.124                  
  21792902.804   114522473.168    21792903.179    89238289.523                  
  20289785.448   106623547.087    20289785.895    83083284.387                  
  20986779.608   110286272.302    20986780.519    85937357.293                  
  21586269.246   113436605.229    21586270.569    88392160.374                  
  20973377.984   110215839.125    20973378.698    85882470.066                  
                 112531466.801                   112531466.801    21610485.346  
                 133108833.676                   133108833.676    25562150.658  
                 118930388.805                   118930388.805    22839328.281  
                 123117158.964                   123117158.964    23643359.175  
                 112434022.570                   112434022.570    21591773.406  
  24090325.606   126595493.818                                                  
  22325014.361   117318725.604                                                  
  23641385.828   124236264.501                                                  
 21  8 31 18 21 12.0000000  0 15G 5G10G13G15G18G23G29C19C20C22C29C35
                                E 5E 9E36
  22669896.939   119131108.805    22669897.797    92829434.319                  
  24267358.484   127525750.284    24267363.434    99370694.227                  
  21793172.948   114523892.796    21793173.323    89239395.726                  
  20289783.071   106623534.680    20289783.536    83083274.719                  
  20986468.615   110284638.128    20986469.562    85936083.913                  
  21585964.061   113435001.445    21585965.384    88390910.676                  
  20973776.981   110217935.844    20973777.696    85884103.870                  
                 112532680.723                   112532680.723    21610718.465  
                 133111744.192                   133111744.192    25562709.583  
                 118928709.808                   118928709.808    22839005.835  
                 123119859.382                   123119859.382    23643877.788  
                 112434179.180                   112434179.180    21591803.479  
  24089983.968   126593698.464                                                  
  22325190.388   117319650.557                                                  
  23641423.442   124236462.171                                                  
 21  8 31 18 21 13.0000000  0 15G 5G10G13G15G18G23G29C19C20C22C29C35
                                E 5E 9E36
  22670412.693   119133819.109    22670413.533    92831546.242                  
  24266881.363   127523242.950    24266886.295    99368740.456                  
  21793443.217   114525313.066    21793443.574    89240502.430                  
  20289780.838   106623522.978    20289781.302    83083265.598                  
  20986157.694   110283004.163    20986158.624    85934810.695                  
  21585658.912   113433397.959    21585660.234    88389661.207                  
  20974176.086   110220033.118    20974176.800    85885738.105                  
                 112533894.985                   112533894.985    21610951.638  
                 133114654.738                   133114654.738    25563268.526  
                 118927031.184                   118927031.184    22838683.477  
                 123122560.089                   123122560.089    23644396.419  
                 112434336.278                   112434336.278    21591833.660  
  24089642.384   126591903.473                                                  
  22325366.452   117320575.921                                                  
  23641461.092   124236660.091                                                  
 21  8 31 18 21 14.0000000  0 15G 5G10G13G15G18G23G29C19C20C22C29C35
                                E 5E 9E36
  22670928.482   119136529.500    22670929.322    92833658.235                  
  24266404.260   127520735.793    24266409.228    99366786.832                  
  21793713.593   114526733.976    21793713.986    89241609.633                  
  20289778.765   106623511.997    20289779.212    83083257.044                  
  20985846.791   110281370.420    20985847.738    85933537.649                  
  21585353.834   113431794.797    21585355.174    88388411.987                  
  20974575.280   110222130.958    20974575.994    85887372.788                  
                 112535109.593                   112535109.593    21611184.901  
                 133117565.316                   133117565.316    25563827.487  
                 118925352.928                   118925352.928    22838361.192  
                 123125261.089                   123125261.089    23644915.121  
                 112434493.868                   112434493.868    21591863.912  
  24089300.871   126590108.844                                                  
  22325542.640   117321501.698                                                  
  23641498.814   124236858.275                                                  
 21  8 31 18 21 15.0000000  0 15G 5G10G13G15G18G23G29C19C20C22C29C35
                                E 5E 9E36
  22671444.254   119139239.942    22671445.094    92835770.270                  
  24265927.193   127518228.806    24265932.143    99364833.335                  
  21793984.112   114528155.522    21793984.487    89242717.331                  
  20289776.799   106623501.724    20289777.264    83083249.038                  
  20985535.942   110279736.872    20985536.889    85932264.754                  
  21585048.828   113430191.922    21585050.168    88387162.996                  
  20974974.599   110224229.350    20974975.296    85889007.903                  
                 112536324.544                   112536324.544    21611418.216  
                 133120475.922                   133120475.922    25564386.412  
                 118923675.051                   118923675.051    22838038.978  
                 123127962.382                   123127962.382    23645433.876  
                 112434651.943                   112434651.943    21591894.272  
  24088959.448   126588314.578                                                  
  22325718.883   117322427.875                                                  
  23641536.589   124237056.679                                                  
 21  8 31 18 21 16.0000000  0 15G 5G10G13G15G18G23G29C19C20C22C29C35
                                E 5E 9E36
  22671960.061   119141950.460    22671960.901    92837882.352                  
  24265450.162   127515722.012    24265455.111    99362879.996                  
  21794254.756   114529577.811    21794255.114    89243825.656                  
  20289774.977   106623492.160    20289775.441    83083241.586                  
  20985225.146   110278103.534    20985226.057    85930992.019                  
  21584743.857   113428589.296    21584745.197    88385914.167                  
  20975374.025   110226328.341    20975374.722    85890643.485                  
                 112537539.836                   112537539.836    21611651.604  
                 133123386.564                   133123386.564    25564945.373  
                 118921997.543                   118921997.543    22837716.817  
                 123130663.964                   123130663.964    23645952.685  
                 112434810.506                   112434810.506    21591924.721  
  24088618.078   126586520.641                                                  
  22325895.196   117323354.456                                                  
  23641574.382   124237255.341                                                  
 21  8 31 18 21 17.0000000  0 15G 5G10G13G15G18G23G29C19C20C22C29C35
                                E 5E 9E36
  22672475.886   119144660.875    22672476.744    92839994.293                  
  24264973.148   127513215.391    24264978.080    99360926.824                  
  21794525.508   114531000.664    21794525.865    89244934.402                  
  20289773.297   106623483.231    20289773.779    83083234.601                  
  20984914.368   110276470.390    20984915.279    85929719.442                  
  21584438.958   113426987.008    21584440.298    88384665.634                  
  20975773.541   110228427.800    20975774.255    85892279.409                  
                 112538755.520                   112538755.520    21611885.045  
                 133126297.086                   133126297.086    25565504.352  
                 118920320.468                   118920320.468    22837394.728  
                 123133365.801                   123133365.801    23646471.548  
                 112434969.608                   112434969.608    21591955.259  
  24088276.762   126584727.130                                                  
  22326071.599   117324281.434                                                  
  23641612.264   124237454.115                                                  
 21  8 31 18 21 18.0000000  0 15G 5G10G13G15G18G23G29C19C20C22C29C35
                                E 5E 9E36
  22672991.693   119147371.539    22672992.587    92842106.497                  
  24264496.188   127510708.932    24264501.120    99358973.746                  
  21794796.366   114532424.124    21794796.742    89246043.594                  
  20289771.760   106623475.085    20289772.225    83083228.258                  
  20984603.625   110274837.481    20984604.555    85928447.043                  
  21584134.112   113425385.055    21584135.435    88383417.356                  
  20976173.181   110230527.885    20976173.896    85893915.839                  
                 112539971.492                   112539971.492    21612118.557  
                 133129207.777                   133129207.777    25566063.312  
                 118918643.702                   118918643.702    22837072.728  
                 123136067.958                   123136067.958    23646990.482  
                 112435129.149                   112435129.149    21591985.904  
  24087935.535   126582933.956                                                  
  22326248.074   117325208.831                                                  
  23641650.164   124237653.273                                                  
 21  8 31 18 21 19.0000000  0 15G 5G10G13G15G18G23G29C19C20C22C29C35
                                E 5E 9E36
  22673507.536   119150082.277    22673508.412    92844218.762                  
  24264019.246   127508202.637    24264024.178    99357020.789                  
  21795067.368   114533848.214    21795067.725    89247153.277                  
  20289770.348   106623467.646    20289770.795    83083222.464                  
  20984292.919   110273204.763    20984293.866    85927174.802                  
  21583829.338   113423783.395    21583830.661    88382169.316                  
  20976572.911   110232628.531    20976573.644    85895552.708                  
                 112541187.810                   112541187.810    21612352.141  
                 133132118.503                   133132118.503    25566622.291  
                 118916967.305                   118916967.305    22836750.782  
                 123138770.406                   123138770.406    23647509.453  
                 112435289.181                   112435289.181    21592016.621  
  24087594.380   126581141.137                                                  
  22326424.638   117326136.630                                                  
  23641688.100   124237852.671                                                  
 21  8 31 18 21 20.0000000  0 15G 5G10G13G15G18G23G29C19C20C22C29C35
                                E 5E 9E36
  22674023.397   119152793.068    22674024.255    92846331.067                  
  24263542.340   127505696.525    24263547.307    99355067.981                  
  21795338.477   114535272.948    21795338.834    89248263.462                  
  20289769.062   106623460.914    20289769.527    83083217.223                  
  20983982.284   110271572.253    20983983.195    85925902.718                  
  21583524.618   113422182.028    21583525.940    88380921.500                  
  20976972.766   110234729.731    20976973.481    85897190.009                  
                 112542404.465                   112542404.465    21612585.778  
                 133135029.258                   133135029.258    25567181.288  
                 118915291.282                   118915291.282    22836428.925  
                 123141473.139                   123141473.139    23648028.476  
                 112435449.696                   112435449.696    21592047.463  
  24087253.278   126579348.673                                                  
  22326601.273   117327064.840                                                  
  23641726.107   124238052.325                                                  
 21  8 31 18 21 21.0000000  0 15G 5G10G13G15G18G23G29C19C20C22C29C35
                                E 5E 9E36
  22674539.258   119155503.937    22674540.116    92848443.433                  
  24263065.487   127503190.591    24263070.419    99353115.305                  
  21795609.729   114536698.312    21795610.086    89249374.133                  
  20289767.918   106623454.896    20289768.383    83083212.531                  
  20983671.667   110269939.955    20983672.596    85924630.797                  
  21583219.933   113420580.975    21583221.256    88379673.929                  
  20977372.729   110236831.489    20977373.444    85898827.742                  
                 112543621.463                   112543621.463    21612819.505  
                 133137940.039                   133137940.039    25567740.285  
                 118913615.630                   118913615.630    22836107.140  
                 123144176.169                   123144176.169    23648547.571  
                 112435610.702                   112435610.702    21592078.376  
  24086912.265   126577556.582                                                  
  22326777.997   117327993.461                                                  
  23641764.133   124238252.223                                                  
 21  8 31 18 21 22.0000000  0 15G 5G10G13G15G18G23G29C19C20C22C29C35
                                E 5E 9E36
  22675055.137   119158214.895    22675055.994    92850555.868                  
  24262588.652   127500684.821    24262593.602    99351162.762                  
  21795881.088   114538124.319    21795881.463    89250485.309                  
  20289766.918   106623449.581    20289767.382    83083208.390                  
  20983361.085   110268307.867    20983362.014    85923359.043                  
  21582915.338   113418980.222    21582916.660    88378426.591                  
  20977772.780   110238933.810    20977773.495    85900465.914                  
                 112544838.808                   112544838.808    21613053.286  
                 133140850.855                   133140850.855    25568299.263  
                 118911940.352                   118911940.352    22835785.426  
                 123146879.489                   123146879.489    23649066.720  
                 112435772.200                   112435772.200    21592109.397  
  24086571.306   126575764.861                                                  
  22326954.776   117328922.493                                                  
  23641802.247   124238452.376                                                  
 21  8 31 18 21 23.0000000  0 15G 5G10G13G15G18G23G29C19C20C22C29C35
                                E 5E 9E36
  22675571.033   119160925.921    22675571.909    92852668.355                  
  24262111.853   127498179.231    24262116.803    99349210.356                  
  21796152.554   114539550.957    21796152.947    89251596.977                  
  20289766.042   106623444.995    20289766.507    83083204.816                  
  20983050.557   110266675.988    20983051.486    85922087.449                  
  21582610.778   113417379.786    21582612.101    88377179.493                  
  20978172.939   110241036.694    20978173.672    85902104.523                  
                 112546056.495                   112546056.495    21613287.120  
                 133143761.700                   133143761.700    25568858.260  
                 118910265.446                   118910265.446    22835463.783  
                 123149583.095                   123149583.095    23649585.922  
                 112435934.189                   112435934.189    21592140.507  
  24086230.419   126573973.500                                                  
  22327131.661   117329851.941                                                  
  23641840.362   124238652.781                                                  
 21  8 31 18 21 24.0000000  0 15G 5G10G13G15G18G23G29C19C20C22C29C35
                                E 5E 9E36
  22676086.948   119163637.028    22676087.805    92854780.902                  
  24261635.107   127495673.813    24261640.039    99347258.083                  
  21796424.181   114540978.226    21796424.538    89252709.133                  
  20289765.292   106623441.110    20289765.756    83083201.788                  
  20982740.065   110265044.320    20982740.976    85920816.020                  
  21582306.272   113415779.637    21582307.595    88375932.628                  
  20978573.223   110243140.145    20978573.938    85903743.573                  
                 112547274.523                   112547274.523    21613521.043  
                 133146672.569                   133146672.569    25569417.274  
                 118908590.910                   118908590.910    22835142.194  
                 123152286.991                   123152286.991    23650105.178  
                 112436096.660                   112436096.660    21592171.706  
  24085889.621   126572182.516                                                  
  22327308.600   117330781.800                                                  
  23641878.566   124238853.439                                                  
 21  8 31 18 21 25.0000000  0 15G 5G10G13G15G18G23G29C19C20C22C29C35
                                E 5E 9E36
  22676602.862   119166348.200    22676603.720    92856893.503                  
  24261158.362   127493168.575    24261163.294    99345305.953                  
  21796695.897   114542406.140    21796696.254    89253821.793                  
  20289764.702   106623437.938    20289765.166    83083199.317                  
  20982429.609   110263412.858    20982430.538    85919544.750                  
  21582001.838   113414179.802    21582003.178    88374685.999                  
  20978973.597   110245244.147    20978974.311    85905383.058                  
                 112548492.894                   112548492.894    21613755.020  
                 133149583.478                   133149583.478    25569976.271  
                 118906916.746                   118906916.746    22834820.695  
                 123154991.181                   123154991.181    23650624.506  
                 112436259.626                   112436259.626    21592202.995  
  24085548.859   126570391.871                                                  
  22327485.629   117331712.059                                                  
  23641916.788   124239054.343                                                  
 21  8 31 18 21 26.0000000  0 15G 5G10G13G15G18G23G29C19C20C22C29C35
                                E 5E 9E36
  22677118.794   119169059.446    22677119.652    92859006.160                  
  24260681.652   127490663.513    24260686.602    99343353.957                  
  21796967.739   114543834.694    21796968.096    89254934.950                  
  20289764.237   106623435.481    20289764.702    83083197.403                  
  20982119.188   110261781.613    20982120.117    85918273.653                  
  21581697.457   113412580.266    21581698.797    88373439.610                  
  20979374.095   110247348.719    20979374.828    85907022.984                  
                 112549711.611                   112549711.611    21613989.068  
                 133152494.407                   133152494.407    25570535.304  
                 118905242.957                   118905242.957    22834499.267  
                 123157695.661                   123157695.661    23651143.869  
                 112436423.081                   112436423.081    21592234.409  
  24085208.186   126568601.614                                                  
  22327662.729   117332642.734                                                  
  23641955.063   124239255.496                                                  
 21  8 31 18 21 27.0000000  0 15G 5G10G13G15G18G23G29C19C20C22C29C35
                                E 5E 9E36
  22677634.745   119171770.762    22677635.620    92861118.876                  
  24260204.996   127488158.621    24260209.945    99341402.093                  
  21797239.723   114545263.882    21797240.080    89256048.601                  
  20289763.898   106623433.730    20289764.362    83083196.040                  
  20981808.821   110260150.570    20981809.732    85917002.708                  
  21581393.147   113410981.030    21581394.452    88372193.454                  
  20979774.683   110249453.839    20979775.415    85908663.340                  
                 112550930.665                   112550930.665    21614223.153  
                 133155405.372                   133155405.372    25571094.318  
                 118903569.540                   118903569.540    22834177.893  
                 123160400.427                   123160400.427    23651663.303  
                 112436587.024                   112436587.024    21592265.876  
  24084867.584   126566811.712                                                  
  22327839.900   117333573.817                                                  
  23641993.374   124239456.893                                                  
 21  8 31 18 21 28.0000000  0 15G 5G10G13G15G18G23G29C19C20C22C29C35
                                E 5E 9E36
  22678150.713   119174482.157    22678151.588    92863231.649                  
  24259728.357   127485653.907    24259733.307    99339450.371                  
  21797511.797   114546693.707    21797512.154    89257162.754                  
  20289763.701   106623432.691    20289764.184    83083195.231                  
  20981498.472   110258519.742    20981499.419    85915731.935                  
  21581088.874   113409382.105    21581090.196    88370947.538                  
  20980175.396   110251559.532    20980176.128    85910304.133                  
                 112552150.062                   112552150.062    21614457.344  
                 133158316.362                   133158316.362    25571653.368  
                 118901896.496                   118901896.496    22833856.626  
                 123163105.483                   123163105.483    23652182.774  
                 112436751.456                   112436751.456    21592297.468  
  24084527.037   126565022.180                                                  
  22328017.161   117334505.307                                                  
  23642031.757   124239658.554                                                  
 21  8 31 18 21 29.0000000  0 15G 5G10G13G15G18G23G29C19C20C22C29C35
                                E 5E 9E36
  22678666.681   119177193.614    22678667.556    92865344.472                  
  24259251.773   127483149.367    24259256.722    99337498.781                  
  21797784.013   114548124.168    21797784.389    89258277.395                  
  20289763.648   106623432.368    20289764.112    83083194.977                  
  20981188.176   110256889.113    20981189.123    85914461.312                  
  21580784.671   113407783.485    21580785.994    88369701.860                  
  20980576.198   110253665.774    20980576.913    85911945.364                  
                 112553369.800                   112553369.800    21614691.571  
                 133161227.388                   133161227.388    25572212.383  
                 118900223.821                   118900223.821    22833535.394  
                 123165810.833                   123165810.833    23652702.316  
                 112436916.379                   112436916.379    21592329.132  
  24084186.578   126563233.014                                                  
  22328194.493   117335437.206                                                  
  23642070.176   124239860.462                                                  
 21  8 31 18 21 30.0000000  0 15G 5G10G13G15G18G23G29C19C20C22C29C35
                                E 5E 9E36
  22679182.684   119179905.144    22679183.542    92867457.351                  
  24258775.206   127480645.003    24258780.138    99335547.331                  
  21798056.337   114549555.266    21798056.695    89259392.539                  
  20289763.719   106623432.747    20289764.184    83083195.274                  
  20980877.916   110255258.707    20980878.863    85913190.866                  
  21580480.523   113406185.167    21580481.845    88368456.418                  
  20980977.125   110255772.581    20980977.840    85913587.031                  
                 112554589.883                   112554589.883    21614925.888  
                 133164138.436                   133164138.436    25572771.415  
                 118898551.523                   118898551.523    22833214.234  
                 123168516.474                   123168516.474    23653221.893  
                 112437081.793                   112437081.793    21592360.903  
  24083846.173   126561444.207                                                  
  22328371.914   117336369.527                                                  
  23642108.665   124240062.622                                                  
 21  8 31 18 21 31.0000000  0 15G 5G10G13G15G18G23G29C19C20C22C29C35
                                E 5E 9E36
  22679698.688   119182616.741    22679699.546    92869570.286                  
  24258298.675   127478140.816    24258303.624    99333596.020                  
  21798328.804   114550986.995    21798329.162    89260508.172                  
  20289763.934   106623433.844    20289764.398    83083196.129                  
  20980567.728   110253628.503    20980568.639    85911920.578                  
  21580176.445   113404587.146    21580177.768    88367211.207                  
  20981378.142   110257879.961    20981378.857    85915229.140                  
                 112555810.310                   112555810.310    21615160.258  
                 133167049.520                   133167049.520    25573330.483  
                 118896879.592                   118896879.592    22832893.181  
                 123171222.400                   123171222.400    23653741.560  
                 112437247.696                   112437247.696    21592392.764  
  24083505.858   126559655.775                                                  
  22328549.407   117337302.239                                                  
  23642147.155   124240265.020                                                  
 21  8 31 18 21 32.0000000  0 15G 5G10G13G15G18G23G29C19C20C22C29C35
                                E 5E 9E36
  22680214.692   119185328.415    22680215.567    92871683.274                  
  24257822.179   127475636.813    24257827.111    99331644.847                  
  21798601.360   114552419.367    21798601.736    89261624.301                  
  20289764.273   106623435.649    20289764.738    83083197.531                  
  20980257.540   110251998.517    20980258.469    85910650.456                  
  21579872.404   113402989.441    21579873.726    88365966.242                  
  20981779.266   110259987.890    20981779.980    85916871.684                  
                 112557031.074                   112557031.074    21615394.699  
                 133169960.630                   133169960.630    25573889.516  
                 118895208.040                   118895208.040    22832572.182  
                 123173928.616                   123173928.616    23654261.263  
                 112437414.087                   112437414.087    21592424.714  
  24083165.596   126557867.692                                                  
  22328726.954   117338235.358                                                  
  23642185.734   124240467.673                                                  
 21  8 31 18 21 33.0000000  0 15G 5G10G13G15G18G23G29C19C20C22C29C35
                                E 5E 9E36
  22680730.714   119188040.171    22680731.607    92873796.329                  
  24257345.720   127473132.974    24257350.652    99329693.801                  
  21798874.060   114553852.382    21798874.417    89262740.933                  
  20289764.755   106623438.169    20289765.220    83083199.493                  
  20979947.405   110250368.739    20979948.334    85909380.497                  
  21579568.416   113401392.036    21579569.739    88364721.508                  
  20982180.497   110262096.394    20982181.211    85918514.668                  
                 112558252.184                   112558252.184    21615629.195  
                 133172871.769                   133172871.769    25574448.584  
                 118893536.856                   118893536.856    22832251.237  
                 123176635.126                   123176635.126    23654781.019  
                 112437580.970                   112437580.970    21592456.753  
  24082825.405   126556079.976                                                  
  22328904.626   117339168.897                                                  
  23642224.332   124240670.581                                                  
 21  8 31 18 21 34.0000000  0 15G 5G10G13G15G18G23G29C19C20C22C29C35
                                E 5E 9E36
  22681246.753   119190751.995    22681247.647    92875909.433                  
  24256869.278   127470629.308    24256874.228    99327742.891                  
  21799146.884   114555286.036    21799147.241    89263858.060                  
  20289765.381   106623441.397    20289765.845    83083202.008                  
  20979637.306   110248739.169    20979638.235    85908110.698                  
  21579264.500   113399794.936    21579265.840    88363477.013                  
  20982581.835   110264205.452    20982582.568    85920158.085                  
                 112559473.634                   112559473.634    21615863.779  
                 133175782.936                   133175782.936    25575007.634  
                 118891866.047                   118891866.047    22831930.381  
                 123179341.919                   123179341.919    23655300.811  
                 112437748.339                   112437748.339    21592488.917  
  24082485.286   126554292.630                                                  
  22329082.333   117340102.832                                                  
  23642263.000   124240873.736                                                  
 21  8 31 18 21 35.0000000  0 15G 5G10G13G15G18G23G29C19C20C22C29C35
                                E 5E 9E36
  22681762.828   119193463.898    22681763.704    92878022.598                  
  24256392.872   127468125.825    24256397.822    99325792.120                  
  21799419.797   114556720.321    21799420.173    89264975.680                  
  20289766.114   106623445.344    20289766.596    83083205.074                  
  20979327.243   110247109.808    20979328.172    85906841.064                  
  21578960.637   113398198.144    21578961.977    88362232.755                  
  20982983.280   110266315.074    20982984.013    85921801.942                  
                 112560695.424                   112560695.424    21616098.399  
                 133178694.139                   133178694.139    25575566.702  
                 118890195.608                   118890195.608    22831609.596  
                 123182049.008                   123182049.008    23655820.692  
                 112437916.204                   112437916.204    21592521.153  
  24082145.221   126552505.642                                                  
  22329260.148   117341037.187                                                  
  23642301.722   124241077.140                                                  
 21  8 31 18 21 36.0000000  0 15G 5G10G13G15G18G23G29C19C20C22C29C35
                                E 5E 9E36
  22682278.904   119196175.862    22682279.779    92880135.812                  
  24255916.520   127465622.514    24255921.451    99323841.493                  
  21799692.854   114558155.231    21799693.247    89266093.789                  
  20289767.007   106623450.001    20289767.472    83083208.699                  
  20979017.215   110245480.661    20979018.162    85905571.594                  
  21578656.846   113396601.646    21578658.168    88360988.725                  
  20983384.833   110268425.257    20983385.584    85923446.235                  
                 112561917.564                   112561917.564    21616333.091  
                 133181605.371                   133181605.371    25576125.788  
                 118888525.547                   118888525.547    22831288.883  
                 123184756.390                   123184756.390    23656340.627  
                 112438084.558                   112438084.558    21592553.478  
  24081805.245   126550719.021                                                  
  22329438.016   117341971.941                                                  
  23642340.462   124241280.776                                                  
 21  8 31 18 21 37.0000000  0 15G 5G10G13G15G18G23G29C19C20C22C29C35
                                E 5E 9E36
  22682794.979   119198887.903    22682795.854    92882249.086                  
  24255440.185   127463119.380    24255445.117    99321890.992                  
  21799966.036   114559590.798    21799966.429    89267212.406                  
  20289768.026   106623455.362    20289768.508    83083212.876                  
  20978707.259   110243851.722    20978708.188    85904302.289                  
  21578353.108   113395005.456    21578354.413    88359744.939                  
  20983786.493   110270535.991    20983787.243    85925090.961                  
                 112563140.043                   112563140.043    21616567.854  
                 133184516.638                   133184516.638    25576684.856  
                 118886855.858                   118886855.858    22830968.223  
                 123187464.058                   123187464.058    23656860.598  
                 112438253.401                   112438253.401    21592585.892  
  24081465.322   126548932.766                                                  
  22329615.974   117342907.106                                                  
  23642379.256   124241484.688                                                  
 21  8 31 18 21 38.0000000  0 15G 5G10G13G15G18G23G29C19C20C22C29C35
                                E 5E 9E36
  22683311.072   119201600.011    22683311.965    92884362.415                  
  24254963.886   127460616.413    24254968.818    99319940.628                  
  21800239.342   114561026.996    21800239.717    89268331.519                  
  20289769.187   106623461.445    20289769.652    83083217.609                  
  20978397.321   110242222.992    20978398.268    85903033.143                  
  21578049.424   113393409.574    21578050.747    88358501.392                  
  20984188.278   110272647.300    20984188.993    85926736.132                  
                 112564362.866                   112564362.866    21616802.707  
                 133187427.925                   133187427.925    25577243.942  
                 118885186.544                   118885186.544    22830647.653  
                 123190172.019                   123190172.019    23657380.640  
                 112438422.738                   112438422.738    21592618.414  
  24081125.472   126547146.876                                                  
  22329794.003   117343842.681                                                  
  23642418.121   124241688.832                                                  
 21  8 31 18 21 39.0000000  0 15G 5G10G13G15G18G23G29C19C20C22C29C35
                                E 5E 9E36
  22683827.201   119204312.216    22683828.076    92886475.812                  
  24254487.623   127458113.628    24254492.555    99317990.403                  
  21800512.756   114562463.829    21800513.131    89269451.124                  
  20289770.474   106623468.236    20289770.956    83083222.898                  
  20978087.418   110240594.473    20978088.365    85901764.163                  
  21577745.776   113391813.997    21577747.116    88357258.078                  
  20984590.134   110274759.161    20984590.885    85928381.731                  
                 112565586.029                   112565586.029    21617037.595  
                 133190339.247                   133190339.247    25577803.046  
                 118883517.603                   118883517.603    22830327.136  
                 123192880.271                   123192880.271    23657900.736  
                 112438592.564                   112438592.564    21592651.043  
  24080785.692   126545361.340                                                  
  22329972.121   117344778.662                                                  
  23642457.004   124241893.234                                                  
 21  8 31 18 21 40.0000000  0 15G 5G10G13G15G18G23G29C19C20C22C29C35
                                E 5E 9E36
  22684343.312   119207024.474    22684344.205    92888589.253                  
  24254011.378   127455611.016    24254016.346    99316040.311                  
  21800786.295   114563901.300    21800786.688    89270571.230                  
  20289771.903   106623475.733    20289772.386    83083228.734                  
  20977777.551   110238966.165    20977778.499    85900495.347                  
  21577442.199   113390218.719    21577443.539    88356015.000                  
  20984992.116   110276871.591    20984992.866    85930027.774                  
                 112566809.535                   112566809.535    21617272.555  
                 133193250.598                   133193250.598    25578362.114  
                 118881849.030                   118881849.030    22830006.727  
                 123195588.808                   123195588.808    23658420.885  
                 112438762.878                   112438762.878    21592683.743  
  24080446.002   126543576.180                                                  
  22330150.293   117345715.047                                                  
  23642495.959   124242097.888                                                  
 21  8 31 18 21 41.0000000  0 15G 5G10G13G15G18G23G29C19C20C22C29C35
                                E 5E 9E36
  22684859.459   119209736.793    22684860.334    92890702.746                  
  24253535.186   127453108.577    24253540.136    99314090.359                  
  21801059.959   114565339.406    21801060.334    89271691.827                  
  20289773.458   106623483.947    20289773.940    83083235.129                  
  20977467.738   110237338.065    20977468.685    85899226.696                  
  21577138.694   113388623.746    21577140.016    88354772.160                  
  20985394.223   110278984.579    20985394.955    85931674.253                  
                 112568033.378                   112568033.378    21617507.586  
                 133196161.975                   133196161.975    25578921.218  
                 118880180.833                   118880180.833    22829686.353  
                 123198297.635                   123198297.635    23658941.088  
                 112438933.683                   112438933.683    21592716.533  
  24080106.365   126541791.378                                                  
  22330328.572   117346651.849                                                  
  23642534.949   124242302.786                                                  
 21  8 31 18 21 42.0000000  0 15G 5G10G13G15G18G23G29C19C20C22C29C35
                                E 5E 9E36
  22685375.623   119212449.215    22685376.499    92892816.317                  
  24253059.013   127450606.314    24253063.962    99312140.539                  
  21801333.766   114566778.140    21801334.124    89272812.914                  
  20289775.155   106623492.870    20289775.638    83083242.083                  
  20977157.961   110235710.177    20977158.908    85897958.207                  
  21576835.242   113387029.070    21576836.582    88353529.555                  
  20985796.419   110281098.121    20985797.133    85933321.167                  
                 112569257.567                   112569257.567    21617742.671  
                 133199073.382                   133199073.382    25579480.340  
                 118878513.008                   118878513.008    22829366.069  
                 123201006.754                   123201006.754    23659461.345  
                 112439104.977                   112439104.977    21592749.447  
  24079766.800   126540006.946                                                  
  22330506.923   117347589.047                                                  
  23642573.975   124242507.927                                                  
 21  8 31 18 21 43.0000000  0 15G 5G10G13G15G18G23G29C19C20C22C29C35
                                E 5E 9E36
  22685891.788   119215161.696    22685892.663    92894929.937                  
  24252582.893   127448104.230    24252587.842    99310190.868                  
  21801607.663   114568217.519    21801608.038    89273934.508                  
  20289776.996   106623502.501    20289777.478    83083249.585                  
  20976848.219   110234082.500    20976849.184    85896689.890                  
  21576531.844   113385434.702    21576533.184    88352287.195                  
  20986198.722   110283212.218    20986199.436    85934968.515                  
                 112570482.097                   112570482.097    21617977.845  
                 133201984.817                   133201984.817    25580039.444  
                 118876845.555                   118876845.555    22829045.856  
                 123203716.160                   123203716.160    23659981.655  
                 112439276.762                   112439276.762    21592782.434  
  24079427.307   126538222.872                                                  
  22330685.345   117348526.656                                                  
  23642613.054   124242713.333                                                  
 21  8 31 18 21 44.0000000  0 15G 5G10G13G15G18G23G29C19C20C22C29C35
                                E 5E 9E36
  22686407.952   119217874.253    22686408.864    92897043.622                  
  24252106.808   127445602.319    24252111.740    99308241.327                  
  21801881.684   114569657.532    21801882.059    89275056.598                  
  20289778.961   106623512.848    20289779.444    83083257.647                  
  20976538.531   110232455.032    20976539.478    85895421.730                  
  21576228.499   113383840.639    21576229.839    88351045.066                  
  20986601.114   110285326.887    20986601.865    85936616.310                  
                 112571706.969                   112571706.969    21618213.055  
                 133204896.282                   133204896.282    25580598.565  
                 118875178.471                   118875178.471    22828725.696  
                 123206425.854                   123206425.854    23660502.019  
                 112439449.036                   112439449.036    21592815.527  
  24079087.885   126536439.164                                                  
  22330863.839   117349464.676                                                  
  23642652.205   124242918.976                                                  
 21  8 31 18 21 45.0000000  0 15G 5G10G13G15G18G23G29C19C20C22C29C35
                                E 5E 9E36
  22686924.153   119220586.852    22686925.046    92899157.333                  
  24251630.724   127443100.582    24251635.656    99306291.926                  
  21802155.813   114571098.179    21802156.206    89276179.180                  
  20289781.088   106623523.905    20289781.535    83083266.266                  
  20976228.879   110230827.777    20976229.826    85894153.742                  
  21575925.226   113382246.870    21575926.549    88349803.168                  
  20987003.632   110287442.102    20987004.364    85938264.527                  
                 112572932.179                   112572932.179    21618448.337  
                 133207807.778                   133207807.778    25581157.687  
                 118873511.766                   118873511.766    22828405.644  
                 123209135.839                   123209135.839    23661022.437  
                 112439621.801                   112439621.801    21592848.692  
  24078748.516   126534655.821                                                  
  22331042.422   117350403.101                                                  
  23642691.374   124243124.874                                                  
 21  8 31 18 21 46.0000000  0 15G 5G10G13G15G18G23G29C19C20C22C29C35
                                E 5E 9E36
  22687440.353   119223299.535    22687441.246    92901271.110                  
  24251154.693   127440599.020    24251159.643    99304342.657                  
  21802430.102   114572539.466    21802430.478    89277302.259                  
  20289783.304   106623535.672    20289783.786    83083275.432                  
  20975919.262   110229200.722    20975920.192    85892885.907                  
  21575622.007   113380653.415    21575623.311    88348561.516                  
  20987406.257   110289557.878    20987406.971    85939913.183                  
                 112574157.729                   112574157.729    21618683.708  
                 133210719.298                   133210719.298    25581716.827  
                 118871845.429                   118871845.429    22828085.628  
                 123211846.112                   123211846.112    23661542.925  
                 112439795.055                   112439795.055    21592881.964  
  24078409.219   126532872.844                                                  
  22331221.059   117351341.934                                                  
  23642730.615   124243331.028                                                  
 21  8 31 18 21 47.0000000  0 15G 5G10G13G15G18G23G29C19C20C22C29C35
                                E 5E 9E36
  22687956.571   119226012.301    22687957.483    92903384.953                  
  24250678.698   127438097.632    24250683.648    99302393.523                  
  21802704.481   114573981.386    21802704.856    89278425.833                  
  20289785.680   106623548.161    20289786.163    83083285.164                  
  20975609.682   110227573.888    20975610.629    85891618.241                  
  21575318.823   113379060.265    21575320.163    88347320.101                  
  20987808.989   110291674.226    20987809.721    85941562.285                  
                 112575383.626                   112575383.626    21618919.114  
                 133213630.847                   133213630.847    25582275.948  
                 118870179.465                   118870179.465    22827765.701  
                 123214556.676                   123214556.676    23662063.468  
                 112439968.797                   112439968.797    21592915.343  
  24078069.994   126531090.237                                                  
  22331399.802   117352281.175                                                  
  23642769.873   124243537.423                                                  
 21  8 31 18 21 48.0000000  0 15G 5G10G13G15G18G23G29C19C20C22C29C35
                                E 5E 9E36
  22688472.825   119228725.137    22688473.701    92905498.849                  
  24250202.721   127435596.417    24250207.653    99300444.527                  
  21802979.003   114575423.929    21802979.360    89279549.890                  
  20289788.200   106623561.349    20289788.682    83083295.442                  
  20975300.137   110225947.258    20975301.084    85890350.742                  
  21575015.729   113377467.414    21575017.033    88346078.918                  
  20988211.828   110293791.125    20988212.543    85943211.817                  
                 112576609.859                   112576609.859    21619154.592  
                 133216542.430                   133216542.430    25582835.088  
                 118868513.876                   118868513.876    22827445.845  
                 123217267.527                   123217267.527    23662584.064  
                 112440143.031                   112440143.031    21592948.794  
  24077730.858   126529307.988                                                  
  22331578.618   117353220.829                                                  
  23642809.220   124243744.069                                                  
 21  8 31 18 21 49.0000000  0 15G 5G10G13G15G18G23G29C19C20C22C29C35
                                E 5E 9E36
  22688989.079   119231438.046    22688989.955    92907612.804                  
  24249726.797   127433095.380    24249731.747    99298495.667                  
  21803253.614   114576867.114    21803254.007    89280674.450                  
  20289790.844   106623575.249    20289791.327    83083306.274                  
  20974990.645   110224320.843    20974991.574    85889083.406                  
  21574712.652   113375874.868    21574713.992    88344837.973                  
  20988614.757   110295908.582    20988615.471    85944861.781                  
                 112577836.433                   112577836.433    21619390.159  
                 133219454.034                   133219454.034    25583394.228  
                 118866848.656                   118866848.656    22827126.044  
                 123219978.667                   123219978.667    23663104.696  
                 112440317.759                   112440317.759    21592982.334  
  24077391.775   126527526.106                                                  
  22331757.504   117354160.885                                                  
  23642848.586   124243950.966                                                  
 21  8 31 18 21 50.0000000  0 15G 5G10G13G15G18G23G29C19C20C22C29C35
                                E 5E 9E36
  22689505.333   119234151.023    22689506.226    92909726.812                  
  24249250.892   127430594.514    24249255.841    99296546.950                  
  21803528.368   114578310.927    21803528.743    89281799.499                  
  20289793.614   106623589.860    20289794.096    83083317.661                  
  20974681.207   110222694.637    20974682.136    85887816.230                  
  21574409.665   113374282.625    21574411.005    88343597.266                  
  20989017.792   110298026.605    20989018.543    85946512.187                  
                 112579063.352                   112579063.352    21619625.780  
                 133222365.673                   133222365.673    25583953.385  
                 118865183.812                   118865183.812    22826806.349  
                 123222690.103                   123222690.103    23663625.399  
                 112440492.970                   112440492.970    21593016.000  
  24077052.764   126525744.585                                                  
  22331936.463   117355101.347                                                  
  23642888.005   124244158.120                                                  
 21  8 31 18 21 51.0000000  0 15G 5G10G13G15G18G23G29C19C20C22C29C35
                                E 5E 9E36
  22690021.623   119236864.082    22690022.498    92911840.884                  
  24248775.022   127428093.833    24248779.953    99294598.362                  
  21803803.247   114579755.383    21803803.623    89282925.051                  
  20289796.544   106623605.192    20289797.027    83083329.606                  
  20974371.787   110221068.650    20974372.716    85886549.227                  
  21574106.732   113372690.683    21574108.054    88342356.793                  
  20989420.953   110300145.183    20989421.686    85948163.031                  
                 112580290.609                   112580290.609    21619861.455  
                 133225277.359                   133225277.359    25584512.543  
                 118863519.336                   118863519.336    22826486.672  
                 123225401.821                   123225401.821    23664146.156  
                 112440668.675                   112440668.675    21593049.736  
  24076713.824   126523963.436                                                  
  22332115.492   117356042.222                                                  
  23642927.478   124244365.518                                                  
 21  8 31 18 21 52.0000000  0 15G 5G10G13G15G18G23G29C19C20C22C29C35
                                E 5E 9E36
  22690537.895   119239577.202    22690538.806    92913954.999                  
  24248299.205   127425593.316    24248304.137    99292649.910                  
  21804078.234   114581200.475    21804078.591    89284051.097                  
  20289799.582   106623621.223    20289800.065    83083342.098                  
  20974062.403   110219442.860    20974063.332    85885282.380                  
  21573803.852   113371099.050    21573805.174    88341116.559                  
  20989824.221   110302264.336    20989824.936    85949814.317                  
                 112581518.207                   112581518.207    21620097.201  
                 133228189.050                   133228189.050    25585071.700  
                 118861855.233                   118861855.233    22826167.120  
                 123228113.830                   123228113.830    23664666.985  
                 112440844.871                   112440844.871    21593083.580  
  24076374.938   126522182.645                                                  
  22332294.612   117356983.499                                                  
  23642966.986   124244573.160                                                  
 21  8 31 18 21 53.0000000  0 15G 5G10G13G15G18G23G29C19C20C22C29C35
                                E 5E 9E36
  22691054.220   119242290.402    22691055.096    92916069.183                  
  24247823.407   127423092.981    24247828.339    99290701.597                  
  21804353.345   114582646.202    21804353.720    89285177.638                  
  20289802.781   106623637.976    20289803.263    83083355.152                  
  20973753.054   110217817.281    20973754.001    85884015.695                  
  21573501.043   113369507.719    21573502.365    88339876.559                  
  20990227.579   110304384.035    20990228.311    85951466.028                  
                 112582746.150                   112582746.150    21620333.018  
                 133231100.773                   133231100.773    25585630.858  
                 118860191.508                   118860191.508    22825847.622  
                 123230826.126                   123230826.126    23665187.849  
                 112441021.556                   112441021.556    21593117.496  
  24076036.142   126520402.222                                                  
  22332473.820   117357925.190                                                  
  23643006.548   124244781.060                                                  
 21  8 31 18 21 54.0000000  0 15G 5G10G13G15G18G23G29C19C20C22C29C35
                                E 5E 9E36
  22691570.545   119245003.675    22691571.421    92918183.422                  
  24247347.626   127420592.817    24247352.558    99288753.421                  
  21804628.582   114584092.577    21804628.957    89286304.681                  
  20289806.104   106623655.433    20289806.587    83083368.757                  
  20973443.759   110216191.922    20973444.707    85882749.180                  
  21573198.288   113367916.700    21573199.593    88338636.805                  
  20990631.061   110306504.294    20990631.776    85953118.176                  
                 112583974.425                   112583974.425    21620568.907  
                 133234012.523                   133234012.523    25586190.033  
                 118858528.152                   118858528.152    22825528.178  
                 123233538.711                   123233538.711    23665708.784  
                 112441198.727                   112441198.727    21593151.518  
  24075697.398   126518622.168                                                  
  22332653.100   117358867.286                                                  
  23643046.164   124244989.206                                                  
 21  8 31 18 21 55.0000000  0 15G 5G10G13G15G18G23G29C19C20C22C29C35
                                E 5E 9E36
  22692086.853   119247717.019    22692087.746    92920297.716                  
  24246871.899   127418092.831    24246876.849    99286805.383                  
  21804903.943   114585539.583    21804904.319    89287432.215                  
  20289809.553   106623673.606    20289810.036    83083382.913                  
  20973134.500   110214566.769    20973135.447    85881482.831                  
  21572895.551   113366325.964    21572896.891    88337397.274                  
  20991034.615   110308625.114    20991035.366    85954770.765                  
                 112585203.048                   112585203.048    21620804.832  
                 133236924.301                   133236924.301    25586749.226  
                 118856865.171                   118856865.171    22825208.822  
                 123236251.583                   123236251.583    23666229.756  
                 112441376.394                   112441376.394    21593185.648  
  24075358.745   126516842.472                                                  
  22332832.433   117359809.790                                                  
  23643085.815   124245197.610                                                  
 21  8 31 18 21 56.0000000  0 15G 5G10G13G15G18G23G29C19C20C22C29C35
                                E 5E 9E36
  22692603.214   119250430.439    22692604.108    92922412.067                  
  24246396.208   127415593.024    24246401.140    99284857.481                  
  21805179.412   114586987.222    21805179.788    89288560.246                  
  20289813.145   106623692.480    20289813.627    83083397.625                  
  20972825.295   110212941.827    20972826.242    85880216.640                  
  21572592.921   113364735.543    21572594.244    88336157.985                  
  20991438.312   110310746.488    20991439.063    85956423.782                  
                 112586432.009                   112586432.009    21621040.846  
                 133239836.106                   133239836.106    25587308.401  
                 118855202.563                   118855202.563    22824889.539  
                 123238964.746                   123238964.746    23666750.781  
                 112441554.548                   112441554.548    21593219.867  
  24075020.145   126515063.140                                                  
  22333011.874   117360752.692                                                  
  23643125.520   124245406.258                                                  
 21  8 31 18 21 57.0000000  0 15G 5G10G13G15G18G23G29C19C20C22C29C35
                                E 5E 9E36
  22693119.575   119253143.926    22693120.469    92924526.468                  
  24245920.517   127413093.382    24245925.466    99282909.710                  
  21805455.024   114588435.496    21805455.382    89289688.773                  
  20289816.879   106623712.083    20289817.362    83083412.900                  
  20972516.125   110211317.096    20972517.054    85878950.616                  
  21572290.327   113363145.424    21572291.668    88334918.929                  
  20991842.099   110312868.429    20991842.831    85958077.242                  
                 112587661.307                   112587661.307    21621276.914  
                 133242747.943                   133242747.943    25587867.577  
                 118853540.324                   118853540.324    22824570.327  
                 123241678.194                   123241678.194    23667271.877  
                 112441733.192                   112441733.192    21593254.158  
  24074681.616   126513284.183                                                  
  22333191.386   117361696.009                                                  
  23643165.279   124245615.156                                                  
 21  8 31 18 21 58.0000000  0 15G 5G10G13G15G18G23G29C19C20C22C29C35
                                E 5E 9E36
  22693635.936   119255857.481    22693636.812    92926640.926                  
  24245444.897   127410593.918    24245449.847    99280962.081                  
  21805730.725   114589884.406    21805731.101    89290817.792                  
  20289820.739   106623732.386    20289821.222    83083428.718                  
  20972206.973   110209692.577    20972207.920    85877684.757                  
  21571987.805   113361555.617    21571989.127    88333680.122                  
  20992245.992   110314990.930    20992246.743    85959731.137                  
                 112588890.949                   112588890.949    21621513.053  
                 133245659.800                   133245659.800    25588426.788  
                 118851878.457                   118851878.457    22824251.186  
                 123244391.936                   123244391.936    23667793.027  
                 112441912.329                   112441912.329    21593288.556  
  24074343.159   126511505.584                                                  
  22333370.952   117362639.734                                                  
  23643205.055   124245824.306                                                  
 21  8 31 18 21 59.0000000  0 15G 5G10G13G15G18G23G29C19C20C22C29C35
                                E 5E 9E36
  22694152.333   119258571.112    22694153.227    92928755.446                  
  24244969.295   127408094.634    24244974.245    99279014.587                  
  21806006.587   114591333.956    21806006.945    89291947.312                  
  20289824.742   106623753.405    20289825.224    83083445.097                  
  20971897.875   110208068.266    20971898.822    85876419.062                  
  21571685.318   113359966.102    21571686.658    88332441.539                  
  20992649.993   110317113.983    20992650.743    85961385.466                  
                 112590120.930                   112590120.930    21621749.263  
                 133248571.692                   133248571.692    25588985.981  
                 118850216.965                   118850216.965    22823932.099  
                 123247105.966                   123247105.966    23668314.213  
                 112442091.953                   112442091.953    21593323.061  
  24074004.773   126509727.347                                                  
  22333550.643   117363583.860                                                  
  23643244.921   124246033.711                                                  
 21  8 31 18 22  0.0000000  0 15G 5G10G13G15G18G23G29C19C20C22C29C35
                                E 5E 9E36
  22694668.748   119261284.814    22694669.624    92930870.017                  
  24244493.729   127405595.517    24244498.661    99277067.223                  
  21806282.521   114592784.134    21806282.896    89293077.321                  
  20289828.887   106623775.144    20289829.352    83083462.038                  
  20971588.812   110206444.172    20971589.759    85875153.534                  
  21571382.903   113358376.890    21571384.243    88331203.192                  
  20993054.119   110319237.605    20993054.851    85963040.234                  
                 112591351.255                   112591351.255    21621985.546  
                 133251483.610                   133251483.610    25589545.174  
                 118848555.848                   118848555.848    22823613.101  
                 123249820.281                   123249820.281    23668835.488  
                 112442272.067                   112442272.067    21593357.655  
  24073666.459   126507949.476                                                  
  22333730.388   117364528.403                                                  
  23643284.822   124246243.357                                                  
 21  8 31 18 22  1.0000000  0 15G 5G10G13G15G18G23G29C19C20C22C29C35
                                E 5E 9E36
  22695185.145   119263998.583    22695186.038    92932984.640                  
  24244018.198   127403096.582    24244023.148    99275120.003                  
  21806558.615   114594234.946    21806558.972    89294207.823                  
  20289833.140   106623797.578    20289833.623    83083479.519                  
  20971279.821   110204820.280    20971280.768    85873888.164                  
  21571080.541   113356787.983    21571081.881    88329965.085                  
  20993458.334   110321361.773    20993459.084    85964695.430                  
                 112592581.914                   112592581.914    21622221.881  
                 133254395.554                   133254395.554    25590104.385  
                 118846895.103                   118846895.103    22823294.175  
                 123252534.883                   123252534.883    23669356.799  
                 112442452.671                   112442452.671    21593392.339  
  24073328.216   126506171.972                                                  
  22333910.186   117365473.343                                                  
  23643324.760   124246453.255                                                  
 21  8 31 18 22  2.0000000  0 15G 5G10G13G15G18G23G29C19C20C22C29C35
                                E 5E 9E36
  22695701.578   119266712.422    22695702.453    92935099.320                  
  24243542.704   127400597.817    24243547.635    99273172.913                  
  21806834.816   114595686.403    21806835.174    89295338.829                  
  20289837.554   106623820.739    20289838.018    83083497.567                  
  20970970.848   110203196.606    20970971.777    85872622.966                  
  21570778.233   113355199.384    21570779.573    88328727.216                  
  20993862.656   110323486.507    20993863.407    85966351.069                  
                 112593812.919                   112593812.919    21622458.288  
                 133257307.527                   133257307.527    25590663.596  
                 118845234.728                   118845234.728    22822975.320  
                 123255249.777                   123255249.777    23669878.163  
                 112442633.770                   112442633.770    21593427.112  
  24072990.045   126504394.841                                                  
  22334090.073   117366418.696                                                  
  23643364.733   124246663.411                                                  
 21  8 31 18 22  3.0000000  0 15G 5G10G13G15G18G23G29C19C20C22C29C35
                                E 5E 9E36
  22696218.028   119269426.341    22696218.904    92937214.062                  
  24243067.227   127398099.231    24243072.159    99271225.968                  
  21807111.143   114597138.489    21807111.518    89296470.324                  
  20289842.093   106623844.605    20289842.575    83083516.164                  
  20970661.892   110201573.140    20970662.839    85871357.925                  
  21570475.996   113353611.082    21570477.319    88327489.578                  
  20994267.104   110325611.799    20994267.836    85968007.141                  
                 112595044.262                   112595044.262    21622694.731  
                 133260219.533                   133260219.533    25591222.825  
                 118843574.727                   118843574.727    22822656.518  
                 123257964.958                   123257964.958    23670399.582  
                 112442815.355                   112442815.355    21593461.975  
  24072651.927   126502618.059                                                  
  22334270.068   117367364.457                                                  
  23643404.777   124246873.800                                                  
 21  8 31 18 22  4.0000000  0 15G 5G10G13G15G18G23G29C19C20C22C29C35
                                E 5E 9E36
  22696734.479   119272140.327    22696735.354    92939328.856                  
  24242591.804   127395600.824    24242596.735    99269279.159                  
  21807387.577   114598591.208    21807387.952    89297602.313                  
  20289846.774   106623869.178    20289847.239    83083535.312                  
  20970353.008   110199949.891    20970353.937    85870093.054                  
  21570173.813   113352023.087    21570175.135    88326252.179                  
  20994671.641   110327737.661    20994672.355    85969663.652                  
                 112596275.941                   112596275.941    21622931.281  
                 133263131.558                   133263131.558    25591782.036  
                 118841915.096                   118841915.096    22822337.824  
                 123260680.427                   123260680.427    23670921.053  
                 112442997.433                   112442997.433    21593496.962  
  24072313.881   126500841.649                                                  
  22334450.098   117368310.614                                                  
  23643444.857   124247084.452                                                  
 21  8 31 18 22  5.0000000  0 15G 5G10G13G15G18G23G29C19C20C22C29C35
                                E 5E 9E36
  22697250.947   119274854.390    22697251.823    92941443.710                  
  24242116.398   127393102.587    24242121.348    99267332.484                  
  21807664.136   114600044.555    21807664.529    89298734.789                  
  20289851.581   106623894.467    20289852.064    83083555.020                  
  20970044.160   110198326.857    20970045.107    85868828.351                  
  21569871.684   113350435.398    21569873.024    88325015.019                  
  20995076.285   110329864.070    20995077.017    85971320.597                  
                 112597507.964                   112597507.964    21623167.867  
                 133266043.616                   133266043.616    25592341.283  
                 118840255.840                   118840255.840    22822019.184  
                 123263396.184                   123263396.184    23671442.596  
                 112443180.001                   112443180.001    21593532.021  
  24071975.924   126499065.607                                                  
  22334630.236   117369257.191                                                  
  23643484.991   124247295.357                                                  
 21  8 31 18 22  6.0000000  0 15G 5G10G13G15G18G23G29C19C20C22C29C35
                                E 5E 9E36
  22697767.415   119277568.543    22697768.327    92943558.633                  
  24241641.046   127390604.526    24241645.960    99265385.945                  
  21807940.820   114601498.528    21807941.195    89299867.757                  
  20289856.549   106623920.464    20289856.995    83083575.277                  
  20969735.348   110196704.027    20969736.277    85867563.811                  
  21569569.626   113348848.011    21569570.948    88323778.094                  
  20995481.018   110331991.044    20995481.768    85972977.976                  
                 112598740.327                   112598740.327    21623404.543  
                 133268955.700                   133268955.700    25592900.512  
                 118838596.957                   118838596.957    22821700.597  
                 123266112.231                   123266112.231    23671964.175  
                 112443363.060                   112443363.060    21593567.152  
  24071638.021   126497290.013                                                  
  22334810.445   117370204.193                                                  
  23643525.179   124247506.508                                                  
 21  8 31 18 22  7.0000000  0 15G 5G10G13G15G18G23G29C19C20C22C29C35
                                E 5E 9E36
  22698283.919   119280282.761    22698284.813    92945673.605                  
  24241165.695   127388106.621    24241170.627    99263439.523                  
  21808217.647   114602953.148    21808218.004    89301001.228                  
  20289861.623   106623947.167    20289862.088    83083596.082                  
  20969426.553   110195081.404    20969427.500    85866299.429                  
  21569267.604   113347260.926    21569268.944    88322541.407                  
  20995885.876   110334118.566    20995886.627    85974635.786                  
                 112599973.031                   112599973.031    21623641.254  
                 133271867.813                   133271867.813    25593459.759  
                 118836938.445                   118836938.445    22821382.100  
                 123268828.561                   123268828.561    23672485.826  
                 112443546.607                   112443546.607    21593602.425  
  24071300.225   126495514.801                                                  
  22334990.725   117371151.606                                                  
  23643565.420   124247717.905                                                  
 21  8 31 18 22  8.0000000  0 15G 5G10G13G15G18G23G29C19C20C22C29C35
                                E 5E 9E36
  22698800.441   119282997.047    22698801.317    92947788.633                  
  24240690.397   127385608.921    24240695.328    99261493.270                  
  21808494.563   114604408.421    21808494.938    89302135.206                  
  20289866.823   106623974.566    20289867.306    83083617.434                  
  20969117.812   110193458.991    20969118.759    85865035.214                  
  21568965.635   113345674.138    21568966.975    88321304.949                  
  20996290.842   110336246.660    20996291.575    85976294.039                  
                 112601206.071                   112601206.071    21623878.054  
                 133274779.949                   133274779.949    25594019.006  
                 118835280.309                   118835280.309    22821063.674  
                 123271545.185                   123271545.185    23673007.512  
                 112443730.640                   112443730.640    21593637.752  
  24070962.411   126493739.630                                                  
  22335171.078   117372099.324                                                  
  23643605.679   124247929.561                                                  
 21  8 31 18 22  9.0000000  0 15G 5G10G13G15G18G23G29C19C20C22C29C35
                                E 5E 9E36
  22699316.963   119285711.397    22699317.857    92949903.716                  
  24240215.116   127383111.383    24240220.066    99259547.137                  
  21808771.604   114605864.306    21808771.979    89303269.660                  
  20289872.184   106624002.687    20289872.667    83083639.347                  
  20968809.142   110191836.793    20968810.072    85863771.163                  
  21568663.738   113344087.655    21568665.078    88320068.730                  
  20996695.915   110338375.312    20996696.648    85977952.731                  
                 112602439.452                   112602439.452    21624114.926  
                 133277692.117                   133277692.117    25594578.253  
                 118833622.542                   118833622.542    22820745.319  
                 123274262.093                   123274262.093    23673529.287  
                 112443915.173                   112443915.173    21593673.204  
  24070624.722   126491965.069                                                  
  22335351.501   117373047.527                                                  
  23643646.009   124248141.449                                                  
 21  8 31 18 22 10.0000000  0 15G 5G10G13G15G18G23G29C19C20C22C29C35
                                E 5E 9E36
  22699833.503   119288425.824    22699834.379    92952018.851                  
  24239739.908   127380614.014    24239744.821    99257601.140                  
  21809048.788   114607320.840    21809049.164    89304404.621                  
  20289877.652   106624031.527    20289878.134    83083661.817                  
  20968500.473   110190214.806    20968501.420    85862507.277                  
  21568361.894   113342501.477    21568363.234    88318832.745                  
  20997101.077   110340504.518    20997101.828    85979611.852                  
                 112603673.176                   112603673.176    21624351.833  
                 133280604.311                   133280604.311    25595137.517  
                 118831965.150                   118831965.150    22820427.018  
                 123276979.292                   123276979.292    23674051.099  
                 112444100.191                   112444100.191    21593708.728  
  24070287.105   126490190.843                                                  
  22335532.014   117373996.128                                                  
  23643686.375   124248353.607                                                  
 21  8 31 18 22 11.0000000  0 15G 5G10G13G15G18G23G29C19C20C22C29C35
                                E 5E 9E36
  22700350.061   119291140.323    22700350.937    92954134.043                  
  24239264.699   127378116.828    24239269.613    99255655.281                  
  21809326.062   114608778.005    21809326.437    89305540.075                  
  20289883.281   106624061.071    20289883.763    83083684.841                  
  20968191.857   110188593.030    20968192.804    85861243.558                  
  21568060.122   113340915.604    21568061.462    88317597.000                  
  20997506.365   110342634.288    20997507.097    85981271.411                  
                 112604907.234                   112604907.234    21624588.812  
                 133283516.532                   133283516.532    25595696.782  
                 118830308.130                   118830308.130    22820108.825  
                 123279696.776                   123279696.776    23674572.963  
                 112444285.698                   112444285.698    21593744.359  
  24069949.541   126488417.001                                                  
  22335712.616   117374945.138                                                  
  23643726.795   124248566.005                                                  
 21  8 31 18 22 12.0000000  0 15G 5G10G13G15G18G23G29C19C20C22C29C35
                                E 5E 9E36
  22700866.619   119293854.888    22700867.494    92956249.286                  
  24238789.526   127375619.821    24238794.458    99253709.558                  
  21809603.479   114610235.801    21809603.854    89306676.019                  
  20289889.035   106624091.342    20289889.517    83083708.429                  
  20967883.295   110186971.471    20967884.242    85859980.004                  
  21567758.404   113339330.034    21567759.726    88316361.493                  
  20997911.759   110344764.613    20997912.492    85982931.402                  
                 112606141.635                   112606141.635    21624825.880  
                 133286428.782                   133286428.782    25596256.047  
                 118828651.485                   118828651.485    22819790.685  
                 123282414.551                   123282414.551    23675094.882  
                 112444471.700                   112444471.700    21593780.079  
  24069612.067   126486643.508                                                  
  22335893.272   117375894.555                                                  
  23643767.268   124248778.664                                                  
 21  8 31 18 22 13.0000000  0 15G 5G10G13G15G18G23G29C19C20C22C29C35
                                E 5E 9E36
  22701383.194   119296569.531    22701384.088    92958364.595                  
  24238314.388   127373123.019    24238319.320    99251764.024                  
  21809881.002   114611694.233    21809881.378    89307812.458                  
  20289894.931   106624122.304    20289895.414    83083732.555                  
  20967574.768   110185350.124    20967575.697    85858716.621                  
  21567456.739   113337744.763    21567458.061    88315126.214                  
  20998317.243   110346895.492    20998317.976    85984591.827                  
                 112607376.380                   112607376.380    21625063.002  
                 133289341.034                   133289341.034    25596815.311  
                 118826995.207                   118826995.207    22819472.598  
                 123285132.585                   123285132.585    23675616.854  
                 112444658.198                   112444658.198    21593815.889  
  24069274.664   126484870.394                                                  
  22336074.017   117376844.371                                                  
  23643807.777   124248991.582                                                  
