     2.11           OBSERVATION DATA    M (MIXED)           RINEX VERSION / TYPE
CONVBIN 2.4.3                           20210901 190702 UTC PGM / RUN BY / DATE 
log: logs/21_09_01_07_41_55_blom_SW.rtcm                    COMMENT             
format: RTCM 3, station ID: 252                             COMMENT             
0252                                                        MARKER NAME         
                                                            MARKER NUMBER       
                                                            OBSERVER / AGENCY   
                    SWFT                                    REC # / TYPE / VERS 
                    NULL                                    ANT # / TYPE        
    85902.2620 -4920601.6362  4043655.9789                  APPROX POSITION XYZ 
        0.0000        0.0000        0.0000                  ANTENNA: DELTA H/E/N
     1     1                                                WAVELENGTH FACT L1/2
     5    C1    L1    P2    L2    C2                        # / TYPES OF OBSERV 
  2021     9     1     7    42    0.0000000     GPS         TIME OF FIRST OBS   
  2021     9     1     8    11   58.0000000     GPS         TIME OF LAST OBS    
                                                            END OF HEADER       
 21  9  1  7 42  0.0000000  0  9G 1G 7G 8G 9G13G14G17G21E19
  22775244.658   119684672.886    22775247.856    93260771.726                  
  20177027.660   106031012.915    20177026.838    82621572.427                  
  21700321.806   114035924.392    21700323.878    88859152.926                  
  24107226.092   126684286.547    24107228.665    98715017.942                  
  24037682.446   126318893.179    24037681.374    98430310.972                  
  22440677.044   117926566.212    22440677.115    91890836.028                  
  23414483.545   123043942.661    23414483.652    95878396.625                  
  22072568.005   115992132.114    22072566.933    90383481.266                  
  26184050.213   137598106.840                                                  
 21  9  1  7 42  1.0000000  0 13G 1G 7G 8G 9G13G14G17G21C23C25C28C34
                                E19
  22774628.838   119681436.735    22774632.036    93258250.055                  
  20177078.462   106031279.868    20177077.640    82621780.437                  
  21700819.100   114038537.712    21700821.173    88861189.277                  
  24107890.194   126687776.384    24107892.768    98717737.293                  
  24037242.528   126316581.385    24037241.456    98428509.574                  
  22440255.246   117924349.605    22440255.317    91889108.804                  
  23413865.991   123040697.554    23413866.116    95875867.977                  
  22072355.364   115991014.650    22072354.292    90382610.515                  
                 117538499.188                   117538499.188    22572023.119  
                 116388479.514                   116388479.514    22351179.917  
                 134987986.384                   134987986.384    25923025.386  
                 118419346.684                   118419346.684    22741189.463  
  26184096.744   137598351.344                                                  
 21  9  1  7 42  2.0000000  0 13G 1G 7G 8G 9G13G14G17G21C23C25C28C34
                                E19
  22774013.089   119678200.852    22774016.252    93255728.585                  
  20177129.353   106031547.366    20177128.549    82621988.880                  
  21701316.467   114041151.367    21701318.540    88863225.895                  
  24108554.297   126691266.271    24108556.852    98720456.683                  
  24036802.682   126314270.091    24036801.628    98426708.563                  
  22439833.465   117922133.161    22439833.537    91887381.702                  
  23413248.545   123037452.703    23413248.652    95873339.519                  
  22072142.812   115989897.737    22072141.758    90381740.195                  
                 117536970.758                   117536970.758    22571729.602  
                 116389539.958                   116389539.958    22351383.588  
                 134984535.043                   134984535.043    25922362.607  
                 118420535.942                   118420535.942    22741417.847  
  26184143.364   137598596.318                                                  
 21  9  1  7 42  3.0000000  0 13G 1G 7G 8G 9G13G14G17G21C23C25C28C34
                                E19
  22773397.358   119674965.250    22773400.557    93253207.337                  
  20177180.387   106031815.425    20177179.565    82622197.757                  
  21701813.887   114043765.370    21701815.977    88865262.777                  
  24109218.417   126694756.193    24109220.972    98723176.102                  
  24036362.961   126311959.292    24036361.907    98424907.945                  
  22439411.721   117919916.866    22439411.774    91885654.722                  
  23412631.099   123034208.089    23412631.224    95870811.251                  
  22071930.385   115988781.388    22071929.313    90380870.313                  
                 117535442.556                   117535442.556    22571436.139  
                 116390600.728                   116390600.728    22351587.277  
                 134981083.762                   134981083.762    25921699.809  
                 118421725.704                   118421725.704    22741646.320  
  26184190.056   137598841.737                                                  
 21  9  1  7 42  4.0000000  0 13G 1G 7G 8G 9G13G14G17G21C23C25C28C34
                                E19
  22772781.699   119671729.917    22772784.879    93250686.301                  
  20177231.492   106032084.036    20177230.688    82622407.062                  
  21702311.378   114046379.723    21702313.487    88867299.937                  
  24109882.537   126698246.156    24109885.092    98725895.554                  
  24035923.312   126309648.995    24035922.258    98423107.711                  
  22438989.994   117917700.735    22438990.083    91883927.866                  
  23412013.724   123030963.742    23412013.831    95868283.191                  
  22071718.047   115987665.590    22071716.975    90380000.860                  
                 117533914.583                   117533914.583    22571142.694  
                 116391661.817                   116391661.817    22351791.056  
                 134977632.539                   134977632.539    25921037.047  
                 118422915.965                   118422915.965    22741874.901  
  26184236.855   137599087.644                                                  
 21  9  1  7 42  5.0000000  0 13G 1G 7G 8G 9G13G14G17G21C23C25C28C34
                                E19
  22772166.075   119668494.855    22772169.274    93248165.473                  
  20177282.723   106032353.204    20177281.901    82622616.805                  
  21702808.941   114048994.414    21702811.014    88869337.360                  
  24110546.657   126701736.160    24110549.212    98728615.040                  
  24035483.788   126307339.202    24035482.716    98421307.871                  
  22438568.321   117915484.769    22438568.374    91882201.142                  
  23411396.385   123027719.625    23411396.492    95865755.309                  
  22071505.817   115986550.356    22071504.763    90379131.844                  
                 117532386.837                   117532386.837    22570849.320  
                 116392723.235                   116392723.235    22351994.906  
                 134974181.375                   134974181.375    25920374.285  
                 118424106.727                   118424106.727    22742103.588  
  26184283.743   137599334.003                                                  
 21  9  1  7 42  6.0000000  0 13G 1G 7G 8G 9G13G14G17G21C23C25C28C34
                                E19
  22771550.523   119665260.081    22771553.722    93245644.872                  
  20177334.042   106032622.944    20177333.220    82622826.993                  
  21703306.558   114051609.456    21703308.666    88871375.056                  
  24111210.795   126705226.190    24111213.368    98731334.542                  
  24035044.335   126305029.891    24035043.281    98419508.407                  
  22438146.665   117913268.973    22438146.737    91880474.543                  
  23410779.100   123024475.762    23410779.225    95863227.622                  
  22071293.694   115985435.671    22071292.640    90378263.263                  
                 117530859.317                   117530859.317    22570555.965  
                 116393784.976                   116393784.976    22352198.773  
                 134970730.269                   134970730.269    25919711.523  
                 118425297.991                   118425297.991    22742332.348  
  26184330.703   137599580.840                                                  
 21  9  1  7 42  7.0000000  0 14G 1G 7G 8G 9G13G14G17G21G27C23C25C28
                                C34E19
  22770935.025   119662025.582    22770938.223    93243124.481                  
  20177385.487   106032893.222    20177384.665    82623037.599                  
  21703804.264   114054224.851    21703806.336    88873413.023                  
  24111874.933   126708716.253    24111877.506    98734054.069                  
  24034604.971   126302721.091    24034603.917    98417709.344                  
  22437725.046   117911053.356    22437725.117    91878748.090                  
  23410161.868   123021232.137    23410161.975    95860700.122                  
  22071081.696   115984321.531    22071080.642    90377395.102                  
  24262013.841   127497719.329    24262015.306    99348867.176                  
                 117529332.028                   117529332.028    22570262.662  
                 116394847.046                   116394847.046    22352402.748  
                 134967279.224                   134967279.224    25919048.796  
                 118426489.759                   118426489.759    22742561.196  
  26184377.752   137599828.132                                                  
 21  9  1  7 42  8.0000000  0 14G 1G 7G 8G 9G13G14G17G21G27C23C25C28
                                C34E19
  22770319.562   119658791.324    22770322.760    93240604.282                  
  20177437.004   106033164.039    20177436.200    82623248.625                  
  21704302.023   114056840.600    21704304.096    88875451.274                  
  24112539.089   126712206.395    24112541.644    98736773.660                  
  24034165.715   126300412.786    24034164.661    98415910.663                  
  22437303.444   117908837.824    22437303.515    91877021.704                  
  23409544.654   123017988.773    23409544.779    95858172.828                  
  22070869.805   115983207.984    22070868.733    90376527.403                  
  24262708.160   127501368.040    24262709.625    99351710.328                  
                 117527804.965                   117527804.965    22569969.414  
                 116395909.438                   116395909.438    22352606.759  
                 134963828.234                   134963828.234    25918386.052  
                 118427682.024                   118427682.024    22742790.188  
  26184424.908   137600075.875                                                  
 21  9  1  7 42  9.0000000  0 14G 1G 7G 8G 9G13G14G17G21G27C23C25C28
                                C34E19
  22769704.153   119655557.362    22769707.351    93238084.312                  
  20177488.663   106033435.434    20177487.841    82623460.102                  
  21704799.836   114059456.699    21704801.945    88877489.789                  
  24113203.245   126715696.554    24113205.800    98739493.265                  
  24033726.566   126298104.980    24033725.494    98414112.375                  
  22436881.878   117906622.509    22436881.967    91875295.480                  
  23408927.511   123014745.656    23408927.636    95855645.724                  
  22070658.003   115982094.965    22070656.931    90375660.118                  
  24263402.497   127505016.833    24263403.980    99354553.543                  
                 117526278.132                   117526278.132    22569676.201  
                 116396972.156                   116396972.156    22352810.859  
                 134960377.305                   134960377.305    25917723.361  
                 118428874.792                   118428874.792    22743019.215  
  26184472.136   137600324.121                                                  
 21  9  1  7 42 10.0000000  0 14G 1G 7G 8G 9G13G14G17G21G27C23C25C28
                                C34E19
  22769088.815   119652323.682    22769091.996    93235564.561                  
  20177540.394   106033707.370    20177539.572    82623672.000                  
  21705297.739   114062073.121    21705299.812    88879528.559                  
  24113867.401   126719186.746    24113869.956    98742212.895                  
  24033287.506   126295797.685    24033286.434    98412314.480                  
  22436460.366   117904407.335    22436460.419    91873569.375                  
  23408310.423   123011502.783    23408310.548    95853118.809                  
  22070446.291   115980982.519    22070445.237    90374793.277                  
  24264096.851   127508665.711    24264098.316    99357396.829                  
                 117524751.523                   117524751.523    22569383.042  
                 116398035.199                   116398035.199    22353014.995  
                 134956926.434                   134956926.434    25917060.635  
                 118430068.060                   118430068.060    22743248.385  
  26184519.471   137600572.804                                                  
 21  9  1  7 42 11.0000000  0 14G 1G 7G 8G 9G13G14G17G21G27C23C25C28
                                C34E19
  22768473.513   119649090.281    22768476.694    93233045.028                  
  20177592.268   106033979.872    20177591.446    82623884.336                  
  21705795.695   114064689.904    21705797.785    88881567.610                  
  24114531.556   126722676.979    24114534.147    98744932.555                  
  24032848.536   126293490.871    24032847.481    98410516.968                  
  22436038.853   117902192.331    22436038.925    91871843.398                  
  23407693.387   123008260.161    23407693.477    95850592.093                  
  22070234.722   115979870.621    22070233.668    90373926.858                  
  24264791.241   127512314.689    24264792.707    99360240.184                  
                 117523225.149                   117523225.149    22569089.901  
                 116399098.571                   116399098.571    22353219.202  
                 134953475.625                   134953475.625    25916397.962  
                 118431261.828                   118431261.828    22743477.645  
  26184566.878   137600821.962                                                  
 21  9  1  7 42 12.0000000  0 14G 1G 7G 8G 9G13G14G17G21G27C23C25C28
                                C34E19
  22767858.265   119645857.144    22767861.463    93230525.703                  
  20177644.213   106034252.922    20177643.409    82624097.101                  
  21706293.722   114067307.033    21706295.795    88883606.929                  
  24115195.748   126726167.250    24115198.303    98747652.247                  
  24032409.655   126291184.574    24032408.600    98408719.850                  
  22435617.376   117899977.485    22435617.448    91870117.542                  
  23407076.352   123005017.790    23407076.477    95848065.570                  
  22070023.242   115978759.281    22070022.188    90373060.884                  
  24265485.632   127515963.749    24265487.097    99363083.610                  
                 117521698.996                   117521698.996    22568796.813  
                 116400162.260                   116400162.260    22353423.480  
                 134950024.870                   134950024.870    25915735.272  
                 118432456.102                   118432456.102    22743706.976  
  26184614.374   137601071.578                                                  
 21  9  1  7 42 13.0000000  0 14G 1G 7G 8G 9G13G14G17G21G27C23C25C28
                                C34E19
  22767243.088   119642624.300    22767246.269    93228006.601                  
  20177696.283   106034526.524    20177695.461    82624310.302                  
  21706791.803   114069924.511    21706793.894    88885646.527                  
  24115859.940   126729657.560    24115862.495    98750371.966                  
  24031970.881   126288878.778    24031969.826    98406923.129                  
  22435195.936   117897762.781    22435196.007    91868391.801                  
  23406459.406   123001775.661    23406459.513    95845539.239                  
  22069811.852   115977648.513    22069810.797    90372195.348                  
  24266180.040   127519612.906    24266181.523    99365927.108                  
                 117520173.079                   117520173.079    22568503.779  
                 116401226.281                   116401226.281    22353627.813  
                 134946574.177                   134946574.177    25915072.599  
                 118433650.870                   118433650.870    22743936.414  
  26184661.977   137601321.675                                                  
 21  9  1  7 42 14.0000000  0 15G 1G 7G 8G 9G13G14G17G21G27G30C23C25
                                C28C34E19
  22766627.947   119639391.718    22766631.127    93225487.706                  
  20177748.461   106034800.681    20177747.639    82624523.930                  
  21707289.956   114072542.329    21707292.047    88887686.383                  
  24116524.113   126733147.919    24116526.686    98753091.726                  
  24031532.196   126286573.472    24031531.142    98405126.789                  
  22434774.513   117895548.247    22434774.602    91866666.187                  
  23405842.496   122998533.782    23405842.621    95843013.101                  
  22069600.604   115976538.288    22069599.514    90371330.237                  
  24266874.466   127523262.145    24266875.949    99368770.669                  
  21008679.078   110401320.583    21008680.812    86026994.836                  
                 117518647.383                   117518647.383    22568210.798  
                 116402290.624                   116402290.624    22353832.199  
                 134943123.542                   134943123.542    25914409.944  
                 118434846.145                   118434846.145    22744165.960  
  26184709.651   137601572.218                                                  
 21  9  1  7 42 15.0000000  0 15G 1G 7G 8G 9G13G14G17G21G27G30C23C25
                                C28C34E19
  22766012.859   119636159.417    22766016.040    93222969.032                  
  20177800.728   106035075.395    20177799.924    82624737.993                  
  21707788.180   114075160.509    21707790.289    88889726.523                  
  24117188.323   126736638.301    24117190.878    98755811.505                  
  24031093.601   126284268.683    24031092.547    98403330.847                  
  22434353.143   117893333.874    22434353.215    91864940.704                  
  23405225.639   122995292.159    23405225.765    95840487.161                  
  22069389.428   115975428.629    22069388.356    90370465.570                  
  24267568.927   127526911.478    24267570.375    99371614.305                  
  21008337.798   110399527.227    21008339.567    86025597.414                  
                 117517121.917                   117517121.917    22567917.836  
                 116403355.293                   116403355.293    22354036.656  
                 134939672.965                   134939672.965    25913747.307  
                 118436041.914                   118436041.914    22744395.594  
  26184757.415   137601823.231                                                  
 21  9  1  7 42 16.0000000  0 15G 1G 7G 8G 9G13G14G17G21G27G30C23C25
                                C28C34E19
  22765397.825   119632927.392    22765401.006    93220450.571                  
  20177853.120   106035350.664    20177852.298    82624952.484                  
  21708286.476   114077779.058    21708288.566    88891766.949                  
  24117852.514   126740128.719    24117855.105    98758531.313                  
  24030655.113   126281964.387    24030654.059    98401535.294                  
  22433931.792   117891119.683    22433931.863    91863215.360                  
  23404608.819   122992050.785    23404608.944    95837961.415                  
  22069178.377   115974319.528    22069177.323    90369601.336                  
  24268263.371   127530560.884    24268264.836    99374457.996                  
  21007996.625   110397734.300    21007998.358    86024200.332                  
                 117515596.683                   117515596.683    22567624.944  
                 116404420.288                   116404420.288    22354241.185  
                 134936222.449                   134936222.449    25913084.652  
                 118437238.188                   118437238.188    22744625.336  
  26184805.286   137602074.707                                                  
 21  9  1  7 42 17.0000000  0 15G 1G 7G 8G 9G13G14G17G21G27G30C23C25
                                C28C34E19
  22764782.845   119629695.637    22764786.026    93217932.321                  
  20177905.601   106035626.484    20177904.779    82625167.411                  
  21708784.843   114080397.977    21708786.916    88893807.665                  
  24118516.742   126743619.196    24118519.297    98761251.161                  
  24030216.714   126279660.593    24030215.660    98399740.130                  
  22433510.476   117888905.635    22433510.547    91861490.129                  
  23403992.051   122988809.663    23403992.177    95835435.868                  
  22068967.415   115973210.973    22068966.361    90368737.526                  
  24268957.869   127534210.387    24268959.316    99377301.769                  
  21007655.523   110395941.816    21007657.274    86022803.586                  
                 117514071.676                   117514071.676    22567332.071  
                 116405485.608                   116405485.608    22354445.785  
                 134932771.991                   134932771.991    25912422.033  
                 118438434.966                   118438434.966    22744855.168  
  26184853.211   137602326.656                                                  
 21  9  1  7 42 18.0000000  0 15G 1G 7G 8G 9G13G14G17G21G27G30C23C25
                                C28C34E19
  22764167.901   119626464.152    22764171.099    93215414.280                  
  20177958.172   106035902.860    20177957.385    82625382.766                  
  21709283.263   114083017.242    21709285.354    88895848.653                  
  24119180.969   126747109.699    24119183.524    98763971.035                  
  24029778.423   126277357.306    24029777.369    98397945.356                  
  22433089.178   117886691.753    22433089.267    91859765.023                  
  23403375.338   122985568.776    23403375.463    95832910.499                  
  22068756.579   115972102.984    22068755.524    90367874.161                  
  24269652.348   127537859.984    24269653.813    99380145.613                  
  21007314.493   110394149.745    21007316.262    86021407.172                  
                 117512546.896                   117512546.896    22567039.251  
                 116406551.254                   116406551.254    22354650.421  
                 134929321.595                   134929321.595    25911759.414  
                 118439632.238                   118439632.238    22745085.088  
  26184901.261   137602579.074                                                  
 21  9  1  7 42 19.0000000  0 15G 1G 7G 8G 9G13G14G17G21G27G30C23C25
                                C28C34E19
  22763553.027   119623233.066    22763556.226    93212896.594                  
  20178010.885   106036179.792    20178010.081    82625598.558                  
  21709781.756   114085636.824    21709783.864    88897889.867                  
  24119845.196   126750600.269    24119847.752    98766690.969                  
  24029340.203   126275054.577    24029339.149    98396151.054                  
  22432667.916   117884477.996    22432668.005    91858040.004                  
  23402758.660   122982328.130    23402758.785    95830385.313                  
  22068545.831   115970995.496    22068544.777    90367011.149                  
  24270346.863   127541509.698    24270348.329    99382989.556                  
  21006973.552   110392358.082    21006975.321    86020011.058                  
                 117511022.348                   117511022.348    22566746.485  
                 116407617.223                   116407617.223    22354855.129  
                 134925871.259                   134925871.259    25911096.813  
                 118440830.010                   118440830.010    22745315.099  
  26184949.382   137602831.950                                                  
 21  9  1  7 42 20.0000000  0 15G 1G 7G 8G 9G13G14G17G21G27G30C23C25
                                C28C34E19
  22762938.208   119620002.136    22762941.407    93210378.993                  
  20178063.706   106036457.277    20178062.884    82625814.784                  
  21710280.319   114088256.799    21710282.428    88899931.411                  
  24120509.441   126754090.851    24120511.997    98769410.901                  
  24028902.108   126272752.288    24028901.036    98394357.067                  
  22432246.707   117882264.427    22432246.761    91856315.147                  
  23402142.036   122979087.750    23402142.161    95827860.345                  
  22068335.227   115969888.623    22068334.137    90366148.652                  
  24271041.379   127545159.480    24271042.862    99385833.544                  
  21006632.718   110390566.875    21006634.451    86018615.316                  
                 117509498.025                   117509498.025    22566453.755  
                 116408683.520                   116408683.520    22355059.908  
                 134922420.976                   134922420.976    25910434.247  
                 118442028.288                   118442028.288    22745545.216  
  26184997.575   137603085.293                                                  
 21  9  1  7 42 21.0000000  0 15G 1G 7G 8G 9G13G14G17G21G27G30C23C25
                                C28C34E19
  22762323.442   119616771.487    22762326.623    93207861.605                  
  20178116.598   106036735.322    20178115.776    82626031.442                  
  21710778.954   114090877.141    21710781.063    88901973.229                  
  24121173.687   126757581.466    24121176.242    98772130.863                  
  24028464.085   126270450.512    24028463.013    98392563.473                  
  22431825.498   117880051.017    22431825.588    91854590.414                  
  23401525.465   122975847.615    23401525.572    95825335.563                  
  22068124.676   115968782.309    22068123.622    90365286.590                  
  24271735.948   127548809.347    24271737.395    99388677.598                  
  21006291.938   110388776.086    21006293.689    86017219.899                  
                 117507973.931                   117507973.931    22566161.078  
                 116409750.140                   116409750.140    22355264.740  
                 134918970.756                   134918970.756    25909771.664  
                 118443227.064                   118443227.064    22745775.440  
  26185045.875   137603339.096                                                  
 21  9  1  7 42 22.0000000  0 15G 1G 7G 8G 9G13G14G17G21G27G30C23C25
                                C28C34E19
  22761708.712   119613541.126    22761711.893    93205344.442                  
  20178169.616   106037013.918    20178168.794    82626248.531                  
  21711277.661   114093497.812    21711279.752    88904015.317                  
  24121837.914   126761072.136    24121840.505    98774850.868                  
  24028026.169   126268149.218    24028025.097    98390770.262                  
  22431404.343   117877837.765    22431404.397    91852865.800                  
  23400908.948   122972607.722    23400909.037    95822810.972                  
  22067914.269   115967676.556    22067913.196    90364424.964                  
  24272430.499   127552459.302    24272431.964    99391521.714                  
  21005951.247   110386985.729    21005952.980    86015824.813                  
                 117506450.066                   117506450.066    22565868.420  
                 116410817.086                   116410817.086    22355469.626  
                 134915520.598                   134915520.598    25909109.099  
                 118444426.339                   118444426.339    22746005.736  
  26185094.264   137603593.375                                                  
 21  9  1  7 42 23.0000000  0 15G 1G 7G 8G 9G13G14G17G21G27G30C23C25
                                C28C34E19
  22761094.035   119610311.046    22761097.234    93202827.495                  
  20178222.740   106037293.066    20178221.918    82626466.051                  
  21711776.421   114096118.818    21711778.512    88906057.657                  
  24122502.177   126764562.821    24122504.732    98777570.880                  
  24027588.342   126265848.437    24027587.288    98388977.441                  
  22430983.206   117875624.677    22430983.260    91851141.316                  
  23400292.467   122969368.091    23400292.556    95820286.582                  
  22067703.968   115966571.355    22067702.896    90363563.773                  
  24273125.086   127556109.348    24273126.533    99394365.911                  
  21005610.645   110385195.801    21005612.379    86014430.062                  
                 117504926.429                   117504926.429    22565575.832  
                 116411884.354                   116411884.354    22355674.584  
                 134912070.501                   134912070.501    25908446.533  
                 118445626.118                   118445626.118    22746236.139  
  26185142.743   137603848.109                                                  
 21  9  1  7 42 24.0000000  0 15G 1G 7G 8G 9G13G14G17G21G27G30C23C25
                                C28C34E19
  22760479.448   119607081.231    22760482.611    93200310.754                  
  20178275.954   106037572.772    20178275.132    82626684.004                  
  21712275.235   114098740.157    21712277.343    88908100.257                  
  24123166.440   126768053.538    24123168.995    98780290.917                  
  24027150.605   126263548.150    24027149.532    98387185.007                  
  22430562.105   117873411.751    22430562.158    91849416.958                  
  23399676.021   122966128.704    23399676.128    95817762.386                  
  22067493.739   115965466.714    22067492.685    90362703.012                  
  24273819.672   127559759.485    24273821.138    99397210.171                  
  21005270.098   110383406.301    21005271.849    86013035.648                  
                 117503403.024                   117503403.024    22565283.280  
                 116412951.954                   116412951.954    22355879.595  
                 134908620.456                   134908620.456    25907784.003  
                 118446826.394                   118446826.394    22746466.632  
  26185191.293   137604103.318                                                  
 21  9  1  7 42 25.0000000  0 15G 1G 7G 8G 9G13G14G17G21G27G30C23C25
                                C28C34E19
  22759864.879   119603851.703    22759868.060    93197794.243                  
  20178329.293   106037853.038    20178328.471    82626902.391                  
  21712774.138   114101361.852    21712776.229    88910143.136                  
  24123830.721   126771544.319    24123833.276    98783011.009                  
  24026712.974   126261248.364    24026711.920    98385392.968                  
  22430141.021   117871198.977    22430141.075    91847692.719                  
  23399059.611   122962889.560    23399059.737    95815238.383                  
  22067283.635   115964362.637    22067282.581    90361842.692                  
  24274514.277   127563409.704    24274515.760    99400054.500                  
  21004929.657   110381617.215    21004931.408    86011641.555                  
                 117501879.843                   117501879.843    22564990.765  
                 116414019.874                   116414019.874    22356084.678  
                 134905170.475                   134905170.475    25907121.456  
                 118448027.172                   118448027.172    22746697.232  
  26185239.968   137604358.982                                                  
 21  9  1  7 42 26.0000000  0 15G 1G 7G 8G 9G13G14G17G21G27G30C23C25
                                C28C34E19
  22759250.363   119600622.445    22759253.562    93195277.938                  
  20178382.740   106038133.847    20178381.918    82627121.203                  
  21713273.095   114103983.899    21713275.185    88912186.292                  
  24124495.002   126775035.113    24124497.557    98785731.105                  
  24026275.433   126258949.071    24026274.361    98383601.313                  
  22429719.956   117868986.362    22429720.045    91845968.605                  
  23398443.273   122959650.671    23398443.398    95812714.573                  
  22067073.656   115963259.114    22067072.602    90360982.804                  
  24275208.917   127567060.023    24275210.383    99402898.902                  
  21004589.288   110379828.566    21004591.021    86010247.805                  
                 117500356.895                   117500356.895    22564698.302  
                 116415088.122                   116415088.122    22356289.832  
                 134901720.558                   134901720.558    25906458.944  
                 118449228.449                   118449228.449    22746927.939  
  26185288.697   137604615.112                                                  
 21  9  1  7 42 27.0000000  0 15G 1G 7G 8G 9G13G14G17G21G27G30C23C25
                                C28C34E19
  22758635.919   119597393.469    22758639.100    93192761.851                  
  20178436.275   106038415.214    20178435.453    82627340.454                  
  21713772.123   114106606.313    21713774.214    88914229.731                  
  24125159.283   126778525.965    24125161.838    98788451.245                  
  24025837.982   126256650.297    24025836.928    98381810.059                  
  22429298.961   117866773.923    22429299.015    91844244.625                  
  23397827.006   122956412.035    23397827.096    95810190.961                  
  22066863.767   115962156.146    22066862.694    90360123.348                  
  24275903.576   127570710.427    24275905.041    99405743.372                  
  21004249.008   110378040.345    21004250.741    86008854.382                  
                 117498834.176                   117498834.176    22564405.876  
                 116416156.696                   116416156.696    22356495.040  
                 134898270.697                   134898270.697    25905796.414  
                 118450430.228                   118450430.228    22747158.717  
  26185337.515   137604871.712                                                  
 21  9  1  7 42 28.0000000  0 15G 1G 7G 8G 9G13G14G17G21G27G30C23C25
                                C28C34E19
  22758021.528   119594164.772    22758024.691    93190245.985                  
  20178489.918   106038697.132    20178489.096    82627560.124                  
  21714271.223   114109229.070    21714273.313    88916273.438                  
  24125823.582   126782016.844    24125826.137    98791171.415                  
  24025400.638   126254352.020    24025399.583    98380019.196                  
  22428877.985   117864561.630    22428878.039    91842520.763                  
  23397210.739   122953173.648    23397210.864    95807667.542                  
  22066653.984   115961053.738    22066652.912    90359264.331                  
  24276598.234   127574360.919    24276599.699    99408587.914                  
  21003908.782   110376252.556    21003910.533    86007461.297                  
                 117497311.685                   117497311.685    22564113.503  
                 116417225.593                   116417225.593    22356700.320  
                 134894820.893                   134894820.893    25905133.938  
                 118451632.504                   118451632.504    22747389.603  
  26185386.441   137605128.778                                                  
 21  9  1  7 42 29.0000000  0 15G 1G 7G 8G 9G13G14G17G21G27G30C23C25
                                C28C34E19
  22757407.156   119590936.351    22757410.354    93187730.332                  
  20178543.686   106038979.608    20178542.864    82627780.237                  
  21714770.376   114111852.177    21714772.484    88918317.417                  
  24126487.880   126785507.763    24126490.436    98793891.610                  
  24024963.400   126252054.253    24024962.328    98378228.726                  
  22428457.027   117862349.499    22428457.080    91840797.027                  
  23396594.562   122949935.508    23396594.651    95805144.321                  
  22066444.327   115959951.891    22066443.237    90358405.749                  
  24277292.928   127578011.505    24277294.375    99411432.528                  
  21003568.663   110374465.186    21003570.396    86006068.546                  
                 117495789.423                   117495789.423    22563821.166  
                 116418294.816                   116418294.816    22356905.635  
                 134891371.156                   134891371.156    25904471.444  
                 118452835.280                   118452835.280    22747620.578  
  26185435.437   137605386.317                                                  
 21  9  1  7 42 30.0000000  0 15G 1G 7G 8G 9G13G14G17G21G27G30C23C25
                                C28C34E19
  22756792.872   119587708.208    22756796.053    93185214.894                  
  20178597.543   106039262.645    20178596.721    82628000.785                  
  21715269.601   114114475.621    21715271.691    88920361.659                  
  24127152.179   126788998.712    24127154.735    98796611.827                  
  24024526.235   126249756.976    24024525.180    98376438.640                  
  22428036.104   117860137.527    22428036.158    91839073.409                  
  23395978.402   122946697.620    23395978.527    95802621.289                  
  22066234.741   115958850.601    22066233.687    90357547.601                  
  24277987.622   127581662.178    24277989.087    99414277.207                  
  21003228.615   110372678.251    21003230.366    86004676.124                  
                 117494267.390                   117494267.390    22563528.882  
                 116419364.364                   116419364.364    22357111.039  
                 134887921.478                   134887921.478    25903808.968  
                 118454038.560                   118454038.560    22747851.660  
  26185484.542   137605644.299                                                  
 21  9  1  7 42 31.0000000  0 15G 1G 7G 8G 9G13G14G17G21G27G30C23C25
                                C28C34E19
  22756178.625   119584480.329    22756181.823    93182699.668                  
  20178651.508   106039546.230    20178650.686    82628221.763                  
  21715768.897   114117099.425    21715771.005    88922406.185                  
  24127816.496   126792489.702    24127819.051    98799332.082                  
  24024089.176   126247460.201    24024088.104    98374648.945                  
  22427615.199   117857925.722    22427615.253    91837349.927                  
  23395362.296   122943459.969    23395362.403    95800098.444                  
  22066025.280   115957749.872    22066024.226    90356689.890                  
  24278682.334   127585312.929    24278683.799    99417121.950                  
  21002888.657   110370891.738    21002890.408    86003284.039                  
                 117492745.585                   117492745.585    22563236.616  
                 116420434.238                   116420434.238    22357316.497  
                 134884471.855                   134884471.855    25903146.492  
                 118455242.337                   118455242.337    22748082.831  
  26185533.717   137605902.757                                                  
 21  9  1  7 42 32.0000000  0 15G 1G 7G 8G 9G13G14G17G21G27G30C23C25
                                C28C34E19
  22755564.448   119581252.753    22755567.611    93180184.671                  
  20178705.579   106039830.372    20178704.757    82628443.168                  
  21716268.265   114119723.594    21716270.355    88924450.989                  
  24128480.813   126795980.722    24128483.386    98802052.356                  
  24023652.207   126245163.930    24023651.135    98372859.648                  
  22427194.348   117855714.072    22427194.402    91835626.563                  
  23394746.244   122940222.583    23394746.369    95797575.808                  
  22065815.927   115956649.706    22065814.855    90355832.620                  
  24279377.064   127588963.779    24279378.547    99419966.766                  
  21002548.788   110369105.657    21002550.522    86001892.285                  
                 117491224.012                   117491224.012    22562944.422  
                 116421504.437                   116421504.437    22357522.027  
                 134881022.296                   134881022.296    25902484.051  
                 118456446.614                   118456446.614    22748314.092  
  26185582.982   137606161.684                                                  
 21  9  1  7 42 33.0000000  0 15G 1G 7G 8G 9G13G14G17G21G27G30C23C25
                                C28C34E19
  22754950.308   119578025.414    22754953.489    93177669.864                  
  20178759.740   106040115.070    20178758.936    82628665.012                  
  21716767.686   114122348.088    21716769.777    88926496.050                  
  24129145.147   126799471.785    24129147.702    98804772.663                  
  24023215.345   126242868.164    24023214.273    98371070.739                  
  22426773.497   117853502.583    22426773.586    91833903.323                  
  23394130.245   122936985.438    23394130.334    95795053.359                  
  22065606.681   115955550.095    22065605.626    90354975.780                  
  24280071.811   127592614.708    24280073.276    99422811.646                  
  21002208.973   110367320.004    21002210.724    86000500.871                  
                 117489702.663                   117489702.663    22562652.263  
                 116422574.960                   116422574.960    22357727.592  
                 134877572.797                   134877572.797    25901821.629  
                 118457651.391                   118457651.391    22748545.478  
  26185632.336   137606421.063                                                  
 21  9  1  7 42 34.0000000  0 15G 1G 7G 8G 9G13G14G17G21G27G30C23C25
                                C28C34E19
  22754336.221   119574798.390    22754339.402    93175155.300                  
  20178814.044   106040400.324    20178813.222    82628887.289                  
  21717267.179   114124972.938    21717269.252    88928541.382                  
  24129809.482   126802962.887    24129812.037    98807493.000                  
  24022778.555   126240572.898    24022777.501    98369282.220                  
  22426352.699   117851291.256    22426352.753    91832180.214                  
  23393514.282   122933748.547    23393514.371    95792531.105                  
  22065397.542   115954451.050    22065396.487    90354119.382                  
  24280766.577   127596265.719    24280768.042    99425656.590                  
  21001869.265   110365534.771    21001870.998    85999109.778                  
                 117488181.552                   117488181.552    22562360.158  
                 116423645.814                   116423645.814    22357933.264  
                 134874123.360                   134874123.360    25901159.188  
                 118458856.665                   118458856.665    22748776.936  
  26185681.798   137606680.914                                                  
 21  9  1  7 42 35.0000000  0 15G 1G 7G 8G 9G13G14G17G21G27G30C23C25
                                C28C34E19
  22753722.188   119571571.629    22753725.369    93172640.941                  
  20178868.420   106040686.140    20178867.598    82629110.000                  
  21717766.743   114127598.139    21717768.816    88930586.996                  
  24130473.816   126806454.020    24130476.371    98810213.364                  
  24022341.872   126238278.144    24022340.818    98367494.098                  
  22425931.937   117849080.091    22425932.009    91830457.228                  
  23392898.354   122930511.906    23392898.462    95790009.051                  
  22065188.492   115953352.560    22065187.438    90353263.418                  
  24281461.360   127599916.836    24281462.843    99428501.618                  
  21001529.629   110363749.980    21001531.380    85997719.030                  
                 117486660.665                   117486660.665    22562068.071  
                 116424716.987                   116424716.987    22358138.955  
                 134870673.981                   134870673.981    25900496.766  
                 118460062.442                   118460062.442    22749008.483  
  26185731.313   137606941.232                                                  
 21  9  1  7 42 36.0000000  0 15G 1G 7G 8G 9G13G14G17G21G27G30C23C25
                                C28C34E19
  22753108.208   119568345.165    22753111.407    93170126.813                  
  20178922.920   106040972.507    20178922.098    82629333.145                  
  21718266.361   114130223.676    21718268.452    88932632.871                  
  24131138.169   126809945.192    24131140.742    98812933.758                  
  24021905.296   126235983.875    24021904.242    98365706.356                  
  22425511.175   117846869.078    22425511.265    91828734.360                  
  23392282.499   122927275.515    23392282.606    95787487.188                  
  22064979.567   115952254.624    22064978.495    90352407.883                  
  24282156.161   127603568.027    24282157.627    99431346.704                  
  21001190.081   110361965.610    21001191.815    85996328.614                  
                 117485140.003                   117485140.003    22561776.056  
                 116425788.489                   116425788.489    22358344.717  
                 134867224.663                   134867224.663    25899834.361  
                 118461268.720                   118461268.720    22749240.137  
  26185780.953   137607202.004                                                  
 21  9  1  7 42 37.0000000  0 15G 1G 7G 8G 9G13G14G17G21G27G30C23C25
                                C28C34E19
  22752494.282   119565118.974    22752497.463    93167612.898                  
  20178977.528   106041259.425    20178976.706    82629556.718                  
  21718766.068   114132849.578    21718768.141    88934679.027                  
  24131802.521   126813436.402    24131805.076    98815654.179                  
  24021468.827   126233690.122    24021467.737    98363919.016                  
  22425090.485   117844658.235    22425090.538    91827011.626                  
  23391666.678   122924039.370    23391666.786    95784965.517                  
  22064770.732   115951157.258    22064769.678    90351552.793                  
  24282850.980   127607219.314    24282852.446    99434191.860                  
  21000850.606   110360181.671    21000852.339    85994938.531                  
                 117483619.578                   117483619.578    22561484.076  
                 116426860.317                   116426860.317    22358550.568  
                 134863775.406                   134863775.406    25899171.956  
                 118462475.491                   118462475.491    22749471.880  
  26185830.665   137607463.261                                                  
 21  9  1  7 42 38.0000000  0 15G 1G 7G 8G 9G13G14G17G21G27G30C23C25
                                C28C34E19
  22751880.392   119561893.058    22751883.608    93165099.204                  
  20179032.225   106041546.907    20179031.403    82629780.725                  
  21719265.829   114135475.842    21719267.902    88936725.468                  
  24132466.873   126816927.642    24132469.464    98818374.625                  
  24021032.412   126231396.868    24021031.358    98362132.067                  
  22424669.794   117842447.548    22424669.866    91825289.008                  
  23391050.894   122920803.478    23391051.019    95782444.042                  
  22064562.040   115950060.452    22064560.968    90350698.141                  
  24283545.817   127610870.686    24283547.283    99437037.086                  
  21000511.219   110358398.160    21000512.953    85993548.780                  
                 117482099.378                   117482099.378    22561192.132  
                 116427932.468                   116427932.468    22358756.455  
                 134860326.211                   134860326.211    25898509.587  
                 118463682.769                   118463682.769    22749703.748  
  26185880.465   137607724.970                                                  
 21  9  1  7 42 39.0000000  0 15G 1G 7G 8G 9G13G14G17G21G27G30C23C25
                                C28C34E19
  22751266.609   119558667.430    22751269.772    93162585.723                  
  20179087.011   106041834.938    20179086.225    82630005.167                  
  21719765.643   114138102.429    21719767.716    88938772.159                  
  24133131.262   126820418.928    24133133.817    98821095.110                  
  24020596.122   126229104.122    24020595.068    98360345.507                  
  22424249.140   117840237.016    22424249.211    91823566.520                  
  23390435.181   122917567.837    23390435.306    95779922.766                  
  22064353.419   115948964.201    22064352.365    90349843.917                  
  24284240.654   127614522.149    24284242.120    99439882.379                  
  21000171.905   110356615.083    21000173.638    85992159.370                  
                 117480579.410                   117480579.410    22560900.241  
                 116429004.944                   116429004.944    22358962.413  
                 134856877.073                   134856877.073    25897847.218  
                 118464890.544                   118464890.544    22749935.688  
  26185930.356   137607987.145                                                  
 21  9  1  7 42 40.0000000  0 15G 1G 7G 8G 9G13G14G17G21G27G30C23C25
                                C28C34E19
  22750652.826   119555442.075    22750656.024    93160072.462                  
  20179141.941   106042123.523    20179141.119    82630230.039                  
  21720265.511   114140729.362    21720267.620    88940819.122                  
  24133795.614   126823910.238    24133798.205    98823815.609                  
  24020159.921   126226811.863    24020158.867    98358559.336                  
  22423828.521   117838026.646    22423828.592    91821844.151                  
  23389819.504   122914332.441    23389819.611    95777401.680                  
  22064144.923   115947868.507    22064143.869    90348990.130                  
  24284935.527   127618173.695    24284936.992    99442727.742                  
  20999832.679   110354832.429    20999834.412    85990770.289                  
                 117479059.669                   117479059.669    22560608.405  
                 116430077.746                   116430077.746    22359168.443  
                 134853427.999                   134853427.999    25897184.867  
                 118466098.816                   118466098.816    22750167.718  
  26185980.335   137608249.779                                                  
 21  9  1  7 42 41.0000000  0 15G 1G 7G 8G 9G13G14G17G21G27G30C23C25
                                C28C34E19
  22750039.114   119552217.008    22750042.295    93157559.422                  
  20179196.959   106042412.669    20179196.155    82630455.348                  
  21720765.487   114143356.644    21720767.577    88942866.353                  
  24134460.020   126827401.601    24134462.575    98826536.152                  
  24019723.828   126224520.118    24019722.755    98356773.558                  
  22423407.938   117835816.437    22423407.991    91820121.915                  
  23389203.880   122911097.299    23389203.988    95774880.793                  
  22063936.517   115946773.380    22063935.463    90348136.782                  
  24285630.418   127621825.328    24285631.883    99445573.168                  
  20999493.525   110353050.204    20999495.276    85989381.542                  
                 117477540.161                   117477540.161    22560316.586  
                 116431150.874                   116431150.874    22359374.526  
                 134849978.990                   134849978.990    25896522.516  
                 118467307.591                   118467307.591    22750399.836  
  26186030.404   137608512.890                                                  
 21  9  1  7 42 42.0000000  0 15G 1G 7G 8G 9G13G14G17G21G27G30C23C25
                                C28C34E19
  22749425.456   119548992.211    22749428.637    93155046.593                  
  20179252.103   106042702.367    20179251.281    82630681.086                  
  21721265.498   114145984.266    21721267.606    88944913.848                  
  24135124.408   126830892.981    24135126.963    98829256.703                  
  24019287.806   126222228.859    24019286.733    98354988.164                  
  22422987.372   117833606.389    22422987.462    91818399.800                  
  23388588.293   122907862.402    23388588.400    95772360.089                  
  22063728.235   115945678.813    22063727.163    90347283.875                  
  24286325.326   127625477.050    24286326.773    99448418.668                  
  20999154.460   110351268.410    20999156.194    85987993.133                  
                 117476020.879                   117476020.879    22560024.820  
                 116432224.327                   116432224.327    22359580.663  
                 134846530.035                   134846530.035    25895860.183  
                 118468516.864                   118468516.864    22750632.080  
  26186080.563   137608776.442                                                  
 21  9  1  7 42 43.0000000  0 15G 1G 7G 8G 9G13G14G17G21G27G30C23C25
                                C28C34E19
  22748811.852   119545767.695    22748815.033    93152533.984                  
  20179307.319   106042992.625    20179306.514    82630907.261                  
  21721765.580   114148612.238    21721767.689    88946961.616                  
  24135788.796   126834384.403    24135791.352    98831977.294                  
  24018851.909   126219938.117    24018850.819    98353203.168                  
  22422566.861   117831396.503    22422566.914    91816677.809                  
  23387972.758   122904627.762    23387972.883    95769839.593                  
  22063520.043   115944584.797    22063518.971    90346431.398                  
  24287020.217   127629128.874    24287021.700    99451264.245                  
  20998815.485   110349487.038    20998817.218    85986605.052                  
                 117474501.827                   117474501.827    22559733.108  
                 116433298.109                   116433298.109    22359786.872  
                 134843081.145                   134843081.145    25895197.868  
                 118469726.633                   118469726.633    22750864.395  
  26186130.793   137609040.469                                                  
 21  9  1  7 42 44.0000000  0 15G 1G 7G 8G 9G13G14G17G21G27G30C23C25
                                C28C34E19
  22748198.301   119542543.449    22748201.482    93150021.587                  
  20179362.659   106043283.438    20179361.855    82631133.868                  
  21722265.734   114151240.574    21722267.843    88949009.672                  
  24136453.202   126837875.859    24136455.758    98834697.909                  
  24018416.083   126217647.883    24018415.029    98351418.574                  
  22422146.367   117829186.781    22422146.420    91814955.950                  
  23387357.278   122901393.366    23387357.385    95767319.289                  
  22063311.977   115943491.352    22063310.904    90345579.359                  
  24287715.161   127632780.763    24287716.626    99454109.870                  
  20998476.581   110347706.101    20998478.314    85985217.308                  
                 117472983.008                   117472983.008    22559441.432  
                 116434372.214                   116434372.214    22359993.134  
                 134839632.312                   134839632.312    25894535.534  
                 118470936.906                   118470936.906    22751096.817  
  26186181.112   137609304.965                                                  
 21  9  1  7 42 45.0000000  0 15G 1G 7G 8G 9G13G14G17G21G27G30C23C25
                                C28C34E19
  22747584.804   119539319.491    22747587.985    93147509.409                  
  20179418.124   106043574.808    20179417.302    82631360.910                  
  21722765.960   114153869.241    21722768.068    88951057.984                  
  24137117.608   126841367.351    24137120.181    98837418.550                  
  24017980.365   126215358.148    24017979.275    98349634.363                  
  22421725.909   117826977.215    22421725.962    91813234.208                  
  23386741.833   122898159.225    23386741.958    95764799.179                  
  22063103.999   115942398.454    22063102.945    90344727.754                  
  24288410.105   127636432.746    24288411.588    99456955.573                  
  20998137.766   110345925.595    20998139.500    85983829.899                  
                 117471464.418                   117471464.418    22559149.792  
                 116435446.644                   116435446.644    22360199.485  
                 134836183.544                   134836183.544    25893873.237  
                 118472147.676                   118472147.676    22751329.347  
  26186231.538   137609569.922                                                  
 21  9  1  7 42 46.0000000  0 15G 1G 7G 8G 9G13G14G17G21G27G30C23C25
                                C28C34E19
  22746971.360   119536095.820    22746974.541    93144997.458                  
  20179473.661   106043866.735    20179472.857    82631588.386                  
  21723266.239   114156498.254    21723268.347    88953106.566                  
  24137782.014   126844858.887    24137784.605    98840139.227                  
  24017544.718   126213068.911    24017543.664    98347850.542                  
  22421305.468   117824767.813    22421305.522    91811512.593                  
  23386126.459   122894925.331    23386126.567    95762279.257                  
  22062896.147   115941306.121    22062895.074    90343876.587                  
  24289105.085   127640084.828    24289106.532    99459801.352                  
  20997799.023   110344145.512    20997800.757    85982442.821                  
                 117469946.056                   117469946.056    22558858.223  
                 116436521.397                   116436521.397    22360405.873  
                 134832734.837                   134832734.837    25893210.957  
                 118473358.946                   118473358.946    22751561.948  
  26186282.054   137609835.340                                                  
 21  9  1  7 42 47.0000000  0 15G 1G 7G 8G 9G13G14G17G21G27G30C23C25
                                C28C34E19
  22746357.953   119532872.417    22746361.133    93142485.720                  
  20179529.323   106044159.218    20179528.501    82631816.292                  
  21723766.607   114159127.617    21723768.698    88955155.423                  
  24138446.438   126848350.446    24138449.011    98842859.923                  
  24017109.196   126210780.182    24017108.142    98346067.117                  
  22420885.064   117822558.567    22420885.118    91809791.105                  
  23385511.104   122891691.692    23385511.229    95759759.543                  
  22062688.383   115940214.356    22062687.311    90343025.859                  
  24289800.065   127643736.978    24289801.512    99462647.183                  
  20997460.352   110342365.860    20997462.121    85981056.079                  
                 117468427.925                   117468427.925    22558566.672  
                 116437596.482                   116437596.482    22360612.331  
                 134829286.191                   134829286.191    25892548.678  
                 118474570.716                   118474570.716    22751794.639  
  26186332.659   137610101.239                                                  
 21  9  1  7 42 48.0000000  0 15G 1G 7G 8G 9G13G14G17G21G27G30C23C25
                                C28C34E19
  22745744.616   119529649.298    22745747.797    93139974.196                  
  20179585.075   106044452.261    20179584.288    82632044.642                  
  21724267.029   114161757.311    21724269.102    88957204.530                  
  24139110.880   126851842.047    24139113.435    98845580.648                  
  24016673.764   126208491.946    24016672.692    98344284.078                  
  22420464.677   117820349.484    22420464.749    91808069.742                  
  23384895.820   122888458.297    23384895.927    95757240.016                  
  22062480.727   115939123.140    22062479.655    90342175.559                  
  24290495.062   127647389.228    24290496.528    99465493.094                  
  20997121.805   110340586.636    20997123.539    85979669.676                  
                 117466910.022                   117466910.022    22558275.175  
                 116438671.892                   116438671.892    22360818.861  
                 134825837.605                   134825837.605    25891886.416  
                 118475782.981                   118475782.981    22752027.454  
  26186383.336   137610367.591                                                  
 21  9  1  7 42 49.0000000  0 15G 1G 7G 8G 9G13G14G17G21G27G30C23C25
                                C28C34E19
  22745131.333   119526426.461    22745134.514    93137462.894                  
  20179640.951   106044745.864    20179640.147    82632273.421                  
  21724767.505   114164387.360    21724769.577    88959253.917                  
  24139775.322   126855333.671    24139777.877    98848301.394                  
  24016238.421   126206204.227    24016237.367    98342501.437                  
  22420044.344   117818140.564    22420044.398    91806348.503                  
  23384280.554   122885225.160    23384280.679    95754720.686                  
  22062273.179   115938032.497    22062272.125    90341325.707                  
  24291190.078   127651041.563    24291191.543    99468339.069                  
  20996783.294   110338807.853    20996785.046    85978283.606                  
                 117465392.351                   117465392.351    22557983.713  
                 116439747.622                   116439747.622    22361025.445  
                 134822389.081                   134822389.081    25891224.154  
                 118476995.745                   118476995.745    22752260.359  
  26186434.119   137610634.393                                                  
 21  9  1  7 42 50.0000000  0 15G 1G 7G 8G 9G13G14G17G21G27G30C23C25
                                C28C34E19
  22744518.104   119523203.914    22744521.303    93134951.821                  
  20179696.935   106045040.016    20179696.113    82632502.628                  
  21725268.034   114167017.750    21725270.142    88961303.578                  
  24140439.763   126858825.344    24140442.319    98851022.176                  
  24015803.185   126203917.003    24015802.113    98340719.187                  
  22419624.011   117815931.801    22419624.083    91804627.394                  
  23383665.359   122881992.269    23383665.484    95752201.555                  
  22062065.737   115936942.402    22062064.683    90340476.284                  
  24291885.094   127654693.985    24291886.577    99471185.113                  
  20996444.873   110337029.486    20996446.642    85976897.868                  
                 117463874.911                   117463874.911    22557692.323  
                 116440823.681                   116440823.681    22361232.083  
                 134818940.621                   134818940.621    25890561.928  
                 118478209.013                   118478209.013    22752493.335  
  26186484.975   137610901.675                                                  
 21  9  1  7 42 51.0000000  0 15G 1G 7G 8G 9G13G14G17G21G27G30C23C25
                                C28C34E19
  22743904.929   119519981.637    22743908.127    93132440.954                  
  20179753.026   106045334.731    20179752.204    82632732.277                  
  21725768.652   114169648.501    21725770.743    88963353.512                  
  24141104.205   126862317.047    24141106.778    98853742.984                  
  24015368.021   126201630.290    24015366.967    98338937.329                  
  22419203.732   117813723.192    22419203.803    91802906.400                  
  23383050.218   122878759.634    23383050.325    95749682.617                  
  22061858.421   115935852.871    22061857.349    90339627.301                  
  24292580.163   127658346.493    24292581.628    99474031.223                  
  20996106.559   110335251.559    20996108.292    85975512.468                  
                 117462357.661                   117462357.661    22557400.933  
                 116441900.074                   116441900.074    22361438.791  
                 134815492.266                   134815492.266    25889899.702  
                 118479422.772                   118479422.772    22752726.437  
  26186535.919   137611169.417                                                  
 21  9  1  7 42 52.0000000  0 15G 1G 7G 8G 9G13G14G17G21G27G30C23C25
                                C28C34E19
  22743291.807   119516759.648    22743294.988    93129930.315                  
  20179809.206   106045629.996    20179808.384    82632962.355                  
  21726269.342   114172279.574    21726271.415    88965403.699                  
  24141768.665   126865808.786    24141771.238    98856463.817                  
  24014932.982   126199344.073    24014931.927    98337155.863                  
  22418783.488   117811514.744    22418783.542    91801185.528                  
  23382435.112   122875527.245    23382435.220    95747163.874                  
  22061651.194   115934763.903    22061650.122    90338778.755                  
  24293275.214   127661999.083    24293276.680    99476877.397                  
  20995768.316   110333474.055    20995770.067    85974127.403                  
                 117460840.680                   117460840.680    22557109.614  
                 116442976.784                   116442976.784    22361645.554  
                 134812043.925                   134812043.925    25889237.476  
                 118480637.034                   118480637.034    22752959.627  
  26186586.953   137611437.634                                                  
 21  9  1  7 42 53.0000000  0 15G 1G 7G 8G 9G13G14G17G21G27G30C23C25
                                C28C34E19
  22742678.721   119513537.938    22742681.919    93127419.892                  
  20179865.493   106045925.823    20179864.671    82633192.870                  
  21726770.086   114174911.003    21726772.159    88967454.160                  
  24142433.124   126869300.553    24142435.698    98859184.675                  
  24014498.014   126197058.367    24014496.960    98335374.793                  
  22418363.262   117809306.457    22418363.316    91799464.785                  
  23381820.061   122872295.108    23381820.168    95744645.329                  
  22061444.074   115933675.501    22061443.002    90337930.650                  
  24293970.302   127665651.773    24293971.785    99479723.652                  
  20995430.145   110331696.986    20995431.896    85972742.668                  
                 117459323.931                   117459323.931    22556818.367  
                 116444053.820                   116444053.820    22361852.406  
                 134808595.648                   134808595.648    25888575.286  
                 118481851.797                   118481851.797    22753192.907  
  26186638.076   137611706.301                                                  
 21  9  1  7 42 54.0000000  0 15G 1G 7G 8G 9G13G14G17G21G27G30C23C25
                                C28C34E19
  22742065.724   119510316.503    22742068.905    93124909.683                  
  20179921.906   106046222.200    20179921.084    82633423.813                  
  21727270.883   114177542.774    21727272.974    88969504.894                  
  24143097.602   126872792.350    24143100.157    98861905.558                  
  24014063.153   126194773.156    24014062.099    98333594.114                  
  22417943.054   117807098.337    22417943.144    91797744.173                  
  23381205.062   122869063.227    23381205.152    95742126.977                  
  22061237.061   115932587.646    22061236.007    90337082.970                  
  24294665.407   127669304.528    24294666.854    99482569.949                  
  20995092.063   110329920.347    20995093.796    85971358.277                  
                 117457807.409                   117457807.409    22556527.120  
                 116445131.181                   116445131.181    22362059.293  
                 134805147.432                   134805147.432    25887913.078  
                 118483067.059                   118483067.059    22753426.277  
  26186689.307   137611975.436                                                  
 21  9  1  7 42 55.0000000  0 15G 1G 7G 8G 9G13G14G17G21G27G30C23C25
                                C28C34E19
  22741452.745   119507095.356    22741455.943    93122399.698                  
  20179978.408   106046519.136    20179977.586    82633655.192                  
  21727771.752   114180174.907    21727773.860    88971555.906                  
  24143762.062   126876284.194    24143764.635    98864626.473                  
  24013628.400   126192488.445    24013627.328    98331813.817                  
  22417522.900   117804890.370    22417522.972    91796023.679                  
  23380590.100   122865831.593    23380590.207    95739608.825                  
  22061030.156   115931500.344    22061029.084    90336235.722                  
  24295360.512   127672957.379    24295361.977    99485416.329                  
  20994754.053   110328144.129    20994755.804    85969974.211                  
                 117456291.116                   117456291.116    22556235.944  
                 116446208.868                   116446208.868    22362266.252  
                 134801699.280                   134801699.280    25887250.906  
                 118484282.816                   118484282.816    22753659.754  
  26186740.609   137612245.039                                                  
 21  9  1  7 42 56.0000000  0 15G 1G 7G 8G 9G13G14G17G21G27G30C23C25
                                C28C34E19
  22740839.820   119503874.485    22740843.018    93119889.933                  
  20180035.017   106046816.637    20180034.195    82633887.013                  
  21728272.692   114182807.386    21728274.801    88973607.191                  
  24144426.539   126879776.050    24144429.112    98867347.399                  
  24013193.718   126190204.244    24013192.664    98330033.913                  
  22417102.781   117802682.570    22417102.835    91794303.320                  
  23379975.173   122862600.228    23379975.281    95737090.879                  
  22060823.358   115930413.583    22060822.303    90335388.891                  
  24296055.634   127676610.301    24296057.118    99488262.757                  
  20994416.131   110326368.347    20994417.883    85968590.487                  
                 117454775.060                   117454775.060    22555944.786  
                 116447286.887                   116447286.887    22362473.265  
                 134798251.230                   134798251.230    25886588.715  
                 118485499.073                   118485499.073    22753893.320  
  26186792.000   137612515.090                                                  
 21  9  1  7 42 57.0000000  0 15G 1G 7G 8G 9G13G14G17G21G27G30C23C25
                                C28C34E19
  22740226.984   119500653.899    22740230.164    93117380.388                  
  20180091.715   106047114.680    20180090.929    82634119.254                  
  21728773.722   114185440.211    21728775.794    88975658.743                  
  24145091.034   126883267.950    24145093.608    98870068.360                  
  24012759.161   126187920.547    24012758.071    98328254.414                  
  22416682.681   117800474.926    22416682.734    91792583.073                  
  23379360.318   122859369.101    23379360.425    95734573.122                  
  22060616.667   115929327.397    22060615.595    90334542.512                  
  24296750.793   127680263.328    24296752.258    99491109.274                  
  20994078.300   110324592.988    20994080.033    85967207.091                  
                 117453259.230                   117453259.230    22555653.682  
                 116448365.228                   116448365.228    22362680.367  
                 134794803.200                   134794803.200    25885926.561  
                 118486715.827                   118486715.827    22754126.993  
  26186843.481   137612785.617                                                  
 21  9  1  7 42 58.0000000  0 15G 1G 7G 8G 9G13G14G17G21G27G30C23C25
                                C28C34E19
  22739614.165   119497433.585    22739617.364    93114871.055                  
  20180148.556   106047413.280    20180147.734    82634351.930                  
  21729274.805   114188073.380    21729276.878    88977710.563                  
  24145755.548   126886759.894    24145758.103    98872789.351                  
  24012324.676   126185637.356    24012323.622    98326475.304                  
  22416262.598   117798267.446    22416262.651    91790862.961                  
  23378745.499   122856138.223    23378745.606    95732055.555                  
  22060410.083   115928241.766    22060408.993    90333696.563                  
  24297445.952   127683916.438    24297447.417    99493955.851                  
  20993740.539   110322818.067    20993742.273    85965824.035                  
                 117451743.632                   117451743.632    22555362.631  
                 116449443.886                   116449443.886    22362887.505  
                 134791355.235                   134791355.235    25885264.424  
                 118487933.081                   118487933.081    22754360.755  
  26186895.033   137613056.616                                                  
 21  9  1  7 42 59.0000000  0 15G 1G 7G 8G 9G13G14G17G21G27G30C23C25
                                C28C34E19
  22739001.419   119494213.562    22739004.599    93112361.946                  
  20180205.487   106047712.433    20180204.665    82634585.036                  
  21729775.942   114190706.904    21729778.014    88979762.661                  
  24146420.043   126890251.867    24146422.598    98875510.371                  
  24011890.298   126183354.675    24011889.244    98324696.589                  
  22415842.569   117796060.113    22415842.622    91789142.961                  
  23378130.715   122852907.607    23378130.840    95729538.191                  
  22060203.606   115927156.712    22060202.516    90332851.071                  
  24298141.146   127687569.638    24298142.593    99496802.500                  
  20993402.868   110321043.570    20993404.620    85964441.308                  
                 117450228.261                   117450228.261    22555071.616  
                 116450522.879                   116450522.879    22363094.696  
                 134787907.327                   134787907.327    25884602.288  
                 118489150.836                   118489150.836    22754594.607  
  26186946.692   137613328.070                                                  
 21  9  1  7 43  0.0000000  0 15G 1G 7G 8G 9G13G14G17G21G27G30C23C25
                                C28C34E19
  22738388.726   119490993.818    22738391.906    93109853.054                  
  20180262.507   106048012.140    20180261.703    82634818.574                  
  21730277.132   114193340.777    21730279.240    88981815.027                  
  24147084.538   126893743.875    24147087.111    98878231.414                  
  24011455.992   126181072.490    24011454.937    98322918.265                  
  22415422.557   117793852.953    22415422.629    91787423.099                  
  23377516.003   122849677.225    23377516.128    95727021.015                  
  22059997.219   115926072.199    22059996.165    90332005.996                  
  24298836.340   127691222.921    24298837.806    99499649.214                  
  20993065.287   110319269.511    20993067.020    85963058.925                  
                 117448713.126                   117448713.126    22554780.655  
                 116451602.191                   116451602.191    22363301.977  
                 134784459.489                   134784459.489    25883940.169  
                 118490369.087                   118490369.087    22754828.566  
  26186998.441   137613599.988                                                  
 21  9  1  7 43  1.0000000  0 15G 1G 7G 8G 9G13G14G17G21G27G30C23C25
                                C28C34E19
  22737776.086   119487774.367    22737779.267    93107344.391                  
  20180319.634   106048312.401    20180318.848    82635052.544                  
  21730778.412   114195974.975    21730780.502    88983867.652                  
  24147749.052   126897235.921    24147751.625    98880952.489                  
  24011021.828   126178790.815    24011020.756    98321140.340                  
  22415002.582   117791645.954    22415002.635    91785703.360                  
  23376901.344   122846447.110    23376901.433    95724504.043                  
  22059790.939   115924988.257    22059789.885    90331161.366                  
  24299531.535   127694876.283    24299533.018    99502495.987                  
  20992727.759   110317495.878    20992729.492    85961676.875                  
                 117447198.215                   117447198.215    22554489.747  
                 116452681.832                   116452681.832    22363509.329  
                 134781011.706                   134781011.706    25883278.068  
                 118491587.836                   118491587.836    22755062.597  
  26187050.279   137613872.372                                                  
 21  9  1  7 43  2.0000000  0 15G 1G 7G 8G 9G13G14G17G21G27G30C23C25
                                C28C34E19
  22737163.483   119484555.195    22737166.681    93104835.945                  
  20180376.905   106048613.229    20180376.083    82635286.953                  
  21731279.763   114198609.535    21731281.836    88985920.556                  
  24148413.583   126900727.985    24148416.138    98883673.578                  
  24010587.718   126176509.645    24010586.664    98319362.805                  
  22414582.624   117789439.114    22414582.695    91783983.742                  
  23376286.721   122843217.239    23376286.828    95721987.258                  
  22059584.784   115923904.883    22059583.712    90330317.180                  
  24300226.783   127698529.735    24300228.248    99505342.836                  
  20992390.338   110315722.679    20992392.071    85960295.164                  
                 117445683.539                   117445683.539    22554198.857  
                 116453761.796                   116453761.796    22363716.699  
                 134777563.991                   134777563.991    25882615.967  
                 118492807.085                   118492807.085    22755296.753  
  26187102.206   137614145.229                                                  
 21  9  1  7 43  3.0000000  0 15G 1G 7G 8G 9G13G14G17G21G27G30C23C25
                                C28C34E19
  22736550.968   119481336.293    22736554.149    93102327.710                  
  20180434.246   106048914.621    20180433.424    82635521.805                  
  21731781.168   114201244.435    21731783.258    88987973.722                  
  24149078.096   126904220.102    24149080.687    98886394.706                  
  24010153.733   126174228.977    24010152.661    98317585.656                  
  22414162.702   117787232.426    22414162.773    91782264.247                  
  23375672.134   122839987.618    23375672.241    95719470.672                  
  22059378.737   115922822.077    22059377.682    90329473.434                  
  24300922.013   127702183.273    24300923.478    99508189.751                  
  20992053.007   110313949.914    20992054.740    85958913.786                  
                 117444169.091                   117444169.091    22553908.021  
                 116454842.088                   116454842.088    22363924.158  
                 134774116.336                   134774116.336    25881953.884  
                 118494026.831                   118494026.831    22755530.998  
  26187154.223   137614418.538                                                  
 21  9  1  7 43  4.0000000  0 15G 1G 7G 8G 9G13G14G17G21G27G30C23C25
                                C28C34E19
  22735938.472   119478117.687    22735941.652    93099819.708                  
  20180491.695   106049216.558    20180490.873    82635757.079                  
  21732282.644   114203879.692    21732284.717    88990027.167                  
  24149742.645   126907712.263    24149745.200    98889115.868                  
  24009719.837   126171948.817    24009718.765    98315808.910                  
  22413742.815   117785025.903    22413742.887    91780544.878                  
  23375057.600   122836758.254    23375057.725    95716954.285                  
  22059172.796   115921739.829    22059171.724    90328630.121                  
  24301617.278   127705836.905    24301618.744    99511036.739                  
  20991715.729   110312177.575    20991717.480    85957532.742                  
                 117442654.874                   117442654.874    22553617.239  
                 116455922.707                   116455922.707    22364131.671  
                 134770668.742                   134770668.742    25881291.801  
                 118495247.075                   118495247.075    22755765.314  
  26187206.311   137614692.328                                                  
 21  9  1  7 43  5.0000000  0 15G 1G 7G 8G 9G13G14G17G21G27G30C23C25
                                C28C34E19
  22735326.047   119474899.363    22735329.227    93097311.923                  
  20180549.251   106049519.049    20180548.447    82635992.789                  
  21732784.174   114206515.297    21732786.264    88992080.887                  
  24150407.176   126911204.433    24150409.731    98891837.044                  
  24009286.013   126169669.164    24009284.959    98314032.560                  
  22413322.965   117782819.544    22413323.019    91778825.637                  
  23374443.120   122833529.137    23374443.245    95714438.095                  
  22058966.963   115920658.133    22058965.873    90327787.243                  
  24302312.562   127709490.613    24302314.027    99513883.782                  
  20991378.540   110310405.667    20991380.274    85956152.035                  
                 117441140.891                   117441140.891    22553326.474  
                 116457003.653                   116457003.653    22364339.273  
                 134767221.216                   134767221.216    25880629.736  
                 118496467.815                   118496467.815    22755999.756  
  26187258.507   137614966.567                                                  
 21  9  1  7 43  6.0000000  0 15G 1G 7G 8G 9G13G14G17G21G27G30C23C25
                                C28C34E19
  22734713.675   119471681.318    22734716.856    93094804.353                  
  20180606.933   106049822.113    20180606.128    82636228.940                  
  21733285.775   114209151.238    21733287.866    88994134.868                  
  24151071.725   126914696.626    24151074.280    98894558.226                  
  24008852.314   126167389.999    24008851.260    98312256.587                  
  22412903.132   117780613.341    22412903.204    91777106.520                  
  23373828.694   122830300.285    23373828.801    95711922.105                  
  22058761.219   115919576.976    22058760.147    90326944.786                  
  24303007.864   127713144.404    24303009.329    99516730.891                  
  20991041.441   110308634.184    20991043.175    85954771.661                  
                 117439627.137                   117439627.137    22553035.781  
                 116458084.923                   116458084.923    22364546.911  
                 134763773.747                   134763773.747    25879967.688  
                 118497689.059                   118497689.059    22756234.287  
  26187310.774   137615241.272                                                  
 21  9  1  7 43  7.0000000  0 15G 1G 7G 8G 9G13G14G17G21G27G30C23C25
                                C28C34E19
  22734101.357   119468463.560    22734104.538    93092297.011                  
  20180664.721   106050125.723    20180663.899    82636465.519                  
  21733787.448   114211787.509    21733789.538    88996189.104                  
  24151736.256   126918188.807    24151738.847    98897279.411                  
  24008418.704   126165111.356    24008417.632    98310481.020                  
  22412483.335   117778407.305    22412483.407    91775387.526                  
  23373214.321   122827071.687    23373214.428    95709406.317                  
  22058555.582   115918496.386    22058554.528    90326102.765                  
  24303703.165   127716798.297    24303704.648    99519578.083                  
  20990704.414   110306863.154    20990706.165    85953391.633                  
                 117438113.613                   117438113.613    22552745.141  
                 116459166.515                   116459166.515    22364754.621  
                 134760326.343                   134760326.343    25879305.641  
                 118498910.797                   118498910.797    22756468.907  
  26187363.148   137615516.462                                                  
 21  9  1  7 43  8.0000000  0 15G 1G 7G 8G 9G13G14G17G21G27G30C23C25
                                C28C34E19
  22733489.075   119465246.069    22733492.256    93089789.878                  
  20180722.599   106050429.879    20180721.777    82636702.528                  
  21734289.156   114214424.111    21734291.265    88998243.597                  
  24152400.823   126921681.144    24152403.396    98900000.710                  
  24007985.202   126162833.226    24007984.112    98308705.854                  
  22412063.574   117776201.421    22412063.646    91773668.661                  
  23372599.984   122823843.324    23372600.074    95706890.708                  
  22058350.053   115917416.351    22058348.998    90325261.184                  
  24304398.503   127720452.269    24304399.968    99522425.336                  
  20990367.475   110305092.531    20990369.244    85952011.929                  
                 117436600.321                   117436600.321    22552454.519  
                 116460248.438                   116460248.438    22364962.402  
                 134756878.999                   134756878.999    25878643.612  
                 118500133.035                   118500133.035    22756703.617  
  26187415.593   137615792.083                                                  
 21  9  1  7 43  9.0000000  0 15G 1G 7G 8G 9G13G14G17G21G27G30C23C25
                                C28C34E19
  22732876.883   119462028.878    22732880.063    93087282.976                  
  20180780.584   106050734.607    20180779.762    82636939.972                  
  21734790.954   114217061.073    21734793.063    89000298.376                  
  24153065.408   126925173.446    24153067.963    98902721.985                  
  24007551.789   126160555.598    24007550.699    98306931.077                  
  22411643.849   117773995.702    22411643.902    91771949.918                  
  23371985.683   122820615.226    23371985.808    95704375.308                  
  22058144.648   115916336.890    22058143.576    90324420.044                  
  24305093.840   127724106.320    24305095.305    99525272.645                  
  20990030.644   110303322.342    20990032.378    85950632.561                  
                 117435087.259                   117435087.259    22552163.969  
                 116461330.685                   116461330.685    22365170.237  
                 134753431.722                   134753431.722    25877981.600  
                 118501355.765                   118501355.765    22756938.433  
  26187468.146   137616068.185                                                  
 21  9  1  7 43 10.0000000  0 15G 1G 7G 8G 9G13G14G17G21G27G30C23C25
                                C28C34E19
  22732264.726   119458811.971    22732267.906    93084776.297                  
  20180838.676   106051039.880    20180837.854    82637177.847                  
  21735292.842   114219698.391    21735294.914    89002353.429                  
  24153729.956   126928665.789    24153732.547    98905443.288                  
  24007118.447   126158278.469    24007117.375    98305156.691                  
  22411224.141   117771790.141    22411224.195    91770231.302                  
  23371371.435   122817387.370    23371371.560    95701860.097                  
  22057939.333   115915257.987    22057938.279    90323579.345                  
  24305789.195   127727760.454    24305790.660    99528120.024                  
  20989693.867   110301552.597    20989695.600    85949253.539                  
                 117433574.427                   117433574.427    22551873.419  
                 116462413.254                   116462413.254    22365378.143  
                 134749984.507                   134749984.507    25877319.606  
                 118502579.001                   118502579.001    22757173.340  
  26187520.752   137616344.745                                                  
 21  9  1  7 43 11.0000000  0 15G 1G 7G 8G 9G13G14G17G21G27G30C23C25
                                C28C34E19
  22731652.604   119455595.329    22731655.785    93082269.820                  
  20180896.857   106051345.711    20180896.053    82637416.159                  
  21735794.765   114222336.055    21735796.855    89004408.749                  
  24154394.541   126932158.152    24154397.114    98908164.610                  
  24006685.213   126156001.845    24006684.158    98303382.700                  
  22410804.451   117769584.747    22410804.523    91768512.809                  
  23370757.259   122814159.777    23370757.366    95699345.091                  
  22057734.143   115914179.657    22057733.089    90322739.082                  
  24306484.586   127731414.679    24306486.033    99530967.472                  
  20989357.161   110299783.269    20989358.912    85947874.844                  
                 117432061.827                   117432061.827    22551582.958  
                 116463496.152                   116463496.152    22365586.084  
                 134746537.355                   134746537.355    25876657.613  
                 118503802.730                   118503802.730    22757408.353  
  26187573.484   137616621.777                                                  
 21  9  1  7 43 12.0000000  0 15G 1G 7G 8G 9G13G14G17G21G27G30C23C25
                                C28C34E19
  22731040.555   119452379.003    22731043.735    93079763.593                  
  20180955.182   106051652.094    20180954.360    82637654.899                  
  21736296.759   114224974.057    21736298.832    89006464.337                  
  24155059.126   126935650.577    24155061.699    98910885.981                  
  24006252.103   126153725.722    24006251.013    98301609.098                  
  22410384.815   117767379.512    22410384.887    91766794.446                  
  23370143.119   122810932.441    23370143.226    95696830.281                  
  22057529.043   115913101.887    22057527.988    90321899.262                  
  24307179.959   127735068.980    24307181.424    99533814.981                  
  20989020.562   110298014.386    20989022.295    85946496.492                  
                 117430549.458                   117430549.458    22551292.515  
                 116464579.375                   116464579.375    22365794.116  
                 134743090.265                   134743090.265    25875995.637  
                 118505026.958                   118505026.958    22757643.456  
  26187626.287   137616899.274                                                  
 21  9  1  7 43 13.0000000  0 15G 1G 7G 8G 9G13G14G17G21G27G30C23C25
                                C28C34E19
  22730428.558   119449162.933    22730431.739    93077257.566                  
  20181013.578   106051959.023    20181012.756    82637894.067                  
  21736798.825   114227612.417    21736800.916    89008520.204                  
  24155723.728   126939143.011    24155726.284    98913607.355                  
  24005819.065   126151450.101    24005817.993    98299835.887                  
  22409965.197   117765174.433    22409965.286    91765076.202                  
  23369529.014   122807705.340    23369529.121    95694315.659                  
  22057324.067   115912024.689    22057322.995    90321059.887                  
  24307875.368   127738723.371    24307876.833    99536662.559                  
  20988684.035   110296245.923    20988685.786    85945118.468                  
                 117429037.320                   117429037.320    22551002.125  
                 116465662.924                   116465662.924    22366002.200  
                 134739643.238                   134739643.238    25875333.679  
                 118506251.685                   118506251.685    22757878.648  
  26187679.179   137617177.222                                                  
 21  9  1  7 43 14.0000000  0 15G 1G 7G 8G 9G13G14G17G21G27G30C23C25
                                C28C34E19
  22729816.616   119445947.153    22729819.797    93074751.761                  
  20181072.099   106052266.524    20181071.277    82638133.676                  
  21737300.944   114230251.093    21737303.035    89010576.313                  
  24156388.295   126942635.483    24156390.886    98916328.767                  
  24005386.117   126149174.997    24005385.062    98298063.079                  
  22409545.614   117762969.515    22409545.704    91763358.087                  
  23368914.963   122804478.503    23368915.088    95691801.241                  
  22057119.181   115910948.040    22057118.126    90320220.942                  
  24308570.794   127742377.851    24308572.260    99539510.203                  
  20988347.597   110294477.903    20988349.348    85943740.788                  
                 117427525.413                   117427525.413    22550711.771  
                 116466746.802                   116466746.802    22366210.339  
                 134736196.278                   134736196.278    25874671.721  
                 118507476.906                   118507476.906    22758113.947  
  26187732.161   137617455.648                                                  
 21  9  1  7 43 15.0000000  0 15G 1G 7G 8G 9G13G14G17G21G27G30C23C25
                                C28C34E19
  22729204.745   119442731.660    22729207.925    93072246.183                  
  20181130.727   106052574.582    20181129.905    82638373.723                  
  21737803.135   114232890.116    21737805.226    89012632.695                  
  24157052.916   126946127.993    24157055.489    98919050.196                  
  24004953.275   126146900.398    24004952.221    98296290.664                  
  22409126.085   117760764.767    22409126.139    91761640.097                  
  23368300.965   122801251.910    23368301.073    95689287.015                  
  22056914.420   115909871.969    22056913.347    90319382.442                  
  24309266.239   127746032.410    24309267.704    99542357.910                  
  20988011.212   110292710.306    20988012.981    85942363.442                  
                 117426013.738                   117426013.738    22550421.471  
                 116467831.000                   116467831.000    22366418.567  
                 134732749.374                   134732749.374    25874009.781  
                 118508702.625                   118508702.625    22758349.318  
  26187785.214   137617734.535                                                  
 21  9  1  7 43 16.0000000  0 15G 1G 7G 8G 9G13G14G17G21G27G30C23C25
                                C28C34E19
  22728592.892   119439516.438    22728596.072    93069740.817                  
  20181189.445   106052883.204    20181188.623    82638614.208                  
  21738305.380   114235529.491    21738307.489    89014689.351                  
  24157717.518   126949620.533    24157720.091    98921771.655                  
  24004520.523   126144626.300    24004519.451    98294518.642                  
  22408706.556   117758560.160    22408706.628    91759922.226                  
  23367687.021   122798025.572    23367687.129    95686772.985                  
  22056709.748   115908796.446    22056708.676    90318544.375                  
  24309961.683   127749687.055    24309963.166    99545205.684                  
  20987674.935   110290943.146    20987676.704    85940986.430                  
                 117424502.293                   117424502.293    22550131.225  
                 116468915.529                   116468915.529    22366626.812  
                 134729302.539                   134729302.539    25873347.859  
                 118509928.844                   118509928.844    22758584.796  
  26187838.374   137618013.883                                                  
 21  9  1  7 43 17.0000000  0 15G 1G 7G 8G 9G13G14G17G21G27G30C23C25
                                C28C34E19
  22727981.128   119436301.503    22727984.308    93067235.675                  
  20181248.288   106053192.371    20181247.466    82638855.113                  
  21738807.714   114238169.218    21738809.805    89016746.278                  
  24158382.139   126953113.078    24158384.694    98924493.122                  
  24004087.879   126142352.710    24004086.824    98292747.011                  
  22408287.063   117756355.732    22408287.135    91758204.485                  
  23367073.113   122794799.489    23367073.221    95684259.152                  
  22056505.183   115907721.496    22056504.111    90317706.750                  
  24310657.164   127753341.784    24310658.629    99548053.528                  
  20987338.765   110289176.405    20987340.499    85939609.753                  
                 117422991.083                   117422991.083    22549840.996  
                 116470000.383                   116470000.383    22366835.165  
                 134725855.766                   134725855.766    25872685.936  
                 118511155.563                   118511155.563    22758820.381  
  26187891.642   137618293.688                                                  
 21  9  1  7 43 18.0000000  0 15G 1G 7G 8G 9G13G14G17G21G27G30C23C25
                                C28C34E19
  22727369.382   119433086.933    22727372.562    93064730.847                  
  20181307.220   106053502.067    20181306.398    82639096.421                  
  21739310.102   114240809.339    21739312.192    89018803.542                  
  24159046.759   126956605.661    24159049.314    98927214.597                  
  24003655.323   126140079.563    24003654.269    98290975.702                  
  22407867.606   117754151.450    22407867.677    91756486.863                  
  23366459.259   122791573.579    23366459.366    95681745.427                  
  22056300.744   115906647.121    22056299.672    90316869.590                  
  24311352.644   127756996.637    24311354.127    99550901.485                  
  20987002.631   110287410.090    20987004.382    85938233.395                  
                 117421480.100                   117421480.100    22549550.839  
                 116471085.564                   116471085.564    22367043.553  
                 134722409.059                   134722409.059    25872024.014  
                 118512382.774                   118512382.774    22759056.056  
  26187944.963   137618573.972                                                  
 21  9  1  7 43 19.0000000  0 15G 1G 7G 8G 9G13G14G17G21G27G30C23C25
                                C28C34E19
  22726757.725   119429872.570    22726760.906    93062226.151                  
  20181366.259   106053812.335    20181365.437    82639338.190                  
  21739812.561   114243449.743    21739814.634    89020861.001                  
  24159711.380   126960098.274    24159713.953    98929936.118                  
  24003222.857   126137806.979    24003221.803    98289204.860                  
  22407448.184   117751947.327    22407448.238    91754769.367                  
  23365845.440   122788347.993    23365845.547    95679231.980                  
  22056096.394   115905573.286    22056095.321    90316032.836                  
  24312048.160   127760651.536    24312049.625    99553749.457                  
  20986666.604   110285644.219    20986668.337    85936857.386                  
                 117419969.347                   117419969.347    22549260.717  
                 116472171.067                   116472171.067    22367252.013  
                 134718962.410                   134718962.410    25871362.146  
                 118513610.484                   118513610.484    22759291.819  
  26187998.374   137618854.711                                                  
 21  9  1  7 43 20.0000000  0 15G 1G 7G 8G 9G13G14G17G21G27G30C23C25
                                C28C34E19
  22726146.104   119426658.489    22726149.285    93059721.673                  
  20181425.423   106054123.176    20181424.601    82639580.406                  
  21740315.073   114246090.489    21740317.164    89022918.722                  
  24160376.000   126963590.919    24160378.573    98932657.657                  
  24002790.498   126135534.903    24002789.444    98287434.411                  
  22407028.780   117749743.366    22407028.834    91753051.997                  
  23365231.675   122785122.667    23365231.782    95676718.742                  
  22055892.169   115904500.015    22055891.096    90315196.520                  
  24312743.676   127764306.509    24312745.141    99556597.488                  
  20986330.667   110283878.778    20986332.400    85935481.723                  
                 117418458.833                   117418458.833    22548970.632  
                 116473256.896                   116473256.896    22367460.545  
                 134715515.829                   134715515.829    25870700.259  
                 118514838.692                   118514838.692    22759527.708  
  26188051.891   137619135.919                                                  
 21  9  1  7 43 21.0000000  0 15G 1G 7G 8G 9G13G14G17G21G27G30C23C25
                                C28C34E19
  22725534.537   119423444.702    22725537.717    93057217.425                  
  20181484.659   106054434.570    20181483.855    82639823.051                  
  21740817.658   114248731.575    21740819.748    89024976.711                  
  24161040.638   126967083.602    24161043.211    98935379.226                  
  24002358.247   126133263.329    24002357.174    98285664.351                  
  22406609.394   117747539.572    22406609.484    91751334.750                  
  23364617.981   122781897.582    23364618.088    95674205.691                  
  22055688.015   115903427.298    22055686.961    90314360.632                  
  24313439.192   127767961.570    24313440.675    99559445.589                  
  20985994.783   110282113.766    20985996.516    85934106.387                  
                 117416948.542                   117416948.542    22548680.599  
                 116474343.050                   116474343.050    22367669.112  
                 134712069.314                   134712069.314    25870038.373  
                 118516067.397                   118516067.397    22759763.669  
  26188105.498   137619417.585                                                  
 21  9  1  7 43 22.0000000  0 15G 1G 7G 8G 9G13G14G17G21G27G30C23C25
                                C28C34E19
  22724923.023   119420231.199    22724926.204    93054713.395                  
  20181544.038   106054746.520    20181543.216    82640066.124                  
  21741320.295   114251372.995    21741322.404    89027034.965                  
  24161705.277   126970576.318    24161707.868    98938100.820                  
  24001926.084   126130992.266    24001924.994    98283894.696                  
  22406190.080   117745335.927    22406190.133    91749617.629                  
  23364004.323   122778672.755    23364004.412    95671692.836                  
  22055484.004   115902355.144    22055482.932    90313525.190                  
  24314134.761   127771616.722    24314136.227    99562293.762                  
  20985659.006   110280349.183    20985660.739    85932731.386                  
                 117415438.490                   117415438.490    22548390.621  
                 116475429.536                   116475429.536    22367877.787  
                 134708622.854                   134708622.854    25869376.540  
                 118517296.596                   118517296.596    22759999.701  
  26188159.177   137619699.723                                                  
 21  9  1  7 43 23.0000000  0 15G 1G 7G 8G 9G13G14G17G21G27G30C23C25
                                C28C34E19
  22724311.581   119417017.984    22724314.762    93052209.591                  
  20181603.506   106055059.030    20181602.684    82640309.641                  
  21741823.022   114254014.770    21741825.113    89029093.489                  
  24162369.933   126974069.063    24162372.506    98940822.442                  
  24001493.993   126128721.715    24001492.939    98282125.434                  
  22405770.765   117743132.456    22405770.837    91747900.636                  
  23363390.701   122775448.187    23363390.808    95669180.188                  
  22055280.083   115901283.554    22055279.029    90312690.187                  
  24314830.313   127775271.950    24314831.796    99565141.989                  
  20985323.283   110278585.036    20985325.034    85931356.727                  
                 117413928.664                   117413928.664    22548100.660  
                 116476516.345                   116476516.345    22368086.479  
                 134705176.464                   134705176.464    25868714.707  
                 118518526.296                   118518526.296    22760235.858  
  26188212.963   137619982.308                                                  
 21  9  1  7 43 24.0000000  0 15G 1G 7G 8G 9G13G14G17G21G27G30C23C25
                                C28C34E19
  22723700.157   119413805.050    22723703.355    93049706.004                  
  20181663.081   106055372.094    20181662.259    82640553.583                  
  21742325.803   114256656.883    21742327.876    89031152.274                  
  24163034.607   126977561.852    24163037.162    98943544.093                  
  24001062.028   126126451.667    24001060.955    98280356.558                  
  22405351.487   117740929.146    22405351.558    91746183.766                  
  23362777.114   122772223.871    23362777.221    95666667.732                  
  22055076.287   115900212.539    22055075.215    90311855.628                  
  24315525.918   127778927.269    24315527.384    99567990.285                  
  20984987.667   110276821.327    20984989.418    85929982.406                  
                 117412419.071                   117412419.071    22547810.753  
                 116477603.476                   116477603.476    22368295.261  
                 134701730.141                   134701730.141    25868052.856  
                 118519756.496                   118519756.496    22760472.104  
  26188266.820   137620265.376                                                  
 21  9  1  7 43 25.0000000  0 15G 1G 7G 8G 9G13G14G17G21G27G30C23C25
                                C28C34E19
  22723088.822   119410592.408    22723092.002    93047202.641                  
  20181722.764   106055685.719    20181721.942    82640797.961                  
  21742828.637   114259299.327    21742830.728    89033211.317                  
  24163699.263   126981054.667    24163701.818    98946265.761                  
  24000630.133   126124182.124    24000629.079    98278588.083                  
  22404932.244   117738725.997    22404932.297    91744467.022                  
  23362163.617   122768999.813    23362163.724    95664155.472                  
  22054872.580   115899142.079    22054871.526    90311021.496                  
  24316221.524   127782582.676    24316222.971    99570838.652                  
  20984652.122   110275058.046    20984653.855    85928608.419                  
                 117410909.711                   117410909.711    22547520.900  
                 116478690.936                   116478690.936    22368504.096  
                 134698283.880                   134698283.880    25867391.041  
                 118520987.187                   118520987.187    22760708.440  
  26188320.784   137620548.891                                                  
 21  9  1  7 43 26.0000000  0 15G 1G 7G 8G 9G13G14G17G21G27G30C23C25
                                C28C34E19
  22722477.540   119407380.043    22722480.721    93044699.496                  
  20181782.536   106055999.893    20181781.714    82641042.770                  
  21743331.543   114261942.136    21743333.634    89035270.646                  
  24164363.919   126984547.497    24164366.492    98948987.442                  
  24000198.364   126121913.097    24000197.292    98276820.008                  
  22404513.018   117736523.004    22404513.108    91742750.402                  
  23361550.138   122765776.001    23361550.245    95661643.406                  
  22054668.980   115898072.188    22054667.926    90310187.812                  
  24316917.111   127786238.163    24316918.594    99573687.079                  
  20984316.667   110273295.206    20984318.418    85927234.770                  
                 117409400.583                   117409400.583    22547231.100  
                 116479778.722                   116479778.722    22368712.985  
                 134694837.679                   134694837.679    25866729.244  
                 118522218.378                   118522218.378    22760944.883  
  26188374.820   137620832.878                                                  
 21  9  1  7 43 27.0000000  0 15G 1G 7G 8G 9G13G14G17G21G27G30C23C25
                                C28C34E19
  22721866.294   119404167.981    22721869.475    93042196.586                  
  20181842.433   106056314.636    20181841.628    82641288.019                  
  21743834.520   114264585.278    21743836.611    89037330.231                  
  24165028.575   126988040.371    24165031.166    98951709.160                  
  23999766.684   126119644.563    23999765.612    98275052.316                  
  22404093.847   117734320.169    22404093.900    91741033.903                  
  23360936.712   122762552.448    23360936.819    95659131.551                  
  22054465.506   115897002.851    22054464.434    90309354.563                  
  24317612.752   127789893.734    24317614.217    99576535.571                  
  20983981.301   110271532.788    20983983.034    85925861.453                  
                 117407891.682                   117407891.682    22546941.318  
                 116480866.836                   116480866.836    22368921.945  
                 134691391.542                   134691391.542    25866067.447  
                 118523450.066                   118523450.066    22761181.415  
  26188428.946   137621117.329                                                  
 21  9  1  7 43 28.0000000  0 15G 1G 7G 8G 9G13G14G17G21G27G30C23C25
                                C28C34E19
  22721255.120   119400956.184    22721258.301    93039693.891                  
  20181902.437   106056629.931    20181901.615    82641533.704                  
  21744337.551   114267228.762    21744339.642    89039390.090                  
  24165693.267   126991533.280    24165695.840    98954430.907                  
  23999335.076   126117376.548    23999334.022    98273285.032                  
  22403674.675   117732117.496    22403674.765    91739317.534                  
  23360323.340   122759329.153    23360323.447    95656619.891                  
  22054262.121   115895934.081    22054261.066    90308521.758                  
  24318308.393   127793549.379    24318309.876    99579384.128                  
  20983646.007   110269770.804    20983647.740    85924488.480                  
                 117406383.020                   117406383.020    22546651.608  
                 116481955.273                   116481955.273    22369130.977  
                 134687945.472                   134687945.472    25865405.668  
                 118524682.249                   118524682.249    22761418.037  
  26188483.160   137621402.243                                                  
 21  9  1  7 43 29.0000000  0 15G 1G 7G 8G 9G13G14G17G21G27G30C23C25
                                C28C34E19
  22720643.982   119397744.670    22720647.162    93037191.413                  
  20181962.548   106056945.780    20181961.726    82641779.820                  
  21744840.654   114269872.617    21744842.762    89041450.237                  
  24166357.959   126995026.210    24166360.515    98957152.673                  
  23998903.593   126115109.026    23998902.520    98271518.132                  
  22403255.557   117729914.987    22403255.629    91737601.298                  
  23359710.022   122756106.099    23359710.129    95654108.422                  
  22054058.843   115894865.874    22054057.788    90307689.386                  
  24319004.088   127797205.121    24319005.535    99582232.758                  
  20983310.784   110268009.269    20983312.535    85923115.856                  
                 117404874.587                   117404874.587    22546361.915  
                 116483044.039                   116483044.039    22369340.062  
                 134684499.469                   134684499.469    25864743.888  
                 118525914.935                   118525914.935    22761654.765  
  26188537.482   137621687.610                                                  
 21  9  1  7 43 30.0000000  0 15G 1G 7G 8G 9G13G14G17G21G27G30C23C25
                                C28C34E19
  22720032.897   119394533.454    22720036.078    93034689.168                  
  20182022.749   106057262.184    20182021.945    82642026.366                  
  21745343.845   114272516.790    21745345.918    89043510.632                  
  24167022.633   126998519.195    24167025.224    98959874.477                  
  23998472.199   126112842.018    23998471.126    98269751.632                  
  22402836.475   117727712.636    22402836.547    91735885.181                  
  23359096.739   122752883.305    23359096.846    95651597.152                  
  22053855.672   115893798.231    22053854.617    90306857.457                  
  24319699.747   127800860.927    24319701.212    99585081.438                  
  20982975.668   110266248.151    20982977.401    85921743.559                  
                 117403366.381                   117403366.381    22546072.294  
                 116484133.127                   116484133.127    22369549.201  
                 134681053.527                   134681053.527    25864082.145  
                 118527148.109                   118527148.109    22761891.584  
  26188591.857   137621973.454                                                  
 21  9  1  7 43 31.0000000  0 15G 1G 7G 8G 9G13G14G17G21G27G30C23C25
                                C28C34E19
  22719421.884   119391322.524    22719425.064    93032187.146                  
  20182083.057   106057579.149    20182082.235    82642273.356                  
  21745847.055   114275161.301    21745849.163    89045571.289                  
  24167687.343   127002012.186    24167689.916    98962596.289                  
  23998040.894   126110575.515    23998039.822    98267985.524                  
  22402417.393   117725510.444    22402417.482    91734169.187                  
  23358483.492   122749660.759    23358483.599    95649086.079                  
  22053652.626   115892731.157    22053651.554    90306025.968                  
  24320395.442   127804516.833    24320396.907    99587930.196                  
  20982640.624   110264487.468    20982642.357    85920371.597                  
                 117401858.414                   117401858.414    22545782.709  
                 116485222.547                   116485222.547    22369758.412  
                 134677607.649                   134677607.649    25863420.383  
                 118528381.787                   118528381.787    22762128.491  
  26188646.340   137622259.754                                                  
 21  9  1  7 43 32.0000000  0 15G 1G 7G 8G 9G13G14G17G21G27G30C23C25
                                C28C34E19
  22718810.924   119388111.880    22718814.104    93029685.345                  
  20182143.472   106057896.677    20182142.686    82642520.778                  
  21746350.354   114277806.136    21746352.462    89047632.200                  
  24168352.035   127005505.204    24168354.626    98965318.116                  
  23997609.679   126108309.534    23997608.624    98266219.824                  
  22401998.382   117723308.417    22401998.436    91732453.321                  
  23357870.316   122746438.476    23357870.424    95646575.212                  
  22053449.652   115891664.641    22053448.598    90305194.919                  
  24321091.154   127808172.815    24321092.619    99590779.011                  
  20982305.633   110262727.227    20982307.402    85918999.981                  
                 117400350.676                   117400350.676    22545493.159  
                 116486312.290                   116486312.290    22369967.694  
                 134674161.835                   134674161.835    25862758.658  
                 118529615.958                   118529615.958    22762365.506  
  26188700.912   137622546.523                                                  
 21  9  1  7 43 33.0000000  0 15G 1G 7G 8G 9G13G14G17G21G27G30C23C25
                                C28C34E19
  22718200.000   119384901.517    22718203.180    93027183.761                  
  20182204.012   106058214.759    20182203.208    82642768.632                  
  21746853.724   114280451.322    21746855.815    89049693.379                  
  24169016.745   127008998.254    24169019.318    98968039.973                  
  23997178.589   126106044.046    23997177.516    98264454.511                  
  22401579.372   117721106.550    22401579.443    91730737.579                  
  23357257.194   122743216.434    23357257.284    95644064.527                  
  22053246.821   115890598.688    22053245.766    90304364.306                  
  24321786.884   127811828.892    24321788.332    99593627.902                  
  20981970.768   110260967.397    20981972.501    85917628.683                  
                 117398843.171                   117398843.171    22545203.663  
                 116487402.355                   116487402.355    22370177.012  
                 134670716.091                   134670716.091    25862096.932  
                 118530850.624                   118530850.624    22762602.628  
  26188755.573   137622833.750                                                  
 21  9  1  7 43 34.0000000  0 15G 1G 7G 8G 9G13G14G17G21G27G30C23C25
                                C28C34E19
  22717589.165   119381691.451    22717592.346    93024682.410                  
  20182264.660   106058533.390    20182263.838    82643016.921                  
  21747357.166   114283096.847    21747359.239    89051754.832                  
  24169681.455   127012491.354    24169684.046    98970761.872                  
  23996747.588   126103779.074    23996746.498    98262689.598                  
  22401160.397   117718904.843    22401160.468    91729021.965                  
  23356644.108   122739994.647    23356644.198    95641554.047                  
  22053044.079   115889533.292    22053043.024    90303534.130                  
  24322482.615   127815485.038    24322484.080    99596476.852                  
  20981635.956   110259208.019    20981637.707    85916257.739                  
                 117397335.899                   117397335.899    22544914.203  
                 116488492.749                   116488492.749    22370386.419  
                 134667270.408                   134667270.408    25861435.224  
                 118532085.790                   118532085.790    22762839.821  
  26188810.324   137623121.449                                                  
 21  9  1  7 43 35.0000000  0 15G 1G 7G 8G 9G13G14G17G21G27G30C23C25
                                C28C34E19
  22716978.348   119378481.651    22716981.511    93022181.270                  
  20182325.379   106058852.570    20182324.575    82643265.628                  
  21747860.644   114285742.734    21747862.734    89053816.559                  
  24170346.182   127015984.469    24170348.755    98973483.775                  
  23996316.658   126101514.616    23996315.604    98260925.083                  
  22400741.457   117716703.302    22400741.529    91727306.476                  
  23356031.058   122736773.116    23356031.165    95639043.765                  
  22052841.462   115888468.472    22052840.372    90302704.397                  
  24323178.381   127819141.276    24323179.846    99599325.868                  
  20981301.233   110257449.073    20981303.003    85914887.134                  
                 117395828.856                   117395828.856    22544624.796  
                 116489583.472                   116489583.472    22370595.879  
                 134663824.785                   134663824.785    25860773.534  
                 118533321.448                   118533321.448    22763077.122  
  26188865.164   137623409.609                                                  
 21  9  1  7 43 36.0000000  0 15G 1G 7G 8G 9G13G14G17G21G27G30C23C25
                                C28C34E19
  22716367.603   119375272.145    22716370.784    93019680.357                  
  20182386.241   106059172.296    20182385.419    82643514.770                  
  21748364.193   114288388.946    21748366.301    89055878.543                  
  24171010.892   127019477.613    24171013.483    98976205.703                  
  23995885.836   126099250.657    23995884.782    98259160.961                  
  22400322.554   117714501.914    22400322.625    91725591.109                  
  23355418.079   122733551.837    23355418.186    95636533.675                  
  22052638.934   115887404.203    22052637.862    90301875.097                  
  24323874.165   127822797.593    24323875.612    99602174.946                  
  20980966.618   110255690.555    20980968.351    85913516.860                  
                 117394322.046                   117394322.046    22544335.425  
                 116490674.520                   116490674.520    22370805.412  
                 134660379.233                   134660379.233    25860111.862  
                 118534557.609                   118534557.609    22763314.494  
  26188920.076   137623698.238                                                  
 21  9  1  7 43 37.0000000  0 15G 1G 7G 8G 9G13G14G17G21G27G30C23C25
                                C28C34E19
  22715756.893   119372062.930    22715760.074    93017179.671                  
  20182447.174   106059492.585    20182446.352    82643764.343                  
  21748867.849   114291035.516    21748869.922    89057940.808                  
  24171675.638   127022970.786    24171678.193    98978927.660                  
  23995455.121   126096987.208    23995454.067    98257397.235                  
  22399903.686   117712300.684    22399903.740    91723875.867                  
  23354805.136   122730330.805    23354805.243    95634023.782                  
  22052436.514   115886340.507    22052435.460    90301046.247                  
  24324569.931   127826454.001    24324571.414    99605024.093                  
  20980632.056   110253932.474    20980633.808    85912146.922                  
                 117392815.468                   117392815.468    22544046.108  
                 116491765.891                   116491765.891    22371014.997  
                 134656933.742                   134656933.742    25859450.172  
                 118535794.261                   118535794.261    22763551.973  
  26188975.094   137623987.316                                                  
 21  9  1  7 43 38.0000000  0 15G 1G 7G 8G 9G13G14G17G21G27G30C23C25
                                C28C34E19
  22715146.255   119368853.999    22715149.436    93014679.208                  
  20182508.232   106059813.450    20182507.428    82644014.367                  
  21749371.523   114293682.441    21749373.614    89060003.345                  
  24172340.365   127026463.991    24172342.938    98981649.636                  
  23995024.496   126094724.258    23995023.441    98255633.897                  
  22399484.818   117710099.622    22399484.872    91722160.754                  
  23354192.246   122727110.036    23354192.335    95631514.094                  
  22052234.201   115885277.365    22052233.147    90300217.820                  
  24325265.769   127830110.485    24325267.216    99607873.301                  
  20980297.602   110252174.824    20980299.335    85910777.325                  
                 117391309.126                   117391309.126    22543756.826  
                 116492857.591                   116492857.591    22371224.637  
                 134653488.320                   134653488.320    25858788.518  
                 118537031.413                   118537031.413    22763789.560  
  26189030.202   137624276.867                                                  
 21  9  1  7 43 39.0000000  0 15G 1G 7G 8G 9G13G14G17G21G27G30C23C25
                                C28C34E19
  22714535.689   119365645.358    22714538.851    93012178.969                  
  20182569.398   106060134.851    20182568.576    82644264.808                  
  21749875.287   114296329.675    21749877.377    89062066.124                  
  24173005.093   127029957.229    24173007.684    98984371.640                  
  23994593.959   126092461.819    23994592.905    98253870.960                  
  22399066.004   117707898.718    22399066.076    91720445.766                  
  23353579.392   122723889.520    23353579.499    95629004.601                  
  22052031.995   115884214.789    22052030.941    90299389.844                  
  24325961.589   127833767.051    24325963.036    99610722.574                  
  20979963.201   110250417.606    20979964.934    85909408.067                  
                 117389803.011                   117389803.011    22543467.598  
                 116493949.613                   116493949.613    22371434.366  
                 134650042.960                   134650042.960    25858126.882  
                 118538269.059                   118538269.059    22764027.236  
  26189085.382   137624566.876                                                  
 21  9  1  7 43 40.0000000  0 20G 1G 7G 8G 9G13G14G17G21G27G30C23C25
                                C28C34E13E15E19E21E27E30
  22713925.158   119362437.023    22713928.338    93009678.965                  
  20182630.653   106060456.801    20182629.831    82644515.680                  
  21750379.104   114298977.257    21750381.176    89064129.175                  
  24173669.856   127033450.488    24173672.447    98987093.657                  
  23994163.548   126090199.902    23994162.476    98252108.425                  
  22398647.226   117705697.976    22398647.279    91718730.902                  
  23352966.592   122720669.262    23352966.699    95626495.309                  
  22051829.914   115883152.789    22051828.842    90298562.309                  
  24326657.426   127837423.700    24326658.874    99613571.910                  
  20979628.907   110248660.816    20979630.641    85908039.137                  
                 117388297.134                   117388297.134    22543178.406  
                 116495041.964                   116495041.964    22371644.148  
                 134646597.663                   134646597.663    25857465.246  
                 118539507.203                   118539507.203    22764265.019  
  26601063.408   139789482.626                                                  
  24479250.037   128639298.605                                                  
  26189140.669   137624857.363                                                  
  25870353.743   135949608.126                                                  
  23592561.653   123979740.038                                                  
  25232245.000   132596318.085                                                  
 21  9  1  7 43 41.0000000  0 20G 1G 7G 8G 9G13G14G17G21G27G30C23C25
                                C28C34E13E15E19E21E27E30
  22713314.680   119359228.949    22713317.861    93007179.167                  
  20182692.033   106060779.320    20182691.211    82644766.992                  
  21750882.974   114301625.207    21750885.083    89066192.513                  
  24174334.602   127036943.781    24174337.175    98989815.704                  
  23993733.209   126087938.481    23993732.136    98250346.277                  
  22398228.465   117703497.392    22398228.519    91717016.157                  
  23352353.863   122717449.251    23352353.952    95623986.212                  
  22051627.923   115882091.349    22051626.869    90297735.215                  
  24327353.264   127841080.433    24327354.711    99616421.313                  
  20979294.685   110246904.470    20979296.418    85906670.558                  
                 117386791.484                   117386791.484    22542889.267  
                 116496134.641                   116496134.641    22371853.984  
                 134643152.437                   134643152.437    25856803.627  
                 118540745.841                   118540745.841    22764502.873  
  26600465.636   139786341.372                                                  
  24478971.280   128637833.769                                                  
  26189196.027   137625148.304                                                  
  25870019.557   135947851.996                                                  
  23592554.898   123979704.449                                                  
  25232580.116   132598079.141                                                  
 21  9  1  7 43 42.0000000  0 20G 1G 7G 8G 9G13G14G17G21G27G30C23C25
                                C28C34E13E15E19E21E27E30
  22712704.257   119356021.180    22712707.437    93004679.609                  
  20182753.520   106061102.394    20182752.698    82645018.738                  
  21751386.934   114304273.500    21751389.025    89068256.117                  
  24174999.365   127040437.101    24175001.938    98992537.769                  
  23993302.958   126085677.559    23993301.904    98248584.519                  
  22397809.740   117701296.964    22397809.794    91715301.539                  
  23351741.152   122714229.501    23351741.259    95621477.316                  
  22051426.039   115881030.470    22051424.984    90296908.554                  
  24328049.137   127844737.249    24328050.602    99619270.784                  
  20978960.534   110245148.552    20978962.286    85905302.307                  
                 117385286.070                   117385286.070    22542600.164  
                 116497227.646                   116497227.646    22372063.873  
                 134639707.274                   134639707.274    25856142.027  
                 118541984.976                   118541984.976    22764740.835  
  26599867.881   139783200.169                                                  
  24478692.613   128636369.362                                                  
  26189251.475   137625439.698                                                  
  25869685.388   135946095.893                                                  
  23592548.144   123979669.001                                                  
  25232915.232   132599840.289                                                  
 21  9  1  7 43 43.0000000  0 20G 1G 7G 8G 9G13G14G17G21G27G30C23C25
                                C28C34E13E15E19E21E27E30
  22712093.904   119352813.699    22712097.085    93002180.273                  
  20182815.097   106061426.029    20182814.275    82645270.923                  
  21751890.966   114306922.133    21751893.039    89070319.987                  
  24175664.129   127043930.462    24175666.702    98995259.867                  
  23992872.815   126083417.148    23992871.761    98246823.164                  
  22397391.033   117699096.708    22397391.105    91713587.055                  
  23351128.495   122711009.991    23351128.602    95618968.609                  
  22051224.279   115879970.148    22051223.207    90296082.331                  
  24328745.028   127848394.138    24328746.476    99622120.304                  
  20978626.473   110243393.071    20978628.224    85903934.398                  
                 117383780.888                   117383780.888    22542311.097  
                 116498320.974                   116498320.974    22372273.834  
                 134636262.175                   134636262.175    25855480.426  
                 118543224.609                   118543224.609    22764978.904  
  26599270.162   139780059.038                                                  
  24478414.035   128634905.410                                                  
  26189307.011   137625731.567                                                  
  25869351.219   135944339.855                                                  
  23592541.425   123979633.685                                                  
  25233250.401   132601601.489                                                  
 21  9  1  7 43 44.0000000  0 20G 1G 7G 8G 9G13G14G17G21G27G30C23C25
                                C28C34E13E15E19E21E27E30
  22711483.588   119349606.497    22711486.769    92999681.157                  
  20182876.799   106061750.235    20182875.977    82645523.551                  
  21752395.033   114309571.106    21752397.142    89072384.120                  
  24176328.892   127047423.841    24176331.483    98997981.980                  
  23992442.779   126081157.241    23992441.725    98245062.200                  
  22396972.380   117696896.608    22396972.434    91711872.691                  
  23350515.909   122707790.749    23350515.998    95616460.109                  
  22051022.627   115878910.383    22051021.537    90295256.539                  
  24329440.920   127852051.118    24329442.385    99624969.899                  
  20978292.501   110241638.018    20978294.252    85902566.829                  
                 117382275.939                   117382275.939    22542022.101  
                 116499414.628                   116499414.628    22372483.867  
                 134632817.141                   134632817.141    25854818.843  
                 118544464.735                   118544464.735    22765217.062  
  26598672.425   139776917.981                                                  
  24478135.546   128633441.880                                                  
  26189362.638   137626023.900                                                  
  25869017.069   135942583.860                                                  
  23592534.742   123979598.501                                                  
  25233585.552   132603362.777                                                  
 21  9  1  7 43 45.0000000  0 20G 1G 7G 8G 9G13G14G17G21G27G30C23C25
                                C28C34E13E15E19E21E27E30
  22710873.325   119346399.582    22710876.506    92997182.262                  
  20182938.608   106062075.000    20182937.786    82645776.614                  
  21752899.172   114312220.423    21752901.281    89074448.523                  
  24176993.655   127050917.246    24176996.246    99000704.118                  
  23992012.833   126078897.848    23992011.761    98243301.629                  
  22396553.745   117694696.667    22396553.798    91710158.454                  
  23349903.341   122704571.759    23349903.448    95613951.805                  
  22050821.065   115877851.180    22050819.975    90294431.187                  
  24330136.829   127855708.174    24330138.294    99627819.555                  
  20977958.618   110239883.406    20977960.352    85901199.599                  
                 117380771.222                   117380771.222    22541733.141  
                 116500508.610                   116500508.610    22372693.935  
                 134629372.173                   134629372.173    25854157.261  
                 118545705.359                   118545705.359    22765455.292  
  26598074.725   139773776.992                                                  
  24477857.111   128631978.785                                                  
  26189418.353   137626316.690                                                  
  25868682.918   135940827.910                                                  
  23592528.059   123979563.449                                                  
  25233920.740   132605124.147                                                  
 21  9  1  7 43 46.0000000  0 20G 1G 7G 8G 9G13G14G17G21G27G30C23C25
                                C28C34E13E15E19E21E27E30
  22710263.116   119343192.946    22710266.297    92994683.582                  
  20183000.506   106062400.310    20182999.684    82646030.102                  
  21753403.400   114314870.063    21753405.473    89076513.180                  
  24177658.437   127054410.680    24177661.028    99003426.270                  
  23991582.975   126076638.965    23991581.921    98241541.461                  
  22396135.145   117692496.899    22396135.198    91708444.349                  
  23349290.844   122701353.021    23349290.934    95611443.700                  
  22050619.592   115876792.566    22050618.537    90293606.293                  
  24330832.756   127859365.313    24330834.221    99630669.274                  
  20977624.807   110238129.231    20977626.558    85899832.707                  
                 117379266.738                   117379266.738    22541444.199  
                 116501602.918                   116501602.918    22372904.093  
                 134625927.269                   134625927.269    25853495.714  
                 118546946.481                   118546946.481    22765693.665  
  26597477.024   139770636.075                                                  
  24477578.783   128630516.118                                                  
  26189474.158   137626609.953                                                  
  25868348.785   135939072.003                                                  
  23592521.412   123979528.540                                                  
  25234255.927   132606885.591                                                  
 21  9  1  7 43 47.0000000  0 20G 1G 7G 8G 9G13G14G17G21G27G30C23C25
                                C28C34E13E15E19E21E27E30
  22709652.978   119339986.606    22709656.159    92992185.136                  
  20183062.512   106062726.177    20183061.707    82646284.023                  
  21753907.682   114317520.058    21753909.755    89078578.113                  
  24178323.236   127057904.141    24178325.827    99006148.445                  
  23991153.225   126074380.590    23991152.153    98239781.691                  
  22395716.563   117690297.278    22395716.617    91706730.356                  
  23348678.384   122698134.535    23348678.473    95608935.789                  
  22050418.261   115875734.500    22050417.207    90292781.829                  
  24331528.701   127863022.528    24331530.166    99633519.051                  
  20977291.085   110236375.475    20977292.819    85898466.149                  
                 117377762.484                   117377762.484    22541155.346  
                 116502697.551                   116502697.551    22373114.322  
                 134622482.435                   134622482.435    25852834.167  
                 118548188.093                   118548188.093    22765932.091  
  26596879.341   139767495.227                                                  
  24477300.527   128629053.891                                                  
  26189530.053   137626903.671                                                  
  25868014.652   135937316.144                                                  
  23592514.800   123979493.752                                                  
  25234591.132   132608647.129                                                  
 21  9  1  7 43 48.0000000  0 20G 1G 7G 8G 9G13G14G17G21G27G30C23C25
                                C28C34E13E15E19E21E27E30
  22709042.876   119336780.566    22709046.057    92989686.922                  
  20183124.624   106063052.602    20183123.820    82646538.383                  
  21754412.017   114320170.410    21754414.126    89080643.320                  
  24178988.017   127061397.640    24178990.608    99008870.652                  
  23990723.565   126072122.711    23990722.493    98238022.304                  
  22395298.017   117688097.817    22395298.088    91705016.493                  
  23348065.977   122694916.296    23348066.066    95606428.070                  
  22050217.020   115874677.007    22050215.966    90291957.808                  
  24332224.663   127866679.839    24332226.146    99636368.907                  
  20976957.435   110234622.160    20976959.186    85897099.927                  
                 117376258.465                   117376258.465    22540866.494  
                 116503792.510                   116503792.510    22373324.587  
                 134619037.664                   134619037.664    25852172.638  
                 118549430.206                   118549430.206    22766170.625  
  26596281.657   139764354.425                                                  
  24477022.360   128627592.122                                                  
  26189586.036   137627197.855                                                  
  25867680.537   135935560.326                                                  
  23592508.225   123979459.120                                                  
  25234926.355   132610408.734                                                  
 21  9  1  7 43 49.0000000  0 20G 1G 7G 8G 9G13G14G17G21G27G30C23C25
                                C28C34E13E15E19E21E27E30
  22708432.863   119333574.813    22708436.044    92987188.938                  
  20183186.862   106063379.594    20183186.040    82646793.179                  
  21754916.424   114322821.098    21754918.515    89082708.793                  
  24179652.816   127064891.157    24179655.407    99011592.871                  
  23990293.994   126069865.351    23990292.939    98236263.321                  
  22394879.506   117685898.525    22394879.578    91703302.758                  
  23347453.623   122691698.322    23347453.694    95603920.560                  
  22050015.905   115873620.066    22050014.815    90291134.218                  
  24332920.644   127870337.227    24332922.091    99639218.820                  
  20976623.874   110232869.288    20976625.625    85895734.050                  
                 117374754.679                   117374754.679    22540577.712  
                 116504887.801                   116504887.801    22373534.923  
                 134615592.958                   134615592.958    25851511.126  
                 118550672.813                   118550672.813    22766409.266  
  26595683.992   139761213.696                                                  
  24476744.282   128626130.772                                                  
  26189642.127   137627492.524                                                  
  25867346.422   135933804.554                                                  
  23592501.649   123979424.602                                                  
  25235261.595   132612170.427                                                  
 21  9  1  7 43 50.0000000  0 20G 1G 7G 8G 9G13G14G17G21G27G30C23C25
                                C28C34E13E15E19E21E27E30
  22707822.886   119330369.344    22707826.067    92984691.168                  
  20183249.171   106063707.140    20183248.367    82647048.409                  
  21755420.902   114325472.114    21755422.993    89084774.520                  
  24180317.615   127068384.715    24180320.206    99014315.126                  
  23989864.547   126067608.494    23989863.475    98234504.730                  
  22394461.014   117683699.387    22394461.085    91701589.145                  
  23346841.305   122688480.599    23346841.395    95601413.241                  
  22049814.878   115872563.697    22049813.806    90290311.071                  
  24333616.642   127873994.700    24333618.108    99642068.796                  
  20976290.402   110231116.853    20976292.135    85894368.516                  
                 117373251.126                   117373251.126    22540288.985  
                 116505983.412                   116505983.412    22373745.313  
                 134612148.316                   134612148.316    25850849.597  
                 118551915.915                   118551915.915    22766647.978  
  26595086.363   139758073.050                                                  
  24476466.276   128624669.860                                                  
  26189698.254   137627787.618                                                  
  25867012.325   135932048.824                                                  
  23592495.109   123979390.231                                                  
  25235596.836   132613932.191                                                  
 21  9  1  7 43 51.0000000  0 20G 1G 7G 8G 9G13G14G17G21G27G30C23C25
                                C28C34E13E15E19E21E27E30
  22707212.945   119327164.161    22707216.126    92982193.625                  
  20183311.624   106064035.246    20183310.802    82647304.079                  
  21755925.434   114328123.487    21755927.543    89086840.523                  
  24180982.414   127071878.290    24180985.005    99017037.390                  
  23989435.155   126065352.149    23989434.100    98232746.540                  
  22394042.575   117681500.412    22394042.646    91699875.657                  
  23346229.041   122685263.138    23346229.112    95598906.133                  
  22049613.959   115871507.870    22049612.887    90289488.351                  
  24334312.641   127877652.250    24334314.124    99644918.837                  
  20975957.002   110229364.837    20975958.735    85893003.309                  
                 117371747.805                   117371747.805    22540000.275  
                 116507079.351                   116507079.351    22373955.792  
                 134608703.744                   134608703.744    25850188.122  
                 118553159.510                   118553159.510    22766886.797  
  26594488.715   139754932.460                                                  
  24476188.359   128623209.365                                                  
  26189754.523   137628083.196                                                  
  25866678.228   135930293.132                                                  
  23592488.587   123979355.980                                                  
  25235932.113   132615694.031                                                  
 21  9  1  7 43 52.0000000  0 20G 1G 7G 8G 9G13G14G17G21G27G30C23C25
                                C28C34E13E15E19E21E27E30
  22706603.057   119323959.274    22706606.238    92979696.324                  
  20183374.165   106064363.861    20183373.361    82647560.117                  
  21756430.019   114330775.325    21756432.074    89088906.961                  
  24181647.231   127075371.710    24181649.840    99019759.476                  
  23989005.923   126063096.122    23989004.869    98230988.523                  
  22393624.118   117679301.706    22393624.172    91698162.446                  
  23345616.812   122682045.891    23345616.902    95596399.187                  
  22049413.147   115870452.649    22049412.057    90288666.116                  
  24335008.657   127881309.808    24335010.140    99647768.866                  
  20975623.655   110227613.336    20975625.406    85891638.546                  
                 117370244.691                   117370244.691    22539711.619  
                 116508175.575                   116508175.575    22374166.325  
                 134605259.168                   134605259.168    25849526.628  
                 118554403.609                   118554403.609    22767125.724  
  26593891.068   139751792.098                                                  
  24475910.495   128621749.339                                                  
  26189810.846   137628379.200                                                  
  25866344.113   135928537.477                                                  
  23592482.082   123979321.926                                                  
  25236267.425   132617455.783                                                  
 21  9  1  7 43 53.0000000  0 20G 1G 7G 8G 9G13G14G17G21G27G30C23C25
                                C28C34E13E15E19E21E27E30
  22705993.241   119320754.668    22705996.422    92977199.231                  
  20183436.814   106064693.085    20183435.992    82647816.656                  
  21756934.676   114333427.380    21756936.767    89090973.495                  
  24182312.066   127078865.355    24182314.657    99022481.793                  
  23988576.745   126060840.805    23988575.708    98229231.133                  
  22393205.733   117677103.067    22393205.787    91696449.219                  
  23345004.638   122678828.952    23345004.745    95593892.482                  
  22049212.442   115869397.976    22049211.352    90287844.293                  
  24335704.691   127884967.536    24335706.174    99650619.042                  
  20975290.434   110225862.206    20975292.167    85890274.028                  
                 117368741.832                   117368741.832    22539423.016  
                 116509272.159                   116509272.159    22374376.893  
                 134601814.724                   134601814.724    25848865.153  
                 118555648.197                   118555648.197    22767364.722  
  26593293.439   139748651.640                                                  
  24475632.757   128620289.738                                                  
  26189867.259   137628675.708                                                  
  25866010.034   135926781.903                                                  
  23592475.614   123979287.957                                                  
  25236602.719   132619217.781                                                  
 21  9  1  7 43 54.0000000  0 20G 1G 7G 8G 9G13G14G17G21G27G30C23C25
                                C28C34E13E15E19E21E27E30
  22705383.479   119317550.368    22705386.659    92974702.371                  
  20183499.588   106065022.876    20183498.766    82648073.633                  
  21757439.405   114336079.763    21757441.478    89093040.285                  
  24182976.883   127082359.030    24182979.474    99025204.141                  
  23988147.656   126058585.980    23988146.619    98227474.125                  
  22392787.383   117674904.578    22392787.419    91694736.109                  
  23344392.516   122675612.253    23344392.624    95591385.966                  
  22049011.844   115868343.860    22049010.772    90287022.907                  
  24336400.761   127888625.335    24336402.226    99653469.277                  
  20974957.284   110224111.503    20974959.017    85888909.843                  
                 117367239.203                   117367239.203    22539134.467  
                 116510369.070                   116510369.070    22374587.551  
                 134598370.340                   134598370.340    25848203.695  
                 118556893.272                   118556893.272    22767603.828  
  26592695.845   139745511.269                                                  
  24475355.073   128618830.563                                                  
  26189923.779   137628972.665                                                  
  25865675.972   135925026.351                                                  
  23592469.181   123979254.134                                                  
  25236938.031   132620979.876                                                  
 21  9  1  7 43 55.0000000  0 20G 1G 7G 8G 9G13G14G17G21G27G30C23C25
                                C28C34E13E15E19E21E27E30
  22704773.788   119314346.343    22704776.968    92972205.731                  
  20183562.433   106065353.219    20183561.611    82648331.048                  
  21757944.205   114338732.487    21757946.278    89095107.347                  
  24183641.718   127085852.723    24183644.291    99027926.492                  
  23987718.674   126056331.675    23987717.638    98225717.528                  
  22392369.034   117672706.257    22392369.105    91693023.133                  
  23343780.467   122672395.813    23343780.538    95588879.649                  
  22048811.354   115867290.305    22048810.282    90286201.957                  
  24337096.831   127892283.222    24337098.296    99656319.578                  
  20974624.223   110222361.239    20974625.956    85887545.999                  
                 117365736.813                   117365736.813    22538845.936  
                 116511466.312                   116511466.312    22374798.281  
                 134594926.024                   134594926.024    25847542.256  
                 118558138.851                   118558138.851    22767843.022  
  26592098.251   139742370.952                                                  
  24475077.495   128617371.831                                                  
  26189980.388   137629270.101                                                  
  25865341.929   135923270.856                                                  
  23592462.766   123979220.438                                                  
  25237273.361   132622742.039                                                  
 21  9  1  7 43 56.0000000  0 20G 1G 7G 8G 9G13G14G17G21G27G30C23C25
                                C28C34E13E15E19E21E27E30
  22704164.115   119311142.610    22704167.295    92969709.317                  
  20183625.404   106065684.133    20183624.600    82648588.899                  
  21758449.058   114341385.530    21758451.149    89097174.651                  
  24184306.535   127089346.454    24184309.144    99030648.882                  
  23987289.800   126054077.887    23987288.745    98223961.327                  
  22391950.738   117670508.094    22391950.791    91691310.277                  
  23343168.435   122669179.626    23343168.524    95586373.528                  
  22048610.988   115866237.319    22048609.898    90285381.444                  
  24337792.919   127895941.179    24337794.384    99659169.935                  
  20974291.234   110220611.407    20974292.967    85886182.496                  
                 117364234.649                   117364234.649    22538557.458  
                 116512563.876                   116512563.876    22375009.064  
                 134591481.774                   134591481.774    25846880.816  
                 118559384.922                   118559384.922    22768082.324  
  26591500.675   139739230.705                                                  
  24474799.971   128615913.539                                                  
  26190037.068   137629568.001                                                  
  25865007.867   135921515.398                                                  
  23592456.387   123979186.883                                                  
  25237608.691   132624504.292                                                  
 21  9  1  7 43 57.0000000  0 20G 1G 7G 8G 9G13G14G17G21G27G30C23C25
                                C28C34E13E15E19E21E27E30
  22703554.513   119307939.157    22703557.694    92967213.121                  
  20183688.481   106066015.594    20183687.659    82648847.180                  
  21758953.983   114344038.917    21758956.056    89099242.226                  
  24184971.388   127092840.208    24184973.979    99033371.286                  
  23986860.997   126051824.597    23986859.960    98222205.515                  
  22391532.478   117668310.086    22391532.513    91689597.543                  
  23342556.456   122665963.690    23342556.564    95583867.605                  
  22048410.712   115865184.909    22048409.640    90284561.386                  
  24338489.025   127899599.218    24338490.472    99662020.355                  
  20973958.334   110218862.015    20973960.067    85884819.333                  
                 117362732.721                   117362732.721    22538269.035  
                 116513661.766                   116513661.766    22375219.900  
                 134588037.594                   134588037.594    25846219.394  
                 118560631.489                   118560631.489    22768321.716  
  26590903.135   139736090.531                                                  
  24474522.555   128614455.697                                                  
  26190093.838   137629866.363                                                  
  25864673.824   135919759.985                                                  
  23592450.025   123979153.450                                                  
  25237944.057   132626266.611                                                  
 21  9  1  7 43 58.0000000  0 20G 1G 7G 8G 9G13G14G17G21G27G30C23C25
                                C28C34E13E15E19E21E27E30
  22702944.983   119304736.001    22702948.163    92964717.153                  
  20183751.666   106066347.609    20183750.844    82649105.895                  
  21759458.962   114346692.659    21759461.035    89101310.079                  
  24185636.223   127096333.983    24185638.814    99036093.710                  
  23986432.319   126049571.821    23986431.265    98220450.105                  
  22391114.235   117666112.246    22391114.289    91687884.945                  
  23341944.532   122662748.013    23341944.621    95581361.882                  
  22048210.544   115864133.044    22048209.471    90283741.749                  
  24339185.148   127903257.343    24339186.595    99664870.844                  
  20973625.523   110217113.057    20973627.256    85883456.511                  
                 117361231.026                   117361231.026    22537980.664  
                 116514759.985                   116514759.985    22375430.808  
                 134584593.475                   134584593.475    25845558.008  
                 118561878.548                   118561878.548    22768561.196  
  26590305.577   139732950.413                                                  
  24474245.228   128612998.262                                                  
  26190150.697   137630165.187                                                  
  25864339.780   135918004.618                                                  
  23592443.682   123979120.156                                                  
  25238279.441   132628029.011                                                  
 21  9  1  7 43 59.0000000  0 20G 1G 7G 8G 9G13G14G17G21G27G30C23C25
                                C28C34E13E15E19E21E27E30
  22702335.506   119301533.145    22702338.687    92962221.423                  
  20183814.940   106066680.191    20183814.136    82649365.050                  
  21759964.012   114349346.751    21759966.103    89103378.200                  
  24186301.075   127099827.790    24186303.666    99038816.153                  
  23986003.713   126047319.547    23986002.676    98218695.090                  
  22390696.047   117663914.561    22390696.082    91686172.466                  
  23341332.661   122659532.582    23341332.732    95578856.356                  
  22048010.500   115863081.754    22048009.428    90282922.567                  
  24339881.254   127906915.546    24339882.719    99667721.390                  
  20973292.784   110215364.534    20973294.517    85882094.023                  
                 117359729.566                   117359729.566    22537692.312  
                 116515858.527                   116515858.527    22375641.752  
                 134581149.426                   134581149.426    25844896.622  
                 118563126.104                   118563126.104    22768800.784  
  26589708.037   139729810.356                                                  
  24473967.954   128611541.282                                                  
  26190207.646   137630464.460                                                  
  25864005.737   135916249.302                                                  
  23592437.356   123979087.003                                                  
  25238614.825   132629791.496                                                  
 21  9  1  7 44  0.0000000  0 20G 1G 7G 8G 9G13G14G17G21G27G30C23C25
                                C28C34E13E15E19E21E27E30
  22701726.065   119298330.561    22701729.246    92959725.903                  
  20183878.340   106067013.333    20183877.518    82649624.641                  
  21760469.133   114352001.176    21760471.224    89105446.581                  
  24186965.928   127103321.624    24186968.519    99041538.625                  
  23985575.213   126045067.786    23985574.177    98216940.469                  
  22390277.858   117661717.044    22390277.894    91684460.110                  
  23340720.825   122656317.413    23340720.915    95576351.027                  
  22047810.546   115862031.040    22047809.473    90282103.824                  
  24340577.395   127910573.824    24340578.878    99670571.995                  
  20972960.117   110213616.442    20972961.868    85880731.876                  
                 117358228.339                   117358228.339    22537404.013  
                 116516957.400                   116516957.400    22375852.803  
                 134577705.441                   134577705.441    25844235.235  
                 118564374.158                   118564374.158    22769040.461  
  26589110.533   139726670.388                                                  
  24473690.805   128610084.739                                                  
  26190264.684   137630764.225                                                  
  25863671.711   135914494.023                                                  
  23592431.084   123979053.984                                                  
  25238950.226   132631554.061                                                  
 21  9  1  7 44  1.0000000  0 20G 1G 7G 8G 9G13G14G17G21G27G30C23C25
                                C28C34E13E15E19E21E27E30
  22701116.678   119295128.289    22701119.858    92957230.626                  
  20183941.846   106067347.027    20183941.024    82649884.660                  
  21760974.326   114354655.943    21760976.399    89107515.230                  
  24187630.781   127106815.478    24187633.372    99044261.106                  
  23985146.821   126042816.530    23985145.785    98215186.246                  
  22389859.723   117659519.688    22389859.758    91682747.882                  
  23340109.044   122653102.499    23340109.133    95573845.902                  
  22047610.698   115860980.868    22047609.626    90281285.511                  
  24341273.572   127914232.200    24341275.038    99673422.679                  
  20972627.556   110211868.793    20972629.307    85879370.069                  
                 117356727.344                   117356727.344    22537115.786  
                 116518056.593                   116518056.593    22376063.872  
                 134574261.523                   134574261.523    25843573.867  
                 118565622.702                   118565622.702    22769280.246  
  26588513.028   139723530.472                                                  
  24473413.693   128608628.624                                                  
  26190321.811   137631064.437                                                  
  25863337.721   135912738.786                                                  
  23592424.812   123979021.095                                                  
  25239285.646   132633316.702                                                  
 21  9  1  7 44  2.0000000  0 20G 1G 7G 8G 9G13G14G17G21G27G30C23C25
                                C28C34E13E15E19E21E27E30
  22700507.362   119291926.292    22700510.543    92954735.563                  
  20184005.442   106067681.281    20184004.620    82650145.122                  
  21761479.573   114357311.064    21761481.664    89109584.156                  
  24188295.634   127110309.364    24188298.243    99046983.613                  
  23984718.519   126040565.782    23984717.465    98213432.414                  
  22389441.605   117657322.482    22389441.641    91681035.778                  
  23339497.315   122649887.840    23339497.405    95571340.973                  
  22047410.958   115859931.275    22047409.904    90280467.648                  
  24341969.732   127917890.645    24341971.215    99676273.419                  
  20972295.085   110210121.570    20972296.801    85878008.599                  
                 117355226.585                   117355226.585    22536827.576  
                 116519156.117                   116519156.117    22376275.048  
                 134570817.675                   134570817.675    25842912.517  
                 118566871.747                   118566871.747    22769520.102  
  26587915.542   139720390.645                                                  
  24473136.705   128607172.950                                                  
  26190379.028   137631365.110                                                  
  25863003.714   135910983.601                                                  
  23592418.576   123978988.344                                                  
  25239621.083   132635079.422                                                  
 21  9  1  7 44  3.0000000  0 20G 1G 7G 8G 9G13G14G17G21G27G30C23C25
                                C28C34E13E15E19E21E27E30
  22699898.100   119288724.586    22699901.280    92952240.730                  
  20184069.145   106068016.102    20184068.341    82650406.014                  
  21761984.891   114359966.522    21761986.964    89111653.349                  
  24188960.522   127113803.274    24188963.113    99049706.140                  
  23984290.306   126038315.544    23984289.251    98211678.984                  
  22389023.524   117655125.445    22389023.560    91679323.802                  
  23338885.623   122646673.442    23338885.712    95568836.247                  
  22047211.344   115858882.242    22047210.254    90279650.220                  
  24342665.944   127921549.171    24342667.392    99679124.214                  
  20971962.668   110208374.786    20971964.401    85876647.464                  
                 117353726.059                   117353726.059    22536539.420  
                 116520255.964                   116520255.964    22376486.260  
                 134567373.890                   134567373.890    25842251.184  
                 118568121.281                   118568121.281    22769760.065  
  26587318.037   139717250.870                                                  
  24472859.753   128605717.710                                                  
  26190436.316   137631666.251                                                  
  25862669.724   135909228.446                                                  
  23592412.375   123978955.727                                                  
  25239956.520   132636842.210                                                  
 21  9  1  7 44  4.0000000  0 20G 1G 7G 8G 9G13G14G17G21G27G30C23C25
                                C28C34E13E15E19E21E27E30
  22699288.873   119285523.173    22699292.054    92949746.122                  
  20184132.955   106068351.468    20184132.151    82650667.339                  
  21762490.281   114362622.321    21762492.336    89113722.798                  
  24189625.375   127117297.219    24189627.984    99052428.695                  
  23983862.200   126036065.808    23983861.145    98209925.941                  
  22388605.460   117652928.562    22388605.496    91677611.944                  
  23338274.002   122643459.288    23338274.074    95566331.716                  
  22047011.818   115857833.772    22047010.746    90278833.230                  
  24343362.139   127925207.786    24343363.623    99681975.083                  
  20971630.340   110206628.438    20971632.073    85875286.675                  
                 117352225.762                   117352225.762    22536251.300  
                 116521356.140                   116521356.140    22376697.543  
                 134563930.173                   134563930.173    25841589.834  
                 118569371.317                   118569371.317    22770000.117  
  26586720.587   139714111.157                                                  
  24472582.926   128604262.911                                                  
  26190493.711   137631967.842                                                  
  25862335.734   135907473.346                                                  
  23592406.192   123978923.237                                                  
  25240291.975   132638605.095                                                  
 21  9  1  7 44  5.0000000  0 20G 1G 7G 8G 9G13G14G17G21G27G30C23C25
                                C28C34E13E15E19E21E27E30
  22698679.736   119282322.059    22698682.899    92947251.750                  
  20184196.873   106068687.404    20184196.087    82650929.109                  
  21762995.724   114365278.446    21762997.797    89115792.508                  
  24190290.263   127120791.173    24190292.854    99055151.258                  
  23983434.183   126033816.586    23983433.146    98208173.305                  
  22388187.432   117650731.840    22388187.486    91675900.215                  
  23337662.399   122640245.395    23337662.506    95563827.384                  
  22046812.400   115856785.860    22046811.346    90278016.680                  
  24344058.388   127928866.474    24344059.835    99684826.011                  
  20971298.119   110204882.520    20971299.834    85873926.222                  
                 117350725.704                   117350725.704    22535963.234  
                 116522456.641                   116522456.641    22376908.880  
                 134560486.522                   134560486.522    25840928.519  
                 118570621.845                   118570621.845    22770240.277  
  26586123.118   139710971.520                                                  
  24472306.188   128602808.548                                                  
  26190551.196   137632269.894                                                  
  25862001.762   135905718.285                                                  
  23592400.045   123978890.894                                                  
  25240627.466   132640368.047                                                  
 21  9  1  7 44  6.0000000  0 20G 1G 7G 8G 9G13G14G17G21G27G30C23C25
                                C28C34E13E15E19E21E27E30
  22698070.635   119279121.204    22698073.798    92944757.582                  
  20184260.915   106069023.882    20184260.094    82651191.309                  
  21763501.221   114367934.900    21763503.293    89117862.476                  
  24190955.152   127124285.165    24190957.743    99057873.852                  
  23983006.255   126031567.859    23983005.219    98206421.055                  
  22387769.440   117648535.282    22387769.476    91674188.618                  
  23337050.885   122637031.757    23337050.957    95561323.257                  
  22046613.107   115855738.532    22046612.034    90277200.582                  
  24344754.619   127932525.238    24344756.084    99687677.005                  
  20970965.951   110203137.031    20970967.685    85872566.105                  
                 117349225.875                   117349225.875    22535675.221  
                 116523557.469                   116523557.469    22377120.289  
                 134557042.938                   134557042.938    25840267.222  
                 118571872.864                   118571872.864    22770480.526  
  26585525.685   139707831.954                                                  
  24472029.505   128601354.632                                                  
  26190608.788   137632572.441                                                  
  25861667.772   135903963.277                                                  
  23592393.899   123978858.664                                                  
  25240962.957   132642131.081                                                  
 21  9  1  7 44  7.0000000  0 20G 1G 7G 8G 9G13G14G17G21G27G30C23C25
                                C28C34E13E15E19E21E27E30
  22697461.587   119275920.648    22697464.768    92942263.649                  
  20184325.065   106069360.918    20184324.243    82651453.937                  
  21764006.807   114370591.688    21764008.862    89119932.703                  
  24191620.040   127127779.168    24191622.631    99060596.457                  
  23982578.435   126029319.652    23982577.399    98204669.212                  
  22387351.484   117646338.876    22387351.519    91672477.134                  
  23336439.372   122633818.366    23336439.479    95558819.321                  
  22046413.921   115854691.764    22046412.848    90276384.926                  
  24345450.867   127936184.090    24345452.333    99690528.059                  
  20970633.873   110201391.985    20970635.625    85871206.336                  
                 117347726.285                   117347726.285    22535387.244  
                 116524658.624                   116524658.624    22377331.733  
                 134553599.422                   134553599.422    25839605.943  
                 118573124.378                   118573124.378    22770720.864  
  26584928.252   139704692.464                                                  
  24471752.928   128599901.164                                                  
  26190666.415   137632875.426                                                  
  25861333.818   135902208.309                                                  
  23592387.805   123978826.582                                                  
  25241298.466   132643894.194                                                  
 21  9  1  7 44  8.0000000  0 20G 1G 7G 8G 9G13G14G17G21G27G30C23C25
                                C28C34E13E15E19E21E27E30
  22696852.593   119272720.403    22696855.756    92939769.954                  
  20184389.304   106069698.523    20184388.482    82651717.009                  
  21764512.429   114373248.804    21764514.502    89122003.193                  
  24192284.947   127131273.228    24192287.520    99063319.100                  
  23982150.722   126027071.953    23982149.668    98202917.762                  
  22386933.563   117644142.641    22386933.599    91670765.786                  
  23335827.947   122630605.242    23335828.037    95556315.594                  
  22046214.824   115853645.543    22046213.734    90275569.691                  
  24346147.134   127939843.001    24346148.599    99693379.165                  
  20970301.903   110199647.367    20970303.618    85869846.894                  
                 117346226.925                   117346226.925    22535099.302  
                 116525760.106                   116525760.106    22377543.284  
                 134550155.971                   134550155.971    25838944.665  
                 118574376.392                   118574376.392    22770961.292  
  26584330.837   139701552.980                                                  
  24471476.405   128598448.040                                                  
  26190724.168   137633178.860                                                  
  25860999.881   135900453.371                                                  
  23592381.712   123978794.644                                                  
  25241633.975   132645657.372                                                  
 21  9  1  7 44  9.0000000  0 20G 1G 7G 8G 9G13G14G17G21G27G30C23C25
                                C28C34E13E15E19E21E27E30
  22696243.652   119269520.422    22696246.833    92937276.469                  
  20184453.633   106070036.681    20184452.847    82651980.512                  
  21765018.122   114375906.276    21765020.195    89124073.952                  
  24192949.835   127134767.284    24192952.426    99066041.751                  
  23981723.099   126024824.767    23981722.045    98201166.711                  
  22386515.660   117641946.562    22386515.696    91669054.558                  
  23335216.559   122627392.370    23335216.648    95553812.062                  
  22046015.834   115852599.902    22046014.762    90274754.910                  
  24346843.418   127943502.003    24346844.883    99696230.340                  
  20969969.986   110197903.196    20969971.719    85868487.804                  
                 117344727.797                   117344727.797    22534811.396  
                 116526861.915                   116526861.915    22377754.871  
                 134546712.591                   134546712.591    25838283.403  
                 118575628.900                   118575628.900    22771201.845  
  26583733.440   139698413.619                                                  
  24471199.953   128596995.417                                                  
  26190781.992   137633482.769                                                  
  25860665.945   135898698.503                                                  
  23592375.654   123978762.831                                                  
  25241969.519   132647420.644                                                  
 21  9  1  7 44 10.0000000  0 20G 1G 7G 8G 9G13G14G17G21G27G30C23C25
                                C28C34E13E15E19E21E27E30
  22695634.783   119266320.750    22695637.964    92934783.223                  
  20184518.104   106070375.389    20184517.282    82652244.446                  
  21765523.887   114378564.085    21765525.960    89126144.977                  
  24193614.741   127138261.379    24193617.315    99068764.427                  
  23981295.565   126022578.086    23981294.528    98199416.055                  
  22386097.775   117639750.638    22386097.829    91667343.453                  
  23334605.224   122624179.759    23334605.295    95551308.730                  
  22045816.988   115851554.813    22045815.898    90273940.560                  
  24347539.720   127947161.099    24347541.186    99699081.586                  
  20969638.158   110196159.449    20969639.891    85867129.047                  
                 117343228.907                   117343228.907    22534523.562  
                 116527964.048                   116527964.048    22377966.512  
                 134543269.272                   134543269.272    25837622.142  
                 118576881.899                   118576881.899    22771442.451  
  26583136.043   139695274.316                                                  
  24470923.626   128595543.238                                                  
  26190839.923   137633787.142                                                  
  25860332.009   135896943.653                                                  
  23592369.632   123978731.151                                                  
  25242305.082   132649183.993                                                  
 21  9  1  7 44 11.0000000  0 20G 1G 7G 8G 9G13G14G17G21G27G30C23C25
                                C28C34E13E15E19E21E27E30
  22695025.968   119263121.371    22695029.148    92932290.202                  
  20184582.665   106070714.667    20184581.843    82652508.820                  
  21766029.723   114381222.238    21766031.778    89128216.269                  
  24194279.648   127141755.500    24194282.239    99071487.116                  
  23980868.138   126020331.921    23980867.083    98197665.801                  
  22385679.944   117637554.887    22385679.979    91665632.485                  
  23333993.924   122620967.407    23333993.996    95548805.605                  
  22045618.195   115850510.293    22045617.123    90273126.653                  
  24348236.040   127950820.238    24348237.506    99701932.868                  
  20969306.420   110194416.144    20969308.153    85865770.632                  
                 117341730.271                   117341730.271    22534235.764  
                 116529066.483                   116529066.483    22378178.242  
                 134539826.058                   134539826.058    25836960.917  
                 118578135.376                   118578135.376    22771683.183  
  26582538.663   139692135.079                                                  
  24470647.353   128594091.484                                                  
  26190897.944   137634091.987                                                  
  25859998.055   135895188.862                                                  
  23592363.646   123978699.609                                                  
  25242640.662   132650947.417                                                  
 21  9  1  7 44 12.0000000  0 20G 1G 7G 8G 9G13G14G17G21G27G30C23C25
                                C28C34E13E15E19E21E27E30
  22694417.206   119259922.282    22694420.369    92929797.410                  
  20184647.333   106071054.497    20184646.511    82652773.630                  
  21766535.595   114383880.719    21766537.686    89130287.817                  
  24194944.554   127145249.642    24194947.163    99074209.829                  
  23980440.800   126018086.270    23980439.746    98195915.945                  
  22385262.148   117635359.288    22385262.184    91663921.633                  
  23333382.679   122617755.310    23333382.768    95546302.676                  
  22045419.545   115849466.336    22045418.455    90272313.187                  
  24348932.361   127954479.478    24348933.826    99704784.226                  
  20968974.753   110192673.281    20968976.504    85864412.559                  
                 117340231.844                   117340231.844    22533948.019  
                 116530169.273                   116530169.273    22378390.026  
                 134536382.875                   134536382.875    25836299.692  
                 118579389.364                   118579389.364    22771924.004  
  26581941.302   139688995.917                                                  
  24470371.206   128592640.165                                                  
  26190956.018   137634397.290                                                  
  25859664.154   135893434.121                                                  
  23592357.660   123978668.204                                                  
  25242976.242   132652710.918                                                  
 21  9  1  7 44 13.0000000  0 20G 1G 7G 8G 9G13G14G17G21G27G30C23C25
                                C28C34E13E15E19E21E27E30
  22693808.480   119256723.492    22693811.660    92927304.852                  
  20184712.108   106071394.884    20184711.286    82653038.866                  
  21767041.557   114386539.546    21767043.647    89132359.633                  
  24195609.478   127148743.813    24195612.052    99076932.562                  
  23980013.551   126015841.129    23980012.497    98194166.487                  
  22384844.352   117633163.851    22384844.406    91662210.906                  
  23332771.487   122614543.468    23332771.576    95543799.949                  
  22045221.002   115848422.934    22045219.912    90271500.149                  
  24349628.716   127958138.806    24349630.164    99707635.657                  
  20968643.193   110190930.846    20968644.926    85863054.825                  
                 117338733.655                   117338733.655    22533660.292  
                 116531272.386                   116531272.386    22378601.863  
                 134532939.762                   134532939.762    25835638.484  
                 118580643.846                   118580643.846    22772164.914  
  26581343.958   139685856.809                                                  
  24470095.093   128591189.297                                                  
  26191014.218   137634703.048                                                  
  25859330.236   135891679.417                                                  
  23592351.728   123978636.938                                                  
  25243311.840   132654474.513                                                  
 21  9  1  7 44 14.0000000  0 20G 1G 7G 8G 9G13G14G17G21G27G30C23C25
                                C28C34E13E15E19E21E27E30
  22693199.843   119253524.988    22693203.006    92924812.513                  
  20184776.973   106071735.835    20184776.187    82653304.542                  
  21767547.572   114389198.702    21767549.662    89134431.703                  
  24196274.403   127152238.019    24196276.994    99079655.320                  
  23979586.428   126013596.499    23979585.356    98192417.429                  
  22384426.593   117630968.579    22384426.646    91660500.304                  
  23332160.348   122611331.875    23332160.420    95541297.410                  
  22045022.531   115847380.090    22045021.459    90270687.543                  
  24350325.072   127961798.207    24350326.537    99710487.136                  
  20968311.705   110189188.852    20968313.438    85861697.422                  
                 117337235.699                   117337235.699    22533372.636  
                 116532375.824                   116532375.824    22378813.754  
                 134529496.714                   134529496.714    25834977.277  
                 118581898.829                   118581898.829    22772405.913  
  26580746.615   139682717.788                                                  
  24469819.106   128589738.864                                                  
  26191072.489   137635009.281                                                  
  25858996.335   135889924.755                                                  
  23592345.777   123978605.794                                                  
  25243647.456   132656238.181                                                  
 21  9  1  7 44 15.0000000  0 20G 1G 7G 8G 9G13G14G17G21G27G30C23C25
                                C28C34E13E15E19E21E27E30
  22692591.242   119250326.770    22692594.405    92922320.395                  
  20184841.980   106072077.337    20184841.158    82653570.648                  
  21768053.676   114391858.196    21768055.749    89136504.035                  
  24196939.345   127155732.249    24196941.918    99082378.098                  
  23979159.376   126011352.374    23979158.322    98190668.763                  
  22384008.904   117628773.465    22384008.940    91658789.827                  
  23331549.245   122608120.547    23331549.317    95538795.078                  
  22044824.221   115846337.845    22044823.149    90269875.403                  
  24351021.446   127965457.684    24351022.893    99713338.679                  
  20967980.306   110187447.292    20967982.021    85860340.363                  
                 117335737.976                   117335737.976    22533085.017  
                 116533479.591                   116533479.591    22379025.734  
                 134526053.738                   134526053.738    25834316.105  
                 118583154.300                   118583154.300    22772647.020  
  26580149.307   139679578.823                                                  
  24469543.155   128588288.859                                                  
  26191130.831   137635315.966                                                  
  25858662.452   135888170.140                                                  
  23592339.880   123978574.792                                                  
  25243983.072   132658001.913                                                  
 21  9  1  7 44 16.0000000  0 20G 1G 7G 8G 9G13G14G17G21G27G30C23C25
                                C28C34E13E15E19E21E27E30
  22691982.676   119247128.785    22691985.857    92919828.422                  
  20184907.059   106072419.435    20184906.237    82653837.234                  
  21768559.816   114394518.047    21768561.907    89138576.652                  
  24197604.269   127159226.475    24197606.860    99085100.863                  
  23978732.432   126009108.727    23978731.378    98188920.434                  
  22383591.198   117626578.538    22383591.234    91657079.509                  
  23330938.196   122604909.457    23330938.286    95536292.918                  
  22044625.982   115845296.159    22044624.892    90269063.698                  
  24351717.837   127969117.202    24351719.303    99716190.231                  
  20967648.978   110185706.196    20967650.694    85858983.680                  
                 117334240.488                   117334240.488    22532797.432  
                 116534583.683                   116534583.683    22379237.768  
                 134522610.828                   134522610.828    25833654.916  
                 118584410.268                   118584410.268    22772888.216  
  26579551.981   139676439.832                                                  
  24469267.329   128586839.236                                                  
  26191189.299   137635623.120                                                  
  25858328.552   135886415.422                                                  
  23592334.002   123978543.960                                                  
  25244318.724   132659765.816                                                  
 21  9  1  7 44 17.0000000  0 20G 1G 7G 8G 9G13G14G17G21G27G30C23C25
                                C28C34E13E15E19E21E27E30
  22691374.201   119243931.161    22691377.363    92917336.767                  
  20184972.263   106072762.067    20184971.441    82654104.220                  
  21769066.045   114397178.245    21769068.100    89140649.531                  
  24198269.193   127162720.758    24198271.802    99087823.676                  
  23978305.595   126006865.631    23978304.540    98187172.570                  
  22383173.563   117624383.753    22383173.599    91655369.284                  
  23330327.201   122601698.645    23330327.272    95533790.989                  
  22044427.868   115844255.029    22044426.778    90268252.430                  
  24352414.247   127972776.841    24352415.694    99719041.897                  
  20967317.722   110183965.510    20967319.456    85857627.302                  
                 117332743.236                   117332743.236    22532509.920  
                 116535688.101                   116535688.101    22379449.855  
                 134519167.983                   134519167.983    25832993.762  
                 118585666.731                   118585666.731    22773129.519  
  26578954.673   139673301.011                                                  
  24468991.556   128585390.091                                                  
  26191247.838   137635930.747                                                  
  25857994.705   135884660.906                                                  
  23592328.158   123978513.230                                                  
  25244654.376   132661529.722                                                  
 21  9  1  7 44 18.0000000  0 20G 1G 7G 8G 9G13G14G17G21G27G30C23C25
                                C28C34E13E15E19E21E27E30
  22690765.760   119240733.821    22690768.923    92914845.335                  
  20185037.575   106073105.254    20185036.753    82654371.636                  
  21769572.328   114399838.766    21769574.383    89142722.668                  
  24198934.153   127166215.067    24198936.744    99090546.517                  
  23977878.847   126004623.050    23977877.774    98185425.102                  
  22382755.928   117622189.129    22382755.964    91653659.187                  
  23329716.259   122598488.079    23329716.348    95531289.250                  
  22044229.861   115843214.465    22044228.753    90267441.601                  
  24353110.656   127976436.568    24353112.122    99721893.628                  
  20966986.574   110182225.265    20966988.307    85856271.267                  
                 117331246.216                   117331246.216    22532222.443  
                 116536792.848                   116536792.848    22379662.014  
                 134515725.208                   134515725.208    25832332.626  
                 118586923.688                   118586923.688    22773370.894  
  26578357.401   139670162.246                                                  
  24468715.873   128583941.406                                                  
  26191306.466   137636238.823                                                  
  25857660.822   135882906.429                                                  
  23592322.333   123978482.630                                                  
  25244990.063   132663293.707                                                  
 21  9  1  7 44 19.0000000  0 20G 1G 7G 8G 9G13G14G17G21G27G30C23C25
                                C28C34E13E15E19E21E27E30
  22690157.374   119237536.778    22690160.536    92912354.133                  
  20185102.975   106073448.992    20185102.153    82654639.484                  
  21770078.665   114402499.621    21770080.738    89144796.060                  
  24199599.095   127169709.387    24199601.686    99093269.359                  
  23977452.188   126002380.981    23977451.134    98183678.035                  
  22382338.347   117619994.663    22382338.383    91651949.214                  
  23329105.335   122595277.772    23329105.424    95528787.714                  
  22044031.944   115842174.470    22044030.854    90266631.215                  
  24353807.102   127980096.376    24353808.567    99724745.429                  
  20966655.496   110180485.454    20966657.212    85854915.570                  
                 117329749.429                   117329749.429    22531935.002  
                 116537897.918                   116537897.918    22379874.245  
                 134512282.499                   134512282.499    25831671.472  
                 118588181.136                   118588181.136    22773612.376  
  26577760.111   139667023.560                                                  
  24468440.297   128582493.153                                                  
  26191365.183   137636547.375                                                  
  25857326.957   135881152.001                                                  
  23592316.544   123978452.176                                                  
  25245325.733   132665057.774                                                  
 21  9  1  7 44 20.0000000  0 20G 1G 7G 8G 9G13G14G17G21G27G30C23C25
                                C28C34E13E15E19E21E27E30
  22689549.059   119234340.028    22689552.221    92909863.161                  
  20185168.501   106073793.297    20185167.679    82654907.773                  
  21770585.073   114405160.825    21770587.146    89146869.728                  
  24200264.055   127173203.732    24200266.646    99095992.229                  
  23977025.636   126000139.421    23977024.582    98181931.372                  
  22381920.766   117617800.356    22381920.802    91650239.367                  
  23328494.500   122592067.726    23328494.572    95526286.380                  
  22043834.134   115841135.038    22043833.062    90265821.273                  
  24354503.565   127983756.259    24354505.012    99727597.290                  
  20966324.508   110178746.083    20966326.224    85853560.216                  
                 117328252.880                   117328252.880    22531647.597  
                 116539003.316                   116539003.316    22380086.529  
                 134508839.860                   134508839.860    25831010.354  
                 118589439.082                   118589439.082    22773853.965  
  26577162.857   139663884.938                                                  
  24468164.774   128581045.343                                                  
  26191423.972   137636856.387                                                  
  25856993.128   135879397.606                                                  
  23592310.772   123978421.851                                                  
  25245661.456   132666821.923                                                  
 21  9  1  7 44 21.0000000  0 20G 1G 7G 8G 9G13G14G17G21G27G30C23C25
                                C28C34E13E15E19E21E27E30
  22688940.797   119231143.559    22688943.960    92907372.411                  
  20185234.116   106074138.147    20185233.294    82655176.497                  
  21771091.535   114407822.367    21771093.626    89148943.661                  
  24200928.997   127176698.114    24200931.606    99098715.125                  
  23976599.174   125997898.368    23976598.120    98180185.097                  
  22381503.238   117615606.204    22381503.274    91648529.641                  
  23327883.683   122588857.927    23327883.755    95523785.242                  
  22043636.467   115840096.167    22043635.377    90265011.770                  
  24355200.028   127987416.214    24355201.475    99730449.208                  
  20965993.592   110177007.132    20965995.325    85852205.196                  
                 117326756.561                   117326756.561    22531360.245  
                 116540109.043                   116540109.043    22380298.866  
                 134505397.286                   134505397.286    25830349.253  
                 118590697.519                   118590697.519    22774095.644  
  26576565.621   139660746.417                                                  
  24467889.359   128579597.974                                                  
  26191482.869   137637165.857                                                  
  25856659.281   135877643.267                                                  
  23592305.018   123978391.659                                                  
  25245997.179   132668586.140                                                  
 21  9  1  7 44 22.0000000  0 20G 1G 7G 8G 9G13G14G17G21G27G30C23C25
                                C28C34E13E15E19E21E27E30
  22688332.571   119227947.387    22688335.734    92904881.894                  
  20185299.856   106074483.555    20185299.034    82655445.648                  
  21771598.086   114410484.249    21771600.159    89151017.859                  
  24201593.975   127180192.511    24201596.566    99101438.038                  
  23976172.819   125995657.825    23976171.765    98178439.226                  
  22381085.746   117613412.211    22381085.782    91646820.042                  
  23327272.938   122585648.391    23327273.027    95521284.312                  
  22043438.871   115839057.868    22043437.799    90264202.706                  
  24355896.508   127991076.249    24355897.956    99733301.188                  
  20965662.765   110175268.621    20965664.498    85850850.516                  
                 117325260.481                   117325260.481    22531072.947  
                 116541215.095                   116541215.095    22380511.275  
                 134501954.781                   134501954.781    25829688.153  
                 118591956.453                   118591956.453    22774337.394  
  26575968.402   139657607.962                                                  
  24467613.997   128578151.032                                                  
  26191541.837   137637475.779                                                  
  25856325.434   135875888.965                                                  
  23592299.300   123978361.601                                                  
  25246332.902   132670350.445                                                  
 21  9  1  7 44 23.0000000  0 20G 1G 7G 8G 9G13G14G17G21G27G30C23C25
                                C28C34E13E15E19E21E27E30
  22687724.417   119224751.512    22687727.598    92902391.602                  
  20185365.686   106074829.527    20185364.882    82655715.234                  
  21772104.709   114413146.481    21772106.763    89153092.325                  
  24202258.935   127183686.934    24202261.526    99104160.965                  
  23975746.536   125993417.797    23975745.500    98176693.747                  
  22380668.255   117611218.388    22380668.308    91645110.570                  
  23326662.229   122582439.108    23326662.300    95518783.575                  
  22043241.401   115838020.130    22043240.328    90263394.081                  
  24356593.007   127994736.360    24356594.455    99736153.223                  
  20965332.027   110173530.556    20965333.743    85849496.180                  
                 117323764.633                   117323764.633    22530785.684  
                 116542321.470                   116542321.470    22380723.738  
                 134498512.348                   134498512.348    25829027.089  
                 118593215.879                   118593215.879    22774579.269  
  26575371.166   139654469.540                                                  
  24467338.743   128576704.540                                                  
  26191600.894   137637786.164                                                  
  25855991.623   135874134.720                                                  
  23592293.600   123978331.687                                                  
  25246668.661   132672114.823                                                  
 21  9  1  7 44 24.0000000  0 20G 1G 7G 8G 9G13G14G17G21G27G30C23C25
                                C28C34E13E15E19E21E27E30
  22687116.316   119221555.930    22687119.497    92899901.536                  
  20185431.622   106075176.044    20185430.818    82655985.250                  
  21772611.367   114415809.035    21772613.422    89155167.043                  
  24202923.895   127187181.378    24202926.504    99106883.906                  
  23975320.378   125991178.273    23975319.323    98174948.663                  
  22380250.816   117609024.727    22380250.852    91643401.223                  
  23326051.573   122579230.087    23326051.644    95516283.036                  
  22043044.037   115836982.958    22043042.947    90262585.895                  
  24357289.506   127998396.553    24357290.953    99739005.321                  
  20965001.361   110171792.928    20965003.076    85848142.184                  
                 117322269.015                   117322269.015    22530498.458  
                 116543428.177                   116543428.177    22380936.272  
                 134495069.977                   134495069.977    25828366.006  
                 118594475.802                   118594475.802    22774821.215  
  26574773.965   139651331.218                                                  
  24467063.578   128575258.473                                                  
  26191660.058   137638097.039                                                  
  25855657.794   135872380.513                                                  
  23592287.935   123978301.900                                                  
  25247004.420   132673879.280                                                  
 21  9  1  7 44 25.0000000  0 20G 1G 7G 8G 9G13G14G17G21G27G30C23C25
                                C28C34E13E15E19E21E27E30
  22686508.287   119218360.644    22686511.432    92897411.703                  
  20185497.684   106075523.128    20185496.862    82656255.703                  
  21773118.097   114418471.929    21773120.151    89157242.023                  
  24203588.873   127190675.842    24203591.482    99109606.868                  
  23974894.327   125988939.265    23974893.254    98173203.984                  
  22379833.414   117606831.215    22379833.467    91641691.993                  
  23325440.952   122576021.317    23325441.042    95513782.696                  
  22042846.781   115835946.358    22042845.691    90261778.157                  
  24357986.041   128002056.829    24357987.506    99741857.484                  
  20964670.784   110170055.735    20964672.517    85846788.523                  
                 117320773.638                   117320773.638    22530211.302  
                 116544535.206                   116544535.206    22381148.878  
                 134491627.676                   134491627.676    25827704.942  
                 118595736.216                   118595736.216    22775063.251  
  26574176.765   139648192.925                                                  
  24466788.484   128573812.844                                                  
  26191719.294   137638408.358                                                  
  25855324.001   135870626.340                                                  
  23592282.307   123978272.250                                                  
  25247340.197   132675643.820                                                  
 21  9  1  7 44 26.0000000  0 20G 1G 7G 8G 9G13G14G17G21G27G30C23C25
                                C28C34E13E15E19E21E27E30
  22685900.293   119215165.643    22685903.456    92894922.094                  
  20185563.835   106075870.769    20185563.013    82656526.594                  
  21773624.880   114421135.161    21773626.953    89159317.269                  
  24204253.868   127194170.336    24204256.459    99112329.848                  
  23974468.347   125986700.774    23974467.275    98171459.708                  
  22379416.047   117604637.867    22379416.065    91639982.891                  
  23324830.403   122572812.809    23324830.475    95511282.562                  
  22042649.614   115834910.319    22042648.542    90260970.856                  
  24358682.575   128005717.175    24358684.040    99744709.704                  
  20964340.296   110168318.973    20964342.012    85845435.204                  
                 117319278.491                   117319278.491    22529924.183  
                 116545642.564                   116545642.564    22381361.537  
                 134488185.444                   134488185.444    25827043.895  
                 118596997.122                   118596997.122    22775305.412  
  26573579.582   139645054.729                                                  
  24466513.462   128572367.651                                                  
  26191778.619   137638720.131                                                  
  25854990.207   135868872.218                                                  
  23592276.678   123978242.727                                                  
  25247675.992   132677408.439                                                  
 21  9  1  7 44 27.0000000  0 20G 1G 7G 8G 9G13G14G17G21G27G30C23C25
                                C28C34E13E15E19E21E27E30
  22685292.353   119211970.939    22685295.516    92892432.716                  
  20185630.094   106076218.968    20185629.272    82656797.918                  
  21774131.753   114423798.734    21774133.825    89161392.782                  
  24204918.846   127197664.845    24204921.437    99115052.839                  
  23974042.457   125984462.796    23974041.420    98169715.829                  
  22378998.680   117602444.687    22378998.716    91638273.922                  
  23324219.908   122569604.556    23324219.962    95508782.624                  
  22042452.573   115833874.843    22042451.500    90260163.987                  
  24359379.145   128009377.603    24359380.575    99747561.981                  
  20964009.880   110166582.654    20964011.596    85844082.226                  
                 117317783.582                   117317783.582    22529637.099  
                 116546750.247                   116546750.247    22381574.268  
                 134484743.282                   134484743.282    25826382.884  
                 118598258.525                   118598258.525    22775547.663  
  26572982.417   139641916.619                                                  
  24466238.547   128570922.899                                                  
  26191838.033   137639032.380                                                  
  25854656.396   135867118.137                                                  
  23592271.085   123978213.347                                                  
  25248011.804   132679173.128                                                  
 21  9  1  7 44 28.0000000  0 20G 1G 7G 8G 9G13G14G17G21G27G30C23C25
                                C28C34E13E15E19E21E27E30
  22684684.485   119208776.530    22684687.666    92889943.566                  
  20185696.459   106076567.736    20185695.637    82657069.680                  
  21774638.679   114426462.626    21774640.734    89163468.540                  
  24205583.842   127201159.394    24205586.433    99117775.863                  
  23973616.691   125982225.320    23973615.637    98167972.339                  
  22378581.367   117600251.671    22378581.403    91636565.078                  
  23323609.449   122566396.567    23323609.503    95506282.895                  
  22042255.638   115832839.936    22042254.566    90259357.571                  
  24360075.698   128013038.110    24360077.163    99750414.324                  
  20963679.554   110164846.772    20963681.287    85842729.593                  
                 117316288.906                   117316288.906    22529350.051  
                 116547858.257                   116547858.257    22381787.034  
                 134481301.187                   134481301.187    25825721.856  
                 118599520.419                   118599520.419    22775789.985  
  26572385.288   139638778.563                                                  
  24465963.704   128569478.587                                                  
  26191897.555   137639345.090                                                  
  25854322.621   135865364.103                                                  
  23592265.527   123978184.102                                                  
  25248347.635   132680937.905                                                  
 21  9  1  7 44 29.0000000  0 20G 1G 7G 8G 9G13G14G17G21G27G30C23C25
                                C28C34E13E15E19E21E27E30
  22684076.652   119205582.418    22684079.833    92887454.648                  
  20185762.932   106076917.055    20185762.128    82657341.882                  
  21775145.659   114429126.859    21775147.714    89165544.566                  
  24206248.838   127204653.958    24206251.429    99120498.902                  
  23973191.016   125979988.367    23973189.961    98166229.259                  
  22378164.072   117598058.807    22378164.125    91634856.356                  
  23322999.025   122563188.836    23322999.097    95503783.362                  
  22042058.829   115831805.605    22042057.739    90258551.594                  
  24360772.304   128016698.702    24360773.733    99753266.738                  
  20963349.298   110163111.333    20963351.032    85841377.301                  
                 117314794.469                   117314794.469    22529063.057  
                 116548966.598                   116548966.598    22381999.872  
                 134477859.159                   134477859.159    25825060.863  
                 118600782.808                   118600782.808    22776032.414  
  26571788.141   139635640.570                                                  
  24465688.932   128568034.703                                                  
  26191957.148   137639658.263                                                  
  25853988.863   135863610.112                                                  
  23592259.988   123978154.993                                                  
  25248683.483   132682702.762                                                  
 21  9  1  7 44 30.0000000  0 20G 1G 7G 8G 9G13G14G17G21G27G30C23C25
                                C28C34E13E15E19E21E27E30
  22683468.891   119202388.594    22683472.054    92884965.954                  
  20185829.512   106077266.933    20185828.708    82657614.511                  
  21775652.728   114431791.441    21775654.783    89167620.868                  
  24206913.833   127208148.558    24206916.424    99123221.969                  
  23972765.447   125977751.921    23972764.375    98164486.574                  
  22377746.812   117595866.108    22377746.866    91633147.759                  
  23322388.655   122559981.352    23322388.744    95501284.026                  
  22041862.109   115830771.843    22041861.019    90257746.070                  
  24361468.892   128020359.368    24361470.339    99756119.203                  
  20963019.132   110161376.320    20963020.883    85840025.345                  
                 117313300.261                   117313300.261    22528776.116  
                 116550075.261                   116550075.261    22382212.799  
                 134474417.203                   134474417.203    25824399.852  
                 118602045.691                   118602045.691    22776274.932  
  26571190.994   139632502.664                                                  
  24465414.267   128566591.266                                                  
  26192016.813   137639971.888                                                  
  25853655.088   135861856.169                                                  
  23592254.467   123978126.009                                                  
  25249019.313   132684467.695                                                  
 21  9  1  7 44 31.0000000  0 20G 1G 7G 8G 9G13G14G17G21G27G30C23C25
                                C28C34E13E15E19E21E27E30
  22682861.201   119199195.057    22682864.364    92882477.484                  
  20185896.199   106077617.376    20185895.377    82657887.587                  
  21776159.815   114434456.351    21776161.906    89169697.417                  
  24207578.847   127211643.172    24207581.420    99125945.040                  
  23972339.932   125975515.997    23972338.895    98162744.293                  
  22377329.606   117593673.573    22377329.642    91631439.290                  
  23321778.339   122556774.138    23321778.428    95498784.898                  
  22041665.478   115829738.632    22041664.406    90256940.968                  
  24362165.498   128024020.104    24362166.963    99758971.727                  
  20962689.074   110159641.750    20962690.807    85838673.732                  
                 117311806.288                   117311806.288    22528489.229  
                 116551184.250                   116551184.250    22382425.762  
                 134470975.312                   134470975.312    25823738.894  
                 118603309.065                   118603309.065    22776517.558  
  26570593.901   139629364.812                                                  
  24465139.656   128565148.268                                                  
  26192076.603   137640285.991                                                  
  25853321.312   135860102.270                                                  
  23592248.981   123978097.172                                                  
  25249355.197   132686232.716                                                  
 21  9  1  7 44 32.0000000  0 20G 1G 7G 8G 9G13G14G17G21G27G30C23C25
                                C28C34E13E15E19E21E27E30
  22682253.547   119196001.832    22682256.692    92879989.253                  
  20185962.994   106077968.371    20185962.172    82658161.085                  
  21776666.992   114437121.590    21776669.082    89171774.227                  
  24208243.843   127215137.809    24208246.434    99128668.132                  
  23971914.560   125973280.573    23971913.506    98161002.411                  
  22376912.400   117591481.203    22376912.436    91629730.945                  
  23321168.076   122553567.176    23321168.165    95496285.969                  
  22041468.972   115828705.974    22041467.882    90256136.301                  
  24362862.140   128027680.917    24362863.605    99761824.308                  
  20962359.086   110157907.620    20962360.802    85837322.461                  
                 117310312.555                   117310312.555    22528202.377  
                 116552293.571                   116552293.571    22382638.797  
                 134467533.493                   134467533.493    25823077.919  
                 118604572.934                   118604572.934    22776760.272  
  26569996.807   139626227.033                                                  
  24464865.134   128563705.702                                                  
  26192136.464   137640600.546                                                  
  25852987.572   135858348.417                                                  
  23592243.513   123978068.462                                                  
  25249691.082   132687997.804                                                  
 21  9  1  7 44 33.0000000  0 20G 1G 7G 8G 9G13G14G17G21G27G30C23C25
                                C28C34E13E15E19E21E27E30
  22681645.947   119192808.891    22681649.092    92877501.250                  
  20186029.895   106078319.930    20186029.073    82658435.027                  
  21777174.240   114439787.164    21777176.312    89173851.302                  
  24208908.856   127218632.473    24208911.465    99131391.247                  
  23971489.277   125971045.670    23971488.223    98159260.926                  
  22376495.248   117589288.988    22376495.284    91628022.726                  
  23320557.866   122550360.464    23320557.938    95493787.239                  
  22041272.574   115827673.902    22041271.502    90255332.085                  
  24363558.781   128031341.823    24363560.247    99764676.964                  
  20962029.153   110156173.925    20962030.904    85835971.532                  
                 117308819.050                   117308819.050    22527915.562  
                 116553403.212                   116553403.212    22382851.903  
                 134464091.738                   134464091.738    25822416.980  
                 118605837.297                   118605837.297    22777003.095  
  26569399.696   139623089.321                                                  
  24464590.720   128562263.594                                                  
  26192196.397   137640915.560                                                  
  25852653.833   135856594.597                                                  
  23592238.081   123978039.892                                                  
  25250026.983   132689762.980                                                  
 21  9  1  7 44 34.0000000  0 20G 1G 7G 8G 9G13G14G17G21G27G30C23C25
                                C28C34E13E15E19E21E27E30
  22681038.400   119189616.243    22681041.563    92875013.472                  
  20186096.904   106078672.034    20186096.082    82658709.398                  
  21777681.559   114442453.075    21777683.614    89175928.633                  
  24209573.888   127222127.155    24209576.461    99134114.380                  
  23971064.084   125968811.273    23971063.011    98157519.837                  
  22376078.096   117587096.929    22376078.131    91626314.630                  
  23319947.693   122547154.018    23319947.764    95491288.706                  
  22041076.283   115826642.375    22041075.193    90254528.305                  
  24364255.441   128035002.800    24364256.906    99767529.671                  
  20961699.344   110154440.660    20961701.060    85834620.934                  
                 117307325.785                   117307325.785    22527628.800  
                 116554513.184                   116554513.184    22383065.062  
                 134460650.059                   134460650.059    25821756.040  
                 118607102.157                   118607102.157    22777246.006  
  26568802.638   139619951.665                                                  
  24464316.376   128560821.888                                                  
  26192256.437   137641231.039                                                  
  25852320.129   135854840.827                                                  
  23592232.666   123978011.454                                                  
  25250362.903   132691528.215                                                  
 21  9  1  7 44 35.0000000  0 20G 1G 7G 8G 9G13G14G17G21G27G30C23C25
                                C28C34E13E15E19E21E27E30
  22680430.925   119186423.892    22680434.088    92872525.926                  
  20186164.002   106079024.714    20186163.198    82658984.211                  
  21778188.914   114445119.339    21778191.005    89178006.243                  
  24210238.901   127225621.863    24210241.474    99136837.524                  
  23970638.980   125966577.395    23970637.943    98155779.153                  
  22375660.997   117584905.037    22375661.033    91624606.660                  
  23319337.573   122543947.837    23319337.662    95488790.383                  
  22040880.099   115825611.425    22040879.026    90253724.965                  
  24364952.118   128038663.844    24364953.584    99770382.433                  
  20961369.607   110152707.845    20961371.322    85833270.686                  
                 117305832.757                   117305832.757    22527342.073  
                 116555623.484                   116555623.484    22383278.276  
                 134457208.444                   134457208.444    25821095.119  
                 118608367.509                   118608367.509    22777489.007  
  26568205.581   139616814.106                                                  
  24464042.123   128559380.636                                                  
  26192316.566   137641546.985                                                  
  25851986.389   135853087.107                                                  
  23592227.288   123977983.157                                                  
  25250698.841   132693293.550                                                  
 21  9  1  7 44 36.0000000  0 20G 1G 7G 8G 9G13G14G17G21G27G30C23C25
                                C28C34E13E15E19E21E27E30
  22679823.503   119183231.828    22679826.666    92870038.606                  
  20186231.225   106079377.942    20186230.403    82659259.454                  
  21778696.359   114447785.936    21778698.432    89180084.109                  
  24210903.915   127229116.600    24210906.524    99139560.698                  
  23970213.983   125964344.007    23970212.946    98154038.853                  
  22375243.916   117582713.306    22375243.952    91622898.820                  
  23318727.507   122540741.893    23318727.578    95486292.245                  
  22040684.022   115824581.034    22040682.932    90252922.063                  
  24365648.796   128042324.979    24365650.261    99773235.266                  
  20961039.924   110150975.452    20961041.657    85831920.775                  
                 117304339.966                   117304339.966    22527055.401  
                 116556734.113                   116556734.113    22383491.560  
                 134453766.907                   134453766.907    25820434.197  
                 118609633.355                   118609633.355    22777732.079  
  26567608.523   139613676.590                                                  
  24463767.940   128557939.819                                                  
  26192376.767   137641863.383                                                  
  25851652.685   135851333.413                                                  
  23592221.927   123977954.989                                                  
  25251034.778   132695058.961                                                  
 21  9  1  7 44 37.0000000  0 20G 1G 7G 8G 9G13G14G17G21G27G30C23C25
                                C28C34E13E15E19E21E27E30
  22679216.117   119180040.067    22679219.280    92867551.519                  
  20186298.538   106079731.722    20186297.734    82659535.125                  
  21779203.857   114450452.866    21779205.948    89182162.233                  
  24211568.964   127232611.346    24211571.537    99142283.875                  
  23969789.093   125962111.155    23969788.039    98152298.969                  
  22374826.889   117580521.731    22374826.925    91621191.099                  
  23318117.476   122537536.220    23318117.566    95483794.320                  
  22040488.052   115823551.207    22040486.962    90252119.603                  
  24366345.527   128045986.191    24366346.974    99776088.160                  
  20960710.365   110149243.509    20960712.081    85830571.203                  
                 117302847.409                   117302847.409    22526768.781  
                 116557845.065                   116557845.065    22383704.916  
                 134450325.435                   134450325.435    25819773.294  
                 118610899.696                   118610899.696    22777975.277  
  26567011.501   139610539.163                                                  
  24463493.847   128556499.445                                                  
  26192437.057   137642180.257                                                  
  25851318.963   135849579.790                                                  
  23592216.584   123977926.948                                                  
  25251370.734   132696824.437                                                  
 21  9  1  7 44 38.0000000  0 20G 1G 7G 8G 9G13G14G17G21G27G30C23C25
                                C28C34E13E15E19E21E27E30
  22678608.803   119176848.602    22678611.966    92865064.663                  
  20186365.976   106080086.066    20186365.154    82659811.239                  
  21779711.427   114453120.133    21779713.499    89184240.621                  
  24212233.978   127236106.128    24212236.586    99145007.081                  
  23969364.275   125959878.809    23969363.239    98150559.476                  
  22374409.879   117578330.320    22374409.897    91619483.508                  
  23317507.517   122534330.793    23317507.589    95481296.587                  
  22040292.208   115822521.949    22040291.100    90251317.581                  
  24367042.240   128049647.484    24367043.705    99778941.114                  
  20960380.860   110147512.005    20960382.576    85829221.980                  
                 117301355.089                   117301355.089    22526482.180  
                 116558956.352                   116558956.352    22383918.326  
                 134446884.032                   134446884.032    25819112.426  
                 118612166.530                   118612166.530    22778218.563  
  26566414.479   139607401.804                                                  
  24463219.844   128555059.509                                                  
  26192497.454   137642497.585                                                  
  25850985.277   135847826.204                                                  
  23592211.277   123977899.056                                                  
  25251706.725   132698590.001                                                  
 21  9  1  7 44 39.0000000  0 20G 1G 7G 8G 9G13G14G17G21G27G30C23C25
                                C28C34E13E15E19E21E27E30
  22678001.542   119173657.427    22678004.705    92862578.031                  
  20186433.521   106080440.970    20186432.699    82660087.785                  
  21780219.068   114455787.734    21780221.123    89186319.274                  
  24212899.027   127239600.933    24212901.618    99147730.306                  
  23968939.582   125957646.970    23968938.528    98148820.378                  
  22373992.906   117576139.073    22373992.924    91617776.043                  
  23316897.576   122531125.641    23316897.665    95478799.066                  
  22040096.435   115821493.261    22040095.363    90250516.008                  
  24367738.953   128053308.851    24367740.419    99781794.125                  
  20960051.445   110145780.939    20960053.178    85827873.097                  
                 117299863.003                   117299863.003    22526195.633  
                 116560067.961                   116560067.961    22384131.807  
                 134443442.698                   134443442.698    25818451.540  
                 118613433.859                   118613433.859    22778461.940  
  26565817.457   139604264.514                                                  
  24462945.894   128553620.012                                                  
  26192557.923   137642815.383                                                  
  25850651.573   135846072.663                                                  
  23592206.006   123977871.293                                                  
  25252042.699   132700355.632                                                  
 21  9  1  7 44 40.0000000  0 20G 1G 7G 8G 9G13G14G17G21G27G30C23C25
                                C28C34E13E15E19E21E27E30
  22677394.335   119170466.543    22677397.497    92860091.633                  
  20186501.155   106080796.434    20186500.333    82660364.773                  
  21780726.762   114458455.688    21780728.817    89188398.199                  
  24213564.058   127243095.755    24213566.667    99150453.544                  
  23968514.978   125955415.642    23968513.924    98147081.683                  
  22373575.932   117573947.988    22373575.986    91616068.704                  
  23316287.724   122527920.740    23316287.795    95476301.738                  
  22039900.805   115820465.144    22039899.697    90249714.874                  
  24368435.720   128056970.289    24368437.185    99784647.195                  
  20959722.119   110144050.304    20959723.834    85826524.550                  
                 117298371.154                   117298371.154    22525909.156  
                 116561179.895                   116561179.895    22384345.342  
                 134440001.435                   134440001.435    25817790.672  
                 118614701.680                   118614701.680    22778705.405  
  26565220.489   139601127.301                                                  
  24462672.051   128552180.950                                                  
  26192618.499   137643133.636                                                  
  25850317.905   135844319.163                                                  
  23592200.734   123977843.671                                                  
  25252378.726   132702121.372                                                  
 21  9  1  7 44 41.0000000  0 20G 1G 7G 8G 9G13G14G17G21G27G30C23C25
                                C28C34E13E15E19E21E27E30
  22676787.181   119167275.970    22676790.362    92857605.468                  
  20186568.896   106081152.465    20186568.074    82660642.199                  
  21781234.493   114461123.970    21781236.583    89190477.380                  
  24214229.125   127246590.610    24214231.716    99153176.805                  
  23968090.464   125953184.827    23968089.392    98145343.386                  
  22373159.012   117571757.070    22373159.066    91614361.493                  
  23315677.908   122524716.099    23315677.961    95473804.617                  
  22039705.264   115819437.583    22039704.174    90248914.179                  
  24369132.487   128060631.800    24369133.934    99787500.325                  
  20959392.882   110142320.121    20959394.598    85825176.356                  
                 117296879.537                   117296879.537    22525622.698  
                 116562292.156                   116562292.156    22384558.948  
                 134436560.241                   134436560.241    25817129.840  
                 118615969.991                   118615969.991    22778948.978  
  26564623.503   139597990.156                                                  
  24462398.298   128550742.327                                                  
  26192679.146   137643452.343                                                  
  25849984.236   135842565.710                                                  
  23592195.499   123977816.172                                                  
  25252714.717   132703887.138                                                  
 21  9  1  7 44 42.0000000  0 20G 1G 7G 8G 9G13G14G17G21G27G30C23C25
                                C28C34E13E15E19E21E27E30
  22676180.099   119164085.685    22676183.262    92855119.531                  
  20186636.763   106081509.047    20186635.941    82660920.056                  
  21781742.312   114463792.581    21781744.403    89192556.817                  
  24214894.175   127250085.479    24214896.766    99155900.078                  
  23967666.057   125950954.520    23967665.002    98143605.484                  
  22372742.146   117569566.308    22372742.181    91612654.406                  
  23315068.127   122521511.711    23315068.199    95471307.696                  
  22039509.813   115818410.596    22039508.740    90248113.930                  
  24369829.254   128064293.399    24369830.719    99790353.515                  
  20959063.717   110140590.360    20959065.432    85823828.493                  
                 117295388.155                   117295388.155    22525336.293  
                 116563404.745                   116563404.745    22384772.608  
                 134433119.118                   134433119.118    25816469.025  
                 118617238.801                   118617238.801    22779192.640  
  26564026.516   139594853.069                                                  
  24462124.616   128549304.140                                                  
  26192739.883   137643771.523                                                  
  25849650.568   135840812.297                                                  
  23592190.299   123977788.820                                                  
  25253050.762   132705653.018                                                  
 21  9  1  7 44 43.0000000  0 20G 1G 7G 8G 9G13G14G17G21G27G30C23C25
                                C28C34E13E15E19E21E27E30
  22675573.052   119160895.678    22675576.215    92852633.816                  
  20186704.719   106081866.187    20186703.897    82661198.344                  
  21782250.222   114466461.526    21782252.276    89194636.517                  
  24215559.224   127253580.384    24215561.815    99158623.380                  
  23967241.739   125948724.739    23967240.685    98141867.992                  
  22372325.279   117567375.707    22372325.315    91610947.442                  
  23314458.401   122518307.586    23314458.454    95468810.974                  
  22039314.504   115817384.167    22039313.414    90247314.117                  
  24370526.056   128067955.074    24370527.504    99793206.770                  
  20958734.641   110138861.043    20958736.356    85822480.973                  
                 117293897.012                   117293897.012    22525049.942  
                 116564517.665                   116564517.665    22384986.322  
                 134429678.058                   134429678.058    25815808.193  
                 118618508.098                   118618508.098    22779436.373  
  26563429.584   139591716.062                                                  
  24461851.023   128547866.395                                                  
  26192800.691   137644091.164                                                  
  25849316.918   135839058.932                                                  
  23592185.117   123977761.597                                                  
  25253386.824   132707418.984                                                  
 21  9  1  7 44 44.0000000  0 20G 1G 7G 8G 9G13G14G17G21G27G30C23C25
                                C28C34E13E15E19E21E27E30
  22674966.077   119157705.989    22674969.240    92850148.344                  
  20186772.800   106082223.888    20186771.978    82661477.069                  
  21782758.166   114469130.809    21782760.221    89196716.477                  
  24216224.273   127257075.271    24216226.882    99161346.669                  
  23966817.528   125946495.456    23966816.456    98140130.891                  
  22371908.449   117565185.261    22371908.484    91609240.601                  
  23313848.727   122515103.723    23313848.799    95466314.457                  
  22039119.285   115816358.316    22039118.195    90246514.750                  
  24371222.859   128071616.819    24371224.324    99796060.078                  
  20958405.636   110137132.171    20958407.352    85821133.800                  
                 117292406.101                   117292406.101    22524763.627  
                 116565630.906                   116565630.906    22385200.107  
                 134426237.074                   134426237.074    25815147.379  
                 118619777.890                   118619777.890    22779680.232  
  26562832.633   139588579.127                                                  
  24461577.520   128546429.087                                                  
  26192861.625   137644411.268                                                  
  25848983.285   135837305.614                                                  
  23592179.953   123977734.512                                                  
  25253722.887   132709185.026                                                  
 21  9  1  7 44 45.0000000  0 20G 1G 7G 8G 9G13G14G17G21G27G30C23C25
                                C28C34E13E15E19E21E27E30
  22674359.156   119154516.586    22674362.319    92847663.093                  
  20186840.952   106082582.146    20186840.148    82661756.234                  
  21783266.183   114471800.432    21783268.238    89198796.699                  
  24216889.340   127260570.208    24216891.931    99164069.996                  
  23966393.407   125944266.692    23966392.335    98138394.192                  
  22371491.654   117562994.980    22371491.707    91607533.895                  
  23313239.072   122511900.107    23313239.161    95463818.137                  
  22038924.173   115815333.014    22038923.101    90245715.816                  
  24371919.679   128075278.647    24371921.145    99798913.448                  
  20958076.721   110135403.734    20958078.455    85819786.964                  
                 117290915.429                   117290915.429    22524477.365  
                 116566744.478                   116566744.478    22385413.963  
                 134422796.156                   134422796.156    25814486.600  
                 118621048.176                   118621048.176    22779924.180  
  26562235.701   139585442.267                                                  
  24461304.088   128544992.214                                                  
  26192922.612   137644731.836                                                  
  25848649.635   135835552.340                                                  
  23592174.842   123977707.563                                                  
  25254058.968   132710951.147                                                  
 21  9  1  7 44 46.0000000  0 20G 1G 7G 8G 9G13G14G17G21G27G30C23C25
                                C28C34E13E15E19E21E27E30
  22673752.306   119151327.490    22673755.451    92845178.087                  
  20186909.248   106082940.979    20186908.444    82662035.849                  
  21783774.235   114474470.402    21783776.325    89200877.194                  
  24217554.425   127264065.180    24217557.016    99166793.349                  
  23965969.375   125942038.445    23965968.321    98136657.893                  
  22371074.877   117560804.875    22371074.912    91605827.315                  
  23312629.506   122508696.742    23312629.578    95461322.009                  
  22038729.186   115814308.296    22038728.096    90244917.337                  
  24372616.518   128078940.554    24372617.983    99801766.883                  
  20957747.896   110133675.743    20957749.647    85818440.477                  
                 117289424.987                   117289424.987    22524191.139  
                 116567858.372                   116567858.372    22385627.856  
                 134419355.309                   134419355.309    25813825.822  
                 118622318.954                   118622318.954    22780168.217  
  26561638.804   139582305.476                                                  
  24461030.746   128543555.790                                                  
  26192983.724   137645052.871                                                  
  25848316.002   135833799.109                                                  
  23592169.732   123977680.753                                                  
  25254395.066   132712717.360                                                  
 21  9  1  7 44 47.0000000  0 20G 1G 7G 8G 9G13G14G17G21G27G30C23C25
                                C28C34E13E15E19E21E27E30
  22673145.474   119148138.677    22673148.637    92842693.296                  
  20186977.632   106083300.364    20186976.828    82662315.887                  
  21784282.394   114477140.706    21784284.467    89202957.953                  
  24218219.493   127267560.172    24218222.102    99169516.719                  
  23965545.468   125939810.706    23965544.396    98134921.993                  
  22370658.153   117558614.923    22370658.207    91604120.859                  
  23312019.976   122505493.648    23312020.065    95458826.089                  
  22038534.307   115813284.132    22038533.199    90244119.285                  
  24373313.356   128082602.529    24373314.821    99804620.371                  
  20957419.159   110131948.175    20957420.875    85817094.320                  
                 117287934.786                   117287934.786    22523904.967  
                 116568972.593                   116568972.593    22385841.837  
                 134415914.531                   134415914.531    25813165.061  
                 118623590.226                   118623590.226    22780412.361  
  26561041.907   139579168.753                                                  
  24460757.475   128542119.785                                                  
  26193044.872   137645374.366                                                  
  25847982.387   135832045.926                                                  
  23592164.657   123977654.079                                                  
  25254731.182   132714483.634                                                  
 21  9  1  7 44 48.0000000  0 20G 1G 7G 8G 9G13G14G17G21G27G30C23C25
                                C28C34E13E15E19E21E27E30
  22672538.714   119144950.164    22672541.876    92840208.747                  
  20187046.142   106083660.312    20187045.320    82662596.370                  
  21784790.607   114479811.368    21784792.662    89205038.988                  
  24218884.578   127271055.168    24218887.187    99172240.090                  
  23965121.615   125937583.460    23965120.579    98133186.474                  
  22370241.447   117556425.132    22370241.483    91602414.531                  
  23311410.499   122502290.800    23311410.553    95456330.370                  
  22038339.499   115812260.526    22038338.427    90243321.667                  
  24374010.248   128086264.585    24374011.695    99807473.922                  
  20957090.494   110130221.055    20957092.228    85815748.515                  
                 117286444.821                   117286444.821    22523618.812  
                 116570087.156                   116570087.156    22386055.872  
                 134412473.864                   134412473.864    25812504.300  
                 118624861.983                   118624861.983    22780656.577  
  26560444.992   139576032.121                                                  
  24460484.293   128540684.224                                                  
  26193106.162   137645696.313                                                  
  25847648.773   135830292.784                                                  
  23592159.618   123977627.534                                                  
  25255067.299   132716250.001                                                  
 21  9  1  7 44 49.0000000  0 20G 1G 7G 8G 9G13G14G17G21G27G30C23C25
                                C28C34E13E15E19E21E27E30
  22671932.025   119141761.951    22671935.187    92837724.425                  
  20187114.741   106084020.812    20187113.919    82662877.277                  
  21785298.856   114482482.329    21785300.946    89207120.257                  
  24219549.663   127274550.175    24219552.236    99174963.473                  
  23964697.905   125935356.750    23964696.833    98131451.376                  
  22369824.778   117554235.493    22369824.813    91600708.316                  
  23310801.058   122499088.220    23310801.148    95453834.851                  
  22038144.834   115811237.513    22038143.761    90242524.512                  
  24374707.122   128089926.733    24374708.587    99810327.544                  
  20956761.919   110128494.370    20956763.634    85814403.046                  
                 117284955.091                   117284955.091    22523332.747  
                 116571202.031                   116571202.031    22386269.979  
                 134409033.225                   134409033.225    25811843.557  
                 118626134.241                   118626134.241    22780900.900  
  26559848.131   139572895.539                                                  
  24460211.219   128539249.114                                                  
  26193167.525   137646018.736                                                  
  25847315.158   135828539.689                                                  
  23592154.579   123977601.124                                                  
  25255403.433   132718016.437                                                  
 21  9  1  7 44 50.0000000  0 20G 1G 7G 8G 9G13G14G17G21G27G30C23C25
                                C28C34E13E15E19E21E27E30
  22671325.371   119138574.030    22671328.534    92835240.331                  
  20187183.448   106084381.872    20187182.626    82663158.620                  
  21785807.194   114485153.628    21785809.266    89209201.793                  
  24220214.748   127278045.215    24220217.339    99177686.878                  
  23964274.266   125933130.555    23964273.212    98129716.680                  
  22369408.143   117552046.019    22369408.161    91599002.237                  
  23310191.689   122495885.891    23310191.760    95451339.532                  
  22037950.258   115810215.054    22037949.186    90241727.793                  
  24375404.014   128093588.945    24375405.479    99813181.215                  
  20956433.415   110126768.125    20956435.166    85813057.922                  
                 117283465.594                   117283465.594    22523046.700  
                 116572317.234                   116572317.234    22386484.139  
                 134405592.660                   134405592.660    25811182.814  
                 118627406.987                   118627406.987    22781145.313  
  26559251.288   139569759.025                                                  
  24459938.198   128537814.430                                                  
  26193228.958   137646341.613                                                  
  25846981.579   135826786.638                                                  
  23592149.575   123977574.852                                                  
  25255739.603   132719782.966                                                  
 21  9  1  7 44 51.0000000  0 20G 1G 7G 8G 9G13G14G17G21G27G30C23C25
                                C28C34E13E15E19E21E27E30
  22670718.807   119135386.407    22670721.952    92832756.473                  
  20187252.261   106084743.493    20187251.439    82663440.403                  
  21786315.603   114487825.270    21786317.658    89211283.590                  
  24220879.815   127281540.292    24220882.424    99180410.317                  
  23963850.734   125930904.878    23963849.680    98127982.382                  
  22368991.527   117549856.707    22368991.563    91597296.277                  
  23309582.337   122492683.821    23309582.427    95448844.415                  
  22037755.825   115809193.171    22037754.717    90240931.523                  
  24376100.923   128097251.222    24376102.389    99816034.937                  
  20956105.018   110125042.332    20956106.733    85811713.144                  
                 117281976.335                   117281976.335    22522760.706  
                 116573432.765                   116573432.765    22386698.353  
                 134402152.161                   134402152.161    25810522.125  
                 118628680.231                   118628680.231    22781389.833  
  26558654.445   139566622.593                                                  
  24459665.284   128536380.198                                                  
  26193290.481   137646664.969                                                  
  25846647.982   135825033.624                                                  
  23592144.626   123977548.715                                                  
  25256075.773   132721549.554                                                  
 21  9  1  7 44 52.0000000  0 20G 1G 7G 8G 9G13G14G17G21G27G30C23C25
                                C28C34E13E15E19E21E27E30
  22670112.279   119132199.073    22670115.424    92830272.837                  
  20187321.182   106085105.672    20187320.360    82663722.622                  
  21786824.066   114490497.238    21786826.121    89213365.645                  
  24221544.918   127285035.382    24221547.527    99183133.761                  
  23963427.292   125928679.706    23963426.238    98126248.484                  
  22368574.947   117547667.558    22368574.982    91595590.449                  
  23308973.057   122489482.015    23308973.147    95446349.501                  
  22037561.464   115808171.857    22037560.374    90240135.686                  
  24376797.833   128100913.587    24376799.298    99818888.726                  
  20955776.692   110123316.964    20955778.426    85810368.704                  
                 117280487.300                   117280487.300    22522474.748  
                 116574548.608                   116574548.608    22386912.656  
                 134398711.735                   134398711.735    25809861.418  
                 118629953.936                   118629953.936    22781634.442  
  26558057.602   139563486.234                                                  
  24459392.442   128534946.394                                                  
  26193352.094   137646988.761                                                  
  25846314.421   135823280.676                                                  
  23592139.658   123977522.710                                                  
  25256411.961   132723316.241                                                  
 21  9  1  7 44 53.0000000  0 20G 1G 7G 8G 9G13G14G17G21G27G30C23C25
                                C28C34E13E15E19E21E27E30
  22669505.804   119129012.048    22669508.967    92827789.438                  
  20187390.192   106085468.411    20187389.388    82664005.278                  
  21787332.583   114493169.543    21787334.638    89215447.956                  
  24222210.021   127288530.495    24222212.612    99185857.226                  
  23963003.957   125926455.051    23963002.903    98124514.989                  
  22368158.384   117545478.565    22368158.420    91593884.743                  
  23308363.813   122486280.465    23308363.902    95443854.786                  
  22037367.227   115807151.103    22037366.137    90239340.296                  
  24377494.779   128104576.042    24377496.244    99821742.594                  
  20955448.456   110121592.043    20955450.172    85809024.609                  
                 117278998.515                   117278998.515    22522188.844  
                 116575664.794                   116575664.794    22387126.995  
                 134395271.376                   134395271.376    25809200.747  
                 118631228.160                   118631228.160    22781879.140  
  26557460.776   139560349.936                                                  
  24459119.671   128533513.042                                                  
  26193413.795   137647313.033                                                  
  25845980.842   135821527.751                                                  
  23592134.744   123977496.852                                                  
  25256748.184   132725083.008                                                  
 21  9  1  7 44 54.0000000  0 20G 1G 7G 8G 9G13G14G17G21G27G30C23C25
                                C28C34E13E15E19E21E27E30
  22668899.383   119125825.313    22668902.546    92825306.271                  
  20187459.346   106085831.707    20187458.524    82664288.364                  
  21787841.153   114495842.183    21787843.244    89217530.535                  
  24222875.124   127292025.637    24222877.715    99188580.711                  
  23962580.711   125924230.904    23962579.657    98122781.882                  
  22367741.857   117543289.743    22367741.893    91592179.165                  
  23307754.640   122483079.172    23307754.712    95441360.273                  
  22037173.080   115806130.910    22037172.008    90238545.343                  
  24378191.742   128108238.536    24378193.207    99824596.481                  
  20955120.292   110119867.555    20955122.025    85807680.853                  
                 117277509.960                   117277509.960    22521902.975  
                 116576781.306                   116576781.306    22387341.423  
                 134391831.090                   134391831.090    25808540.057  
                 118632502.880                   118632502.880    22782123.946  
  26556863.987   139557213.715                                                  
  24458847.008   128532080.116                                                  
  26193475.604   137647637.759                                                  
  25845647.281   135819774.887                                                  
  23592129.848   123977471.111                                                  
  25257084.372   132726849.842                                                  
 21  9  1  7 44 55.0000000  0 20G 1G 7G 8G 9G13G14G17G21G27G30C23C25
                                C28C34E13E15E19E21E27E30
  22668293.016   119122638.878    22668296.179    92822823.332                  
  20187528.588   106086195.567    20187527.766    82664571.891                  
  21788349.813   114498515.152    21788351.885    89219613.368                  
  24223540.244   127295520.794    24223542.818    99191304.210                  
  23962157.573   125922007.270    23962156.519    98121049.183                  
  22367325.384   117541101.075    22367325.419    91590473.712                  
  23307145.503   122479878.144    23307145.574    95438865.965                  
  22036979.059   115805111.292    22036977.969    90237750.835                  
  24378888.705   128111901.142    24378890.153    99827450.462                  
  20954792.216   110118143.517    20954793.932    85806337.441                  
                 117276021.646                   117276021.646    22521617.160  
                 116577898.140                   116577898.140    22387555.905  
                 134388390.870                   134388390.870    25807879.404  
                 118633778.089                   118633778.089    22782368.823  
  26556267.197   139554077.567                                                  
  24458574.398   128530647.641                                                  
  26193537.485   137647962.954                                                  
  25845313.738   135818022.062                                                  
  23592124.988   123977445.519                                                  
  25257420.613   132728616.759                                                  
 21  9  1  7 44 56.0000000  0 20G 1G 7G 8G 9G13G14G17G21G27G30C23C25
                                C28C34E13E15E19E21E27E30
  22667686.720   119119452.739    22667689.883    92820340.628                  
  20187597.920   106086559.981    20187597.098    82664855.851                  
  21788858.526   114501188.437    21788860.581    89221696.450                  
  24224205.347   127299015.966    24224207.938    99194027.718                  
  23961734.542   125919784.152    23961733.487    98119316.883                  
  22366908.928   117538912.570    22366908.964    91588768.383                  
  23306536.419   122476677.379    23306536.473    95436371.863                  
  22036785.144   115804092.234    22036784.036    90236956.766                  
  24379585.687   128115563.800    24379587.134    99830304.481                  
  20954464.212   110116419.901    20954465.964    85804994.371                  
                 117274533.562                   117274533.562    22521331.399  
                 116579015.309                   116579015.309    22387770.441  
                 134384950.724                   134384950.724    25807218.768  
                 118635053.790                   118635053.790    22782613.825  
  26555670.425   139550941.499                                                  
  24458301.896   128529215.589                                                  
  26193599.455   137648288.611                                                  
  25844980.177   135816269.278                                                  
  23592120.145   123977420.063                                                  
  25257756.855   132730383.755                                                  
 21  9  1  7 44 57.0000000  0 20G 1G 7G 8G 9G13G14G17G21G27G30C23C25
                                C28C34E13E15E19E21E27E30
  22667080.478   119116266.902    22667083.640    92817858.160                  
  20187667.377   106086924.951    20187666.555    82665140.242                  
  21789367.293   114503862.063    21789369.365    89223779.790                  
  24224870.468   127302511.161    24224873.059    99196751.247                  
  23961311.582   125917561.551    23961310.528    98117584.989                  
  22366492.509   117536724.225    22366492.526    91587063.179                  
  23305927.372   122473476.865    23305927.461    95433877.957                  
  22036591.319   115803073.740    22036590.247    90236163.132                  
  24380282.686   128119226.546    24380284.133    99833158.567                  
  20954136.316   110114696.743    20954138.031    85803651.644                  
                 117273045.719                   117273045.719    22521045.673  
                 116580132.797                   116580132.797    22387985.048  
                 134381510.649                   134381510.649    25806558.115  
                 118636329.984                   118636329.984    22782858.899  
  26555073.653   139547805.483                                                  
  24458029.482   128527783.981                                                  
  26193661.514   137648614.719                                                  
  25844646.652   135814516.535                                                  
  23592115.320   123977394.730                                                  
  25258093.132   132732150.853                                                  
 21  9  1  7 44 58.0000000  0 20G 1G 7G 8G 9G13G14G17G21G27G30C23C25
                                C28C34E13E15E19E21E27E30
  22666474.289   119113081.362    22666477.434    92815375.919                  
  20187736.941   106087290.489    20187736.119    82665425.075                  
  21789876.149   114506536.015    21789878.204    89225863.391                  
  24225535.589   127306006.382    24225538.180    99199474.796                  
  23960888.747   125915339.466    23960887.675    98115853.492                  
  22366076.107   117534536.048    22366076.142    91585358.102                  
  23305318.395   122470276.605    23305318.467    95431384.251                  
  22036397.618   115802055.829    22036396.546    90235369.958                  
  24380979.703   128122889.363    24380981.168    99836012.712                  
  20953808.509   110112974.011    20953810.224    85802309.257                  
                 117271558.109                   117271558.109    22520760.001  
                 116581250.618                   116581250.618    22388199.708  
                 134378070.639                   134378070.639    25805897.515  
                 118637606.671                   118637606.671    22783104.062  
  26554476.900   139544669.550                                                  
  24457757.141   128526352.821                                                  
  26193723.662   137648941.296                                                  
  25844313.127   135812763.850                                                  
  23592110.514   123977369.546                                                  
  25258429.427   132733917.984                                                  
 21  9  1  7 44 59.0000000  0 20G 1G 7G 8G 9G13G14G17G21G27G30C23C25
                                C28C34E13E15E19E21E27E30
  22665868.154   119109896.109    22665871.317    92812893.906                  
  20187806.594   106087656.585    20187805.772    82665710.347                  
  21790385.041   114509210.315    21790387.096    89227947.261                  
  24226200.692   127309501.621    24226203.301    99202198.359                  
  23960465.984   125913117.889    23960464.912    98114122.395                  
  22365659.723   117532348.032    22365659.758    91583653.157                  
  23304709.437   122467076.601    23304709.526    95428890.741                  
  22036204.025   115801038.468    22036202.935    90234577.211                  
  24381676.720   128126552.264    24381678.185    99838866.921                  
  20953480.755   110111251.718    20953482.488    85800967.211                  
                 117270070.737                   117270070.737    22520474.365  
                 116582368.760                   116582368.760    22388414.440  
                 134374630.708                   134374630.708    25805236.897  
                 118638883.848                   118638883.848    22783349.332  
  26553880.163   139541533.686                                                  
  24457484.888   128524922.092                                                  
  26193785.900   137649268.341                                                  
  25843979.601   135811011.204                                                  
  23592105.743   123977344.489                                                  
  25258765.704   132735685.223                                                  
 21  9  1  7 45  0.0000000  0 20G 1G 7G 8G 9G13G14G17G21G27G30C23C25
                                C28C34E13E15E19E21E27E30
  22665262.072   119106711.167    22665265.235    92810412.133                  
  20187876.373   106088023.247    20187875.569    82665996.055                  
  21790894.004   114511884.954    21790896.059    89230031.395                  
  24226865.813   127312996.878    24226868.421    99204921.933                  
  23960043.328   125910896.820    23960042.274    98112391.692                  
  22365243.392   117530160.169    22365243.428    91581948.328                  
  23304100.568   122463876.866    23304100.621    95426397.442                  
  22036010.540   115800021.687    22036009.432    90233784.910                  
  24382373.755   128130215.234    24382375.220    99841721.183                  
  20953153.109   110109529.875    20953154.824    85799625.515                  
                 117268583.601                   117268583.601    22520188.764  
                 116583487.235                   116583487.235    22388629.226  
                 134371190.840                   134371190.840    25804576.315  
                 118640161.520                   118640161.520    22783594.691  
  26553283.463   139538397.911                                                  
  24457212.707   128523491.816                                                  
  26193848.227   137649595.843                                                  
  25843646.094   135809258.602                                                  
  23592101.007   123977319.579                                                  
  25259102.017   132737452.539                                                  
 21  9  1  7 45  1.0000000  0 20G 1G 7G 8G 9G13G14G17G21G27G30C23C25
                                C28C34E13E15E19E21E27E30
  22664656.062   119103526.510    22664659.225    92807930.582                  
  20187946.241   106088390.452    20187945.437    82666282.191                  
  21791403.039   114514559.932    21791405.094    89232115.794                  
  24227530.951   127316492.161    24227533.560    99207645.531                  
  23959620.779   125908676.273    23959619.725    98110661.395                  
  22364827.080   117527972.473    22364827.116    91580243.632                  
  23303491.717   122460677.379    23303491.788    95423904.337                  
  22035817.161   115799005.461    22035816.053    90232993.048                  
  24383070.825   128133878.276    24383072.273    99844575.504                  
  20952825.516   110107808.454    20952827.231    85798284.148                  
                 117267096.700                   117267096.700    22519903.217  
                 116584606.035                   116584606.035    22388844.083  
                 134367751.048                   134367751.048    25803915.733  
                 118641439.681                   118641439.681    22783840.158  
  26552686.745   139535262.183                                                  
  24456940.598   128522061.962                                                  
  26193910.626   137649923.811                                                  
  25843312.604   135807506.047                                                  
  23592096.308   123977294.794                                                  
  25259438.348   132739219.930                                                  
 21  9  1  7 45  2.0000000  0 20G 1G 7G 8G 9G13G14G17G21G27G30C23C25
                                C28C34E13E15E19E21E27E30
  22664050.106   119100342.161    22664053.269    92805449.269                  
  20188016.234   106088758.235    20188015.412    82666568.773                  
  21791912.127   114517235.257    21791914.200    89234200.461                  
  24228196.072   127319987.474    24228198.681    99210369.148                  
  23959198.320   125906456.245    23959197.265    98108931.504                  
  22364410.821   117525784.936    22364410.839    91578539.058                  
  23302882.919   122457478.161    23302883.008    95421411.437                  
  22035623.872   115797989.802    22035622.800    90232201.625                  
  24383767.878   128137541.401    24383769.343    99847429.887                  
  20952498.048   110106087.485    20952499.764    85796943.136                  
                 117265610.035                   117265610.035    22519617.724  
                 116585725.160                   116585725.160    22389058.994  
                 134364311.326                   134364311.326    25803255.187  
                 118642718.333                   118642718.333    22784085.696  
  26552090.045   139532126.540                                                  
  24456668.595   128520632.554                                                  
  26193973.114   137650252.226                                                  
  25842979.097   135805753.532                                                  
  23592091.608   123977270.145                                                  
  25259774.678   132740987.413                                                  
 21  9  1  7 45  3.0000000  0 20G 1G 7G 8G 9G13G14G17G21G27G30C23C25
                                C28C34E13E15E19E21E27E30
  22663444.203   119097158.103    22663447.348    92802968.187                  
  20188086.316   106089126.562    20188085.494    82666855.781                  
  21792421.287   114519910.914    21792423.360    89236285.388                  
  24228861.228   127323482.786    24228863.819    99213092.769                  
  23958775.968   125904236.734    23958774.895    98107202.015                  
  22363994.562   117523597.566    22363994.598    91576834.614                  
  23302274.175   122454279.204    23302274.264    95418918.746                  
  22035430.726   115796974.718    22035429.618    90231410.652                  
  24384464.966   128141204.593    24384466.414    99850284.320                  
  20952170.616   110104366.957    20952172.367    85795602.464                  
                 117264123.609                   117264123.609    22519332.284  
                 116586844.615                   116586844.615    22389273.976  
                 134360871.673                   134360871.673    25802594.622  
                 118643997.482                   118643997.482    22784331.360  
  26551493.362   139528990.968                                                  
  24456396.683   128519203.583                                                  
  26194035.709   137650581.122                                                  
  25842645.625   135804001.062                                                  
  23592086.944   123977245.633                                                  
  25260111.045   132742754.993                                                  
 21  9  1  7 45  4.0000000  0 20G 1G 7G 8G 9G13G14G17G21G27G30C23C25
                                C28C34E13E15E19E21E27E30
  22662838.336   119093974.335    22662841.499    92800487.333                  
  20188156.523   106089495.454    20188155.701    82667143.229                  
  21792930.519   114522586.899    21792932.574    89238370.571                  
  24229526.367   127326978.128    24229528.958    99215816.414                  
  23958353.705   125902017.734    23958352.633    98105472.921                  
  22363578.357   117521410.354    22363578.393    91575130.293                  
  23301665.502   122451080.503    23301665.556    95416426.254                  
  22035237.669   115795960.191    22035236.561    90230620.114                  
  24385162.055   128144867.862    24385163.520    99853138.818                  
  20951843.291   110102646.859    20951845.025    85794262.128                  
                 117262637.417                   117262637.417    22519046.862  
                 116587964.392                   116587964.392    22389489.012  
                 134357432.090                   134357432.090    25801934.094  
                 118645277.116                   118645277.116    22784577.094  
  26550896.698   139525855.469                                                  
  24456124.841   128517775.058                                                  
  26194098.376   137650910.482                                                  
  25842312.135   135802248.645                                                  
  23592082.299   123977221.254                                                  
  25260447.394   132744522.628                                                  
 21  9  1  7 45  5.0000000  0 20G 1G 7G 8G 9G13G14G17G21G27G30C23C25
                                C28C34E13E15E19E21E27E30
  22662232.540   119090790.884    22662235.703    92798006.720                  
  20188226.820   106089864.901    20188225.998    82667431.113                  
  21793439.804   114525263.198    21793441.859    89240456.003                  
  24230191.524   127330473.493    24230194.115    99218540.071                  
  23957931.513   125899799.238    23957930.477    98103744.223                  
  22363162.187   117519223.301    22363162.223    91573426.093                  
  23301056.848   122447882.060    23301056.919    95413933.960                  
  22035044.701   115794946.251    22035043.611    90229830.026                  
  24385859.179   128148531.216    24385860.644    99855993.374                  
  20951516.056   110100927.208    20951517.807    85792922.136                  
                 117261151.462                   117261151.462    22518761.494  
                 116589084.500                   116589084.500    22389704.119  
                 134353992.578                   134353992.578    25801273.583  
                 118646557.245                   118646557.245    22784822.936  
  26550300.033   139522720.034                                                  
  24455853.071   128516346.980                                                  
  26194161.132   137651240.290                                                  
  25841978.682   135800496.266                                                  
  23592077.688   123977197.013                                                  
  25260783.796   132746290.337                                                  
 21  9  1  7 45  6.0000000  0 20G 1G 7G 8G 9G13G14G17G21G27G30C23C25
                                C28C34E13E15E19E21E27E30
  22661626.816   119087607.738    22661629.979    92795526.344                  
  20188297.242   106090234.912    20188296.420    82667719.430                  
  21793949.142   114527939.832    21793951.215    89242541.692                  
  24230856.662   127333968.856    24230859.253    99221263.730                  
  23957509.465   125897581.258    23957508.393    98102015.930                  
  22362746.018   117517036.409    22362746.053    91571722.024                  
  23300448.265   122444683.883    23300448.318    95411441.875                  
  22034851.859   115793932.871    22034850.786    90229040.382                  
  24386556.303   128152194.649    24386557.768    99858848.000                  
  20951188.892   110099207.985    20951190.643    85791582.484                  
                 117259665.742                   117259665.742    22518476.179  
                 116590204.934                   116590204.934    22389919.280  
                 134350553.140                   134350553.140    25800613.055  
                 118647837.869                   118647837.869    22785068.868  
  26549703.422   139519584.702                                                  
  24455581.408   128514919.332                                                  
  26194223.995   137651570.577                                                  
  25841645.228   135798743.910                                                  
  23592073.096   123977172.862                                                  
  25261120.198   132748058.169                                                  
 21  9  1  7 45  7.0000000  0 20G 1G 7G 8G 9G13G14G17G21G27G30C23C25
                                C28C34E13E15E19E21E27E30
  22661021.145   119084424.897    22661024.308    92793046.211                  
  20188367.753   106090605.477    20188366.949    82668008.184                  
  21794458.552   114530616.797    21794460.625    89244627.637                  
  24231521.819   127337464.274    24231524.428    99223987.434                  
  23957087.506   125895363.807    23957086.434    98100288.048                  
  22362329.902   117514849.679    22362329.938    91570018.078                  
  23299839.699   122441485.960    23299839.789    95408949.989                  
  22034659.141   115792920.070    22034658.051    90228251.189                  
  24387253.445   128155858.161    24387254.893    99861702.684                  
  20950861.835   110097489.211    20950863.569    85790243.179                  
                 117258180.263                   117258180.263    22518190.918  
                 116591325.694                   116591325.694    22390134.512  
                 134347113.770                   134347113.770    25799952.562  
                 118649118.978                   118649118.978    22785314.889  
  26549106.794   139516449.481                                                  
  24455309.817   128513492.128                                                  
  26194286.947   137651901.345                                                  
  25841311.756   135796991.586                                                  
  23592068.522   123977148.846                                                  
  25261456.618   132749826.039                                                  
 21  9  1  7 45  8.0000000  0 20G 1G 7G 8G 9G13G14G17G21G27G30C23C25
                                C28C34E13E15E19E21E27E30
  22660415.529   119081242.309    22660418.674    92790566.274                  
  20188438.371   106090976.585    20188437.567    82668297.359                  
  21794968.016   114533294.108    21794970.107    89246713.851                  
  24232186.975   127340959.710    24232189.584    99226711.153                  
  23956665.618   125893146.852    23956664.564    98098560.548                  
  22361913.822   117512663.124    22361913.857    91568314.270                  
  23299231.223   122438288.297    23299231.277    95406458.304                  
  22034466.513   115791907.811    22034465.423    90227462.413                  
  24387950.605   128159521.708    24387952.053    99864557.399                  
  20950534.868   110095770.907    20950536.583    85788904.243                  
                 117256695.017                   117256695.017    22517905.692  
                 116592446.780                   116592446.780    22390349.798  
                 134343674.472                   134343674.472    25799292.087  
                 118650400.581                   118650400.581    22785560.999  
  26548510.183   139513314.188                                                  
  24455038.315   128512065.344                                                  
  26194349.953   137652232.503                                                  
  25840978.338   135795239.418                                                  
  23592064.001   123977125.121                                                  
  25261793.038   132751593.989                                                  
 21  9  1  7 45  9.0000000  0 20G 1G 7G 8G 9G13G14G17G21G27G30C23C25
                                C28C34E13E15E19E21E27E30
  22659809.947   119078060.043    22659813.092    92788086.587                  
  20188509.097   106091348.265    20188508.275    82668586.980                  
  21795477.551   114535971.746    21795479.642    89248800.319                  
  24232852.132   127344455.157    24232854.741    99229434.871                  
  23956243.838   125890930.422    23956242.801    98096833.462                  
  22361497.759   117510476.723    22361497.795    91566610.578                  
  23298622.765   122435090.902    23298622.837    95403966.829                  
  22034273.992   115790896.137    22034272.902    90226674.098                  
  24388647.765   128163185.358    24388649.212    99867412.191                  
  20950207.954   110094053.019    20950209.687    85787565.625                  
                 117255210.009                   117255210.009    22517620.521  
                 116593568.194                   116593568.194    22390565.156  
                 134340235.247                   134340235.247    25798631.613  
                 118651682.675                   118651682.675    22785807.216  
  26547913.572   139510179.055                                                  
  24454766.885   128510638.999                                                  
  26194413.067   137652564.164                                                  
  25840644.902   135793487.204                                                  
  23592059.498   123977101.399                                                  
  25262129.494   132753362.012                                                  
 21  9  1  7 45 10.0000000  0 20G 1G 7G 8G 9G13G14G17G21G27G30C23C25
                                C28C34E13E15E19E21E27E30
  22659204.438   119074878.083    22659207.600    92785607.132                  
  20188579.948   106091720.514    20188579.126    82668877.043                  
  21795987.158   114538649.714    21795989.249    89250887.055                  
  24233517.306   127347950.616    24233519.897    99232158.610                  
  23955822.182   125888714.511    23955821.128    98095106.778                  
  22361081.715   117508290.479    22361081.768    91564907.011                  
  23298014.379   122431893.764    23298014.432    95401475.555                  
  22034081.579   115789885.034    22034080.506    90225886.226                  
  24389344.961   128166849.081    24389346.408    99870267.038                  
  20949881.148   110092335.577    20949882.863    85786227.363                  
                 117253725.234                   117253725.234    22517335.385  
                 116594689.937                   116594689.937    22390780.585  
                 134336796.095                   134336796.095    25797971.156  
                 118652965.264                   118652965.264    22786053.522  
  26547316.996   139507043.987                                                  
  24454495.544   128509213.110                                                  
  26194476.252   137652896.290                                                  
  25840311.484   135791735.050                                                  
  23592054.995   123977077.839                                                  
  25262465.932   132755130.122                                                  
 21  9  1  7 45 11.0000000  0 20G 1G 7G 8G 9G13G14G17G21G27G30C23C25
                                C28C34E13E15E19E21E27E30
  22658598.999   119071696.422    22658602.144    92783127.918                  
  20188650.888   106092093.321    20188650.066    82669167.544                  
  21796496.836   114541328.021    21796498.891    89252974.042                  
  24234182.463   127351446.093    24234185.054    99234882.356                  
  23955400.598   125886499.108    23955399.544    98093380.488                  
  22360665.724   117506104.397    22360665.760    91563203.573                  
  23297406.028   122428696.882    23297406.099    95398984.476                  
  22033889.308   115788874.501    22033888.200    90225098.798                  
  24390042.139   128170512.875    24390043.604    99873121.945                  
  20949554.395   110090618.573    20949556.128    85784889.438                  
                 117252240.700                   117252240.700    22517050.285  
                 116595812.008                   116595812.008    22390996.067  
                 134333357.006                   134333357.006    25797310.717  
                 118654248.345                   118654248.345    22786299.918  
  26546720.421   139503909.005                                                  
  24454224.292   128507787.663                                                  
  26194539.562   137653228.872                                                  
  25839978.066   135789982.941                                                  
  23592050.545   123977054.407                                                  
  25262802.424   132756898.315                                                  
 21  9  1  7 45 12.0000000  0 20G 1G 7G 8G 9G13G14G17G21G27G30C23C25
                                C28C34E13E15E19E21E27E30
  22657993.597   119068515.052    22657996.760    92780648.931                  
  20188721.917   106092466.683    20188721.113    82669458.473                  
  21797006.568   114544006.661    21797008.623    89255061.297                  
  24234847.637   127354941.605    24234850.246    99237606.129                  
  23954979.122   125884284.207    23954978.068    98091654.593                  
  22360249.769   117503918.477    22360249.805    91561500.259                  
  23296797.713   122425500.264    23296797.802    95396493.605                  
  22033697.109   115787864.535    22033696.019    90224311.813                  
  24390739.352   128174176.751    24390740.817    99875976.911                  
  20949227.749   110088902.011    20949229.482    85783551.855                  
                 117250756.399                   117250756.399    22516765.238  
                 116596934.402                   116596934.402    22391211.621  
                 134329917.997                   134329917.997    25796650.295  
                 118655531.911                   118655531.911    22786546.422  
  26546123.882   139500774.083                                                  
  24453953.112   128506362.663                                                  
  26194602.943   137653561.911                                                  
  25839644.666   135788230.876                                                  
  23592046.114   123977031.116                                                  
  25263138.915   132758666.567                                                  
 21  9  1  7 45 13.0000000  0 20G 1G 7G 8G 9G13G14G17G21G27G30C23C25
                                C28C34E13E15E19E21E27E30
  22657388.266   119065333.977    22657391.429    92778170.171                  
  20188793.072   106092840.602    20188792.267    82669749.836                  
  21797516.335   114546685.625    21797518.426    89257148.801                  
  24235512.811   127358437.120    24235515.420    99240329.907                  
  23954557.734   125882069.840    23954556.680    98089929.113                  
  22359833.814   117501732.718    22359833.867    91559797.070                  
  23296189.487   122422303.908    23296189.540    95394002.937                  
  22033505.017   115786855.140    22033503.945    90223525.269                  
  24391436.584   128177840.683    24391438.049    99878831.925                  
  20948901.175   110087185.890    20948902.908    85782214.618                  
                 117249272.337                   117249272.337    22516480.245  
                 116598057.125                   116598057.125    22391427.211  
                 134326479.054                   134326479.054    25795989.874  
                 118656815.974                   118656815.974    22786793.014  
  26545527.324   139497639.236                                                  
  24453682.038   128504938.094                                                  
  26194666.396   137653895.423                                                  
  25839311.265   135786478.849                                                  
  23592041.718   123977007.961                                                  
  25263475.425   132760434.942                                                  
 21  9  1  7 45 14.0000000  0 20G 1G 7G 8G 9G13G14G17G21G27G30C23C25
                                C28C34E13E15E19E21E27E30
  22656782.988   119062153.211    22656786.133    92775691.652                  
  20188864.333   106093215.085    20188863.511    82670041.641                  
  21798026.192   114549364.950    21798028.283    89259236.587                  
  24236178.004   127361932.661    24236180.595    99243053.703                  
  23954136.454   125879855.981    23954135.400    98088204.027                  
  22359417.912   117499547.126    22359417.966    91558094.011                  
  23295581.279   122419107.803    23295581.332    95391512.473                  
  22033313.032   115785846.309    22033311.960    90222739.167                  
  24392133.815   128181504.712    24392135.280    99881687.012                  
  20948574.708   110085470.206    20948576.423    85780877.723                  
                 117247788.512                   117247788.512    22516195.305  
                 116599180.176                   116599180.176    22391642.872  
                 134323040.186                   134323040.186    25795329.489  
                 118658100.523                   118658100.523    22787039.696  
  26544930.803   139494504.458                                                  
  24453411.037   128503513.950                                                  
  26194729.956   137654229.398                                                  
  25838977.865   135784726.874                                                  
  23592037.322   123976984.934                                                  
  25263811.934   132762203.367                                                  
 21  9  1  7 45 15.0000000  0 20G 1G 7G 8G 9G13G14G17G21G27G30C23C25
                                C28C34E13E15E19E21E27E30
  22656177.765   119058972.751    22656180.927    92773213.371                  
  20188935.720   106093590.125    20188934.898    82670333.882                  
  21798536.121   114552044.585    21798538.193    89261324.612                  
  24236843.178   127365428.217    24236845.787    99245777.516                  
  23953715.264   125877642.632    23953714.192    98086479.340                  
  22359002.046   117497361.684    22359002.082    91556391.071                  
  23294973.142   122415911.966    23294973.196    95389022.206                  
  22033121.172   115784838.047    22033120.100    90221953.509                  
  24392831.082   128185168.808    24392832.547    99884542.152                  
  20948248.294   110083754.968    20948250.027    85779541.172                  
                 117246304.921                   117246304.921    22515910.384  
                 116600303.556                   116600303.556    22391858.623  
                 134319601.391                   134319601.391    25794669.103  
                 118659385.566                   118659385.566    22787286.485  
  26544334.281   139491369.757                                                  
  24453140.125   128502090.258                                                  
  26194793.588   137654563.820                                                  
  25838644.483   135782974.938                                                  
  23592032.980   123976962.039                                                  
  25264148.479   132763971.880                                                  
