     2.11           OBSERVATION DATA    M (MIXED)           RINEX VERSION / TYPE
CONVBIN 2.4.3                           20210901 005142 UTC PGM / RUN BY / DATE 
log: logs/21_08_31_22_24_10_kybo_VZ.rtcm                    COMMENT             
format: RTCM 3, station ID: 1876                            COMMENT             
1876                                                        MARKER NAME         
                                                            MARKER NUMBER       
                                                            OBSERVER / AGENCY   
                    LEICA GR50          4.40/7.701          REC # / TYPE / VERS 
                    GPPNULLANTENNA                          ANT # / TYPE        
   467411.5157 -4939072.8261  3995378.3006                  APPROX POSITION XYZ 
        0.0000        0.0000        0.0000                  ANTENNA: DELTA H/E/N
     1     1                                                WAVELENGTH FACT L1/2
     7    C1    L1    C2    L2    P2    C5    L5            # / TYPES OF OBSERV 
  2021     8    31    22    24   29.0000000     GPS         TIME OF FIRST OBS   
  2021     8    31    22    54   14.0000000     GPS         TIME OF LAST OBS    
                                                            END OF HEADER       
 21  8 31 22 24 29.0000000  0 18G10G21G23G24G31G32R 5R 7R 9R15R16R21
                                R22E 3E 5E13E15E25
  20309697.543   106728202.711    20309697.311    83164843.928    20309697.240  
  20309695.828    79699638.048  
  24463651.631   128557359.019                   100174560.786    24463650.863  
                                
  21481529.450   112886194.049    21481528.306    87963258.873    21481528.038  
  21481532.220    84298137.324  
  22956109.690   120635183.552    22956111.138    94001449.206    22956110.620  
  22956111.442    90084726.852  
  23688076.495   124481691.426    23688076.030    96998713.279    23688075.583  
                                
  20894396.312   109800827.010    20894396.527    85559109.712    20894396.062  
  20894395.222    81994144.489  
  22066045.079   117955645.600    22066049.046    91743313.457    22066049.154  
                                
  22300214.372   119374788.757    22300215.427    92847112.909    22300215.052  
                                
  22999422.094   122815647.249    22999425.167    95523295.023    22999425.096  
                                
  21584579.819   115341483.002    21584581.410    89710029.656    21584581.446  
                                
  20336880.133   108635975.871    20336880.687    84494663.586    20336881.724  
                                
  21900215.311   117192484.677    21900216.508    91149704.424    21900216.347  
                                
  21795548.456   116346116.457    21795550.421    90491437.870    21795549.581  
                                
  23905676.218   125625222.409                                                  
  23905678.827    93811067.170  
  24671071.890   129647355.650                                                  
  24671074.874    96814592.199  
  26920085.919   141466013.301                                                  
  26920089.010   105640202.485  
  24573442.804   129134332.494                                                  
  24573446.538    96431487.216  
  26549789.140   139520087.358                                                  
  26549793.482   104187094.072  
 21  8 31 22 24 30.0000000  0 18G10G21G23G24G31G32R 5R 7R 9R15R16R21
                                R22E 3E 5E13E15E25
  20309685.768   106728140.944    20309685.553    83164795.795    20309685.464  
  20309684.070    79699591.923  
  24463264.820   128555326.270                   100172976.829    24463264.034  
                                
  21481932.146   112888310.244    21481930.985    87964907.856    21481930.717  
  21481934.898    84299717.619  
  22956731.282   120638449.945    22956732.747    94003994.441    22956732.211  
  22956733.033    90087166.028  
  23687341.738   124477830.264    23687341.256    96995704.588    23687340.809  
                                
  20894225.556   109799929.612    20894225.770    85558410.443    20894225.306  
  20894224.466    81993474.350  
  22066468.539   117957909.222    22066472.506    91745074.049    22066472.631  
                                
  22299739.056   119372244.434    22299740.111    92845133.989    22299739.753  
                                
  22998606.444   122811291.691    22998609.500    95519907.374    22998609.428  
                                
  21584952.817   115343476.274    21584954.426    89711579.978    21584954.461  
                                
  20336456.781   108633714.390    20336457.334    84492904.658    20336458.371  
                                
  21900805.614   117195643.541    21900806.811    91152161.321    21900806.650  
                                
  21795546.990   116346108.582    21795548.956    90491431.740    21795548.116  
                                
  23905565.466   125624640.446                                                  
  23905568.093    93810632.587  
  24671331.509   129648719.928                                                  
  24671334.493    96815610.976  
  26919758.683   141464293.747                                                  
  26919761.757   105638918.440  
  24573607.574   129135198.377                                                  
  24573611.308    96432133.816  
  26549283.054   139517427.759                                                  
  26549287.378   104185108.003  
 21  8 31 22 24 31.0000000  0 18G10G21G23G24G31G32R 5R 7R 9R15R16R21
                                R22E 3E 5E13E15E25
  20309674.081   106728079.429    20309673.849    83164747.864    20309673.778  
  20309672.366    79699545.985  
  24462878.009   128553293.681                   100171393.004    24462877.223  
                                
  21482334.914   112890426.692    21482333.770    87966557.034    21482333.502  
  21482337.684    84301298.048  
  22957352.874   120641716.415    22957354.339    94006539.739    22957353.803  
  22957354.625    90089605.269  
  23686606.964   124473969.046    23686606.500    96992695.845    23686606.035  
                                
  20894054.764   109799032.261    20894054.996    85557711.208    20894054.532  
  20894053.692    81992804.254  
  22066891.964   117960172.826    22066895.931    91746834.630    22066896.056  
                                
  22299263.723   119369699.950    22299264.777    92843154.938    22299264.419  
                                
  22997790.741   122806936.040    22997793.815    95516519.655    22997793.743  
                                
  21585325.958   115345470.109    21585327.549    89713130.742    21585327.584  
                                
  20336033.535   108631453.470    20336034.089    84491146.162    20336035.125  
                                
  21901395.988   117198802.734    21901397.186    91154618.474    21901397.025  
                                
  21795545.632   116346101.374    21795547.598    90491426.130    21795546.776  
                                
  23905454.696   125624058.419                                                  
  23905457.323    93810197.954  
  24671591.092   129650084.083                                                  
  24671594.077    96816629.665  
  26919431.519   141462574.448                                                  
  26919434.611   105637634.517  
  24573772.380   129136064.523                                                  
  24573776.114    96432780.616  
  26548776.931   139514768.092                                                  
  26548781.256   104183121.895  
 21  8 31 22 24 32.0000000  0 18G10G21G23G24G31G32R 5R 7R 9R15R16R21
                                R22E 3E 5E13E15E25
  20309662.449   106728018.305    20309662.216    83164700.232    20309662.145  
  20309660.733    79699500.342  
  24462491.270   128551261.437                   100169809.463    24462490.484  
                                
  21482737.700   112892543.377    21482736.538    87968206.408    21482736.270  
  21482740.451    84302878.718  
  22957974.484   120644983.081    22957975.931    94009085.191    22957975.413  
  22957976.253    90092044.677  
  23685872.243   124470108.002    23685871.779    96989687.230    23685871.314  
                                
  20893884.061   109798135.141    20893884.293    85557012.156    20893883.829  
  20893882.989    81992134.325  
  22067315.424   117962436.478    22067319.409    91748595.235    22067319.516  
                                
  22298788.407   119367155.450    22298789.461    92841175.895    22298789.086  
                                
  22996975.074   122802580.437    22996978.129    95513131.973    22996978.058  
                                
  21585699.207   115347464.676    21585700.815    89714682.076    21585700.851  
                                
  20335610.432   108629193.310    20335610.986    84489388.260    20335612.022  
                                
  21901986.435   117201962.373    21901987.632    91157075.970    21901987.471  
                                
  21795544.435   116346094.968    21795546.401    90491421.145    21795545.579  
                                
  23905343.979   125623476.453                                                  
  23905346.606    93809763.371  
  24671850.676   129651448.237                                                  
  24671853.660    96817648.352  
  26919104.427   141460855.448                                                  
  26919107.500   105636350.852  
  24573937.293   129136931.075                                                  
  24573941.028    96433427.718  
  26548270.809   139512108.496                                                  
  26548275.133   104181135.848  
 21  8 31 22 24 33.0000000  0 18G10G21G23G24G31G32R 5R 7R 9R15R16R21
                                R22E 3E 5E13E15E25
  20309650.905   106727957.699    20309650.691    83164653.005    20309650.601  
  20309649.208    79699455.080  
  24462104.620   128549229.634                   100168226.253    24462103.834  
                                
  21483140.593   112894660.555    21483139.431    87969856.150    21483139.163  
  21483143.344    84304459.719  
  22958596.201   120648250.117    22958597.630    94011630.929    22958597.112  
  22958597.952    90094484.349  
  23685137.487   124466247.069    23685137.005    96986678.763    23685136.558  
                                
  20893713.412   109797238.341    20893713.644    85556313.349    20893713.180  
  20893712.340    81991464.637  
  22067738.920   117964700.428    22067742.905    91750356.076    22067743.012  
                                
  22298313.073   119364611.052    22298314.109    92839196.928    22298313.752  
                                
  22996159.424   122798224.956    22996162.498    95509744.381    22996162.426  
                                
  21586072.616   115349460.063    21586074.206    89716234.044    21586074.242  
                                
  20335187.454   108626933.959    20335188.008    84487630.987    20335189.063  
                                
  21902577.006   117205122.600    21902578.185    91159533.922    21902578.024  
                                
  21795543.417   116346089.534    21795545.382    90491416.928    21795544.542  
                                
  23905233.263   125622894.690                                                  
  23905235.890    93809328.931  
  24672110.295   129652812.548                                                  
  24672113.279    96818667.157  
  26918777.388   141459136.909                                                  
  26918780.479   105635067.517  
  24574102.278   129137798.175                                                  
  24574106.030    96434075.226  
  26547764.758   139509449.129                                                  
  26547769.101   104179149.946  
 21  8 31 22 24 34.0000000  0 18G10G21G23G24G31G32R 5R 7R 9R15R16R21
                                R22E 3E 5E13E15E25
  20309639.433   106727897.402    20309639.219    83164606.020    20309639.130  
  20309637.736    79699410.055  
  24461718.024   128547197.992                   100166643.135    24461717.220  
                                
  21483543.503   112896777.939    21483542.360    87971506.060    21483542.092  
  21483546.273    84306040.880  
  22959217.918   120651517.311    22959219.365    94014176.801    22959218.847  
  22959219.687    90096924.131  
  23684402.802   124462386.238    23684402.320    96983670.310    23684401.873  
                                
  20893542.781   109796341.665    20893542.995    85555614.645    20893542.548  
  20893541.691    81990795.043  
  22068162.416   117966964.304    22068166.400    91752116.866    22068166.508  
                                
  22297837.721   119362066.520    22297838.757    92837217.854    22297838.400  
                                
  22995343.775   122793869.443    22995346.848    95506356.760    22995346.777  
                                
  21586446.150   115351456.080    21586447.740    89717786.492    21586447.776  
                                
  20334764.620   108624675.186    20334765.174    84485874.161    20334766.210  
                                
  21903167.631   117208283.215    21903168.810    91161992.169    21903168.649  
                                
  21795542.541   116346084.866    21795544.507    90491413.295    21795543.685  
                                
  23905122.546   125622312.877                                                  
  23905125.173    93808894.463  
  24672369.914   129654176.776                                                  
  24672372.898    96819685.888  
  26918450.403   141457418.625                                                  
  26918453.494   105633784.391  
  24574267.352   129138665.583                                                  
  24574271.104    96434722.953  
  26547258.690   139506789.741                                                  
  26547263.014   104177164.037  
 21  8 31 22 24 35.0000000  0 18G10G21G23G24G31G32R 5R 7R 9R15R16R21
                                R22E 3E 5E13E15E25
  20309628.069   106727837.657    20309627.836    83164559.463    20309627.765  
  20309626.353    79699365.440  
  24461331.499   128545166.887                   100165060.465    24461330.713  
                                
  21483946.521   112898895.836    21483945.395    87973156.371    21483945.127  
  21483949.291    84307622.411  
  22959839.724   120654784.858    22959841.171    94016722.939    22959840.635  
  22959841.493    90099364.190  
  23683668.171   124458525.660    23683667.689    96980662.065    23683667.224  
                                
  20893372.221   109795445.344    20893372.435    85554916.215    20893371.989  
  20893371.131    81990125.719  
  22068585.983   117969228.520    22068589.968    91753877.925    22068590.057  
                                
  22297362.423   119359522.140    22297363.459    92835238.901    22297363.084  
                                
  22994528.143   122789514.102    22994531.217    95502969.275    22994531.128  
                                
  21586819.844   115353452.954    21586821.453    89719339.609    21586821.488  
                                
  20334341.928   108622417.302    20334342.500    84484118.032    20334343.536  
                                
  21903758.380   117211444.407    21903759.560    91164450.877    21903759.399  
                                
  21795541.826   116346081.116    21795543.792    90491410.369    21795542.970  
                                
  23905011.884   125621731.313                                                  
  23905014.510    93808460.176  
  24672629.533   129655541.165                                                  
  24672632.517    96820704.757  
  26918123.489   141455700.796                                                  
  26918126.563   105632501.621  
  24574432.533   129139533.558                                                  
  24574436.268    96435371.116  
  26546752.657   139504130.582                                                  
  26546756.981   104175178.313  
 21  8 31 22 24 36.0000000  0 18G10G21G23G24G31G32R 5R 7R 9R15R16R21
                                R22E 3E 5E13E15E25
  20309616.811   106727778.510    20309616.579    83164513.375    20309616.507  
  20309615.096    79699321.277  
  24460945.099   128543136.322                   100163478.200    24460944.295  
                                
  21484349.628   112901014.220    21484348.485    87974807.062    21484348.235  
  21484352.398    84309204.338  
  22960461.619   120658052.882    22960463.067    94019269.441    22960462.531  
  22960463.389    90101804.581  
  23682933.611   124454665.408    23682933.147    96977654.040    23682932.682  
                                
  20893201.733   109794549.459    20893201.947    85554218.121    20893201.500  
  20893200.642    81989456.710  
  22069009.586   117971493.023    22069013.571    91755639.212    22069013.660  
                                
  22296887.143   119356977.966    22296888.161    92833260.102    22296887.804  
                                
  22993712.583   122785159.039    22993715.657    95499582.006    22993715.567  
                                
  21587193.700   115355450.791    21587195.308    89720893.483    21587195.344  
                                
  20333919.433   108620160.316    20333919.987    84482362.601    20333921.023  
                                
  21904349.238   117214606.245    21904350.435    91166910.091    21904350.274  
                                
  21795541.326   116346078.401    21795543.292    90491408.255    21795542.470  
                                
  23904901.274   125621150.020                                                  
  23904903.901    93808026.091  
  24672889.223   129656905.798                                                  
  24672892.208    96821723.794  
  26917796.736   141453983.527                                                  
  26917799.810   105631219.230  
  24574597.821   129140402.160                                                  
  24574601.556    96436019.752  
  26546246.713   139501471.722                                                  
  26546251.038   104173192.794  
 21  8 31 22 24 37.0000000  0 18G10G21G23G24G31G32R 5R 7R 9R15R16R21
                                R22E 3E 5E13E15E25
  20309605.661   106727719.927    20309605.446    83164467.725    20309605.375  
  20309603.963    79699277.523  
  24460558.807   128541106.230                   100161896.310    24460558.003  
                                
  21484752.861   112903133.115    21484751.717    87976458.152    21484751.449  
  21484755.631    84310786.619  
  22961083.551   120661321.242    22961084.980    94021816.214    22961084.462  
  22961085.302    90104245.259  
  23682199.087   124450805.388    23682198.605    96974646.223    23682198.140  
                                
  20893031.334   109793653.933    20893031.548    85553520.308    20893031.101  
  20893030.243    81988787.968  
  22069433.261   117973757.803    22069437.245    91757400.707    22069437.335  
                                
  22296411.880   119354433.900    22296412.917    92831281.375    22296412.559  
                                
  22992897.059   122780804.149    22992900.132    95496194.867    22992900.061  
                                
  21587567.735   115357449.478    21587569.343    89722448.022    21587569.361  
                                
  20333497.063   108617904.181    20333497.617    84480607.836    20333498.653  
                                
  21904940.220   117217768.683    21904941.417    91169369.769    21904941.256  
                                
  21795541.004   116346076.672    21795542.970    90491406.915    21795542.130  
                                
  23904790.701   125620568.946                                                  
  23904793.310    93807592.174  
  24673148.932   129658270.572                                                  
  24673151.916    96822742.948  
  26917470.019   141452266.713                                                  
  26917473.092   105629937.205  
  24574763.217   129141271.318                                                  
  24574766.952    96436668.798  
  26545740.788   139498813.091                                                  
  26545745.112   104171207.455  
 21  8 31 22 24 38.0000000  0 18G10G21G23G24G31G32R 5R 7R 9R15R16R21
                                R22E 3E 5E13E15E25
  20309594.600   106727661.757    20309594.368    83164422.396    20309594.296  
  20309592.885    79699234.082  
  24460172.568   128539076.478                   100160314.673    24460171.764  
                                
  21485156.129   112905252.326    21485154.985    87978109.488    21485154.717  
  21485158.899    84312369.160  
  22961705.572   120664589.900    22961707.019    94024363.228    22961706.501  
  22961707.358    90106686.109  
  23681464.563   124446945.467    23681464.081    96971638.497    23681463.634  
                                
  20892860.952   109792758.648    20892861.167    85552822.683    20892860.720  
  20892859.880    81988119.411  
  22069856.953   117976022.717    22069860.956    91759162.305    22069861.045  
                                
  22295936.636   119351889.897    22295937.672    92829302.715    22295937.297  
                                
  22992081.552   122776449.321    22992084.608    95492807.776    22992084.537  
                                
  21587941.894   115359448.867    21587943.502    89724003.104    21587943.520  
                                
  20333074.836   108615648.770    20333075.407    84478853.625    20333076.444  
                                
  21905531.291   117220931.620    21905532.489    91171829.832    21905532.328  
                                
  21795540.843   116346075.813    21795542.809    90491406.252    21795541.969  
                                
  23904680.145   125619987.966                                                  
  23904682.772    93807158.326  
  24673408.658   129659635.398                                                  
  24673411.624    96823762.137  
  26917143.391   141450550.281                                                  
  26917146.465   105628655.442  
  24574928.684   129142140.918                                                  
  24574932.419    96437318.173  
  26545234.862   139496154.554                                                  
  26545239.204   104169222.195  
 21  8 31 22 24 39.0000000  0 18G10G21G23G24G31G32R 5R 7R 9R15R16R21
                                R22E 3E 5E13E15E25
  20309583.628   106727604.104    20309583.396    83164377.472    20309583.325  
  20309581.913    79699191.032  
  24459786.383   128537047.175                   100158733.412    24459785.578  
                                
  21485559.486   112907372.019    21485558.361    87979761.192    21485558.093  
  21485562.256    84313952.026  
  22962327.610   120667858.867    22962329.040    94026910.479    22962328.521  
  22962329.379    90109127.254  
  23680730.128   124443085.758    23680729.682    96968630.906    23680729.217  
                                
  20892690.661   109791863.688    20892690.875    85552125.307    20892690.428  
  20892689.571    81987451.092  
  22070280.681   117978287.844    22070284.684    91760924.063    22070284.773  
                                
  22295461.409   119349345.956    22295462.427    92827324.104    22295462.070  
                                
  22991266.046   122772094.616    22991269.102    95489420.788    22991269.030  
                                
  21588316.179   115361449.097    21588317.787    89725558.846    21588317.823  
                                
  20332652.769   108613394.179    20332653.323    84477100.057    20332654.378  
                                
  21906122.488   117224095.167    21906123.685    91174290.361    21906123.524  
                                
  21795540.843   116346075.909    21795542.809    90491406.335    21795541.969  
                                
  23904569.625   125619407.174                                                  
  23904572.234    93806724.620  
  24673668.384   129661000.354                                                  
  24673671.351    96824781.422  
  26916816.817   141448834.260                                                  
  26916819.890   105627374.026  
  24575094.276   129143011.041                                                  
  24575098.011    96437967.942  
  26544729.026   139493496.252                                                  
  26544733.368   104167237.088  
 21  8 31 22 24 40.0000000  0 18G10G21G23G24G31G32R 5R 7R 9R15R16R21
                                R22E 3E 5E13E15E25
  20309572.746   106727546.941    20309572.532    83164332.927    20309572.460  
  20309571.049    79699148.341  
  24459400.287   128535018.276                   100157152.459    24459399.483  
                                
  21485962.933   112909492.111    21485961.790    87981413.214    21485961.539  
  21485965.703    84315535.214  
  22962949.756   120671128.174    22962951.185    94029457.996    22962950.667  
  22962951.525    90111568.611  
  23679995.658   124439226.318    23679995.193    96965623.603    23679994.729  
                                
  20892520.405   109790969.033    20892520.619    85551428.172    20892520.154  
  20892519.315    81986783.006  
  22070704.463   117980553.129    22070708.466    91762685.947    22070708.555  
                                
  22294986.182   119346802.103    22294987.201    92825345.555    22294986.843  
                                
  22990450.575   122767740.066    22990453.631    95486033.918    22990453.559  
                                
  21588690.660   115363450.184    21588692.268    89727115.251    21588692.304  
                                
  20332230.864   108611140.394    20332231.418    84475347.115    20332232.454  
                                
  21906713.774   117227259.252    21906714.971    91176751.311    21906714.810  
                                
  21795541.022   116346076.931    21795543.006    90491407.133    21795542.166  
                                
  23904459.123   125618826.553                                                  
  23904461.732    93806291.039  
  24673928.146   129662365.430                                                  
  24673931.130    96825800.797  
  26916490.385   141447118.699                                                  
  26916493.459   105626092.908  
  24575259.940   129143881.683                                                  
  24575263.693    96438618.090  
  26544223.190   139490838.106                                                  
  26544227.532   104165252.111  
 21  8 31 22 24 41.0000000  0 18G10G21G23G24G31G32R 5R 7R 9R15R16R21
                                R22E 3E 5E13E15E25
  20309561.971   106727490.348    20309561.757    83164288.825    20309561.685  
  20309560.274    79699106.079  
  24459014.316   128532989.915                   100155571.902    24459013.512  
                                
  21486366.469   112911612.685    21486365.326    87983065.611    21486365.058  
  21486369.239    84317118.761  
  22963571.955   120674397.878    22963573.385    94032005.816    22963572.867  
  22963573.724    90114010.266  
  23679261.259   124435367.152    23679260.776    96962616.493    23679260.312  
                                
  20892350.238   109790074.769    20892350.452    85550731.345    20892349.988  
  20892349.148    81986115.211  
  22071128.298   117982818.727    22071132.301    91764448.076    22071132.390  
                                
  22294510.991   119344258.404    22294512.010    92823367.126    22294511.653  
                                
  22989635.158   122763385.718    22989638.214    95482647.210    22989638.142  
                                
  21589065.302   115365452.136    21589066.928    89728672.328    21589066.946  
                                
  20331809.119   108608887.527    20331809.691    84473594.885    20331810.727  
                                
  21907305.149   117230423.928    21907306.346    91179212.722    21907306.186  
                                
  21795541.415   116346078.940    21795543.381    90491408.695    21795542.559  
                                
  23904348.693   125618246.166                                                  
  23904351.301    93805857.633  
  24674187.962   129663730.694                                                  
  24674190.946    96826820.310  
  26916164.008   141445403.643                                                  
  26916167.081   105624812.196  
  24575425.747   129144752.900                                                  
  24575429.481    96439268.674  
  26543717.389   139488180.203                                                  
  26543721.731   104163267.322  
 21  8 31 22 24 42.0000000  0 18G10G21G23G24G31G32R 5R 7R 9R15R16R21
                                R22E 3E 5E13E15E25
  20309551.285   106727434.100    20309551.053    83164244.999    20309550.982  
  20309549.570    79699064.074  
  24458628.398   128530961.748                   100153991.502    24458627.594  
                                
  21486770.059   112913733.551    21486768.933    87984718.239    21486768.683  
  21486772.847    84318702.512  
  22964194.208   120677667.751    22964195.638    94034553.767    22964195.120  
  22964195.977    90116452.046  
  23678526.896   124431508.024    23678526.431    96959609.361    23678525.949  
                                
  20892180.107   109789180.660    20892180.321    85550034.634    20892179.857  
  20892179.017    81985447.533  
  22071552.134   117985084.393    22071556.136    91766210.254    22071556.226  
                                
  22294035.818   119341714.658    22294036.837    92821388.647    22294036.479  
                                
  22988819.705   122759031.347    22988822.761    95479260.481    22988822.689  
                                
  21589440.087   115367454.786    21589441.695    89730229.940    21589441.730  
                                
  20331387.482   108606635.317    20331388.053    84471843.173    20331389.090  
                                
  21907896.632   117233588.978    21907897.811    91181674.425    21907897.668  
                                
  21795541.933   116346081.709    21795543.899    90491410.851    21795543.077  
                                
  23904238.244   125617665.799                                                  
  23904240.853    93805424.240  
  24674447.760   129665095.914                                                  
  24674450.744    96827839.792  
  26915837.684   141443688.857                                                  
  26915840.739   105623531.693  
  24575591.589   129145624.475                                                  
  24575595.324    96439919.528  
  26543211.642   139485522.344                                                  
  26543215.984   104161282.548  
 21  8 31 22 24 43.0000000  0 18G10G21G23G24G31G32R 5R 7R 9R15R16R21
                                R22E 3E 5E13E15E25
  20309540.653   106727378.287    20309540.421    83164201.505    20309540.350  
  20309538.938    79699022.398  
  24458242.517   128528933.962                   100152411.398    24458241.731  
                                
  21487173.702   112915854.779    21487172.577    87986371.139    21487172.309  
  21487176.490    84320286.541  
  22964816.461   120680937.865    22964817.909    94037101.913    22964817.373  
  22964818.248    90118894.031  
  23677792.568   124427649.027    23677792.104    96956602.335    23677791.621  
                                
  20892009.994   109788286.798    20892010.208    85549338.118    20892009.744  
  20892008.904    81984780.042  
  22071975.987   117987350.138    22071980.007    91767972.491    22071980.097  
                                
  22293560.627   119339170.915    22293561.646    92819410.169    22293561.289  
                                
  22988004.288   122754677.068    22988007.344    95475873.827    22988007.272  
                                
  21589814.961   115369458.144    21589816.587    89731788.111    21589816.623  
                                
  20330966.005   108604383.847    20330966.577    84470092.032    20330967.613  
                                
  21908488.186   117236754.548    21908489.383    91184136.534    21908489.222  
                                
  21795542.595   116346085.328    21795544.560    90491413.668    21795543.738  
                                
  23904127.814   125617085.538                                                  
  23904130.422    93804990.931  
  24674707.557   129666461.189                                                  
  24674710.524    96828859.318  
  26915511.449   141441974.455                                                  
  26915514.522   105622251.454  
  24575757.539   129146496.505                                                  
  24575761.273    96440570.719  
  26542705.877   139482864.611                                                  
  26542710.219   104159297.880  
 21  8 31 22 24 44.0000000  0 18G10G21G23G24G31G32R 5R 7R 9R15R16R21
                                R22E 3E 5E13E15E25
  20309530.129   106727323.037    20309529.914    83164158.454    20309529.843  
  20309528.431    79698981.142  
  24457856.743   128526906.674                   100150831.682    24457855.956  
                                
  21487577.453   112917976.470    21487576.309    87988024.394    21487576.041  
  21487580.223    84321870.926  
  22965438.821   120684208.399    22965440.269    94039650.374    22965439.733  
  22965440.608    90121336.313  
  23677058.241   124423790.269    23677057.758    96953595.554    23677057.294  
                                
  20891839.970   109787393.320    20891840.184    85548641.901    20891839.738  
  20891838.880    81984112.837  
  22072399.911   117989616.231    22072403.914    91769735.008    22072404.003  
                                
  22293085.490   119336627.351    22293086.509    92817431.839    22293086.151  
                                
  22987188.925   122750323.000    22987191.980    95472487.335    22987191.909  
                                
  21590190.032   115371462.355    21590191.658    89733346.942    21590191.675  
                                
  20330544.689   108602133.247    20330545.261    84468341.568    20330546.297  
                                
  21909079.883   117239920.766    21909081.080    91186599.151    21909080.919  
                                
  21795543.470   116346089.948    21795545.454    90491417.255    21795544.614  
                                
  23904017.455   125616505.527                                                  
  23904020.063    93804557.803  
  24674967.409   129667826.662                                                  
  24674970.375    96829878.982  
  26915185.321   141440260.588                                                  
  26915188.395   105620971.572  
  24575923.578   129147369.125                                                  
  24575927.330    96441222.347  
  26542200.166   139480207.110                                                  
  26542204.490   104157313.391  
 21  8 31 22 24 45.0000000  0 18G10G21G23G24G31G32R 5R 7R 9R15R16R21
                                R22E 3E 5E13E15E25
  20309519.711   106727268.192    20309519.496    83164115.715    20309519.425  
  20309518.013    79698940.186  
  24457471.022   128524879.704                   100149252.225    24457470.236  
                                
  21487981.257   112920098.505    21487980.114    87989677.920    21487979.863  
  21487984.027    84323455.562  
  22966061.235   120687479.167    22966062.665    94042199.027    22966062.129  
  22966063.004    90123778.770  
  23676324.003   124419931.721    23676323.520    96950588.884    23676323.055  
                                
  20891669.982   109786500.056    20891670.196    85547945.856    20891669.750  
  20891668.892    81983445.783  
  22072823.836   117991882.415    22072827.839    91771497.600    22072827.928  
                                
  22292610.335   119334083.802    22292611.353    92815453.518    22292610.996  
                                
  22986373.543   122745968.957    22986376.599    95469100.852    22986376.527  
                                
  21590565.227   115373467.285    21590566.853    89734906.334    21590566.871  
                                
  20330123.498   108599883.340    20330124.070    84466591.640    20330125.107  
                                
  21909671.651   117243087.424    21909672.848    91189062.114    21909672.688  
                                
  21795544.507   116346095.388    21795546.472    90491421.474    21795545.650  
                                
  23903907.078   125615925.580                                                  
  23903909.704    93804124.726  
  24675227.224   129669192.140                                                  
  24675230.208    96830898.662  
  26914859.212   141438546.987                                                  
  26914862.267   105619691.966  
  24576089.724   129148242.156                                                  
  24576093.459    96441874.283  
  26541694.508   139477549.720                                                  
  26541698.851   104155328.963  
 21  8 31 22 24 46.0000000  0 18G10G21G23G24G31G32R 5R 7R 9R15R16R21
                                R22E 3E 5E13E15E25
  20309509.365   106727213.782    20309509.132    83164073.320    20309509.061  
  20309507.649    79698899.555  
  24457085.390   128522853.118                   100147673.065    24457084.604  
                                
  21488385.151   112922220.921    21488384.025    87991331.746    21488383.757  
  21488387.938    84325040.468  
  22966683.703   120690750.200    22966685.132    94044747.886    22966684.596  
  22966685.472    90126221.420  
  23675589.747   124416073.280    23675589.264    96947582.336    23675588.782  
                                
  20891500.048   109785607.039    20891500.262    85547249.994    20891499.815  
  20891498.975    81982778.919  
  22073247.797   117994148.732    22073251.799    91773260.286    22073251.871  
                                
  22292135.180   119331540.277    22292136.216    92813475.209    22292135.841  
                                
  22985558.180   122741614.958    22985561.235    95465714.418    22985561.164  
                                
  21590940.566   115375472.985    21590942.192    89736466.330    21590942.210  
                                
  20329702.451   108597634.166    20329703.022    84464842.287    20329704.059  
                                
  21910263.473   117246254.532    21910264.670    91191525.421    21910264.510  
                                
  21795545.686   116346101.696    21795547.669    90491426.368    21795546.847  
                                
  23903796.754   125615345.739                                                  
  23903799.363    93803691.730  
  24675487.076   129670557.674                                                  
  24675490.060    96831918.377  
  26914533.227   141436833.807                                                  
  26914536.301   105618412.627  
  24576255.924   129149115.629                                                  
  24576259.676    96442526.550  
  26541188.833   139474892.430                                                  
  26541193.175   104153344.626  
 21  8 31 22 24 47.0000000  0 18G10G21G23G24G31G32R 5R 7R 9R15R16R21
                                R22E 3E 5E13E15E25
  20309499.054   106727159.697    20309498.840    83164031.176    20309498.768  
  20309497.357    79698859.167  
  24456699.777   128520826.759                   100146094.104    24456698.973  
                                
  21488789.080   112924343.563    21488787.936    87992985.753    21488787.686  
  21488791.850    84326625.562  
  22967306.206   120694021.400    22967307.635    94047296.868    22967307.099  
  22967307.993    90128664.188  
  23674855.526   124412214.870    23674855.079    96944575.735    23674854.579  
                                
  20891330.149   109784714.168    20891330.363    85546554.251    20891329.917  
  20891329.077    81982112.161  
  22073671.739   117996415.091    22073675.742    91775023.010    22073675.813  
                                
  22291660.024   119328996.680    22291661.061    92811496.854    22291660.686  
                                
  22984742.798   122737260.951    22984745.854    95462327.970    22984745.783  
                                
  21591316.012   115377479.362    21591317.638    89738026.848    21591317.674  
                                
  20329281.492   108595385.607    20329282.064    84463093.410    20329283.118  
                                
  21910855.402   117249422.017    21910856.600    91193989.027    21910856.439  
                                
  21795547.026   116346108.751    21795549.010    90491431.847    21795548.170  
                                
  23903686.413   125614765.898                                                  
  23903689.022    93803258.732  
  24675746.927   129671923.152                                                  
  24675749.893    96832938.050  
  26914207.278   141435120.904                                                  
  26914210.334   105617133.501  
  24576422.213   129149989.441                                                  
  24576425.965    96443179.074  
  26540683.175   139472235.155                                                  
  26540687.500   104151360.293  
 21  8 31 22 24 48.0000000  0 18G10G21G23G24G31G32R 5R 7R 9R15R16R21
                                R22E 3E 5E13E15E25
  20309488.833   106727105.996    20309488.619    83163989.331    20309488.547  
  20309487.136    79698819.068  
  24456314.217   128518800.689                   100144515.348    24456313.413  
                                
  21489193.063   112926466.525    21489191.937    87994640.014    21489191.669  
  21489195.833    84328210.888  
  22967928.727   120697292.814    22967930.156    94049846.027    22967929.620  
  22967930.514    90131107.121  
  23674121.342   124408356.528    23674120.895    96941569.203    23674120.395  
                                
  20891160.268   109783821.492    20891160.483    85545858.659    20891160.018  
  20891159.178    81981445.561  
  22074095.717   117998681.475    22074099.720    91776785.755    22074099.792  
                                
  22291184.851   119326453.030    22291185.870    92809518.462    22291185.495  
                                
  22983927.435   122732906.958    22983930.490    95458941.533    22983930.419  
                                
  21591691.619   115379486.446    21591693.245    89739587.914    21591693.263  
                                
  20328860.695   108593137.755    20328861.266    84461345.083    20328862.321  
                                
  21911447.421   117252589.969    21911448.618    91196452.989    21911448.457  
                                
  21795548.491   116346116.663    21795550.475    90491438.000    21795549.653  
                                
  23903576.072   125614186.116                                                  
  23903578.681    93802825.775  
  24676006.778   129673288.630                                                  
  24676009.744    96833957.731  
  26913881.383   141433408.299                                                  
  26913884.457   105615854.587  
  24576588.556   129150863.660                                                  
  24576592.308    96443831.902  
  26540177.500   139469577.933                                                  
  26540181.824   104149376.019  
 21  8 31 22 24 49.0000000  0 18G10G21G23G24G31G32R 5R 7R 9R15R16R21
                                R22E 3E 5E13E15E25
  20309478.701   106727052.771    20309478.487    83163947.857    20309478.416  
  20309477.004    79698779.316  
  24455928.746   128516775.036                   100142936.904    24455927.942  
                                
  21489597.135   112928589.886    21489595.992    87996294.583    21489595.741  
  21489599.905    84329796.515  
  22968551.301   120700564.492    22968552.731    94052395.382    22968552.195  
  22968553.088    90133550.261  
  23673387.139   124404498.451    23673386.693    96938562.957    23673386.192  
                                
  20890990.459   109782929.094    20890990.673    85545163.284    20890990.226  
  20890989.387    81980779.153  
  22074519.732   118000948.123    22074523.752    91778548.748    22074523.824  
                                
  22290709.678   119323909.397    22290710.697    92807540.104    22290710.322  
                                
  22983112.089   122728553.067    22983115.145    95455555.222    22983115.073  
                                
  21592067.369   115381494.333    21592068.995    89741149.597    21592069.031  
                                
  20328440.040   108590890.717    20328440.612    84459597.389    20328441.648  
                                
  21912039.547   117255758.473    21912040.744    91198917.360    21912040.583  
                                
  21795550.135   116346125.465    21795552.119    90491444.872    21795551.297  
                                
  23903465.784   125613606.477                                                  
  23903468.393    93802392.932  
  24676266.630   129674654.193                                                  
  24676269.614    96834977.466  
  26913555.559   141431696.051                                                  
  26913558.615   105614575.996  
  24576755.023   129151738.354                                                  
  24576758.776    96444485.085  
  26539671.896   139466920.881                                                  
  26539676.238   104147391.856  
 21  8 31 22 24 50.0000000  0 18G10G21G23G24G31G32R 5R 7R 9R15R16R21
                                R22E 3E 5E13E15E25
  20309468.659   106727000.019    20309468.445    83163906.751    20309468.373  
  20309466.962    79698739.929  
  24455543.365   128514749.742                   100141358.757    24455542.561  
                                
  21490001.279   112930713.646    21490000.153    87997949.461    21489999.885  
  21490004.049    84331382.435  
  22969173.965   120703836.522    22969175.395    94054945.011    22969174.859  
  22969175.752    90135993.643  
  23672652.973   124400640.470    23672652.490    96935556.786    23672652.008  
                                
  20890820.685   109782036.989    20890820.900    85544468.135    20890820.453  
  20890819.595    81980112.975  
  22074943.781   118003214.886    22074947.784    91780311.788    22074947.855  
                                
  22290234.523   119321365.851    22290235.542    92805561.790    22290235.166  
                                
  22982296.761   122724199.301    22982299.799    95452168.971    22982299.728  
                                
  21592443.262   115383502.979    21592444.906    89742711.872    21592444.924  
                                
  20328019.546   108588644.475    20328020.118    84457850.313    20328021.154  
                                
  21912631.726   117258927.479    21912632.924    91201382.145    21912632.781  
                                
  21795551.958   116346135.188    21795553.941    90491452.439    21795553.102  
                                
  23903355.497   125613026.976                                                  
  23903358.123    93801960.188  
  24676526.499   129676019.850                                                  
  24676529.483    96835997.279  
  26913229.771   141429984.214                                                  
  26913232.827   105613297.711  
  24576921.563   129152613.545                                                  
  24576925.315    96445138.630  
  26539166.292   139464263.976                                                  
  26539170.616   104145407.810  
 21  8 31 22 24 51.0000000  0 18G10G21G23G24G31G32R 5R 7R 9R15R16R21
                                R22E 3E 5E13E15E25
  20309458.724   106726947.747    20309458.509    83163866.020    20309458.438  
  20309457.026    79698700.895  
  24455158.038   128512724.905                   100139780.982    24455157.216  
                                
  21490405.494   112932837.814    21490404.368    87999604.664    21490404.100  
  21490408.264    84332968.667  
  22969796.647   120707108.823    22969798.077    94057494.853    22969797.541  
  22969798.452    90138437.257  
  23671918.824   124396782.768    23671918.323    96932550.825    23671917.841  
                                
  20890650.983   109781145.198    20890651.198    85543773.233    20890650.751  
  20890649.911    81979447.023  
  22075367.867   118005481.884    22075371.887    91782075.006    22075371.941  
                                
  22289759.386   119318822.386    22289760.404    92803583.533    22289760.029  
                                
  22981481.469   122719845.678    22981484.507    95448782.824    22981484.436  
                                
  21592819.315   115385512.402    21592820.959    89744274.755    21592820.977  
                                
  20327599.195   108586399.054    20327599.767    84456103.874    20327600.803  
                                
  21913224.031   117262097.005    21913225.228    91203847.332    21913225.085  
                                
  21795553.959   116346145.833    21795555.925    90491460.718    21795555.103  
                                
  23903245.263   125612447.652                                                  
  23903247.889    93801527.574  
  24676786.404   129677385.622                                                  
  24676789.388    96837017.171  
  26912904.162   141428272.902                                                  
  26912907.235   105612019.727  
  24577088.209   129153489.240                                                  
  24577091.962    96445792.558  
  26538660.724   139461607.252                                                  
  26538665.048   104143423.907  
 21  8 31 22 24 52.0000000  0 18G10G21G23G24G31G32R 5R 7R 9R15R16R21
                                R22E 3E 5E13E15E25
  20309448.860   106726895.863    20309448.628    83163825.593    20309448.556  
  20309447.145    79698662.151  
  24454772.781   128510700.358                   100138203.425    24454771.960  
                                
  21490809.763   112934962.290    21490808.637    88001260.107    21490808.387  
  21490812.550    84334555.124  
  22970419.401   120710381.361    22970420.830    94060044.883    22970420.294  
  22970421.205    90140881.031  
  23671184.764   124392925.068    23671184.282    96929544.789    23671183.799  
                                
  20890481.335   109780253.593    20890481.549    85543078.478    20890481.084  
  20890480.245    81978781.218  
  22075791.970   118007749.013    22075795.973    91783838.327    22075796.044  
                                
  22289284.249   119316278.891    22289285.267    92801605.256    22289284.892  
                                
  22980666.159   122715492.055    22980669.197    95445396.683    22980669.126  
                                
  21593195.476   115387522.536    21593197.138    89745838.187    21593197.156  
                                
  20327178.969   108584154.301    20327179.559    84454357.957    20327180.595  
                                
  21913816.425   117265266.986    21913817.622    91206312.875    21913817.479  
                                
  21795556.104   116346157.294    21795558.087    90491469.632    21795557.247  
                                
  23903135.011   125611868.359                                                  
  23903137.637    93801094.987  
  24677046.309   129678751.384                                                  
  24677049.275    96838037.061  
  26912578.535   141426561.796                                                  
  26912581.590   105610741.979  
  24577254.909   129154365.331                                                  
  24577258.662    96446446.782  
  26538155.173   139458950.602                                                  
  26538159.497   104141440.038  
 21  8 31 22 24 53.0000000  0 18G10G21G23G24G31G32R 5R 7R 9R15R16R21
                                R22E 3E 5E13E15E25
  20309439.068   106726844.475    20309438.854    83163785.551    20309438.782  
  20309437.370    79698623.774  
  24454387.579   128508676.243                   100136626.202    24454386.757  
                                
  21491214.139   112937087.218    21491213.013    88002915.895    21491212.763  
  21491216.926    84336141.901  
  22971042.225   120713654.245    22971043.655    94062595.182    22971043.119  
  22971044.012    90143325.046  
  23670450.687   124389067.607    23670450.205    96926539.005    23670449.722  
                                
  20890311.704   109779362.301    20890311.918    85542383.962    20890311.472  
  20890310.632    81978115.641  
  22076216.091   118010016.244    22076220.094    91785601.717    22076220.166  
                                
  22288809.111   119313735.435    22288810.130    92799627.003    22288809.754  
                                
  22979850.903   122711138.566    22979853.941    95442010.638    22979853.869  
                                
  21593571.816   115389533.500    21593573.477    89747402.266    21593573.495  
                                
  20326758.887   108581910.345    20326759.476    84452612.653    20326760.513  
                                
  21914408.926   117268437.534    21914410.123    91208778.852    21914409.980  
                                
  21795558.409   116346169.652    21795560.374    90491479.242    21795559.552  
                                
  23903024.830   125611289.255                                                  
  23903027.439    93800662.541  
  24677306.231   129680117.267                                                  
  24677309.198    96839057.034  
  26912252.997   141424851.174                                                  
  26912256.070   105609464.566  
  24577421.735   129155241.930                                                  
  24577425.487    96447101.385  
  26537649.676   139456294.154                                                  
  26537654.018   104139456.325  
 21  8 31 22 24 54.0000000  0 18G10G21G23G24G31G32R 5R 7R 9R15R16R21
                                R22E 3E 5E13E15E25
  20309429.365   106726793.463    20309429.151    83163745.801    20309429.061  
  20309427.650    79698585.678  
  24454002.466   128506652.410                   100135049.180    24454001.644  
                                
  21491618.550   112939212.387    21491617.425    88004571.859    21491617.175  
  21491621.338    84337728.869  
  22971665.068   120716927.299    22971666.498    94065145.605    22971665.961  
  22971666.873    90145769.208  
  23669716.663   124385210.265    23669716.181    96923533.230    23669715.680  
                                
  20890142.145   109778471.182    20890142.359    85541689.586    20890141.895  
  20890141.055    81977450.202  
  22076640.248   118012283.549    22076644.233    91787365.170    22076644.287  
                                
  22288333.956   119311191.943    22288334.975    92797648.743    22288334.599  
                                
  22979035.611   122706785.071    22979038.649    95438624.594    22979038.577  
                                
  21593948.262   115391545.165    21593949.924    89748966.894    21593949.942  
                                
  20326338.947   108579667.048    20326339.536    84450867.869    20326340.573  
                                
  21915001.480   117271608.476    21915002.695    91211245.138    21915002.535  
                                
  21795560.857   116346182.753    21795562.840    90491489.422    21795562.018  
                                
  23902914.632   125610710.179                                                  
  23902917.241    93800230.113  
  24677566.154   129681483.144                                                  
  24677569.121    96840077.003  
  26911927.566   141423140.866                                                  
  26911930.622   105608187.375  
  24577588.613   129156118.905                                                  
  24577592.366    96447756.271  
  26537144.180   139453637.736                                                  
  26537148.504   104137472.636  
 21  8 31 22 24 55.0000000  0 18G10G21G23G24G31G32R 5R 7R 9R15R16R21
                                R22E 3E 5E13E15E25
  20309419.769   106726742.988    20309419.555    83163706.472    20309419.484  
  20309418.054    79698547.986  
  24453617.442   128504629.049                   100133472.546    24453616.602  
                                
  21492023.034   112941338.043    21492021.926    88006228.207    21492021.658  
  21492025.821    84339316.216  
  22972287.982   120720200.726    22972289.412    94067696.320    22972288.876  
  22972289.787    90148213.654  
  23668982.711   124381353.144    23668982.246    96920527.635    23668981.746  
                                
  20889972.639   109777580.436    20889972.854    85540995.499    20889972.407  
  20889971.567    81976785.032  
  22077064.423   118014551.148    22077068.426    91789128.857    22077068.480  
                                
  22287858.854   119308648.624    22287859.855    92795670.616    22287859.480  
                                
  22978220.391   122702431.794    22978223.428    95435238.723    22978223.357  
                                
  21594324.888   115393557.695    21594326.550    89750532.183    21594326.567  
                                
  20325919.150   108577424.618    20325919.739    84449123.752    20325920.776  
                                
  21915594.160   117274780.028    21915595.375    91213711.899    21915595.214  
                                
  21795563.501   116346196.879    21795565.485    90491500.414    21795564.663  
                                
  23902804.487   125610131.336                                                  
  23902807.096    93799797.857  
  24677826.095   129682849.171                                                  
  24677829.061    96841097.090  
  26911602.171   141421431.013                                                  
  26911605.245   105606910.545  
  24577755.617   129156996.451                                                  
  24577759.370    96448411.577  
  26536638.701   139450981.556                                                  
  26536643.043   104135489.127  
 21  8 31 22 24 56.0000000  0 18G10G21G23G24G31G32R 5R 7R 9R15R16R21
                                R22E 3E 5E13E15E25
  20309410.281   106726693.187    20309410.067    83163667.659    20309409.995  
  20309408.583    79698510.799  
  24453232.525   128502606.302                   100131896.377    24453231.685  
                                
  21492427.642   112943464.288    21492426.516    88007885.013    21492426.266  
  21492430.430    84340904.008  
  22972910.986   120723474.652    22972912.415    94070247.427    22972911.879  
  22972912.790    90150658.478  
  23668248.830   124377496.419    23668248.366    96917522.376    23668247.865  
                                
  20889803.223   109776690.157    20889803.420    85540301.772    20889802.973  
  20889802.133    81976120.215  
  22077488.688   118016819.146    22077492.690    91790892.858    22077492.726  
                                
  22287383.771   119306105.565    22287384.789    92793692.686    22287384.396  
                                
  22977405.206   122698078.797    22977408.226    95431853.066    22977408.154  
                                
  21594701.692   115395571.183    21594703.354    89752098.227    21594703.371  
                                
  20325499.549   108575183.146    20325500.139    84447380.388    20325501.175  
                                
  21916186.983   117277952.264    21916188.180    91216179.191    21916188.037  
                                
  21795566.360   116346212.066    21795568.326    90491512.224    21795567.504  
                                
  23902694.396   125609552.824                                                  
  23902697.005    93799365.854  
  24678086.089   129684215.497                                                  
  24678089.073    96842117.399  
  26911276.919   141419721.776                                                  
  26911279.975   105605634.176  
  24577922.728   129157874.685                                                  
  24577926.481    96449067.395  
  26536133.311   139448325.713                                                  
  26536137.635   104133505.885  
 21  8 31 22 24 57.0000000  0 18G10G21G23G24G31G32R 5R 7R 9R15R16R21
                                R22E 3E 5E13E15E25
  20309400.900   106726643.912    20309400.685    83163629.263    20309400.614  
  20309399.202    79698474.003  
  24452847.698   128500583.968                   100130320.533    24452846.858  
                                
  21492832.357   112945591.024    21492831.250    88009542.207    21492830.999  
  21492835.163    84342492.135  
  22973534.061   120726748.948    22973535.490    94072798.826    22973534.954  
  22973535.865    90153103.560  
  23667514.949   124373639.882    23667514.521    96914517.262    23667514.002  
                                
  20889633.878   109775800.233    20889634.093    85539608.325    20889633.628  
  20889632.788    81975455.662  
  22077913.005   118019087.382    22077916.990    91792657.045    22077917.044  
                                
  22286908.741   119303562.623    22286909.741    92791714.844    22286909.366  
                                
  22976590.057   122693725.971    22976593.094    95428467.538    22976593.023  
                                
  21595078.639   115397585.483    21595080.301    89753664.900    21595080.336  
                                
  20325080.092   108572942.549    20325080.681    84445637.701    20325081.736  
                                
  21916779.895   117281125.098    21916781.092    91218646.949    21916780.931  
                                
  21795569.380   116346228.225    21795571.364    90491524.792    21795570.542  
                                
  23902584.341   125608974.506                                                  
  23902586.950    93798933.995  
  24678346.119   129685581.953                                                  
  24678349.086    96843137.806  
  26910951.757   141418013.023                                                  
  26910954.830   105604358.141  
  24578089.965   129158753.441                                                  
  24578093.717    96449723.611  
  26535627.993   139445670.110                                                  
  26535632.317   104131522.790  
 21  8 31 22 24 58.0000000  0 17G10G21G23G24G32R 5R 7R 9R15R16R21R22
                                E 3E 5E13E15E25
  20309391.572   106726594.877    20309391.358    83163591.056    20309391.286  
  20309389.875    79698437.390  
  24452462.906   128498561.863                   100128744.846    24452462.067  
                                
  21493237.073   112947717.897    21493235.965    88011199.513    21493235.697  
  21493239.861    84344080.393  
  22974157.153   120730023.302    22974158.583    94075350.269    22974158.029  
  22974158.958    90155548.702  
  20889464.551   109774910.367    20889464.748    85538914.925    20889464.301  
  20889463.461    81974791.152  
  22078337.323   118021355.575    22078341.308    91794421.185    22078341.362  
                                
  22286433.657   119301019.514    22286434.658    92789736.875    22286434.282  
                                
  22975774.890   122689373.048    22975777.927    95425081.930    22975777.838  
                                
  21595455.711   115399600.367    21595457.373    89755232.026    21595457.391  
                                
  20324660.777   108570702.521    20324661.367    84443895.457    20324662.403  
                                
  21917372.878   117284298.252    21917374.076    91221114.957    21917373.915  
                                
  21795572.543   116346245.055    21795574.527    90491537.886    21795573.687  
                                
  23902474.268   125608396.117                                                  
  23902476.877    93798502.084  
  24678606.131   129686948.282                                                  
  24678609.098    96844158.116  
  26910626.612   141416304.402                                                  
  26910629.685   105603082.243  
  24578257.219   129159632.469                                                  
  24578260.971    96450380.026  
  26535122.603   139443014.417                                                  
  26535126.946   104129539.659  
 21  8 31 22 24 59.0000000  0 17G10G21G23G24G32R 5R 7R 9R15R16R21R22
                                E 3E 5E13E15E25
  20309382.334   106726546.318    20309382.119    83163553.216    20309382.048  
  20309380.636    79698401.120  
  24452078.169   128496540.087                   100127169.445    24452077.329  
                                
  21493641.878   112949845.167    21493640.770    88012857.133    21493640.502  
  21493644.665    84345668.945  
  22974780.318   120733297.977    22974781.747    94077901.963    22974781.211  
  22974782.140    90157994.058  
  20889295.242   109774020.774    20889295.457    85538221.738    20889295.010  
  20889294.170    81974126.845  
  22078761.659   118023623.877    22078765.644    91796185.399    22078765.697  
                                
  22285958.591   119298476.431    22285959.592    92787758.903    22285959.216  
                                
  22974959.741   122685020.218    22974962.760    95421696.386    22974962.689  
                                
  21595832.908   115401616.066    21595834.588    89756799.799    21595834.606  
                                
  20324241.552   108568463.250    20324242.160    84442153.802    20324243.196  
                                
  21917965.951   117287471.926    21917967.149    91223583.368    21917967.006  
                                
  21795575.831   116346262.779    21795577.814    90491551.669    21795576.992  
                                
  23902364.248   125607817.849                                                  
  23902366.857    93798070.256  
  24678866.144   129688314.693                                                  
  24678869.128    96845178.478  
  26910301.539   141414596.195                                                  
  26910304.612   105601806.630  
  24578424.580   129160511.976                                                  
  24578428.332    96451036.801  
  26534617.267   139440358.893                                                  
  26534621.610   104127556.630  
 21  8 31 22 25  0.0000000  0 17G10G21G23G24G32R 5R 7R 9R15R16R21R22
                                E 3E 5E13E15E25
  20309373.149   106726498.076    20309372.935    83163515.624    20309372.863  
  20309371.452    79698365.097  
  24451693.484   128494518.589                   100125594.266    24451692.644  
                                
  21494046.736   112951972.686    21494045.611    88014514.940    21494045.360  
  21494049.524    84347257.675  
  22975403.518   120736572.786    22975404.929    94080453.756    22975404.393  
  22975405.323    90160439.523  
  20889126.005   109773131.317    20889126.219    85537528.652    20889125.755  
  20889124.915    81973462.638  
  22079185.995   118025892.284    22079189.997    91797949.723    22079190.033  
                                
  22285483.507   119295933.265    22285484.508    92785780.880    22285484.133  
                                
  22974144.592   122680667.350    22974147.629    95418310.822    22974147.558  
                                
  21596210.248   115403632.413    21596211.910    89758368.064    21596211.946  
                                
  20323822.488   108566224.597    20323823.078    84440412.630    20323824.114  
                                
  21918559.114   117290645.958    21918560.311    91226052.057    21918560.168  
                                
  21795579.298   116346281.239    21795581.281    90491566.029    21795580.459  
                                
  23902254.193   125607239.590                                                  
  23902256.802    93797638.439  
  24679126.156   129689681.037                                                  
  24679129.122    96846198.804  
  26909976.537   141412888.255                                                  
  26909979.593   105600531.224  
  24578592.013   129161391.806                                                  
  24578595.765    96451693.816  
  26534111.949   139437703.379                                                  
  26534116.274   104125573.614  
 21  8 31 22 25  1.0000000  0 17G10G21G23G24G32R 5R 7R 9R15R16R21R22
                                E 3E 5E13E15E25
  20309364.090   106726450.449    20309363.893    83163478.515    20309363.804  
  20309362.392    79698329.532  
  24451308.907   128492497.623                   100124019.498    24451308.049  
                                
  21494451.702   112954100.751    21494450.576    88016173.163    21494450.326  
  21494454.490    84348846.810  
  22976026.736   120739848.003    22976028.147    94083005.866    22976027.611  
  22976028.540    90162885.329  
  20888956.821   109772242.293    20888957.035    85536835.911    20888956.589  
  20888955.749    81972798.757  
  22079610.402   118028160.963    22079614.387    91799714.239    22079614.440  
                                
  22285008.477   119293390.344    22285009.478    92783803.053    22285009.085  
                                
  22973329.478   122676314.717    22973332.516    95414925.438    22973332.444  
                                
  21596587.749   115405649.670    21596589.411    89759937.041    21596589.447  
                                
  20323403.566   108563986.851    20323404.156    84438672.163    20323405.193  
                                
  21919152.365   117293820.660    21919153.580    91228521.265    21919153.437  
                                
  21795582.943   116346300.737    21795584.926    90491581.201    21795584.104  
                                
  23902144.227   125606661.612                                                  
  23902146.836    93797206.832  
  24679386.204   129691047.624                                                  
  24679389.170    96847219.311  
  26909651.589   141411180.823                                                  
  26909654.644   105599256.222  
  24578759.553   129162272.285                                                  
  24578763.323    96452351.312  
  26533606.667   139435048.152                                                  
  26533611.009   104123590.826  
 21  8 31 22 25  2.0000000  0 17G10G21G23G24G32R 5R 7R 9R15R16R21R22
                                E 3E 5E13E15E25
  20309355.155   106726403.548    20309354.941    83163441.967    20309354.869  
  20309353.457    79698294.510  
  24450924.455   128490477.308                   100122445.215    24450923.615  
                                
  21494856.775   112956229.450    21494855.649    88017831.892    21494855.399  
  21494859.562    84350436.429  
  22976650.114   120743123.819    22976651.544    94085558.452    22976650.990  
  22976651.937    90165331.537  
  20888787.762   109771353.801    20888787.959    85536143.580    20888787.512  
  20888786.672    81972135.276  
  22080034.863   118030430.053    22080038.865    91801479.101    22080038.901  
                                
  22284533.483   119290847.736    22284534.484    92781825.472    22284534.090  
                                
  22972514.454   122671962.442    22972517.474    95411540.342    22972517.403  
                                
  21596965.447   115407667.959    21596967.109    89761506.821    21596967.144  
                                
  20322984.860   108561750.125    20322985.449    84436932.489    20322986.486  
                                
  21919745.795   117296996.144    21919747.010    91230991.086    21919746.867  
                                
  21795586.820   116346321.412    21795588.786    90491597.289    21795587.964  
                                
  23902034.297   125606084.036                                                  
  23902036.906    93796775.525  
  24679646.323   129692414.552                                                  
  24679649.289    96848240.067  
  26909326.819   141409474.092                                                  
  26909329.875   105597981.728  
  24578927.253   129163153.491                                                  
  24578931.006    96453009.360  
  26533101.492   139432393.348                                                  
  26533105.816   104121608.337  
 21  8 31 22 25  3.0000000  0 17G10G21G23G24G32R 5R 7R 9R15R16R21R22
                                E 3E 5E13E15E25
  20309346.346   106726357.222    20309346.131    83163405.868    20309346.042  
  20309344.630    79698259.918  
  24450540.128   128488457.507                   100120871.319    24450539.270  
                                
  21495261.937   112958358.656    21495260.829    88019491.018    21495260.561  
  21495264.742    84352026.423  
  22977273.547   120746399.998    22977274.958    94088111.319    22977274.422  
  22977275.352    90167778.052  
  20888618.739   109770465.705    20888618.954    85535451.559    20888618.507  
  20888617.667    81971472.086  
  22080459.395   118032699.457    22080463.380    91803244.191    22080463.433  
                                
  22284058.542   119288305.296    22284059.543    92779848.023    22284059.150  
                                
  22971699.430   122667610.405    22971702.468    95408155.434    22971702.396  
                                
  21597343.305   115409687.161    21597344.967    89763077.310    21597345.003  
                                
  20322566.296   108559514.318    20322566.885    84435193.533    20322567.922  
                                
  21920339.315   117300172.250    21920340.530    91233461.382    21920340.387  
                                
  21795590.877   116346343.082    21795592.860    90491614.143    21795592.020  
                                
  23901924.456   125605506.704                                                  
  23901927.047    93796344.396  
  24679906.478   129693781.664                                                  
  24679909.444    96849260.961  
  26909002.121   141407767.892                                                  
  26909005.177   105596707.614  
  24579095.044   129164035.272                                                  
  24579098.796    96453667.839  
  26532596.334   139429738.793                                                  
  26532600.659   104119626.049  
 21  8 31 22 25  4.0000000  0 18G10G21G23G24G31G32R 5R 7R 9R15R16R21
                                R22E 3E 5E13E15E25
  20309337.626   106726311.380    20309337.411    83163370.147    20309337.340  
  20309335.928    79698225.684  
  24450155.855   128486438.095                   100119297.752    24450154.997  
                                
  21495667.206   112960488.285    21495666.099    88021150.463    21495665.848  
  21495670.012    84353616.704  
  22977897.068   120749676.509    22977898.480    94090664.452    22977897.944  
  22977898.873    90170224.780  
  23662378.052   124346635.6591   23662377.552    96893476.2261   23662376.497  
                                
  20888449.805   109769577.902    20888450.020    85534759.760    20888449.573  
  20888448.733    81970809.107  
  22080883.945   118034969.040    22080887.948    91805009.422    22080887.983  
                                
  22283583.583   119285762.901    22283584.584    92777870.616    22283584.191  
                                
  22970884.460   122663258.524    22970887.480    95404770.642    22970887.408  
                                
  21597721.307   115411707.145    21597722.986    89764648.411    21597723.004  
                                
  20322147.910   108557279.319    20322148.500    84433455.203    20322149.536  
                                
  21920932.977   117303348.873    21920934.175    91235932.086    21920934.032  
                                
  21795595.112   116346365.671    21795597.077    90491631.703    21795596.255  
                                
  23901814.597   125604929.515                                                  
  23901817.206    93795913.381  
  24680166.651   129695148.880                                                  
  24680169.617    96850281.931  
  26908677.513   141406062.106                                                  
  26908680.568   105595433.806  
  24579262.941   129164917.572                                                  
  24579266.693    96454326.691  
  26532091.213   139427084.420                                                  
  26532095.555   104117643.872  
 21  8 31 22 25  5.0000000  0 18G10G21G23G24G31G32R 5R 7R 9R15R16R21
                                R22E 3E 5E13E15E25
  20309328.959   106726265.896    20309328.745    83163334.703    20309328.673  
  20309327.261    79698191.718  
  24449771.617   128484418.987                   100117724.427    24449770.742  
                                
  21496072.512   112962618.169    21496071.404    88022810.115    21496071.136  
  21496075.299    84355207.211  
  22978520.608   120752953.200    22978522.020    94093217.715    22978521.484  
  22978522.413    90172671.648  
  23661644.475   124342780.677    23661643.993    96890472.321    23661642.920  
                                
  20888280.907   109768690.267    20888281.122    85534068.098    20888280.657  
  20888279.817    81970146.267  
  22081308.549   118037238.716    22081312.551    91806774.728    22081312.587  
                                
  22283108.643   119283220.443    22283109.626    92775893.161    22283109.250  
                                
  22970069.489   122658906.585    22970072.527    95401385.797    22970072.456  
                                
  21598099.451   115413727.810    21598101.130    89766220.034    21598101.148  
                                
  20321729.614   108555044.997    20321730.222    84431717.402    20321731.258  
                                
  21921526.676   117306525.923    21921527.873    91238403.125    21921527.730  
                                
  21795599.472   116346389.014    21795601.437    90491649.854    21795600.615  
                                
  23901704.774   125604352.365                                                  
  23901707.383    93795482.397  
  24680426.842   129696516.071                                                  
  24680429.808    96851302.886  
  26908352.993   141404356.637                                                  
  26908356.067   105594160.224  
  24579430.910   129165800.240                                                  
  24579434.662    96454985.826  
  26531586.109   139424430.074                                                  
  26531590.451   104115661.728  
 21  8 31 22 25  6.0000000  0 18G10G21G23G24G31G32R 5R 7R 9R15R16R21
                                R22E 3E 5E13E15E25
  20309320.436   106726221.037    20309320.221    83163299.752    20309320.150  
  20309318.738    79698158.220  
  24449387.487   128482400.397                   100116151.505    24449386.629  
                                
  21496477.924   112964748.626    21496476.816    88024470.211    21496476.548  
  21496480.712    84356798.134  
  22979144.219   120756230.339    22979145.631    94095771.325    22979145.095  
  22979146.024    90175118.880  
  23660910.880   124338925.906    23660910.362    96887468.682    23660909.326  
                                
  20888112.081   109767803.071    20888112.295    85533376.777    20888111.831  
  20888110.991    81969483.753  
  22081733.188   118039508.744    22081737.191    91808540.314    22081737.226  
                                
  22282633.720   119280678.210    22282634.703    92773915.875    22282634.310  
                                
  22969254.573   122654554.969    22969257.592    95398001.206    22969257.521  
                                
  21598477.774   115415749.411    21598479.453    89767792.386    21598479.471  
                                
  20321311.515   108552811.618    20321312.122    84429980.327    20321313.159  
                                
  21922120.499   117309703.655    21922121.714    91240874.694    21922121.571  
                                
  21795604.064   116346413.471    21795606.030    90491668.872    21795605.208  
                                
  23901595.023   125603775.505                                                  
  23901597.614    93795051.620  
  24680687.033   129697883.498                                                  
  24680690.017    96852324.018  
  26908028.545   141402651.702                                                  
  26908031.619   105592887.056  
  24579599.004   129166683.538                                                  
  24579602.756    96455645.430  
  26531081.059   139421776.026                                                  
  26531085.384   104113679.829  
 21  8 31 22 25  7.0000000  0 18G10G21G23G24G31G32R 5R 7R 9R15R16R21
                                R22E 3E 5E13E15E25
  20309311.948   106726176.507    20309311.733    83163265.051    20309311.662  
  20309310.250    79698124.962  
  24449003.428   128480382.086                   100114578.788    24449002.570  
                                
  21496883.372   112966879.329    21496882.264    88026130.488    21496882.014  
  21496886.178    84358389.242  
  22979767.866   120759507.642    22979769.277    94098325.061    22979768.724  
  22979769.671    90177566.224  
  23660177.375   124335071.323    23660176.856    96884465.127    23660175.820  
                                
  20887943.272   109766916.029    20887943.487    85532685.573    20887943.022  
  20887942.182    81968821.347  
  22082157.845   118041778.763    22082161.830    91810305.880    22082161.884  
                                
  22282158.797   119278135.946    22282159.780    92771938.566    22282159.404  
                                
  22968439.638   122650203.302    22968442.658    95394616.581    22968442.586  
                                
  21598856.204   115417771.663    21598857.884    89769365.256    21598857.901  
                                
  20320893.558   108550578.898    20320894.166    84428243.764    20320895.202  
                                
  21922714.430   117312881.775    21922715.645    91243346.563    21922715.502  
                                
  21795608.781   116346438.665    21795610.765    90491688.465    21795609.943  
                                
  23901485.235   125603198.663                                                  
  23901487.844    93794620.864  
  24680947.241   129699250.889                                                  
  24680950.208    96853345.122  
  26907704.169   141400947.031                                                  
  26907707.242   105591614.083  
  24579767.133   129167567.183                                                  
  24579770.904    96456305.294  
  26530576.027   139419122.026                                                  
  26530580.369   104111697.937  
 21  8 31 22 25  8.0000000  0 18G10G21G23G24G31G32R 5R 7R 9R15R16R21
                                R22E 3E 5E13E15E25
  20309303.603   106726132.549    20309303.388    83163230.798    20309303.317  
  20309301.887    79698092.139  
  24448619.440   128478364.269                   100113006.481    24448618.565  
                                
  21497288.928   112969010.507    21497287.802    88027791.151    21497287.552  
  21497291.715    84359980.717  
  22980391.584   120762785.336    22980392.996    94100879.115    22980392.442  
  22980393.407    90180013.859  
  23659443.905   124331216.957    23659443.405    96881461.720    23659442.368  
                                
  20887774.535   109766029.353    20887774.749    85531994.657    20887774.303  
  20887773.463    81968159.225  
  22082582.556   118044049.092    22082586.541    91812071.680    22082586.595  
                                
  22281683.910   119275593.826    22281684.893    92769961.357    22281684.499  
                                
  22967624.757   122645851.868    22967627.777    95391232.142    22967627.705  
                                
  21599234.795   115419794.786    21599236.492    89770938.794    21599236.510  
                                
  20320475.745   108548347.070    20320476.352    84426507.903    20320477.389  
                                
  21923308.432   117316060.499    21923309.647    91245818.899    21923309.504  
                                
  21795613.695   116346464.845    21795615.679    90491708.823    21795614.857  
                                
  23901375.519   125602622.044                                                  
  23901378.110    93794190.274  
  24681207.486   129700618.460                                                  
  24681210.452    96854366.353  
  26907379.882   141399242.853                                                  
  26907382.938   105590341.469  
  24579935.388   129168451.408                                                  
  24579939.158    96456965.591  
  26530071.031   139416468.272                                                  
  26530075.373   104109716.236  
 21  8 31 22 25  9.0000000  0 18G10G21G23G24G31G32R 5R 7R 9R15R16R21
                                R22E 3E 5E13E15E25
  20309295.312   106726089.019    20309295.097    83163196.879    20309295.026  
  20309293.596    79698059.633  
  24448235.525   128476346.832                   100111434.455    24448234.649  
                                
  21497694.554   112971142.088    21497693.464    88029452.125    21497693.196  
  21497697.360    84361572.460  
  22981015.356   120766063.312    22981016.768    94103433.389    22981016.232  
  22981017.179    90182461.687  
  23658710.453   124327362.712    23658709.953    96878458.391    23658708.934  
                                
  20887605.869   109765142.941    20887606.084    85531303.946    20887605.619  
  20887604.779    81967497.294  
  22083007.267   118046319.496    22083011.270    91813837.538    22083011.306  
                                
  22281209.023   119273051.697    22281210.005    92767984.133    22281209.612  
                                
  22966809.876   122641500.470    22966812.896    95387847.718    22966812.824  
                                
  21599613.547   115421818.664    21599615.226    89772512.916    21599615.244  
                                
  20320058.074   108546115.994    20320058.682    84424772.621    20320059.718  
                                
  21923902.541   117319239.691    21923903.756    91248291.611    21923903.613  
                                
  21795618.770   116346491.878    21795620.754    90491729.851    21795619.932  
                                
  23901265.804   125602045.543                                                  
  23901268.395    93793759.765  
  24681467.730   129701986.071                                                  
  24681470.697    96855387.626  
  26907055.649   141397539.021                                                  
  26907058.704   105589069.156  
  24580103.750   129169336.065                                                  
  24580107.520    96457626.220  
  26529566.052   139413814.633                                                  
  26529570.394   104107734.628  
 21  8 31 22 25 10.0000000  0 18G10G21G23G24G31G32R 5R 7R 9R15R16R21
                                R22E 3E 5E13E15E25
  20309287.056   106726045.604    20309286.842    83163163.047    20309286.770  
  20309285.359    79698027.208  
  24447851.609   128474329.370                   100109862.411    24447850.715  
                                
  21498100.181   112973273.653    21498099.073    88031113.083    21498098.823  
  21498102.987    84363164.222  
  22981639.128   120769341.211    22981640.539    94105987.593    22981640.003  
  22981640.950    90184909.458  
  23657977.001   124323508.326    23657976.519    96875454.967    23657975.482  
                                
  20887437.186   109764256.444    20887437.382    85530613.169    20887436.936  
  20887436.096    81966835.296  
  22083431.978   118048589.751    22083435.963    91815603.287    22083436.017  
                                
  22280734.064   119270509.263    22280735.047    92766006.687    22280734.654  
                                
  22965994.941   122637148.833    22965997.961    95384463.114    22965997.890  
                                
  21599992.370   115423842.969    21599994.050    89774087.371    21599994.068  
                                
  20319640.511   108543885.309    20319641.101    84423037.643    20319642.155  
                                
  21924496.686   117322419.034    21924497.901    91250764.433    21924497.758  
                                
  21795623.917   116346519.388    21795625.918    90491751.245    21795625.096  
                                
  23901156.052   125601468.806                                                  
  23901158.661    93793329.085  
  24681727.921   129703353.410                                                  
  24681730.887    96856408.688  
  26906731.415   141395835.240                                                  
  26906734.471   105587796.864  
  24580272.112   129170220.857                                                  
  24580275.882    96458286.937  
  26529061.038   139411160.771                                                  
  26529065.362   104105752.868  
 21  8 31 22 25 11.0000000  0 18G10G21G23G24G31G32R 5R 7R 9R15R16R21
                                R22E 3E 5E13E15E25
  20309278.890   106726002.752    20309278.676    83163129.654    20309278.604  
  20309277.192    79697995.213  
  24447467.800   128472312.424                   100108290.762    24447466.924  
                                
  21498505.897   112975405.718    21498504.772    88032774.425    21498504.521  
  21498508.685    84364756.363  
  22982262.953   120772619.474    22982264.347    94108542.077    22982263.811  
  22982264.758    90187357.531  
  23657243.549   124319654.168    23657243.067    96872451.741    23657242.048  
                                
  20887268.538   109763370.320    20887268.752    85529922.683    20887268.306  
  20887267.466    81966173.577  
  22083856.707   118050860.235    22083860.710    91817369.212    22083860.763  
                                
  22280259.141   119267966.955    22280260.142    92764029.334    22280259.749  
                                
  22965180.078   122632797.407    22965183.098    95381078.670    22965183.026  
                                
  21600371.372   115425868.166    21600373.052    89775662.520    21600373.087  
                                
  20319223.073   108541655.470    20319223.680    84421303.325    20319224.717  
                                
  21925090.956   117325599.018    21925092.171    91253237.757    21925092.028  
                                
  21795629.259   116346547.933    21795631.243    90491773.441    21795630.421  
                                
  23901046.354   125600892.307                                                  
  23901048.963    93792898.587  
  24681988.166   129704720.933                                                  
  24681991.132    96857429.893  
  26906407.307   141394132.009                                                  
  26906410.380   105586524.954  
  24580440.599   129171106.227                                                  
  24580444.369    96458948.096  
  26528556.095   139408507.187                                                  
  26528560.437   104103771.289  
 21  8 31 22 25 12.0000000  0 18G10G21G23G24G31G32R 5R 7R 9R15R16R21
                                R22E 3E 5E13E15E25
  20309270.795   106725960.171    20309270.581    83163096.475    20309270.509  
  20309269.080    79697963.419  
  24447084.027   128470295.627                   100106719.235    24447083.133  
                                
  21498911.649   112977537.997    21498910.541    88034435.941    21498910.291  
  21498914.455    84366348.639  
  22982886.814   120775897.872    22982888.226    94111096.680    22982887.672  
  22982888.637    90189805.679  
  23656510.151   124315800.043    23656509.686    96869448.520    23656508.650  
                                
  20887099.944   109762484.278    20887100.140    85529232.258    20887099.693  
  20887098.854    81965511.925  
  22084281.454   118053130.762    22084285.456    91819135.182    22084285.510  
                                
  22279784.182   119265424.494    22279785.183    92762051.860    22279784.790  
                                
  22964365.179   122628445.872    22964368.199    95377694.140    22964368.127  
                                
  21600750.463   115427893.945    21600752.161    89777238.119    21600752.179  
                                
  20318805.742   108539426.213    20318806.349    84419569.456    20318807.386  
                                
  21925685.262   117328779.331    21925686.477    91255711.327    21925686.334  
                                
  21795634.745   116346577.189    21795636.729    90491796.194    21795635.907  
                                
  23900936.638   125600315.759                                                  
  23900939.229    93792468.050  
  24682248.374   129706088.351                                                  
  24682251.341    96858451.021  
  26906083.252   141392428.958                                                  
  26906086.308   105585253.189  
  24580609.139   129171991.891                                                  
  24580612.892    96459609.462  
  26528051.134   139405853.566                                                  
  26528055.458   104101789.686  
 21  8 31 22 25 13.0000000  0 18G10G21G23G24G31G32R 5R 7R 9R15R16R21
                                R22E 3E 5E13E15E25
  20309262.754   106725917.909    20309262.558    83163063.542    20309262.486  
  20309261.057    79697931.849  
  24446700.290   128468279.136                   100105147.950    24446699.378  
                                
  21499317.455   112979670.499    21499316.347    88036097.628    21499316.079  
  21499320.260    84367941.089  
  22983510.711   120779176.399    22983512.105    94113651.383    22983511.569  
  22983512.516    90192253.927  
  23655776.699   124311945.927    23655776.252    96866445.319    23655775.216  
                                
  20886931.367   109761598.374    20886931.582    85528541.943    20886931.117  
  20886930.277    81964850.364  
  22084706.200   118055401.312    22084710.185    91820901.170    22084710.257  
                                
  22279309.224   119262881.955    22279310.225    92760074.327    22279309.831  
                                
  22963550.244   122624094.270    22963553.264    95374309.563    22963553.193  
                                
  21601129.680   115429920.327    21601131.377    89778814.189    21601131.413  
                                
  20318388.554   108537197.601    20318389.161    84417836.091    20318390.198  
                                
  21926279.657   117331959.991    21926280.890    91258185.176    21926280.747  
                                
  21795640.356   116346607.176    21795642.357    90491819.522    21795641.535  
                                
  23900826.923   125599739.186                                                  
  23900829.531    93792037.488  
  24682508.565   129707455.689                                                  
  24682511.531    96859472.081  
  26905759.197   141390726.168                                                  
  26905762.271   105583981.625  
  24580777.734   129172877.865                                                  
  24580781.504    96460271.068  
  26527546.138   139403199.920                                                  
  26527550.480   104099808.073  
 21  8 31 22 25 14.0000000  0 18G10G21G23G24G31G32R 5R 7R 9R15R16R21
                                R22E 3E 5E13E15E25
  20309254.803   106725876.154    20309254.606    83163031.004    20309254.517  
  20309253.105    79697900.667  
  24446316.642   128466263.014                   100103576.939    24446315.748  
                                
  21499723.367   112981803.470    21499722.260    88037759.679    21499722.009  
  21499726.173    84369533.868  
  22984134.644   120782455.255    22984136.056    94116206.315    22984135.502  
  22984136.467    90194702.413  
  23655043.336   124308092.004    23655042.890    96863442.251    23655041.853  
                                
  20886762.845   109760712.769    20886763.041    85527851.860    20886762.594  
  20886761.754    81964189.043  
  22085131.001   118057672.095    22085135.003    91822667.321    22085135.057  
                                
  22278834.301   119260339.545    22278835.284    92758096.895    22278834.891  
                                
  22962735.363   122619742.872    22962738.383    95370925.152    22962738.312  
                                
  21601509.057   115431947.526    21601510.754    89780390.894    21601510.772  
                                
  20317971.509   108534969.833    20317972.116    84416103.380    20317973.153  
                                
  21926874.124   117335141.186    21926875.357    91260659.431    21926875.214  
                                
  21795646.146   116346638.099    21795648.147    90491843.571    21795647.325  
                                
  23900717.243   125599162.802                                                  
  23900719.851    93791607.071  
  24682768.774   129708823.151                                                  
  24682771.740    96860493.235  
  26905435.232   141389023.748                                                  
  26905438.288   105582710.368  
  24580946.417   129173764.359                                                  
  24580950.188    96460933.063  
  26527041.213   139400546.472                                                  
  26527045.555   104097826.601  
 21  8 31 22 25 15.0000000  0 18G10G21G23G24G31G32R 5R 7R 9R15R16R21
                                R22E 3E 5E13E15E25
  20309246.994   106725835.131    20309246.797    83162999.042    20309246.726  
  20309245.296    79697870.039  
  24445933.119   128464247.559                   100102006.452    24445932.207  
                                
  21500129.352   112983937.025    21500128.226    88039422.181    21500127.958  
  21500132.139    84371127.145  
  22984758.702   120785734.668    22984760.096    94118761.702    22984759.560  
  22984760.524    90197151.330  
  23654310.045   124304238.589    23654309.616    96860439.590    23654308.562  
                                
  20886594.429   109759827.730    20886594.643    85527162.219    20886594.179  
  20886593.339    81963528.137  
  22085555.855   118059943.254    22085559.857    91824433.773    22085559.911  
                                
  22278359.414   119257797.476    22278360.397    92756119.723    22278360.003  
                                
  22961920.572   122615391.807    22961923.591    95367540.995    22961923.520  
                                
  21601888.613   115433975.770    21601890.310    89781968.420    21601890.328  
                                
  20317554.660   108532743.120    20317555.268    84414371.492    20317556.304  
                                
  21927468.769   117338323.164    21927469.984    91263134.298    21927469.841  
                                
  21795652.167   116346670.212    21795654.169    90491868.552    21795653.347  
                                
  23900607.634   125598586.817                                                  
  23900610.225    93791176.957  
  24683029.090   129710190.980                                                  
  24683032.056    96861514.663  
  26905111.481   141387322.144                                                  
  26905114.554   105581439.614  
  24581115.262   129174651.619                                                  
  24581119.032    96461595.618  
  26526536.359   139397893.457                                                  
  26526540.701   104095845.448  
 21  8 31 22 25 16.0000000  0 18G10G21G23G24G31G32R 5R 7R 9R15R16R21
                                R22E 3E 5E13E15E25
  20309239.274   106725794.612    20309239.078    83162967.466    20309239.006  
  20309237.577    79697839.779  
  24445549.667   128462232.573                   100100436.349    24445548.756  
                                
  21500535.461   112986071.082    21500534.353    88041085.080    21500534.103  
  21500538.266    84372720.739  
  22985382.831   120789014.431    22985384.225    94121317.368    22985383.689  
  22985384.654    90199600.490  
  23653576.772   124300385.321    23653576.343    96857437.057    23653575.289  
                                
  20886426.049   109758942.997    20886426.264    85526472.821    20886425.817  
  20886424.977    81962867.462  
  22085980.762   118062214.649    22085984.747    91826200.409    22085984.818  
                                
  22277884.562   119255255.484    22277885.545    92754142.621    22277885.152  
                                
  22961105.780   122611040.907    22961108.782    95364156.966    22961108.710  
                                
  21602268.312   115436004.840    21602270.009    89783546.590    21602270.045  
                                
  20317137.972   108530517.231    20317138.598    84412640.250    20317139.634  
                                
  21928063.504   117341505.694    21928064.719    91265609.600    21928064.576  
                                
  21795658.368   116346703.251    21795660.351    90491894.249    21795659.530  
                                
  23900498.061   125598011.019                                                  
  23900500.670    93790746.978  
  24683289.388   129711558.917                                                  
  24683292.336    96862536.179  
  26904787.694   141385620.835                                                  
  26904790.768   105580169.205  
  24581284.195   129175539.381                                                  
  24581287.966    96462258.561  
  26526031.523   139395240.622                                                  
  26526035.866   104093864.445  
 21  8 31 22 25 17.0000000  0 18G10G21G23G24G31G32R 5R 7R 9R15R16R21
                                R22E 3E 5E13E15E25
  20309231.662   106725754.513    20309231.448    83162936.218    20309231.376  
  20309229.965    79697809.830  
  24445166.288   128460217.904                   100098866.473    24445165.376  
                                
  21500941.624   112988205.448    21500940.516    88042748.220    21500940.266  
  21500944.429    84374314.577  
  22986006.978   120792294.393    22986008.372    94123873.183    22986007.818  
  22986008.783    90202049.825  
  23652843.535   124296532.194    23652843.088    96854434.632    23652842.034  
                                
  20886257.741   109758058.499    20886257.955    85525783.599    20886257.491  
  20886256.651    81962206.958  
  22086405.705   118064486.160    22086409.690    91827967.140    22086409.762  
                                
  22277409.675   119252713.508    22277410.658    92752165.530    22277410.265  
                                
  22960290.988   122606690.048    22960293.990    95360772.974    22960293.919  
                                
  21602648.171   115438034.635    21602649.869    89785125.320    21602649.887  
                                
  20316721.410   108528292.034    20316722.017    84410909.539    20316723.054  
                                
  21928658.328   117344688.703    21928659.561    91268085.271    21928659.418  
                                
  21795664.712   116346737.104    21795666.713    90491920.575    21795665.891  
                                
  23900388.524   125597435.295                                                  
  23900391.115    93790317.050  
  24683549.704   129712926.895                                                  
  24683552.670    96863557.719  
  26904464.015   141383919.915                                                  
  26904467.088   105578899.044  
  24581453.218   129176427.577                                                  
  24581456.989    96462921.822  
  26525526.741   139392587.901                                                  
  26525531.084   104091883.513  
 21  8 31 22 25 18.0000000  0 18G10G21G23G24G31G32R 5R 7R 9R15R16R21
                                R22E 3E 5E13E15E25
  20309224.139   106725714.965    20309223.925    83162905.401    20309223.853  
  20309222.442    79697780.302  
  24444783.015   128458203.745                   100097296.996    24444782.104  
                                
  21501347.876   112990340.291    21501346.750    88044411.734    21501346.500  
  21501350.682    84375908.785  
  22986631.232   120795574.792    22986632.644    94126429.343    22986632.090  
  22986633.055    90204499.452  
  23652110.404   124292679.392    23652109.975    96851432.412    23652108.921  
                                
  20886089.504   109757174.376    20886089.701    85525094.672    20886089.254  
  20886088.414    81961546.738  
  22086830.684   118066757.985    22086834.687    91829734.110    22086834.741  
                                
  22276934.842   119250171.624    22276935.824    92750188.507    22276935.431  
                                
  22959476.250   122602339.404    22959479.252    95357389.144    22959479.181  
                                
  21603028.174   115440065.293    21603029.872    89786704.716    21603029.889  
                                
  20316304.990   108526067.681    20316305.615    84409179.489    20316306.652  
                                
  21929253.277   117347872.333    21929254.492    91270561.425    21929254.349  
                                
  21795671.234   116346771.974    21795673.235    90491947.696    21795672.413  
                                
  23900278.987   125596859.806                                                  
  23900281.578    93789887.304  
  24683810.055   129714295.037                                                  
  24683813.022    96864579.386  
  26904140.443   141382219.513                                                  
  26904143.516   105577629.257  
  24581622.349   129177316.336                                                  
  24581626.119    96463585.511  
  26525021.995   139389935.406                                                  
  26525026.337   104089902.760  
 21  8 31 22 25 19.0000000  0 18G10G21G23G24G31G32R 5R 7R 9R15R16R21
                                R22E 3E 5E13E15E25
  20309216.759   106725676.219    20309216.545    83162875.209    20309216.474  
  20309215.062    79697751.364  
  24444399.867   128456190.367                   100095728.130    24444398.938  
                                
  21501754.271   112992475.880    21501753.163    88046075.836    21501752.913  
  21501757.077    84377503.529  
  22987255.594   120798855.770    22987257.006    94128985.946    22987256.452  
  22987257.417    90206949.533  
  23651377.274   124288827.007    23651376.845    96848430.604    23651375.791  
                                
  20885921.374   109756290.860    20885921.589    85524406.216    20885921.124  
  20885920.284    81960886.972  
  22087255.770   118069030.264    22087259.773    91831501.445    22087259.845  
                                
  22276460.080   119247630.102    22276461.062    92748211.772    22276460.669  
                                
  22958661.583   122597989.219    22958664.585    95354005.672    22958664.514  
                                
  21603408.391   115442097.088    21603410.107    89788285.003    21603410.124  
                                
  20315888.820   108523844.453    20315889.428    84407450.314    20315890.464  
                                
  21929848.369   117351056.800    21929849.584    91273038.233    21929849.441  
                                
  21795677.988   116346808.077    21795679.972    90491975.779    21795679.168  
                                
  23900169.575   125596284.786                                                  
  23900172.166    93789457.903  
  24684070.479   129715663.606                                                  
  24684073.445    96865601.360  
  26903816.978   141380519.799                                                  
  26903820.051   105576360.029  
  24581791.622   129178205.911                                                  
  24581795.392    96464249.797  
  26524517.338   139387283.416                                                  
  26524521.680   104087922.369  
 21  8 31 22 25 20.0000000  0 18G10G21G23G24G31G32R 5R 7R 9R15R16R21
                                R22E 3E 5E13E15E25
  20309209.487   106725637.951    20309209.272    83162845.390    20309209.201  
  20309207.771    79697722.787  
  24444016.809   128454177.324                   100094159.509    24444015.880  
                                
  21502160.720   112994611.830    21502159.612    88047740.212    21502159.344  
  21502163.526    84379098.566  
  22987879.973   120802137.026    22987881.367    94131542.763    22987880.813  
  22987881.796    90209399.857  
  23650644.215   124284974.872    23650643.786    96845428.960    23650642.714  
                                
  20885753.298   109755407.627    20885753.513    85523717.980    20885753.048  
  20885752.208    81960227.417  
  22087680.875   118071302.724    22087684.877    91833268.915    22087684.949  
                                
  22275985.300   119245088.663    22275986.282    92746235.100    22275985.889  
                                
  22957846.935   122593639.100    22957849.937    95350622.252    22957849.865  
                                
  21603788.769   115444129.691    21603790.467    89789865.912    21603790.484  
                                
  20315472.758   108521622.024    20315473.383    84405721.760    20315474.420  
                                
  21930443.568   117354241.802    21930444.783    91275515.454    21930444.641  
                                
  21795684.921   116346845.063    21795686.905    90492004.548    21795686.083  
                                
  23900060.181   125595709.910                                                  
  23900062.772    93789028.615  
  24684330.920   129717032.253                                                  
  24684333.868    96866623.409  
  26903493.620   141378820.556                                                  
  26903496.693   105575091.095  
  24581960.985   129179095.967                                                  
  24581964.755    96464914.450  
  26524012.699   139384631.582                                                  
  26524017.041   104085942.099  
 21  8 31 22 25 21.0000000  0 18G10G21G23G24G31G32R 5R 7R 9R15R16R21
                                R22E 3E 5E13E15E25
  20309202.286   106725600.125    20309202.089    83162815.914    20309202.000  
  20309200.588    79697694.539  
  24443633.822   128452164.653                   100092591.187    24443632.893  
                                
  21502567.258   112996748.173    21502566.150    88049404.893    21502565.882  
  21502570.064    84380693.880  
  22988504.460   120805418.605    22988505.854    94134099.842    22988505.300  
  22988506.265    90211850.369  
  23649911.174   124281122.865    23649910.763    96842427.404    23649909.691  
                                
  20885585.276   109754524.654    20885585.490    85523029.954    20885585.044  
  20885584.204    81959568.050  
  22088106.014   118073575.355    22088110.017    91835036.521    22088110.088  
                                
  22275510.538   119242547.246    22275511.520    92744258.447    22275511.127  
                                
  22957032.322   122589289.121    22957035.324    95347238.942    22957035.252  
                                
  21604169.272   115446163.013    21604170.970    89791447.382    21604170.987  
                                
  20315056.856   108519400.395    20315057.482    84403993.826    20315058.518  
                                
  21931038.839   117357427.282    21931040.054    91277993.049    21931039.911  
                                
  21795692.015   116346882.932    21795693.999    90492033.998    21795693.177  
                                
  23899950.804   125595135.151                                                  
  23899953.395    93788599.414  
  24684591.396   129718400.968                                                  
  24684594.345    96867645.496  
  26903170.333   141377121.675                                                  
  26903173.407   105573822.463  
  24582130.454   129179986.493                                                  
  24582134.243    96465579.448  
  26523508.096   139381979.876                                                  
  26523512.456   104083961.931  
 21  8 31 22 25 22.0000000  0 18G10G21G23G24G31G32R 5R 7R 9R15R16R21
                                R22E 3E 5E13E15E25
  20309195.102   106725562.441    20309194.888    83162786.552    20309194.816  
  20309193.405    79697666.402  
  24443250.835   128450152.027                   100091022.907    24443249.906  
                                
  21502973.796   112998884.563    21502972.671    88051069.615    21502972.420  
  21502976.602    84382289.252  
  22989128.911   120808700.146    22989130.305    94136656.893    22989129.769  
  22989130.734    90214300.866  
  23649178.133   124277270.733    23649177.704    96839425.772    23649176.632  
                                
  20885417.236   109753641.643    20885417.432    85522341.891    20885416.985  
  20885416.146    81958908.663  
  22088531.100   118075847.783    22088535.103    91836803.972    22088535.175  
                                
  22275035.722   119240005.589    22275036.705    92742281.612    22275036.312  
                                
  22956217.673   122584938.891    22956220.657    95343855.440    22956220.586  
                                
  21604549.882   115448196.792    21604551.598    89793029.208    21604551.615  
                                
  20314641.044   108517179.222    20314641.670    84402266.250    20314642.706  
                                
  21931634.164   117360612.941    21931635.379    91280470.782    21931635.236  
                                
  21795699.199   116346921.333    21795701.200    90492063.867    21795700.378  
                                
  23899841.392   125594560.196                                                  
  23899843.983    93788170.065  
  24684851.802   129719769.453                                                  
  24684854.768    96868667.416  
  26902847.065   141375422.876                                                  
  26902850.138   105572553.874  
  24582299.942   129180877.160                                                  
  24582303.712    96466244.565  
  26523003.457   139379327.995                                                  
  26523007.799   104081981.641  
 21  8 31 22 25 23.0000000  0 18G10G21G23G24G31G32R 5R 7R 9R15R16R21
                                R22E 3E 5E13E15E25
  20309188.008   106725525.103    20309187.794    83162757.453    20309187.722  
  20309186.293    79697638.516  
  24442867.884   128448139.691                   100089454.855    24442866.955  
                                
  21503380.370   113001021.214    21503379.262    88052734.535    21503378.994  
  21503383.176    84383884.809  
  22989753.397   120811981.822    22989754.773    94139214.041    22989754.237  
  22989755.202    90216751.474  
  23648445.092   124273418.647    23648444.664    96836424.156    23648443.591  
                                
  20885249.231   109752758.779    20885249.445    85521653.948    20885248.981  
  20885248.141    81958249.379  
  22088956.205   118078120.253    22088960.189    91838571.457    22088960.279  
                                
  22274560.906   119237463.881    22274561.889    92740304.735    22274561.496  
                                
  22955402.988   122580588.638    22955405.990    95340471.919    22955405.919  
                                
  21604930.600   115450231.210    21604932.297    89794611.537    21604932.315  
                                
  20314225.357   108514958.669    20314225.983    84400539.155    20314227.019  
                                
  21932229.559   117363798.985    21932230.774    91282948.819    21932230.632  
                                
  21795706.543   116346960.531    21795708.544    90492094.354    21795707.722  
                                
  23899731.980   125593985.264                                                  
  23899734.589    93787740.735  
  24685112.207   129721137.878                                                  
  24685115.173    96869689.289  
  26902523.850   141373724.323                                                  
  26902526.906   105571285.490  
  24582469.501   129181768.188                                                  
  24582473.272    96466909.945  
  26522498.836   139376676.145                                                  
  26522503.178   104080001.362  
 21  8 31 22 25 24.0000000  0 18G10G21G23G24G31G32R 5R 7R 9R15R16R21
                                R22E 3E 5E13E15E25
  20309181.004   106725488.294    20309180.789    83162728.770    20309180.718  
  20309179.288    79697611.032  
  24442485.023   128446127.792                   100087887.181    24442484.076  
                                
  21503787.069   113003158.378    21503785.961    88054399.849    21503785.693  
  21503789.893    84385480.713  
  22990377.956   120815263.914    22990379.349    94141771.514    22990378.795  
  22990379.778    90219202.368  
  23647712.105   124269566.828    23647711.694    96833422.684    23647710.604  
                                
  20885081.298   109751876.273    20885081.512    85520966.278    20885081.048  
  20885080.208    81957590.359  
  22089381.362   118080393.009    22089385.365    91840339.147    22089385.436  
                                
  22274086.126   119234922.284    22274087.091    92738327.942    22274086.698  
                                
  22954588.375   122576238.587    22954591.360    95337088.539    22954591.288  
                                
  21605311.478   115452266.540    21605313.193    89796194.570    21605313.211  
                                
  20313809.813   108512738.952    20313810.439    84398812.711    20313811.475  
                                
  21932825.045   117366985.607    21932826.260    91285427.293    21932826.135  
                                
  21795714.066   116347000.641    21795716.049    90492125.550    21795715.227  
                                
  23899622.622   125593410.529                                                  
  23899625.213    93787311.549  
  24685372.630   129722506.458                                                  
  24685375.596    96870711.284  
  26902200.707   141372026.287                                                  
  26902203.780   105570017.447  
  24582639.150   129182659.761                                                  
  24582642.938    96467575.726  
  26521994.232   139374024.501                                                  
  26521998.574   104078021.256  
 21  8 31 22 25 25.0000000  0 18G10G21G23G24G31G32R 5R 7R 9R15R16R21
                                R22E 3E 5E13E15E25
  20309174.106   106725452.086    20309173.910    83162700.556    20309173.838  
  20309172.409    79697583.998  
  24442102.286   128444116.465                   100086319.908    24442101.339  
                                
  21504193.858   113005296.033    21504192.750    88056065.550    21504192.482  
  21504196.681    84387077.009  
  22991002.585   120818546.385    22991003.979    94144329.281    22991003.425  
  22991004.408    90221653.573  
  23646979.171   124265715.277    23646978.760    96830421.479    23646977.670  
                                
  20884913.436   109750994.163    20884913.651    85520278.920    20884913.186  
  20884912.364    81956931.644  
  22089806.573   118082666.039    22089810.576    91842107.055    22089810.648  
                                
  22273611.346   119232380.873    22273612.329    92736351.284    22273611.936  
                                
  22953773.780   122571888.757    22953776.782    95333705.345    22953776.693  
                                
  21605692.535   115454302.799    21605694.250    89797778.322    21605694.268  
                                
  20313394.448   108510520.147    20313395.073    84397086.974    20313396.110  
                                
  21933420.673   117370172.885    21933421.888    91287906.287    21933421.763  
                                
  21795721.785   116347041.806    21795723.769    90492157.572    21795722.947  
                                
  23899513.299   125592836.070                                                  
  23899515.890    93786882.574  
  24685633.107   129723875.260                                                  
  24685636.073    96871733.442  
  26901877.706   141370328.782                                                  
  26901880.780   105568749.810  
  24582808.923   129183551.945                                                  
  24582812.712    96468241.965  
  26521489.700   139371373.148                                                  
  26521494.025   104076041.353  
 21  8 31 22 25 26.0000000  0 18G10G21G23G24G31G32R 5R 7R 9R15R16R21
                                R22E 3E 5E13E15E25
  20309167.298   106725416.320    20309167.084    83162672.684    20309167.012  
  20309165.600    79697557.280  
  24441719.621   128442105.443                   100084752.867    24441718.674  
                                
  21504600.717   113007434.040    21504599.609    88057731.525    21504599.341  
  21504603.523    84388673.566  
  22991627.268   120821829.106    22991628.662    94146887.243    22991628.108  
  22991629.091    90224104.966  
  23646246.273   124261863.901    23646245.880    96827420.396    23646244.772  
                                
  20884745.646   109750112.318    20884745.843    85519591.770    20884745.396  
  20884744.556    81956273.115  
  22090231.838   118084939.249    22090235.823    91843875.110    22090235.912  
                                
  22273136.602   119229839.485    22273137.585    92734374.651    22273137.192  
                                
  22952959.221   122567539.016    22952962.205    95330322.220    22952962.133  
                                
  21606073.735   115456339.756    21606075.450    89799362.624    21606075.468  
                                
  20312979.225   108508302.106    20312979.833    84395361.833    20312980.869  
                                
  21934016.372   117373360.621    21934017.570    91290385.638    21934017.444  
                                
  21795729.648   116347083.794    21795731.631    90492190.229    21795730.809  
                                
  23899404.012   125592261.716                                                  
  23899406.603    93786453.674  
  24685893.601   129725244.107                                                  
  24685896.550    96872755.633  
  26901554.759   141368631.653                                                  
  26901557.851   105567482.452  
  24582978.804   129184444.572                                                  
  24582982.575    96468908.535  
  26520985.204   139368721.944                                                  
  26520989.546   104074061.547  
 21  8 31 22 25 27.0000000  0 18G10G21G23G24G31G32R 5R 7R 9R15R16R21
                                R22E 3E 5E13E15E25
  20309160.561   106725380.943    20309160.365    83162645.122    20309160.293  
  20309158.864    79697530.866  
  24441337.010   128440094.783                   100083186.110    24441336.062  
                                
  21505007.631   113009572.375    21505006.523    88059397.758    21505006.255  
  21505010.436    84390270.373  
  22992251.987   120825112.067    22992253.381    94149445.392    22992252.827  
  22992253.810    90226556.534  
  23645513.411   124258012.687    23645513.000    96824419.473    23645511.892  
                                
  20884577.856   109749230.663    20884578.071    85518904.764    20884577.624  
  20884576.784    81955614.742  
  22090657.121   118087212.608    22090661.106    91845643.276    22090661.195  
                                
  22272661.858   119227298.079    22272662.823    92732397.998    22272662.448  
                                
  22952144.661   122563189.323    22952147.646    95326939.130    22952147.574  
                                
  21606455.042   115458377.363    21606456.757    89800947.430    21606456.775  
                                
  20312564.128   108506084.817    20312564.753    84393637.277    20312565.790  
                                
  21934612.161   117376548.826    21934613.359    91292865.355    21934613.233  
                                
  21795737.671   116347126.640    21795739.654    90492223.556    21795738.832  
                                
  23899294.725   125591687.433                                                  
  23899297.316    93786024.826  
  24686154.078   129726612.980                                                  
  24686157.027    96873777.841  
  26901231.848   141366934.799                                                  
  26901234.922   105566215.358  
  24583148.739   129185337.618                                                  
  24583152.509    96469575.427  
  26520480.708   139366070.799                                                  
  26520485.050   104072081.807  
 21  8 31 22 25 28.0000000  0 18G10G21G23G24G31G32R 5R 7R 9R15R16R21
                                R22E 3E 5E13E15E25
  20309153.968   106725346.305    20309153.771    83162618.129    20309153.700  
  20309152.270    79697504.999  
  24440954.523   128438084.753                   100081619.844    24440953.576  
                                
  21505414.669   113011711.351    21505413.561    88061064.492    21505413.293  
  21505417.492    84391867.651  
  22992876.831   120828395.591    22992878.207    94152003.982    22992877.671  
  22992878.636    90229008.512  
  23644780.603   124254161.860    23644780.192    96821418.842    23644779.066  
                                
  20884410.191   109748349.568    20884410.406    85518218.194    20884409.941  
  20884409.119    81954956.780  
  22091082.475   118089486.394    22091086.478    91847411.771    22091086.549  
                                
  22272187.149   119224757.038    22272188.114    92730421.647    22272187.721  
                                
  22951330.173   122558840.042    22951333.158    95323556.367    22951333.086  
                                
  21606836.527   115460416.080    21606838.243    89802533.115    21606838.261  
                                
  20312149.263   108503868.598    20312149.870    84391913.563    20312150.907  
                                
  21935208.093   117379737.880    21935209.308    91295345.742    21935209.183  
                                
  21795745.890   116347170.708    21795747.892    90492257.841    21795747.070  
                                
  23899185.528   125591113.554                                                  
  23899188.119    93785596.278  
  24686414.644   129727982.194                                                  
  24686417.593    96874800.308  
  26900909.098   141365238.656                                                  
  26900912.171   105564948.755  
  24583318.798   129186231.404                                                  
  24583322.586    96470242.867  
  26519976.283   139363420.086                                                  
  26519980.626   104070102.374  
 21  8 31 22 25 29.0000000  0 18G10G21G23G24G31G32R 5R 7R 9R15R16R21
                                R22E 3E 5E13E15E25
  20309147.499   106725312.277    20309147.303    83162591.614    20309147.231  
  20309145.802    79697479.591  
  24440572.126   128436075.281                   100080054.012    24440571.179  
                                
  21505821.779   113013850.834    21505820.653    88062731.621    21505820.385  
  21505824.585    84393465.348  
  22993501.747   120831679.556    22993503.123    94154562.921    22993502.587  
  22993503.569    90231460.819  
  23644047.865   124250311.365    23644047.454    96818418.461    23644046.329  
                                
  20884242.615   109747468.890    20884242.812    85517531.954    20884242.365  
  20884241.525    81954299.131  
  22091507.919   118091760.443    22091511.904    91849180.462    22091511.993  
                                
  22271712.477   119222216.153    22271713.460    92728445.412    22271713.066  
                                
  22950515.721   122554490.966    22950518.705    95320173.748    22950518.634  
                                
  21607218.245   115462455.726    21607219.961    89804119.506    21607219.961  
                                
  20311734.523   108501653.263    20311735.148    84390190.527    20311736.184  
                                
  21935804.150   117382927.519    21935805.365    91297826.570    21935805.240  
                                
  21795754.343   116347215.760    21795756.326    90492292.882    21795755.504  
                                
  23899076.366   125590539.946                                                  
  23899078.957    93785167.941  
  24686675.228   129729351.637                                                  
  24686678.177    96875822.944  
  26900586.383   141363543.023                                                  
  26900589.457   105563682.569  
  24583489.018   129187125.821                                                  
  24583492.807    96470910.769  
  26519471.930   139360769.677                                                  
  26519476.272   104068123.170  
 21  8 31 22 25 30.0000000  0 18G10G21G23G24G31G32R 5R 7R 9R15R16R21
                                R22E 3E 5E13E15E25
  20309141.084   106725278.533    20309140.888    83162565.323    20309140.816  
  20309139.387    79697454.389  
  24440189.782   128434066.008                   100078488.343    24440188.835  
                                
  21506228.961   113015990.569    21506227.853    88064398.945    21506227.585  
  21506231.766    84395063.191  
  22994126.680   120834963.615    22994128.056    94157121.923    22994127.520  
  22994128.485    90233913.201  
  23643315.128   124246460.882    23643314.717    96815418.100    23643313.574  
                                
  20884075.040   109746588.300    20884075.254    85516845.780    20884074.790  
  20884073.968    81953641.550  
  22091933.309   118094034.480    22091937.294    91850949.150    22091937.383  
                                
  22271237.804   119219675.160    22271238.769    92726469.086    22271238.394  
                                
  22949701.251   122550141.825    22949704.235    95316791.095    22949704.164  
                                
  21607600.053   115464495.986    21607601.768    89805706.372    21607601.786  
                                
  20311319.926   108499438.509    20311320.533    84388467.941    20311321.570  
                                
  21936400.279   117386117.478    21936401.476    91300307.647    21936401.351  
                                
  21795762.902   116347261.504    21795764.903    90492328.460    21795764.081  
                                
  23898967.204   125589966.305                                                  
  23898969.777    93784739.568  
  24686935.812   129730720.985                                                  
  24686938.761    96876845.507  
  26900263.758   141361847.625                                                  
  26900266.831   105562416.529  
  24583659.257   129188020.514                                                  
  24583663.045    96471578.888  
  26518967.559   139358119.219                                                  
  26518971.901   104066143.945  
 21  8 31 22 25 31.0000000  0 18G10G21G23G24G31G32R 5R 7R 9R15R16R21
                                R22E 3E 5E13E15E25
  20309134.759   106725245.248    20309134.544    83162539.386    20309134.473  
  20309133.061    79697429.537  
  24439807.510   128432057.103                   100076922.959    24439806.546  
                                
  21506636.213   113018130.650    21506635.088    88066066.541    21506634.820  
  21506639.019    84396661.323  
  22994751.685   120838247.955    22994753.061    94159681.147    22994752.507  
  22994753.490    90236365.804  
  23642582.409   124242610.548    23642581.980    96812417.874    23642580.836  
                                
  20883907.535   109745707.995    20883907.732    85516159.826    20883907.285  
  20883906.445    81952984.175  
  22092358.752   118096308.663    22092362.755    91852717.950    22092362.844  
                                
  22270763.131   119217134.226    22270764.096    92724492.802    22270763.703  
                                
  22948886.817   122545792.785    22948889.801    95313408.513    22948889.712  
                                
  21607982.003   115466537.025    21607983.719    89807293.845    21607983.737  
                                
  20310905.454   108497224.525    20310906.079    84386745.957    20310907.115  
                                
  21936996.497   117389307.924    21936997.694    91302789.103    21936997.569  
                                
  21795771.640   116347308.109    21795773.623    90492364.711    21795772.819  
                                
  23898858.060   125589392.776                                                  
  23898860.651    93784311.290  
  24687196.396   129732090.393                                                  
  24687199.345    96877868.121  
  26899941.240   141360152.664                                                  
  26899944.314   105561150.794  
  24583829.620   129188915.694                                                  
  24583833.408    96472247.362  
  26518463.224   139355468.919                                                  
  26518467.566   104064164.821  
 21  8 31 22 25 32.0000000  0 18G10G21G23G24G31G32R 5R 7R 9R15R16R21
                                R22E 3E 5E13E15E25
  20309128.433   106725212.056    20309128.236    83162513.518    20309128.165  
  20309126.735    79697404.747  
  24439425.256   128430048.288                   100075357.638    24439424.291  
                                
  21507043.466   113020270.790    21507042.358    88067734.183    21507042.090  
  21507046.290    84398259.467  
  22995376.654   120841532.231    22995378.048    94162240.325    22995377.494  
  22995378.477    90238818.334  
  23641849.672   124238760.014    23641849.243    96809417.468    23641848.081  
                                
  20883739.996   109744827.584    20883740.192    85515473.791    20883739.745  
  20883738.905    81952326.727  
  22092784.160   118098582.696    22092788.163    91854486.636    22092788.252  
                                
  22270288.405   119214592.967    22270289.370    92722516.270    22270288.977  
                                
  22948072.329   122541443.492    22948075.313    95310025.731    22948075.242  
                                
  21608364.025   115468578.410    21608365.741    89808881.589    21608365.758  
                                
  20310491.053   108495010.928    20310491.679    84385024.274    20310492.715  
                                
  21937592.750   117392498.529    21937593.947    91305270.684    21937593.840  
                                
  21795780.467   116347355.239    21795782.451    90492401.374    21795781.629  
                                
  23898748.880   125588819.027                                                  
  23898751.471    93783882.832  
  24687456.944   129733459.515                                                  
  24687459.893    96878890.516  
  26899618.686   141358457.688                                                  
  26899621.760   105559885.076  
  24583999.983   129189810.959                                                  
  24584003.771    96472915.907  
  26517958.835   139352818.384                                                  
  26517963.177   104062185.525  
 21  8 31 22 25 33.0000000  0 18G10G21G23G24G31G32R 5R 7R 9R15R16R21
                                R22E 3E 5E13E15E25
  20309122.197   106725179.364    20309122.000    83162488.043    20309121.929  
  20309120.499    79697380.338  
  24439043.074   128428039.819                   100073792.586    24439042.109  
                                
  21507450.809   113022411.356    21507449.701    88069402.161    21507449.433  
  21507453.614    84399857.937  
  22996001.694   120844816.806    22996003.070    94164799.734    22996002.516  
  22996003.499    90241271.108  
  23641116.988   124234909.692    23641116.559    96806417.210    23641115.380  
                                
  20883572.509   109743947.502    20883572.706    85514788.015    20883572.241  
  20883571.419    81951669.527  
  22093209.622   118100856.939    22093213.606    91856255.484    22093213.714  
                                
  22269813.697   119212051.798    22269814.661    92720539.807    22269814.268  
                                
  22947257.877   122537094.339    22947260.861    95306643.064    22947260.772  
                                
  21608746.190   115470620.615    21608747.905    89810469.973    21608747.923  
                                
  20310076.813   108492798.173    20310077.439    84383303.246    20310078.475  
                                
  21938189.075   117395689.710    21938190.272    91307752.716    21938190.147  
                                
  21795789.473   116347403.310    21795791.457    90492438.763    21795790.652  
                                
  23898639.736   125588245.448                                                  
  23898642.327    93783454.517  
  24687717.493   129734828.776                                                  
  24687720.441    96879913.011  
  26899296.258   141356763.214                                                  
  26899299.331   105558619.694  
  24584170.436   129190706.764                                                  
  24584174.224    96473584.852  
  26517454.500   139350168.067                                                  
  26517458.842   104060206.392  
 21  8 31 22 25 34.0000000  0 18G10G21G23G24G31G32R 5R 7R 9R15R16R21
                                R22E 3E 5E13E15E25
  20309116.050   106725147.029    20309115.853    83162462.849    20309115.764  
  20309114.352    79697356.192  
  24438660.927   128426031.659                   100072227.799    24438659.962  
                                
  21507858.187   113024552.189    21507857.079    88071070.342    21507856.811  
  21507861.010    84401456.604  
  22996626.771   120848101.560    22996628.129    94167359.280    22996627.593  
  22996628.576    90243724.019  
  23640384.323   124231059.485    23640383.894    96803417.014    23640382.714  
                                
  20883405.059   109743067.564    20883405.255    85514102.349    20883404.808  
  20883403.969    81951012.428  
  22093635.083   118103131.161    22093639.068    91858024.351    22093639.175  
                                
  22269338.970   119209510.529    22269339.935    92718563.269    22269339.542  
                                
  22946443.425   122532745.165    22946446.391    95303260.370    22946446.319  
                                
  21609128.498   115472663.456    21609130.213    89812058.847    21609130.231  
                                
  20309662.735   108490586.089    20309663.360    84381582.734    20309664.396  
                                
  21938785.489   117398881.253    21938786.687    91310235.025    21938786.562  
                                
  21795798.622   116347452.184    21795800.623    90492476.773    21795799.801  
                                
  23898530.592   125587671.889                                                  
  23898533.165    93783026.210  
  24687978.041   129736197.975                                                  
  24687980.989    96880935.469  
  26898973.847   141355068.955                                                  
  26898976.920   105557354.515  
  24584340.978   129191602.915                                                  
  24584344.766    96474254.058  
  26516950.164   139347517.761                                                  
  26516954.489   104058227.281  
 21  8 31 22 25 35.0000000  0 18G10G21G23G24G31G32R 5R 7R 9R15R16R21
                                R22E 3E 5E13E15E25
  20309109.956   106725115.017    20309109.760    83162437.905    20309109.688  
  20309108.259    79697332.283  
  24438278.833   128424023.760                   100070663.218    24438277.869  
                                
  21508265.636   113026693.271    21508264.528    88072738.718    21508264.260  
  21508268.441    84403055.451  
  22997251.865   120851386.484    22997253.259    94169918.964    22997252.705  
  22997253.688    90246177.028  
  23639651.657   124227209.301    23639651.246    96800416.852    23639650.049  
                                
  20883237.644   109742187.769    20883237.840    85513416.790    20883237.393  
  20883236.554    81950355.434  
  22094060.527   118105405.430    22094064.494    91859793.237    22094064.601  
                                
  22268864.208   119206969.148    22268865.173    92716586.639    22268864.780  
                                
  22945628.954   122528395.952    22945631.921    95299877.654    22945631.849  
                                
  21609510.895   115474706.945    21609512.610    89813648.227    21609512.628  
                                
  20309248.727   108488374.631    20309249.353    84379862.714    20309250.389  
                                
  21939381.975   117402073.124    21939383.173    91312717.589    21939383.047  
                                
  21795807.914   116347501.755    21795809.915    90492515.321    21795809.093  
                                
  23898421.448   125587098.325                                                  
  23898424.039    93782597.895  
  24688238.589   129737567.130                                                  
  24688241.537    96881957.890  
  26898651.472   141353374.939                                                  
  26898654.545   105556089.532  
  24584511.573   129192499.419                                                  
  24584515.361    96474923.509  
  26516445.829   139344867.470                                                  
  26516450.153   104056248.172  
 21  8 31 22 25 36.0000000  0 18G10G21G23G24G31G32R 5R 7R 9R15R16R21
                                R22E 3E 5E13E15E25
  20309103.970   106725083.589    20309103.774    83162413.416    20309103.702  
  20309102.273    79697308.820  
  24437896.829   128422016.324                   100069098.994    24437895.847  
                                
  21508673.139   113028834.837    21508672.031    88074407.461    21508671.763  
  21508675.962    84404654.684  
  22997877.031   120854671.784    22997878.407    94172478.935    22997877.870  
  22997878.853    90248630.338  
  23638919.063   124223359.404    23638918.670    96797416.908    23638917.437  
                                
  20883070.300   109741308.377    20883070.497    85512731.552    20883070.050  
  20883069.210    81949698.745  
  22094486.024   118107680.019    22094490.009    91861562.369    22094490.098  
                                
  22268389.482   119204427.939    22268390.447    92714610.148    22268390.054  
                                
  22944814.520   122524046.957    22944817.486    95296495.105    22944817.415  
                                
  21609893.471   115476751.335    21609895.186    89815238.308    21609895.204  
                                
  20308834.916   108486164.098    20308835.542    84378143.410    20308836.578  
                                
  21939978.568   117405265.623    21939979.766    91315200.639    21939979.641  
                                
  21795817.402   116347552.375    21795819.404    90492554.690    21795818.582  
                                
  23898312.340   125586525.007                                                  
  23898314.913    93782169.770  
  24688499.173   129738936.478                                                  
  24688502.104    96882980.451  
  26898329.222   141351681.527                                                  
  26898332.313   105554824.939  
  24584682.276   129193396.494                                                  
  24584686.064    96475593.406  
  26515941.547   139342217.469                                                  
  26515945.890   104054269.262  
 21  8 31 22 25 37.0000000  0 17G10G21G23G24G32R 5R 7R 9R15R16R21R22
                                E 3E 5E13E15E25
  20309098.127   106725052.848    20309097.930    83162389.461    20309097.859  
  20309096.429    79697285.855  
  24437514.933   128420009.546                   100067535.289    24437513.950  
                                
  21509080.785   113030977.017    21509079.677    88076076.695    21509079.409  
  21509083.608    84406254.363  
  22998502.321   120857957.606    22998503.697    94175039.314    22998503.143  
  22998504.126    90251084.041  
  20882903.046   109740429.477    20882903.261    85512046.695    20882902.796  
  20882901.974    81949042.422  
  22094911.610   118109954.964    22094915.577    91863331.777    22094915.667  
                                
  22267914.827   119201887.024    22267915.792    92712633.886    22267915.399  
                                
  22944000.157   122519698.332    22944003.124    95293112.847    22944003.052  
                                
  21610276.261   115478796.748    21610277.976    89816829.188    21610277.994  
                                
  20308421.284   108483954.579    20308421.910    84376424.896    20308422.946  
                                
  21940575.304   117408458.917    21940576.502    91317684.322    21940576.377  
                                
  21795827.105   116347604.098    21795829.089    90492594.922    21795828.285  
                                
  23898203.303   125585952.056                                                  
  23898205.894    93781741.913  
  24688759.811   129740306.129                                                  
  24688762.759    96884003.243  
  26898007.079   141349988.685                                                  
  26898010.153   105553560.819  
  24584853.122   129194294.268                                                  
  24584856.910    96476263.830  
  26515437.337   139339567.815                                                  
  26515441.661   104052290.631  
 21  8 31 22 25 38.0000000  0 18G10G21G23G24G31G32R 5R 7R 9R15R16R21
                                R22E 3E 5E13E15E25
  20309092.355   106725022.541    20309092.159    83162365.846    20309092.087  
  20309090.658    79697263.230  
  24437133.125   128418003.119                   100065971.829    24437132.143  
                                
  21509488.503   113033119.560    21509487.377    88077746.214    21509487.109  
  21509491.308    84407854.319  
  22999127.630   120861243.696    22999129.006    94177599.905    22999128.452  
  22999129.435    90253537.943  
                                  23637453.535    96791419.8611                 
                                
  20882735.846   109739550.824    20882736.042    85511362.032    20882735.596  
  20882734.756    81948386.291  
  22095337.215   118112230.069    22095341.164    91865101.310    22095341.271  
                                
  22267440.154   119199346.144    22267441.101    92710657.651    22267440.708  
                                
  22943185.812   122515349.763    22943188.779    95289730.634    22943188.707  
                                
  21610659.158   115480842.902    21610660.874    89818420.633    21610660.891  
                                
  20308007.795   108481745.797    20308008.420    84374706.954    20308009.457  
                                
  21941172.148   117411652.701    21941173.327    91320168.371    21941173.220  
                                
  21795836.951   116347656.664    21795838.934    90492635.807    21795838.130  
                                
  23898094.302   125585379.205                                                  
  23898096.893    93781314.138  
  24689020.448   129741675.842                                                  
  24689023.379    96885026.082  
  26897685.008   141348296.233                                                  
  26897688.099   105552296.979  
  24585024.057   129195192.514                                                  
  24585027.845    96476934.596  
  26514933.145   139336918.301                                                  
  26514937.487   104050312.113  
 21  8 31 22 25 39.0000000  0 17G10G21G23G24G32R 5R 7R 9R15R16R21R22
                                E 3E 5E13E15E25
  20309086.655   106724992.601    20309086.459    83162342.516    20309086.387  
  20309084.958    79697240.872  
  24436751.389   128415996.960                   100064408.570    24436750.389  
                                
  21509896.274   113035262.412    21509895.148    88079415.968    21509894.880  
  21509899.097    84409454.489  
  22999752.992   120864529.976    22999754.368    94180160.641    22999753.814  
  22999754.815    90255991.966  
  20882568.681   109738672.347    20882568.878    85510677.507    20882568.431  
  20882567.591    81947730.286  
  22095762.819   118114505.309    22095766.786    91866870.938    22095766.875  
                                
  22266965.481   119196805.262    22266966.446    92708681.416    22266966.053  
                                
  22942371.449   122511001.188    22942374.416    95286348.416    22942374.344  
                                
  21611042.199   115482889.688    21611043.932    89820012.578    21611043.950  
                                
  20307594.431   108479537.677    20307595.056    84372989.530    20307596.093  
                                
  21941769.062   117414846.868    21941770.242    91322652.720    21941770.117  
                                
  21795846.958   116347710.051    21795848.941    90492677.334    21795848.137  
                                
  23897985.301   125584806.392                                                  
  23897987.892    93780886.386  
  24689281.104   129743045.534                                                  
  24689284.052    96886048.897  
  26897362.990   141346604.051                                                  
  26897366.064   105551033.337  
  24585195.045   129196091.113                                                  
  24585198.834    96477605.625  
  26514428.988   139334268.861                                                  
  26514433.330   104048333.613  
 21  8 31 22 25 40.0000000  0 17G10G21G23G24G32R 5R 7R 9R15R16R21R22
                                E 3E 5E13E15E25
  20309081.080   106724963.286    20309080.883    83162319.675    20309080.812  
  20309079.382    79697218.983  
  24436369.725   128413991.371                   100062845.784    24436368.724  
                                
  21510304.170   113037405.798    21510303.044    88081086.136    21510302.776  
  21510306.975    84411055.067  
  23000378.444   120867816.696    23000379.820    94182721.717    23000379.283  
  23000380.266    90258446.330  
  20882401.588   109737794.316    20882401.802    85509993.325    20882401.338  
  20882400.516    81947074.611  
  22096188.531   118116780.871    22096192.462    91868640.827    22096192.569  
                                
  22266490.862   119194264.564    22266491.809    92706705.325    22266491.416  
                                
  22941557.158   122506652.891    22941560.106    95282966.410    22941560.035  
                                
  21611425.400   115484937.432    21611427.133    89821605.263    21611427.133  
                                
  20307181.245   108477330.521    20307181.871    84371272.850    20307182.907  
                                
  21942366.084   117418041.682    21942367.264    91325137.574    21942367.156  
                                
  21795857.143   116347764.504    21795859.144    90492719.689    21795858.340  
                                
  23897876.354   125584233.869                                                  
  23897878.945    93780458.853  
  24689541.795   129744415.466                                                  
  24689544.725    96887071.901  
  26897041.098   141344912.459                                                  
  26897044.171   105549770.137  
  24585366.177   129196990.366                                                  
  24585369.983    96478277.139  
  26513924.849   139331619.700                                                  
  26513929.192   104046355.359  
 21  8 31 22 25 41.0000000  0 17G10G21G23G24G32R 5R 7R 9R15R16R21R22
                                E 3E 5E13E15E25
  20309075.594   106724934.428    20309075.398    83162297.189    20309075.326  
  20309073.897    79697197.434  
  24435988.132   128411986.150                   100061283.284    24435987.131  
                                
  21510712.102   113039549.544    21510710.976    88082756.579    21510710.708  
  21510714.907    84412655.926  
  23001003.913   120871103.659    23001005.289    94185282.985    23001004.735  
  23001005.736    90260900.907  
  20882234.566   109736916.552    20882234.763    85509309.353    20882234.316  
  20882233.476    81946419.140  
  22096614.224   118119056.495    22096618.174    91870410.750    22096618.281  
                                
  22266016.243   119191723.894    22266017.190    92704729.250    22266016.797  
                                
  22940742.885   122502304.707    22940745.833    95279584.493    22940745.762  
                                
  21611808.762   115486985.957    21611810.477    89823198.563    21611810.495  
                                
  20306768.203   108475124.119    20306768.828    84369556.758    20306769.865  
                                
  21942963.213   117421237.005    21942964.411    91327622.827    21942964.286  
                                
  21795867.489   116347819.828    21795869.491    90492762.721    21795868.686  
                                
  23897767.442   125583661.484                                                  
  23897770.015    93780031.421  
  24689802.486   129745785.469                                                  
  24689805.416    96888094.955  
  26896719.276   141343221.260                                                  
  26896722.368   105548507.207  
  24585537.380   129197890.080                                                  
  24585541.186    96478949.001  
  26513420.782   139328970.706                                                  
  26513425.106   104044377.198  
 21  8 31 22 25 42.0000000  0 17G10G21G23G24G32R 5R 7R 9R15R16R21R22
                                E 3E 5E13E15E25
  20309070.162   106724905.949    20309069.965    83162274.995    20309069.894  
  20309068.464    79697176.167  
  24435606.610   128409981.241                   100059721.019    24435605.610  
                                
  21511120.105   113041693.620    21511118.997    88084427.290    21511118.729  
  21511122.929    84414257.006  
  23001629.472   120874390.867    23001630.830    94187844.447    23001630.294  
  23001631.277    90263355.627  
  20882067.562   109736038.964    20882067.759    85508625.516    20882067.312  
  20882066.472    81945763.801  
  22097039.972   118121332.242    22097043.903    91872180.771    22097044.010  
                                
  22265541.606   119189183.182    22265542.571    92702753.150    22265542.178  
                                
  22939928.611   122497956.544    22939931.559    95276202.593    22939931.488  
                                
  21612192.231   115489035.196    21612193.946    89824792.420    21612193.964  
                                
  20306355.286   108472918.389    20306355.911    84367841.194    20306356.947  
                                
  21943560.414   117424432.716    21943561.593    91330108.374    21943561.486  
                                
  21795878.014   116347875.945    21795879.998    90492806.366    21795879.193  
                                
  23897658.530   125583089.129                                                  
  23897661.104    93779604.015  
  24690063.195   129747155.455                                                  
  24690066.126    96889117.994  
  26896397.509   141341530.355                                                  
  26896400.582   105547244.539  
  24585708.655   129198790.172                                                  
  24585712.461    96479621.147  
  26512916.697   139326321.753                                                  
  26512921.021   104042399.095  
 21  8 31 22 25 43.0000000  0 17G10G21G23G24G32R 5R 7R 9R15R16R21R22
                                E 3E 5E13E15E25
  20309064.783   106724877.647    20309064.587    83162252.943    20309064.515  
  20309063.086    79697155.032  
  24435225.107   128407976.411                   100058158.812    24435224.106  
                                
  21511528.109   113043837.765    21511527.001    88086098.055    21511526.733  
  21511530.932    84415858.162  
  23002255.013   120877678.074    23002256.371    94190405.910    23002255.835  
  23002256.817    90265810.355  
  20881900.558   109735161.379    20881900.773    85507941.688    20881900.308  
  20881899.486    81945108.461  
  22097465.683   118123607.858    22097469.615    91873950.683    22097469.722  
                                
  22265066.934   119186642.234    22265067.881    92700776.857    22265067.487  
                                
  22939114.284   122493608.202    22939117.232    95272820.554    22939117.161  
                                
  21612575.825   115491084.918    21612577.541    89826386.649    21612577.559  
                                
  20305942.458   108470713.153    20305943.083    84366126.011    20305944.119  
                                
  21944157.650   117427628.661    21944158.830    91332594.103    21944158.705  
                                
  21795888.646   116347932.682    21795890.630    90492850.499    21795889.825  
                                
  23897549.583   125582516.630                                                  
  23897552.156    93779176.499  
  24690323.850   129748525.246                                                  
  24690326.799    96890140.891  
  26896075.759   141339839.584                                                  
  26896078.833   105545981.953  
  24585880.001   129199690.460                                                  
  24585883.789    96480293.441  
  26512412.594   139323672.677                                                  
  26512416.918   104040420.887  
 21  8 31 22 25 44.0000000  0 17G10G21G23G24G32R 5R 7R 9R15R16R21R22
                                E 3E 5E13E15E25
  20309059.530   106724850.028    20309059.333    83162231.422    20309059.262  
  20309057.832    79697134.407  
  24434843.746   128405972.215                   100056597.073    24434842.745  
                                
  21511936.255   113045982.536    21511935.147    88087769.309    21511934.861  
  21511939.078    84417459.772  
  23002880.625   120880965.757    23002882.001    94192967.741    23002881.447  
  23002882.448    90268265.454  
  20881733.662   109734284.287    20881733.858    85507258.240    20881733.411  
  20881732.589    81944453.490  
  22097891.449   118125883.877    22097895.380    91875720.892    22097895.487  
                                
  22264592.314   119184101.602    22264593.279    92698800.794    22264592.886  
                                
  22938300.046   122489260.185    22938302.995    95269438.768    22938302.905  
                                
  21612959.580   115493135.616    21612961.296    89827981.631    21612961.314  
                                
  20305529.826   108468508.935    20305530.451    84364411.617    20305531.488  
                                
  21944755.048   117430825.388    21944756.227    91335080.440    21944756.102  
                                
  21795899.475   116347990.522    21795901.476    90492895.474    21795900.654  
                                
  23897440.707   125581944.492                                                  
  23897443.280    93778749.255  
  24690584.559   129749895.334                                                  
  24690587.490    96891164.008  
  26895754.135   141338149.430                                                  
  26895757.208   105544719.825  
  24586051.436   129200591.456                                                  
  24586055.242    96480966.261  
  26511908.562   139321023.973                                                  
  26511912.905   104038442.970  
 21  8 31 22 25 45.0000000  0 17G10G21G23G24G32R 5R 7R 9R15R16R21R22
                                E 3E 5E13E15E25
  20309054.437   106724823.192    20309054.241    83162210.511    20309054.169  
  20309052.740    79697114.368  
  24434462.510   128403968.747                   100055035.922    24434461.492  
                                
  21512344.509   113048127.991    21512343.401    88089441.085    21512343.115  
  21512347.332    84419061.904  
  23003506.362   120884254.050    23003507.738    94195530.042    23003507.184  
  23003508.185    90270720.995  
  20881566.872   109733407.776    20881567.069    85506575.246    20881566.604  
  20881565.782    81943798.957  
  22098317.321   118128160.406    22098321.252    91877491.530    22098321.342  
                                
  22264117.767   119181561.315    22264118.732    92696825.014    22264118.339  
                                
  22937485.880   122484912.561    22937488.828    95266057.285    22937488.739  
                                
  21613343.550   115495187.403    21613345.265    89829577.463    21613345.283  
                                
  20305117.391   108466305.812    20305118.017    84362698.074    20305119.053  
                                
  21945352.570   117434022.937    21945353.749    91337567.418    21945353.642  
                                
  21795910.536   116348049.548    21795912.519    90492941.381    21795911.715  
                                
  23897331.920   125581372.791                                                  
  23897334.494    93778322.331  
  24690845.358   129751265.816                                                  
  24690848.288    96892187.420  
  26895432.653   141336460.001                                                  
  26895435.727   105543458.229  
  24586223.033   129201493.218                                                  
  24586226.839    96481639.656  
  26511404.602   139318375.710                                                  
  26511408.927   104036465.381  
 21  8 31 22 25 46.0000000  0 17G10G21G23G24G32R 5R 7R 9R15R16R21R22
                                E 3E 5E13E15E25
  20309049.434   106724796.897    20309049.237    83162190.019    20309049.166  
  20309047.736    79697094.725  
  24434081.346   128401965.713                   100053475.105    24434080.346  
                                
  21512752.887   113050273.941    21512751.779    88091113.261    21512751.511  
  21512755.711    84420664.375  
  23004132.171   120887542.698    23004133.529    94198092.625    23004132.976  
  23004133.976    90273176.806  
  20881400.136   109732531.615    20881400.333    85505892.523    20881399.886  
  20881399.064    81943144.678  
  22098743.229   118130437.180    22098747.160    91879262.345    22098747.250  
                                
  22263643.255   119179021.167    22263644.202    92694849.344    22263643.809  
                                
  22936671.731   122480565.140    22936674.680    95262675.965    22936674.608  
                                
  21613727.663   115497240.011    21613729.378    89831173.934    21613729.396  
                                
  20304705.135   108464103.544    20304705.778    84360985.202    20304706.815  
                                
  21945950.235   117437221.054    21945951.414    91340054.840    21945951.289  
                                
  21795921.775   116348109.540    21795923.759    90492988.043    21795922.955  
                                
  23897223.170   125580801.307                                                  
  23897225.743    93777895.572  
  24691106.192   129752636.444                                                  
  24691109.123    96893210.936  
  26895111.243   141334771.035                                                  
  26895114.334   105542196.989  
  24586394.754   129202395.535                                                  
  24586398.560    96482313.460  
  26510900.714   139315727.701                                                  
  26510905.038   104034487.970  
 21  8 31 22 25 47.0000000  0 17G10G21G23G24G32R 5R 7R 9R15R16R21R22
                                E 3E 5E13E15E25
  20309044.466   106724770.768    20309044.270    83162169.659    20309044.180  
  20309042.751    79697075.211  
  24433700.182   128399962.717                   100051914.341    24433699.164  
                                
  21513161.266   113052419.953    21513160.158    88092785.478    21513159.890  
  21513164.089    84422266.919  
  23004757.998   120890831.343    23004759.356    94200655.213    23004758.802  
  23004759.803    90275632.608  
  20881233.400   109731655.447    20881233.615    85505209.797    20881233.150  
  20881232.328    81942490.393  
  22099169.137   118132713.853    22099173.051    91881033.081    22099173.158  
                                
  22263168.689   119176480.760    22263169.636    92692873.472    22263169.243  
                                
  22935857.565   122476217.532    22935860.496    95259294.503    22935860.424  
                                
  21614111.882   115499293.090    21614113.598    89832770.768    21614113.598  
                                
  20304292.950   108461901.760    20304293.593    84359272.701    20304294.630  
                                
  21946547.900   117440419.329    21946549.080    91342542.380    21946548.955  
                                
  21795933.104   116348170.089    21795935.106    90493035.139    21795934.301  
                                
  23897114.383   125580229.641                                                  
  23897116.956    93777468.681  
  24691366.973   129754006.852                                                  
  24691369.903    96894234.299  
  26894789.869   141333082.169                                                  
  26894792.960   105540935.816  
  24586566.493   129203298.027                                                  
  24586570.281    96482987.403  
  26510396.772   139313079.529                                                  
  26510401.096   104032510.441  
 21  8 31 22 25 48.0000000  0 17G10G21G23G24G32R 5R 7R 9R15R16R21R22
                                E 3E 5E13E15E25
  20309039.552   106724744.992    20309039.356    83162149.571    20309039.284  
  20309037.855    79697055.963  
  24433319.107   128397960.068                   100050353.832    24433318.089  
                                
  21513569.680   113054566.232    21513568.572    88094457.903    21513568.304  
  21513572.504    84423869.671  
  23005383.843   120894120.161    23005385.201    94203217.928    23005384.647  
  23005385.648    90278088.550  
  20881066.700   109730779.429    20881066.915    85504527.181    20881066.450  
  20881065.628    81941836.226  
  22099595.028   118134990.531    22099598.941    91882803.827    22099599.030  
                                
  22262694.106   119173940.308    22262695.053    92690897.563    22262694.660  
                                
  22935043.381   122471869.956    22935046.312    95255913.065    22935046.240  
                                
  21614496.227   115501346.853    21614497.942    89834368.142    21614497.942  
                                
  20303880.908   108459700.626    20303881.534    84357560.715    20303882.570  
                                
  21947145.673   117443618.016    21947146.834    91345030.239    21947146.727  
                                
  21795944.594   116348231.416    21795946.595    90493082.841    21795945.791  
                                
  23897005.596   125579658.019                                                  
  23897008.169    93777041.820  
  24691627.735   129755377.248                                                  
  24691630.666    96895257.643  
  26894468.530   141331393.576                                                  
  26894471.621   105539674.871  
  24586738.286   129204200.893                                                  
  24586742.092    96483661.621  
  26509892.847   139310431.407                                                  
  26509897.172   104030532.956  
 21  8 31 22 25 49.0000000  0 18G10G21G23G24G31G32R 5R 7R 9R15R16R21
                                R22E 3E 5E13E15E25
  20309034.710   106724719.583    20309034.513    83162129.772    20309034.442  
  20309033.012    79697036.991  
  24432938.068   128395957.744                   100048793.598    24432937.032  
                                
  21513978.166   113056712.825    21513977.058    88096130.562    21513976.772  
  21513980.989    84425472.637  
  23006009.705   120897409.176    23006011.046    94205780.797    23006010.510  
  23006011.510    90280544.644  
  23629398.519   124173327.0031   23629398.018    96758427.2391   23629396.392  
                                
  20880900.036   109729903.605    20880900.250    85503844.721    20880899.786  
  20880898.964    81941182.197  
  22100020.936   118137267.216    22100024.831    91884574.604    22100024.921  
                                
  22262219.523   119171399.739    22262220.470    92688921.555    22262220.077  
                                
  22934229.215   122467522.321    22934232.163    95252531.563    22934232.074  
                                
  21614880.679   115503401.266    21614882.395    89835966.007    21614882.395  
                                
  20303468.974   108457500.134    20303469.599    84355849.211    20303470.636  
                                
  21947743.499   117446817.104    21947744.660    91347518.420    21947744.553  
                                
  21795956.245   116348293.536    21795958.246    90493131.152    21795957.424  
                                
  23896896.828   125579086.427                                                  
  23896899.401    93776614.984  
  24691888.516   129756747.618                                                  
  24691891.446    96896280.969  
  26894147.263   141329705.294                                                  
  26894150.336   105538414.145  
  24586910.168   129205104.128                                                  
  24586913.956    96484336.117  
  26509388.941   139307783.360                                                  
  26509393.265   104028555.512  
 21  8 31 22 25 50.0000000  0 18G10G21G23G24G31G32R 5R 7R 9R15R16R21
                                R22E 3E 5E13E15E25
  20309030.028   106724694.989    20309029.832    83162110.606    20309029.760  
  20309028.331    79697018.625  
  24432557.172   128393956.125                   100047233.904    24432556.136  
                                
  21514386.795   113058860.152    21514385.687    88097803.801    21514385.401  
  21514389.618    84427076.149  
  23006635.729   120900698.860    23006637.105    94208344.192    23006636.551  
  23006637.534    90283001.198  
  23628666.425   124169479.891    23628665.924    96755429.513    23628664.298  
                                
  20880733.515   109729028.391    20880733.711    85503162.738    20880733.246  
  20880732.442    81940528.633  
  22100446.951   118139544.524    22100450.847    91886345.844    22100450.936  
                                
  22261745.011   119168859.613    22261745.958    92686945.902    22261745.565  
                                
  22933415.156   122463175.189    22933418.086    95249150.461    22933417.997  
                                
  21615265.346   115505456.821    21615267.061    89837564.775    21615267.079  
                                
  20303057.254   108455300.837    20303057.879    84354138.652    20303058.915  
                                
  21948341.468   117450017.085    21948342.629    91350007.292    21948342.522  
                                
  21795968.110   116348356.902    21795970.111    90493180.434    21795969.307  
                                
  23896788.148   125578515.319                                                  
  23896790.721    93776188.507  
  24692149.368   129758118.413                                                  
  24692152.298    96897304.619  
  26893826.139   141328017.774                                                  
  26893829.230   105537153.978  
  24587082.211   129206008.196                                                  
  24587086.017    96485011.228  
  26508885.124   139305135.784                                                  
  26508889.430   104026578.441  
 21  8 31 22 25 51.0000000  0 18G10G21G23G24G31G32R 5R 7R 9R15R16R21
                                R22E 3E 5E13E15E25
  20309025.436   106724670.891    20309025.239    83162091.828    20309025.168  
  20309023.738    79697000.628  
  24432176.348   128391954.904                   100045674.507    24432175.311  
                                
  21514795.495   113061007.883    21514794.369    88099477.351    21514794.101  
  21514798.319    84428679.979  
  23007261.770   120903988.817    23007263.146    94210907.790    23007262.592  
  23007263.593    90285457.988  
  23627934.385   124165632.988    23627933.866    96752431.937    23627932.276  
                                
  20880567.029   109728153.491    20880567.208    85502480.991    20880566.761  
  20880565.939    81939875.298  
  22100873.020   118141822.014    22100876.916    91888117.216    22100877.005  
                                
  22261270.499   119166319.588    22261271.464    92684970.327    22261271.071  
                                
  22932601.114   122458828.216    22932604.027    95245769.484    22932603.956  
                                
  21615650.155   115507513.201    21615651.870    89839164.181    21615651.888  
                                
  20302645.694   108453102.349    20302646.320    84352428.719    20302647.356  
                                
  21948939.580   117453217.584    21948940.741    91352496.569    21948940.634  
                                
  21795980.153   116348421.184    21795982.155    90493230.428    21795981.351  
                                
  23896679.505   125577944.375                                                  
  23896682.060    93775762.153  
  24692410.238   129759489.320                                                  
  24692413.168    96898328.352  
  26893505.086   141326330.669                                                  
  26893508.159   105535894.140  
  24587254.343   129206912.766                                                  
  24587258.149    96485686.717  
  26508381.342   139302488.415                                                  
  26508385.667   104024601.504  
 21  8 31 22 25 52.0000000  0 18G10G21G23G24G31G32R 5R 7R 9R15R16R21
                                R22E 3E 5E13E15E25
  20309020.951   106724647.204    20309020.754    83162073.366    20309020.683  
  20309019.253    79696982.938  
  24431795.612   128389954.053                   100044115.384    24431794.576  
                                
  21515204.249   113063155.955    21515203.141    88101151.171    21515202.855  
  21515207.072    84430284.055  
  23007887.847   120907278.967    23007889.205    94213471.543    23007888.651  
  23007889.652    90287914.960  
  23627202.380   124161786.251    23627201.880    96749434.448    23627200.289  
                                
  20880400.579   109727278.811    20880400.775    85501799.427    20880400.329  
  20880399.507    81939222.124  
  22101299.125   118144099.636    22101303.003    91889888.688    22101303.110  
                                
  22260796.005   119163779.555    22260796.952    92682994.748    22260796.559  
                                
  22931787.055   122454481.299    22931789.986    95242388.556    22931789.897  
                                
  21616035.125   115509570.290    21616036.841    89840764.142    21616036.841  
                                
  20302234.242   108450904.550    20302234.868    84350719.320    20302235.904  
                                
  21949537.745   117456418.509    21949538.925    91354986.178    21949538.799  
                                
  21795992.376   116348486.353    21795994.377    90493281.116    21795993.555  
                                
  23896570.879   125577373.510                                                  
  23896573.434    93775335.853  
  24692671.107   129760860.256                                                  
  24692674.038    96899352.097  
  26893184.105   141324643.925                                                  
  26893187.178   105534634.563  
  24587426.547   129207817.747                                                  
  24587430.353    96486362.514  
  26507877.579   139299841.135                                                  
  26507881.903   104022624.634  
 21  8 31 22 25 53.0000000  0 18G10G21G23G24G31G32R 5R 7R 9R15R16R21
                                R22E 3E 5E13E15E25
  20309016.519   106724623.920    20309016.323    83162055.225    20309016.233  
  20309014.804    79696965.550  
  24431414.895   128387953.490                   100042556.526    24431413.841  
                                
  21515613.092   113065304.347    21515611.985    88102825.243    21515611.699  
  21515615.916    84431888.367  
  23008514.013   120910569.402    23008515.353    94216035.519    23008514.817  
  23008515.800    90290372.088  
  23626470.411   124157939.615    23626469.911    96746437.055    23626468.303  
                                
  20880234.165   109726404.334    20880234.361    85501118.014    20880233.915  
  20880233.093    81938569.109  
  22101725.230   118146377.368    22101729.125    91891660.241    22101729.214  
                                
  22260321.493   119161239.500    22260322.440    92681019.152    22260322.065  
                                
  22930973.032   122450134.409    22930975.945    95239007.644    22930975.873  
                                
  21616420.221   115511628.072    21616421.918    89842364.639    21616421.936  
                                
  20301822.951   108448707.461    20301823.576    84349010.473    20301824.613  
                                
  21950136.018   117459619.904    21950137.179    91357476.154    21950137.072  
                                
  21796004.741   116348552.316    21796006.725    90493332.420    21796005.921  
                                
  23896462.253   125576802.719                                                  
  23896464.826    93774909.613  
  24692931.995   129762231.210                                                  
  24692934.926    96900375.857  
  26892863.213   141322957.521                                                  
  26892866.304   105533375.226  
  24587598.858   129208723.151                                                  
  24587602.664    96487038.623  
  26507373.833   139297193.928                                                  
  26507378.158   104020647.828  
 21  8 31 22 25 54.0000000  0 18G10G21G23G24G31G32R 5R 7R 9R15R16R21
                                R22E 3E 5E13E15E25
  20309012.159   106724601.034    20309011.963    83162037.392    20309011.873  
  20309010.444    79696948.466  
  24431034.267   128385953.291                   100040997.948    24431033.213  
                                
  21516021.971   113067453.053    21516020.863    88104499.564    21516020.578  
  21516024.795    84433492.931  
  23009140.215   120913860.064    23009141.555    94218599.670    23009141.019  
  23009142.002    90292829.387  
  23625738.425   124154093.029    23625737.924    96743439.734    23625736.316  
                                
  20880067.804   109725530.094    20880068.001    85500436.781    20880067.536  
  20880066.732    81937916.259  
  22102151.352   118148655.184    22102155.248    91893431.880    22102155.337  
                                
  22259846.981   119158699.446    22259847.928    92679043.561    22259847.535  
                                
  22930159.009   122445787.594    22930161.939    95235626.797    22930161.850  
                                
  21616805.423   115513686.588    21616807.138    89843965.709    21616807.138  
                                
  20301411.785   108446511.109    20301412.410    84347302.199    20301413.446  
                                
  21950734.344   117462821.753    21950735.506    91359966.478    21950735.399  
                                
  21796017.249   116348619.110    21796019.251    90493384.376    21796018.447  
                                
  23896353.663   125576231.989                                                  
  23896356.236    93774483.421  
  24693192.883   129763602.172                                                  
  24693195.813    96901399.634  
  26892542.375   141321271.457                                                  
  26892545.448   105532116.150  
  24587771.223   129209628.965                                                  
  24587775.029    96487715.043  
  26506870.106   139294546.838                                                  
  26506874.430   104018671.114  
 21  8 31 22 25 55.0000000  0 18G10G21G23G24G31G32R 5R 7R 9R15R16R21
                                R22E 3E 5E13E15E25
  20309007.906   106724578.720    20309007.710    83162020.004    20309007.638  
  20309006.209    79696931.797  
  24430653.746   128383953.570                   100039439.719    24430652.674  
                                
  21516430.958   113069602.258    21516429.850    88106174.266    21516429.564  
  21516433.781    84435097.850  
  23009766.471   120917151.068    23009767.811    94221164.092    23009767.275  
  23009768.258    90295286.966  
  23625006.492   124150246.788    23625005.991    96740442.686    23625004.401  
                                
  20879901.497   109724656.203    20879901.694    85499755.830    20879901.247  
  20879900.425    81937263.683  
  22102577.528   118150933.265    22102581.406    91895203.698    22102581.495  
                                
  22259372.505   119156159.541    22259373.452    92677068.079    22259373.059  
                                
  22929345.039   122441440.984    22929347.952    95232246.100    22929347.880  
                                
  21617190.822   115515745.987    21617192.520    89845567.459    21617192.538  
                                
  20301000.779   108444315.645    20301001.423    84345594.616    20301002.459  
                                
  21951332.796   117466024.193    21951333.957    91362457.263    21951333.850  
                                
  21796029.954   116348686.935    21796031.956    90493437.129    21796031.152  
                                
  23896245.109   125575661.509                                                  
  23896247.682    93774057.411  
  24693453.806   129764973.329                                                  
  24693456.737    96902423.545  
  26892221.608   141319585.889                                                  
  26892224.699   105530857.447  
  24587943.694   129210535.348                                                  
  24587947.500    96488391.894  
  26506366.431   139291899.989                                                  
  26506370.756   104016694.566  
 21  8 31 22 25 56.0000000  0 18G10G21G23G24G31G32R 5R 7R 9R15R16R21
                                R22E 3E 5E13E15E25
  20309003.761   106724556.835    20309003.564    83162002.953    20309003.475  
  20309002.045    79696915.452  
  24430273.243   128381954.189                   100037881.788    24430272.171  
                                
  21516839.997   113071751.817    21516838.889    88107849.253    21516838.621  
  21516842.821    84436703.034  
  23010392.762   120920442.345    23010394.120    94223728.730    23010393.566  
  23010394.567    90297744.738  
  23624274.576   124146400.695    23624274.076    96737445.751    23624272.486  
                                
  20879735.262   109723782.568    20879735.458    85499075.078    20879734.994  
  20879734.172    81936611.293  
  22103003.740   118153211.511    22103007.618    91896975.653    22103007.707  
                                
  22258898.029   119153619.630    22258898.976    92675092.590    22258898.583  
                                
  22928531.051   122437094.458    22928533.964    95228865.476    22928533.893  
                                
  21617576.346   115517806.127    21617578.044    89847169.787    21617578.062  
                                
  20300589.935   108442120.946    20300590.560    84343887.630    20300591.597  
                                
  21951931.354   117469227.106    21951932.516    91364948.417    21951932.409  
                                
  21796042.802   116348755.565    21796044.804    90493490.512    21796043.999  
                                
  23896136.554   125575091.105                                                  
  23896139.127    93773631.462  
  24693714.748   129766344.526                                                  
  24693717.678    96903447.487  
  26891900.930   141317900.677                                                  
  26891904.022   105529599.005  
  24588116.255   129211442.178                                                  
  24588120.062    96489069.068  
  26505862.775   139289253.257                                                  
  26505867.099   104014718.111  
 21  8 31 22 25 57.0000000  0 18G10G21G23G24G31G32R 5R 7R 9R15R16R21
                                R22E 3E 5E13E15E25
  20308999.704   106724535.575    20308999.508    83161986.385    20308999.436  
  20308998.007    79696899.580  
  24429892.865   128379955.366                   100036324.286    24429891.775  
                                
  21517249.144   113073901.911    21517248.019    88109524.650    21517247.751  
  21517251.968    84438308.643  
  23011019.161   120923734.060    23011020.501    94226293.703    23011019.965  
  23011020.948    90300202.845  
  23623542.768   124142554.912    23623542.268    96734449.019    23623540.678  
                                
  20879569.098   109722909.382    20879569.276    85498394.670    20879568.829  
  20879568.007    81935959.236  
  22103430.006   118155490.114    22103433.884    91898747.882    22103433.973  
                                
  22258423.606   119151079.987    22258424.553    92673117.316    22258424.160  
                                
  22927717.153   122432748.206    22927720.066    95225485.058    22927719.976  
                                
  21617962.049   115519867.200    21617963.747    89848772.837    21617963.747  
                                
  20300179.269   108439927.203    20300179.894    84342181.386    20300180.931  
                                
  21952530.020   117472430.706    21952531.182    91367440.101    21952531.075  
                                
  21796055.864   116348825.275    21796057.866    90493544.726    21796057.062  
                                
  23896028.071   125574521.035                                                  
  23896030.645    93773205.763  
  24693975.725   129767715.967                                                  
  24693978.655    96904471.619  
  26891580.378   141316216.071                                                  
  26891583.469   105528340.992  
  24588288.960   129212349.659                                                  
  24588292.766    96489746.726  
  26505359.172   139286606.846                                                  
  26505363.497   104012741.897  
 21  8 31 22 25 58.0000000  0 18G10G21G23G24G31G32R 5R 7R 9R15R16R21
                                R22E 3E 5E13E15E25
  20308995.738   106724514.793    20308995.541    83161970.189    20308995.469  
  20308994.040    79696884.057  
  24429512.612   128377956.963                   100034767.073    24429511.522  
                                
  21517658.381   113076052.413    21517657.273    88111200.364    21517656.987  
  21517661.204    84439914.524  
  23011645.613   120927026.080    23011646.971    94228858.913    23011646.435  
  23011647.418    90302661.165  
  23622810.996   124138709.344    23622810.496    96731452.470    23622808.905  
                                
  20879402.987   109722036.460    20879403.166    85497714.474    20879402.719  
  20879401.897    81935307.379  
  22103856.307   118157768.829    22103860.185    91900520.199    22103860.292  
                                
  22257949.183   119148540.387    22257950.131    92671142.078    22257949.737  
                                
  22926903.255   122428402.068    22926906.167    95222104.730    22926906.096  
                                
  21618347.895   115521929.034    21618349.593    89850376.482    21618349.610  
                                
  20299768.728   108437734.219    20299769.371    84340475.731    20299770.408  
                                
  21953128.776   117475634.796    21953129.955    91369932.167    21953129.830  
                                
  21796069.105   116348895.899    21796071.107    90493599.654    21796070.303  
                                
  23895919.606   125573951.075                                                  
  23895922.180    93772780.139  
  24694236.720   129769087.496                                                  
  24694239.650    96905495.804  
  26891259.861   141314531.830                                                  
  26891262.952   105527083.288  
  24588461.735   129213257.598                                                  
  24588465.541    96490424.730  
  26504855.623   139283960.595                                                  
  26504859.948   104010765.801  
 21  8 31 22 25 59.0000000  0 18G10G21G23G24G31G32R 5R 7R 9R15R16R21
                                R22E 3E 5E13E15E25
  20308991.878   106724494.452    20308991.681    83161954.338    20308991.610  
  20308990.180    79696868.871  
  24429132.395   128375958.906                   100033210.124    24429131.287  
                                
  21518067.689   113078203.293    21518066.563    88112876.370    21518066.295  
  21518070.512    84441520.694  
  23012272.119   120930318.369    23012273.477    94231424.331    23012272.923  
  23012273.924    90305119.673  
  23622079.224   124134863.931    23622078.724    96728456.028    23622077.133  
                                
  20879236.912   109721163.805    20879237.109    85497034.485    20879236.662  
  20879235.840    81934655.719  
  22104282.644   118160047.746    22104286.522    91902292.709    22104286.611  
                                
  22257474.761   119146000.829    22257475.708    92669166.859    22257475.315  
                                
  22926089.374   122424056.004    22926092.287    95218724.461    22926092.198  
                                
  21618733.902   115523991.632    21618735.581    89851980.729    21618735.599  
                                
  20299358.348   108435542.007    20299358.973    84338770.682    20299360.010  
                                
  21953727.638   117478839.361    21953728.799    91372424.604    21953728.674  
                                
  21796082.489   116348967.379    21796084.491    90493655.249    21796083.687  
                                
  23895811.177   125573381.243                                                  
  23895813.732    93772354.617  
  24694497.733   129770459.072                                                  
  24694500.645    96906520.041  
  26890939.434   141312847.979                                                  
  26890942.525   105525825.876  
  24588634.582   129214166.007                                                  
  24588638.406    96491103.091  
  26504352.074   139281314.465                                                  
  26504356.381   104008789.807  
 21  8 31 22 26  0.0000000  0 18G10G21G23G24G31G32R 5R 7R 9R15R16R21
                                R22E 3E 5E13E15E25
  20308988.072   106724474.436    20308987.875    83161938.742    20308987.786  
  20308986.356    79696853.922  
  24428752.232   128373961.142                   100031653.409    24428751.142  
                                
  21518477.032   113080354.420    21518475.924    88114552.573    21518475.656  
  21518479.873    84443127.033  
  23012898.660   120933610.800    23012900.001    94233989.862    23012899.465  
  23012900.447    90307578.305  
  23621347.470   124131018.566    23621346.969    96725459.653    23621345.379  
                                
  20879070.891   109720291.264    20879071.088    85496354.581    20879070.623  
  20879069.819    81934004.155  
  22104708.963   118162326.621    22104712.841    91904065.149    22104712.930  
                                
  22257000.338   119143461.175    22257001.285    92667191.573    22257000.892  
                                
  22925275.494   122419709.907    22925278.407    95215344.163    22925278.317  
                                
  21619119.998   115526054.856    21619121.695    89853585.455    21619121.695  
                                
  20298948.075   108433350.433    20298948.719    84337066.123    20298949.737  
                                
  21954326.554   117482044.288    21954327.733    91374917.325    21954327.608  
                                
  21796096.034   116349039.613    21796098.035    90493711.429    21796097.231  
                                
  23895702.730   125572811.396                                                  
  23895705.303    93771929.082  
  24694758.710   129771830.589                                                  
  24694761.640    96907544.226  
  26890619.060   141311164.371                                                  
  26890622.151   105524568.656  
  24588807.537   129215074.735                                                  
  24588811.343    96491781.685  
  26503848.525   139278668.356                                                  
  26503852.850   104006813.812  
 21  8 31 22 26  1.0000000  0 18G10G21G23G24G31G32R 5R 7R 9R15R16R21
                                R22E 3E 5E13E15E25
  20308984.355   106724454.992    20308984.158    83161923.591    20308984.087  
  20308982.657    79696839.407  
  24428372.176   128371963.816                   100030097.044    24428371.086  
                                
  21518886.465   113082506.008    21518885.339    88116229.132    21518885.071  
  21518889.288    84444733.754  
  23013525.238   120936903.565    23013526.560    94236555.643    23013526.024  
  23013527.025    90310037.223  
  23620615.787   124127173.417    23620615.286    96722463.413    23620613.696  
                                
  20878904.924   109719419.123    20878905.120    85495674.990    20878904.656  
  20878903.852    81933352.876  
  22105135.354   118164605.852    22105139.232    91905837.877    22105139.321  
                                
  22256525.934   119140921.644    22256526.881    92665216.384    22256526.488  
                                
  22924461.632   122415364.052    22924464.544    95211964.058    22924464.473  
                                
  21619506.254   115528118.949    21619507.934    89855190.863    21619507.952  
                                
  20298537.981   108431159.775    20298538.607    84335362.278    20298539.643  
                                
  21954925.595   117485249.833    21954926.757    91377410.527    21954926.632  
                                
  21796109.740   116349112.807    21796111.741    90493768.362    21796110.937  
                                
  23895594.337   125572241.788                                                  
  23895596.892    93771503.721  
  24695019.722   129773202.300                                                  
  24695022.653    96908568.554  
  26890298.758   141309481.275                                                  
  26890301.849   105523311.815  
  24588980.562   129215984.047                                                  
  24588984.368    96492460.719  
  26503345.048   139276022.516                                                  
  26503349.372   104004838.019  
 21  8 31 22 26  2.0000000  0 18G10G21G23G24G31G32R 5R 7R 9R15R16R21
                                R22E 3E 5E13E15E25
  20308980.781   106724436.150    20308980.585    83161908.909    20308980.513  
  20308979.084    79696825.332  
  24427992.209   128369967.056                   100028541.116    24427991.119  
                                
  21519296.005   113084658.144    21519294.897    88117906.121    21519294.611  
  21519298.829    84446340.855  
  23014151.940   120940196.838    23014153.280    94239121.823    23014152.744  
  23014153.727    90312496.450  
  23619884.140   124123328.667    23619883.621    96719467.525    23619882.049  
                                
  20878739.028   109718547.380    20878739.224    85494995.712    20878738.760  
  20878737.956    81932701.904  
  22105561.798   118166885.372    22105565.658    91907610.816    22105565.765  
                                
  22256051.565   119138382.324    22256052.512    92663241.362    22256052.101  
                                
  22923647.858   122411018.426    22923650.753    95208584.127    22923650.682  
                                
  21619892.690   115530183.985    21619894.387    89856797.006    21619894.387  
                                
  20298128.066   108428970.039    20298128.691    84333659.149    20298129.728  
                                
  21955524.743   117488456.009    21955525.905    91379904.212    21955525.780  
                                
  21796123.660   116349187.068    21796125.661    90493826.119    21796124.857  
                                
  23895485.997   125571672.467                                                  
  23895488.570    93771078.583  
  24695280.789   129774574.222                                                  
  24695283.719    96909593.041  
  26889978.599   141307798.750                                                  
  26889981.690   105522055.369  
  24589153.713   129216893.978                                                  
  24589157.537    96493140.206  
  26502841.606   139273376.958                                                  
  26502845.912   104002862.437  
 21  8 31 22 26  3.0000000  0 18G10G21G23G24G31G32R 5R 7R 9R15R16R21
                                R22E 3E 5E13E15E25
  20308977.279   106724417.769    20308977.082    83161894.585    20308977.011  
  20308975.581    79696811.606  
  24427612.313   128367970.630                   100026985.446    24427611.205  
                                
  21519705.617   113086810.641    21519704.509    88119583.389    21519704.223  
  21519708.440    84447948.248  
  23014778.678   120943490.366    23014780.036    94241688.202    23014779.500  
  23014780.483    90314955.894  
  23619152.546   124119484.035    23619152.028    96716471.707    23619150.437  
                                
  20878573.203   109717675.940    20878573.400    85494316.670    20878572.935  
  20878572.131    81932051.146  
  22105988.278   118169165.041    22105992.138    91909383.881    22105992.245  
                                
  22255577.196   119135843.056    22255578.125    92661266.376    22255577.732  
                                
  22922834.085   122406672.917    22922836.980    95205204.287    22922836.908  
                                
  21620279.286   115532249.794    21620280.966    89858403.751    21620280.984  
                                
  20297718.275   108426781.058    20297718.919    84331956.613    20297719.955  
                                
  21956123.981   117491662.684    21956125.143    91382398.288    21956125.018  
                                
  21796137.722   116349262.182    21796139.724    90493884.540    21796138.938  
                                
  23895377.693   125571103.257                                                  
  23895380.248    93770653.524  
  24695541.873   129775946.226                                                  
  24695544.804    96910617.592  
  26889658.493   141306116.615                                                  
  26889661.584   105520799.223  
  24589326.953   129217804.373                                                  
  24589330.759    96493820.049  
  26502338.200   139270731.538                                                  
  26502342.506   104000886.970  
 21  8 31 22 26  4.0000000  0 18G10G21G23G24G31G32R 5R 7R 9R15R16R21
                                R22E 3E 5E13E15E25
  20308973.866   106724399.860    20308973.669    83161880.633    20308973.598  
  20308972.168    79696798.228  
  24427232.525   128365974.680                   100025430.158    24427231.417  
                                
  21520115.300   113088963.546    21520114.192    88121260.980    21520113.906  
  21520118.123    84449555.933  
  23015405.470   120946784.141    23015406.810    94244254.779    23015406.274  
  23015407.257    90317415.550  
  23618421.006   124115639.670    23618420.506    96713476.062    23618418.898  
                                
  20878407.414   109716804.764    20878407.611    85493637.832    20878407.164  
  20878406.342    81931400.595  
  22106414.776   118171444.815    22106418.636    91911157.043    22106418.725  
                                
  22255102.845   119133303.853    22255103.792    92659291.438    22255103.399  
                                
  22922020.330   122402327.494    22922023.225    95201824.518    22922023.153  
                                
  21620666.025   115534316.379    21620667.705    89860011.090    21620667.723  
                                
  20297308.628   108424592.822    20297309.254    84330254.652    20297310.290  
                                
  21956723.326   117494869.854    21956724.470    91384892.747    21956724.345  
                                
  21796151.964   116349338.160    21796153.965    90493943.625    21796153.161  
                                
  23895269.388   125570534.206                                                  
  23895271.962    93770228.576  
  24695802.975   129777318.324                                                  
  24695805.906    96911642.202  
  26889338.477   141304434.880                                                  
  26889341.568   105519543.365  
  24589500.301   129218715.258                                                  
  24589504.125    96494500.249  
  26501834.811   139268086.286                                                  
  26501839.136   103998911.619  
 21  8 31 22 26  5.0000000  0 18G10G21G23G24G31G32R 5R 7R 9R15R16R21
                                R22E 3E 5E13E15E25
  20308970.542   106724382.318    20308970.346    83161866.963    20308970.274  
  20308968.845    79696785.133  
  24426852.755   128363979.011                   100023875.087    24426851.647  
                                
  21520525.019   113091116.703    21520523.911    88122938.763    21520523.625  
  21520527.842    84451163.825  
  23016032.315   120950078.147    23016033.655    94246821.533    23016033.119  
  23016034.102    90319875.343  
  23617689.466   124111795.285    23617688.984    96710480.409    23617687.375  
                                
  20878241.679   109715933.764    20878241.876    85492959.131    20878241.411  
  20878240.607    81930750.166  
  22106841.274   118173724.739    22106845.134    91912930.307    22106845.223  
                                
  22254628.494   119130764.615    22254629.441    92657316.473    22254629.048  
                                
  22921206.592   122397982.134    22921209.487    95198444.791    22921209.416  
                                
  21621052.872   115536383.599    21621054.552    89861618.925    21621054.552  
                                
  20296899.106   108422405.239    20296899.731    84328553.201    20296900.768  
                                
  21957322.742   117498077.441    21957323.886    91387387.534    21957323.779  
                                
  21796166.366   116349414.963    21796168.368    90494003.357    21796167.564  
                                
  23895161.102   125569965.161                                                  
  23895163.657    93769803.640  
  24696064.077   129778690.384                                                  
  24696066.990    96912666.792  
  26889018.532   141302753.462                                                  
  26889021.623   105518287.755  
  24589673.702   129219626.504                                                  
  24589677.508    96495180.727  
  26501331.459   139265441.083                                                  
  26501335.765   103996936.301  
 21  8 31 22 26  6.0000000  0 18G10G21G23G24G31G32R 5R 7R 9R15R16R21
                                R22E 3E 5E13E15E25
  20308967.272   106724365.239    20308967.093    83161853.653    20308967.004  
  20308965.575    79696772.379  
  24426473.074   128361983.710                   100022320.290    24426471.966  
                                
  21520934.827   113093270.286    21520933.719    88124616.882    21520933.433  
  21520937.650    84452772.014  
  23016659.196   120953372.429    23016660.554    94249388.497    23016660.018  
  23016661.001    90322335.350  
  23616957.926   124107951.178    23616957.426    96707485.040    23616955.818  
                                
  20878075.998   109715063.031    20878076.176    85492280.633    20878075.730  
  20878074.926    81930099.952  
  22107267.807   118176004.802    22107271.649    91914703.685    22107271.739  
                                
  22254154.160   119128225.412    22254155.090    92655341.537    22254154.696  
                                
  22920392.837   122393636.881    22920395.750    95195065.152    22920395.660  
                                
  21621439.861   115538451.568    21621441.541    89863227.339    21621441.559  
                                
  20296489.727   108420218.456    20296490.370    84326852.370    20296491.406  
                                
  21957922.248   117501285.535    21957923.392    91389882.720    21957923.285  
                                
  21796180.912   116349492.655    21796182.913    90494063.791    21796182.109  
                                
  23895052.869   125569396.268                                                  
  23895055.425    93769378.822  
  24696325.180   129780062.535                                                  
  24696328.092    96913691.455  
  26888698.605   141301072.404                                                  
  26888701.714   105517032.436  
  24589847.192   129220538.235                                                  
  24589851.016    96495861.558  
  26500828.124   139262796.050                                                  
  26500832.449   103994961.112  
 21  8 31 22 26  7.0000000  0 18G10G21G23G24G31G32R 5R 7R 9R15R16R21
                                R22E 3E 5E13E15E25
  20308964.109   106724348.577    20308963.931    83161840.670    20308963.841  
  20308962.412    79696759.941  
  24426093.464   128359988.740                   100020765.766    24426092.338  
                                
  21521344.724   113095424.218    21521343.617    88126295.263    21521343.331  
  21521347.548    84454380.461  
  23017286.113   120956666.940    23017287.453    94251955.646    23017286.917  
  23017287.900    90324795.541  
  23616226.386   124104107.135    23616225.832    96704489.742    23616224.260  
                                
  20877910.334   109714192.544    20877910.531    85491602.334    20877910.084  
  20877909.262    81929449.912  
  22107694.359   118178284.994    22107698.201    91916477.163    22107698.290  
                                
  22253679.809   119125686.248    22253680.756    92653366.632    22253680.363  
                                
  22919579.135   122389291.658    22919582.030    95191685.543    22919581.941  
                                
  21621827.012   115540520.295    21621828.691    89864836.349    21621828.709  
                                
  20296080.508   108418032.461    20296081.151    84325152.151    20296082.170  
                                
  21958521.843   117504494.086    21958523.005    91392378.256    21958522.880  
                                
  21796195.618   116349571.209    21796197.619    90494124.892    21796196.815  
                                
  23894944.619   125568827.466                                                  
  23894947.192    93768954.069  
  24696586.300   129781434.721                                                  
  24696589.212    96914716.135  
  26888378.785   141299391.714                                                  
  26888381.876   105515777.377  
  24590020.754   129221450.390                                                  
  24590024.578    96496542.720  
  26500324.808   139260151.103                                                  
  26500329.132   103992985.996  
 21  8 31 22 26  8.0000000  0 18G10G21G23G24G31G32R 5R 7R 9R15R16R21
                                R22E 3E 5E13E15E25
  20308960.964   106724332.059    20308960.768    83161827.799    20308960.696  
  20308959.267    79696747.604  
  24425713.819   128357993.805                   100019211.285    24425712.693  
                                
  21521754.622   113097578.189    21521753.496    88127973.675    21521753.210  
  21521757.445    84455988.947  
  23017913.012   120959961.390    23017914.352    94254522.761    23017913.816  
  23017914.817    90327255.697  
  23615494.846   124100262.949    23615494.292    96701494.300    23615492.720  
                                
  20877744.670   109713321.987    20877744.867    85490923.980    20877744.402  
  20877743.598    81928799.827  
  22108120.892   118180565.015    22108124.734    91918250.508    22108124.824  
                                
  22253205.422   119123146.771    22253206.370    92651391.481    22253205.959  
                                
  22918765.344   122384946.208    22918768.239    95188305.756    22918768.168  
                                
  21622214.233   115542589.463    21622215.913    89866445.700    21622215.931  
                                
  20295671.379   108415846.939    20295672.022    84323452.301    20295673.041  
                                
  21959121.474   117507702.802    21959122.618    91394873.923    21959122.493  
                                
  21796210.431   116349650.302    21796212.433    90494186.414    21796211.647  
                                
  23894836.351   125568258.468                                                  
  23894838.906    93768529.159  
  24696847.384   129782806.652                                                  
  24696850.297    96915740.631  
  26888058.983   141297711.134                                                  
  26888062.092   105514522.383  
  24590194.387   129222362.690                                                  
  24590198.193    96497223.984  
  26499821.455   139257506.003                                                  
  26499825.779   103991010.757  
 21  8 31 22 26  9.0000000  0 18G10G21G23G24G31G32R 5R 7R 9R15R16R21
                                R22E 3E 5E13E15E25
  20308957.927   106724316.072    20308957.748    83161815.344    20308957.659  
  20308956.229    79696735.666  
  24425334.281   128355999.331                   100017657.167    24425333.137  
                                
  21522164.573   113099732.581    21522163.447    88129652.429    21522163.179  
  21522167.396    84457597.760  
  23018540.000   120963256.191    23018541.341    94257090.139    23018540.804  
  23018541.787    90329716.101  
  23614763.360   124096419.024    23614762.788    96698499.026    23614761.216  
                                
  20877579.078   109712451.768    20877579.257    85490245.889    20877578.810  
  20877578.006    81928149.986  
  22108547.444   118182845.282    22108551.286    91920024.070    22108551.375  
                                
  22252731.054   119120607.368    22252731.983    92649416.387    22252731.590  
                                
  22917951.625   122380600.958    22917954.520    95184926.117    22917954.448  
                                
  21622601.616   115544659.506    21622603.296    89868055.736    21622603.313  
                                
  20295262.411   108413662.271    20295263.054    84321753.115    20295264.090  
                                
  21959721.212   117510912.091    21959722.356    91397370.047    21959722.231  
                                
  21796225.441   116349730.390    21796227.443    90494248.700    21796226.639  
                                
  23894728.100   125567689.666                                                  
  23894730.655    93768104.407  
  24697108.486   129784178.727                                                  
  24697111.399    96916765.223  
  26887739.288   141296031.004                                                  
  26887742.398   105513267.717  
  24590368.074   129223275.520                                                  
  24590371.898    96497905.637  
  26499318.156   139254861.085                                                  
  26499322.463   103989035.660  
 21  8 31 22 26 10.0000000  0 18G10G21G23G24G31G32R 5R 7R 9R15R16R21
                                R22E 3E 5E13E15E25
  20308954.943   106724300.438    20308954.764    83161803.161    20308954.674  
  20308953.245    79696723.988  
  24424954.814   128354005.159                   100016103.265    24424953.671  
                                
  21522574.614   113101887.294    21522573.488    88131331.433    21522573.220  
  21522577.437    84459206.784  
  23019167.042   120966551.210    23019168.400    94259657.686    23019167.864  
  23019168.847    90332176.632  
  23614031.909   124092575.155    23614031.356    96695503.795    23614029.783  
                                
  20877413.504   109711581.719    20877413.700    85489567.929    20877413.236  
  20877412.432    81927500.269  
  22108974.031   118185125.629    22108977.855    91921797.682    22108977.944  
                                
  22252256.649   119118067.887    22252257.596    92647441.231    22252257.203  
                                
  22917137.887   122376255.694    22917140.782    95181546.467    22917140.711  
                                
  21622989.124   115546730.188    21622990.785    89869666.268    21622990.803  
                                
  20294853.549   108411478.250    20294854.175    84320054.432    20294855.211  
                                
  21960321.004   117514121.742    21960322.147    91399866.442    21960322.022  
                                
  21796240.577   116349811.167    21796242.578    90494311.524    21796241.774  
                                
  23894619.867   125567120.864                                                  
  23894622.405    93767679.657  
  24697369.570   129785550.758                                                  
  24697372.483    96917789.796  
  26887419.612   141294351.115                                                  
  26887422.721   105512013.267  
  24590541.850   129224188.718                                                  
  24590545.674    96498587.574  
  26498814.857   139252216.219                                                  
  26498819.164   103987060.609  
 21  8 31 22 26 11.0000000  0 18G10G21G23G24G31G32R 5R 7R 9R15R16R21
                                R22E 3E 5E13E15E25
  20308952.066   106724285.284    20308951.887    83161791.353    20308951.798  
  20308950.368    79696712.673  
  24424575.419   128352011.462                   100014549.747    24424574.258  
                                
  21522984.726   113104042.400    21522983.618    88133010.743    21522983.332  
  21522987.549    84460816.114  
  23019794.120   120969846.490    23019795.460    94262225.434    23019794.924  
  23019795.907    90334637.402  
  23613300.495   124088731.494    23613299.923    96692508.730    23613298.350  
                                
  20877248.019   109710711.966    20877248.197    85488890.199    20877247.733  
  20877246.929    81926850.785  
  22109400.636   118187406.167    22109404.460    91923571.443    22109404.532  
                                
  22251782.280   119115528.514    22251783.209    92645466.165    22251782.816  
                                
  22916324.204   122371910.581    22916327.098    95178166.942    22916327.009  
                                
  21623376.756   115548801.657    21623378.418    89871277.411    21623378.436  
                                
  20294444.831   108409294.987    20294445.475    84318356.336    20294446.511  
                                
  21960920.902   117517331.922    21960922.064    91402363.248    21960921.939  
                                
  21796255.890   116349892.901    21796257.892    90494375.095    21796257.088  
                                
  23894511.653   125566552.247                                                  
  23894514.208    93767255.040  
  24697630.690   129786922.915                                                  
  24697633.585    96918814.461  
  26887100.024   141292671.698                                                  
  26887103.133   105510759.143  
  24590715.716   129225102.423                                                  
  24590719.540    96499269.880  
  26498311.594   139249571.557                                                  
  26498315.918   103985085.694  
 21  8 31 22 26 12.0000000  0 18G10G21G23G24G31G32R 5R 7R 9R15R16R21
                                R22E 3E 5E13E15E25
  20308949.314   106724270.794    20308949.117    83161780.060    20308949.046  
  20308947.598    79696701.852  
  24424196.131   128350018.259                   100012996.619    24424194.952  
                                
  21523394.927   113106198.052    21523393.801    88134690.469    21523393.515  
  21523397.732    84462425.867  
  23020421.287   120973142.251    23020422.627    94264793.546    23020422.091  
  23020423.074    90337098.516  
  23612569.133   124084888.194    23612568.562    96689513.962    23612566.989  
                                
  20877082.587   109709842.688    20877082.784    85488212.842    20877082.319  
  20877081.515    81926201.645  
  22109827.331   118189687.051    22109831.137    91925345.469    22109831.208  
                                
  22251307.947   119112989.392    22251308.894    92643491.295    22251308.483  
                                
  22915510.538   122367565.772    22915513.432    95174787.651    22915513.343  
                                
  21623764.568   115550874.063    21623766.247    89872889.282    21623766.265  
                                
  20294036.310   108407112.660    20294036.935    84316658.977    20294037.972  
                                
  21961520.926   117520542.795    21961522.070    91404860.592    21961521.963  
                                
  21796271.401   116349975.678    21796273.402    90494439.475    21796272.598  
                                
  23894403.509   125565983.930                                                  
  23894406.064    93766830.652  
  24697891.846   129788295.318                                                  
  24697894.759    96919839.301  
  26886780.580   141290992.905                                                  
  26886783.707   105509505.465  
  24590889.707   129226016.774                                                  
  24590893.531    96499952.677  
  26497808.402   139246927.222                                                  
  26497812.709   103983111.018  
 21  8 31 22 26 13.0000000  0 18G10G21G23G24G31G32R 5R 7R 9R15R16R21
                                R22E 3E 5E13E15E25
  20308946.651   106724256.817    20308946.455    83161769.171    20308946.383  
  20308944.954    79696691.419  
  24423816.915   128348025.572                   100011443.885    24423815.736  
                                
  21523805.200   113108354.158    21523804.074    88136370.555    21523803.806  
  21523808.023    84464035.955  
  23021048.490   120976438.321    23021049.830    94267361.903    23021049.294  
  23021050.276    90339559.895  
  23611837.826   124081045.173    23611837.254    96686519.398    23611835.664  
                                
  20876917.227   109708973.722    20876917.424    85487535.726    20876916.959  
  20876916.155    81925552.739  
  22110254.043   118191968.165    22110257.831    91927119.676    22110257.920  
                                
  22250833.631   119110450.417    22250834.578    92641516.543    22250834.185  
                                
  22914696.925   122363221.098    22914699.820    95171408.467    22914699.731  
                                
  21624152.558   115552947.320    21624154.220    89874501.822    21624154.237  
                                
  20293627.931   108404931.181    20293628.556    84314962.269    20293629.593  
                                
  21962121.075   117523754.245    21962122.219    91407358.384    21962122.094  
                                
  21796287.090   116350059.442    21796289.091    90494504.620    21796288.287  
                                
  23894295.419   125565415.824                                                  
  23894297.975    93766406.408  
  24698153.038   129789667.865                                                  
  24698155.933    96920864.257  
  26886461.189   141289314.489                                                  
  26886464.316   105508252.120  
  24591063.822   129226931.664                                                  
  24591067.646    96500635.865  
  26497305.246   139244283.097                                                  
  26497309.553   103981136.510  
 21  8 31 22 26 14.0000000  0 18G10G21G23G24G31G32R 5R 7R 9R15R16R21
                                R22E 3E 5E13E15E25
  20308944.096   106724243.413    20308943.899    83161758.723    20308943.828  
  20308942.381    79696681.409  
  24423437.806   128346033.307                   100009891.462    24423436.626  
                                
  21524215.597   113110510.799    21524214.490    88138051.040    21524214.204  
  21524218.421    84465646.409  
  23021675.799   120979734.818    23021677.140    94269930.616    23021676.604  
  23021677.586    90342021.569  
  23611106.572   124077202.328    23611105.982    96683524.977    23611104.410  
                                
  20876751.939   109708105.140    20876752.118    85486858.904    20876751.671  
  20876750.867    81924904.127  
  22110680.827   118194249.536    22110684.615    91928894.055    22110684.704  
                                
  22250359.352   119107911.558    22250360.281    92639541.882    22250359.888  
                                
  22913883.349   122358876.686    22913886.226    95168029.480    22913886.136  
                                
  21624540.709   115555021.436    21624542.370    89876115.014    21624542.388  
                                
  20293219.731   108402750.605    20293220.356    84313266.266    20293221.393  
                                
  21962721.332   117526966.301    21962722.457    91409856.645    21962722.350  
                                
  21796302.957   116350144.127    21796304.959    90494570.486    21796304.155  
                                
  23894187.348   125564847.940                                                  
  23894189.885    93765982.346  
  24698414.247   129791040.594                                                  
  24698417.142    96921889.349  
  26886141.887   141287636.610                                                  
  26886145.014   105506999.180  
  24591238.027   129227847.136                                                  
  24591241.851    96501319.499  
  26496802.126   139241639.214                                                  
  26496806.433   103979162.198  
 21  8 31 22 26 15.0000000  0 18G10G21G23G24G31G32R 5R 7R 9R15R16R21
                                R22E 3E 5E13E15E25
  20308941.648   106724230.539    20308941.451    83161748.692    20308941.380  
  20308939.950    79696671.794  
  24423058.786   128344041.556                   100008339.460    24423057.589  
                                
  21524626.102   113112667.862    21524624.977    88139731.862    21524624.691  
  21524628.908    84467257.197  
  23022303.199   120983031.683    23022304.539    94272499.608    23022304.003  
  23022304.986    90344483.492  
  23610375.425   124073359.897    23610374.853    96680530.832    23610373.263  
                                
  20876586.722   109707236.907    20876586.901    85486182.359    20876586.454  
  20876585.650    81924255.767  
  22111107.646   118196531.092    22111111.416    91930668.598    22111111.506  
                                
  22249885.090   119105372.837    22249886.037    92637567.328    22249885.626  
                                
  22913069.826   122354532.450    22913072.703    95164650.629    22913072.613  
                                
  21624929.020   115557096.421    21624930.682    89877728.889    21624930.682  
                                
  20292811.674   108400570.936    20292812.299    84311570.968    20292813.336  
                                
  21963321.677   117530178.914    21963322.803    91412355.341    21963322.696  
                                
  21796319.004   116350229.817    21796321.005    90494637.136    21796320.219  
                                
  23894079.312   125564280.265                                                  
  23894081.867    93765558.428  
  24698675.492   129792413.473                                                  
  24698678.405    96922914.549  
  26885822.693   141285959.211                                                  
  26885825.802   105505746.577  
  24591412.340   129228763.133                                                  
  24591416.164    96502003.531  
  26496299.042   139238995.570                                                  
  26496303.348   103977188.044  
 21  8 31 22 26 16.0000000  0 17G10G21G23G24G31G32R 5R 7R 9R15R16R21
                                R22E 3E 5E15E25
  20308939.289   106724218.168    20308939.093    83161739.052    20308939.021  
  20308937.574    79696662.555  
  24422679.855   128342050.207                   100006787.746    24422678.658  
                                
  21525036.643   113114825.342    21525035.518    88141413.008    21525035.250  
  21525039.467    84468868.302  
  23022930.562   120986328.788    23022931.902    94275068.779    23022931.366  
  23022932.349    90346945.646  
  23609644.224   124069517.495    23609643.653    96677536.757    23609642.062  
                                
  20876421.558   109706368.973    20876421.755    85485506.049    20876421.290  
  20876420.486    81923607.639  
  22111534.483   118198812.926    22111538.254    91932443.365    22111538.343  
                                
  22249410.846   119102834.199    22249411.793    92635592.832    22249411.382  
                                
  22912256.303   122350188.333    22912259.180    95161271.876    22912259.090  
                                
  21625317.457   115559172.172    21625319.119    89879343.360    21625319.137  
                                
  20292403.796   108398392.091    20292404.421    84309876.310    20292405.458  
                                
  21963922.130   117533392.049    21963923.274    91414854.444    21963923.149  
                                
  21796335.247   116350316.460    21796337.248    90494704.525    21796336.444  
                                
  23893971.329   125563712.758                                                  
  23893973.866    93765134.638  
  24698936.755   129793786.463                                                  
  24698939.668    96923939.838  
  24591586.741   129229679.655                                                  
  24591590.565    96502687.936  
  26495796.011   139236352.110                                                  
  26495800.317   103975214.040  
 21  8 31 22 26 17.0000000  0 18G10G21G23G24G31G32R 5R 7R 9R15R16R21
                                R22E 3E 5E13E15E25
  20308937.020   106724206.254    20308936.841    83161729.766    20308936.752  
  20308935.322    79696653.654  
  24422300.996   128340059.245                   100005236.338    24422299.781  
                                
  21525447.256   113116983.194    21525446.148    88143094.452    21525445.862  
  21525450.079    84470479.689  
  23023558.069   120989626.237    23023559.409    94277638.224    23023558.873  
  23023559.856    90349408.011  
  23608913.078   124065675.269    23608912.488    96674542.826    23608910.898  
                                
  20876256.449   109705501.319    20876256.627    85484829.957    20876256.181  
  20876255.377    81922959.715  
  22111961.392   118201094.917    22111965.145    91934218.245    22111965.252  
                                
  22248936.620   119100295.582    22248937.549    92633618.357    22248937.156  
                                
  22911442.797   122345844.321    22911445.674    95157893.202    22911445.585  
                                
  21625706.055   115561248.660    21625707.717    89880958.401    21625707.717  
                                
  20291996.060   108396214.009    20291996.686    84308182.248    20291997.722  
                                
  21964522.690   117536605.686    21964523.816    91417353.937    21964523.709  
                                
  21796351.633   116350403.956    21796353.634    90494772.575    21796352.830  
                                
  23893863.364   125563145.356                                                  
  23893865.902    93764710.933  
  24699198.072   129795159.524                                                  
  24699200.967    96924965.169  
  26885184.107   141282596.6031                                                 
  26885187.556   105503250.2931 
  24591761.250   129230596.632                                                  
  24591765.074    96503372.692  
  26495292.998   139233708.785                                                  
  26495297.304   103973240.133  
 21  8 31 22 26 18.0000000  0 18G10G21G23G24G31G32R 5R 7R 9R15R16R21
                                R22E 3E 5E13E15E25
  20308934.840   106724194.689    20308934.643    83161720.755    20308934.572  
  20308933.124    79696645.018  
  24421922.209   128338068.604                   100003685.188    24421920.994  
                                
  21525857.939   113119141.334    21525856.831    88144776.112    21525856.546  
  21525860.763    84472091.279  
  23024185.593   120992923.858    23024186.951    94280207.808    23024186.415  
  23024187.398    90351870.495  
  23608181.949   124061833.263    23608181.359    96671549.069    23608179.769  
                                
  20876091.375   109704633.825    20876091.553    85484153.986    20876091.107  
  20876090.303    81922311.907  
  22112388.301   118203376.990    22112392.054    91935993.188    22112392.143  
                                
  22248462.358   119097756.891    22248463.305    92631643.817    22248462.912  
                                
  22910629.310   122341500.323    22910632.187    95154514.545    22910632.098  
                                
  21626094.760   115563325.838    21626096.422    89882573.984    21626096.422  
                                
  20291588.432   108394036.556    20291589.076    84306488.672    20291590.094  
                                
  21965123.304   117539819.726    21965124.447    91419853.744    21965124.322  
                                
  21796368.179   116350492.253    21796370.181    90494841.251    21796369.376  
                                
  23893755.400   125562578.001                                                  
  23893757.955    93764287.252  
  24699459.335   129796532.547                                                  
  24699462.230    96925990.483  
  26884865.092   141280920.276                                                  
  26884868.540   105501998.510  
  24591935.813   129231513.973                                                  
  24591939.637    96504057.719  
  26494790.021   139231065.531                                                  
  26494794.345   103971266.259  
 21  8 31 22 26 19.0000000  0 18G10G21G23G24G31G32R 5R 7R 9R15R16R21
                                R22E 3E 5E13E15E25
  20308932.731   106724183.735    20308932.553    83161712.221    20308932.481  
  20308931.034    79696636.836  
  24421543.475   128336078.449                   100002134.421    24421542.242  
                                
  21526268.748   113121299.991    21526267.622    88146458.191    21526267.354  
  21526271.571    84473703.258  
  23024813.171   120996221.814    23024814.511    94282777.628    23024813.975  
  23024814.958    90354333.270  
  23607450.856   124057991.524    23607450.230    96668555.559    23607448.658  
                                
  20875926.372   109703766.745    20875926.551    85483478.339    20875926.104  
  20875925.300    81921664.415  
  22112815.281   118205659.352    22112819.016    91937768.353    22112819.105  
                                
  22247988.150   119095218.400    22247989.097    92629669.433    22247988.686  
                                
  22909815.859   122337156.582    22909818.736    95151136.079    22909818.646  
                                
  21626483.643   115565403.922    21626485.305    89884190.274    21626485.305  
                                
  20291180.965   108391860.005    20291181.608    84304795.798    20291182.645  
                                
  21965724.060   117543034.421    21965725.186    91422354.053    21965725.079  
                                
  21796384.905   116350581.586    21796386.906    90494910.734    21796386.102  
                                
  23893647.471   125562010.898                                                  
  23893650.026    93763863.771  
  24699720.651   129797905.807                                                  
  24699723.546    96927015.965  
  26884546.219   141279244.568                                                  
  26884549.686   105500747.123  
  24592110.482   129232431.921                                                  
  24592114.324    96504743.202  
  26494287.097   139228422.547                                                  
  26494291.403   103969292.600  
 21  8 31 22 26 20.0000000  0 18G10G21G23G24G31G32R 5R 7R 9R15R16R21
                                R22E 3E 5E13E15E25
  20308930.712   106724173.056    20308930.516    83161703.898    20308930.444  
  20308928.997    79696628.866  
  24421164.830   128334088.532                   100000583.829    24421163.597  
                                
  21526679.557   113123458.841    21526678.431    88148140.410    21526678.145  
  21526682.380    84475315.393  
  23025440.803   120999519.961    23025442.161    94285347.613    23025441.625  
  23025442.607    90356796.139  
  23606719.834   124054149.809    23606719.208    96665561.985    23606717.636  
                                
  20875761.405   109702899.760    20875761.584    85482802.764    20875761.119  
  20875760.315    81921016.988  
  22113242.226   118207941.702    22113245.961    91939543.510    22113246.068  
                                
  22247513.906   119092679.801    22247514.853    92627694.962    22247514.460  
                                
  22909002.407   122332812.760    22909005.284    95147757.556    22909005.195  
                                
  21626872.634   115567482.613    21626874.278    89885807.050    21626874.296  
                                
  20290773.641   108389684.073    20290774.266    84303103.405    20290775.302  
                                
  21966324.852   117546249.397    21966325.978    91424854.588    21966325.853  
                                
  21796401.755   116350671.564    21796403.756    90494980.722    21796402.970  
                                
  23893539.542   125561443.760                                                  
  23893542.097    93763440.261  
  24699981.950   129799278.950                                                  
  24699984.845    96928041.368  
  26884227.382   141277569.054                                                  
  26884230.831   105499495.919  
  24592285.224   129233350.168                                                  
  24592289.048    96505428.909  
  26493784.102   139225779.510                                                  
  26493788.408   103967318.941  
 21  8 31 22 26 21.0000000  0 18G10G21G23G24G31G32R 5R 7R 9R15R16R21
                                R22E 3E 5E13E15E25
  20308928.782   106724162.950    20308928.604    83161696.021    20308928.514  
  20308927.085    79696621.321  
  24420786.257   128332099.035                    99999033.567    24420785.006  
                                
  21527090.455   113125618.167    21527089.312    88149823.002    21527089.044  
  21527093.261    84476927.888  
  23026068.470   121002818.437    23026069.810    94287917.840    23026069.274  
  23026070.257    90359259.314  
  23605988.848   124050308.311    23605988.240    96662568.566    23605986.668  
                                
  20875596.474   109702033.138    20875596.653    85482127.474    20875596.206  
  20875595.402    81920369.840  
  22113669.242   118210224.293    22113672.959    91941318.859    22113673.066  
                                
  22247039.716   119090141.367    22247040.645    92625720.624    22247040.252  
                                
  22908188.991   122328469.195    22908191.868    95144379.230    22908191.779  
                                
  21627261.786   115569562.172    21627263.430    89887424.492    21627263.447  
                                
  20290366.477   108387509.037    20290367.102    84301411.715    20290368.139  
                                
  21966925.752   117549464.959    21966926.878    91427355.578    21966926.753  
                                
  21796418.802   116350762.575    21796420.803    90495051.513    21796419.999  
                                
  23893431.667   125560876.848                                                  
  23893434.222    93763016.913  
  24700243.285   129800652.274                                                  
  24700246.179    96929066.898  
  26883908.634   141275894.015                                                  
  26883912.083   105498245.080  
  24592460.072   129234268.985                                                  
  24592463.896    96506115.032  
  26493281.214   139223136.751                                                  
  26493285.520   103965345.459  
 21  8 31 22 26 22.0000000  0 18G10G21G23G24G31G32R 5R 7R 9R15R16R21
                                R22E 3E 5E13E15E25
  20308926.924   106724153.231    20308926.745    83161688.450    20308926.674  
  20308925.226    79696614.057  
  24420407.720   128330109.898                    99997483.600    24420406.469  
                                
  21527501.443   113127777.833    21527500.317    88151505.863    21527500.031  
  21527504.266    84478540.612  
  23026696.191   121006117.118    23026697.513    94290488.236    23026696.995  
  23026697.978    90361722.633  
  23605257.898   124046466.895    23605257.326    96659575.177    23605255.735  
                                
  20875431.597   109701166.719    20875431.775    85481452.342    20875431.329  
  20875430.525    81919722.836  
  22114096.276   118212506.969    22114099.993    91943094.275    22114100.100  
                                
  22246565.526   119087602.899    22246566.455    92623746.266    22246566.062  
                                
  22907375.593   122324125.639    22907378.452    95141000.906    22907378.363  
                                
  21627651.080   115571642.408    21627652.724    89889042.451    21627652.724  
                                
  20289959.438   108385334.758    20289960.064    84299720.611    20289961.100  
                                
  21967526.741   117552680.953    21967527.867    91429856.903    21967527.759  
                                
  21796436.010   116350854.381    21796437.993    90495122.920    21796437.207  
                                
  23893323.809   125560309.989                                                  
  23893326.347    93762593.614  
  24700504.637   129802025.593                                                  
  24700507.532    96930092.433  
  26883589.976   141274219.358                                                  
  26883593.425   105496994.485  
  24592634.992   129235188.193                                                  
  24592638.834    96506801.455  
  26492778.326   139220494.063                                                  
  26492782.632   103963372.021  
 21  8 31 22 26 23.0000000  0 18G10G21G23G24G31G32R 5R 7R 9R15R16R21
                                R22E 3E 5E13E15E25
  20308925.155   106724143.856    20308924.958    83161681.140    20308924.887  
  20308923.457    79696607.054  
  24420029.254   128328121.008                    99995933.815    24420028.003  
                                
  21527912.466   113129937.748    21527911.340    88153188.909    21527911.054  
  21527915.271    84480153.527  
  23027323.965   121009415.978    23027325.288    94293058.783    23027324.769  
  23027325.734    90364186.050  
  23604526.876   124042625.640    23604526.250    96656582.085    23604524.678  
                                
  20875266.773   109700300.440    20875266.952    85480777.320    20875266.487  
  20875265.683    81919075.940  
  22114523.274   118214789.677    22114526.973    91944869.720    22114527.080  
                                
  22246091.282   119085064.345    22246092.229    92621771.837    22246091.836  
                                
  22906562.178   122319782.029    22906565.037    95137622.543    22906564.965  
                                
  21628040.482   115573723.274    21628042.126    89890660.897    21628042.144  
                                
  20289552.525   108383161.153    20289553.168    84298030.032    20289554.205  
                                
  21968127.801   117555897.301    21968128.927    91432358.511    21968128.820  
                                
  21796453.343   116350946.956    21796455.326    90495194.929    21796454.540  
                                
  23893215.916   125559743.139                                                  
  23893218.471    93762170.318  
  24700765.954   129803398.868                                                  
  24700768.848    96931117.928  
  26883271.318   141272544.926                                                  
  26883274.784   105495744.096  
  24592809.983   129236107.743                                                  
  24592813.807    96507488.130  
  26492275.438   139217851.419                                                  
  26492279.745   103961398.611  
 21  8 31 22 26 24.0000000  0 18G10G21G23G24G31G32R 5R 7R 9R15R16R21
                                R22E 3E 5E13E15E25
  20308923.439   106724134.847    20308923.261    83161674.120    20308923.171  
  20308921.742    79696600.331  
  24419650.824   128326132.412                    99994384.276    24419649.555  
                                
  21528323.525   113132097.945    21528322.399    88154872.168    21528322.113  
  21528326.348    84481766.655  
  23027951.740   121012715.020    23027953.062    94295629.472    23027952.544  
  23027953.527    90366649.635  
  23603795.908   124038784.315    23603795.282    96653588.831    23603793.728  
                                
  20875101.949   109699434.370    20875102.128    85480102.453    20875101.681  
  20875100.877    81918429.195  
  22114950.326   118217072.487    22114954.007    91946645.245    22114954.114  
                                
  22245617.056   119082525.746    22245618.003    92619797.374    22245617.592  
                                
  22905748.762   122315438.476    22905751.621    95134244.231    22905751.549  
                                
  21628430.027   115575804.838    21628431.671    89892279.882    21628431.671  
                                
  20289145.773   108380988.253    20289146.398    84296340.003    20289147.434  
                                
  21968728.933   117559114.097    21968730.077    91434860.463    21968729.951  
                                
  21796470.819   116351040.303    21796472.820    90495267.524    21796472.016  
                                
  23893108.076   125559176.332                                                  
  23893110.632    93761747.050  
  24701027.270   129804772.134                                                  
  24701030.165    96932143.419  
  26882952.749   141270870.768                                                  
  26882956.198   105494493.941  
  24592985.046   129237027.693                                                  
  24592988.870    96508175.099  
  26491772.586   139215208.843                                                  
  26491776.892   103959425.248  
 21  8 31 22 26 25.0000000  0 18G10G21G23G24G31G32R 5R 7R 9R15R16R21
                                R22E 3E 5E13E15E25
  20308921.795   106724126.261    20308921.599    83161667.427    20308921.527  
  20308920.098    79696593.919  
  24419272.483   128324144.191                    99992835.008    24419271.214  
                                
  21528734.673   113134258.486    21528733.548    88156555.704    21528733.262  
  21528737.497    84483380.050  
  23028579.586   121016014.326    23028580.926    94298200.364    23028580.390  
  23028581.373    90369113.385  
  23603064.993   124034943.272    23603064.368    96650595.792    23603062.813  
                                
  20874937.179   109698568.511    20874937.357    85479427.760    20874936.911  
  20874936.107    81917782.614  
  22115377.396   118219355.439    22115381.077    91948420.889    22115381.202  
                                
  22245142.812   119079987.154    22245143.759    92617822.917    22245143.366  
                                
  22904935.364   122311094.976    22904938.223    95130865.953    22904938.134  
                                
  21628819.696   115577887.109    21628821.340    89893899.419    21628821.340  
                                
  20288739.109   108378816.074    20288739.753    84294650.531    20288740.789  
                                
  21969330.154   117562331.340    21969331.280    91437362.759    21969331.173  
                                
  21796488.473   116351134.509    21796490.457    90495340.795    21796489.671  
                                
  23893000.237   125558609.617                                                  
  23893002.792    93761323.853  
  24701288.587   129806145.427                                                  
  24701291.481    96933168.930  
  26882634.198   141269196.961                                                  
  26882637.629   105493244.047  
  24593160.162   129237948.041                                                  
  24593164.004    96508862.385  
  26491269.716   139212566.349                                                  
  26491274.022   103957451.976  
 21  8 31 22 26 26.0000000  0 18G10G21G23G24G31G32R 5R 7R 9R15R16R21
                                R22E 3E 5E13E15E25
  20308920.241   106724118.115    20308920.062    83161661.084    20308919.973  
  20308918.543    79696587.836  
  24418894.196   128322156.337                    99991286.058    24418892.909  
                                
  21529145.857   113136419.370    21529144.732    88158239.503    21529144.446  
  21529148.681    84484993.712  
  23029207.485   121019313.893    23029208.826    94300771.440    23029208.307  
  23029209.272    90371577.319  
  23602334.061   124031102.334    23602333.435    96647602.865    23602331.899  
                                
  20874772.462   109697702.896    20874772.641    85478753.257    20874772.194  
  20874771.390    81917136.215  
  22115804.483   118221638.500    22115808.146    91950196.612    22115808.271  
                                
  22244668.586   119077448.606    22244669.533    92615848.496    22244669.140  
                                
  22904121.984   122306751.560    22904124.843    95127487.739    22904124.771  
                                
  21629209.509   115579970.126    21629211.153    89895519.551    21629211.153  
                                
  20288332.607   108376644.602    20288333.250    84292961.611    20288334.287  
                                
  21969931.465   117565549.017    21969932.572    91439865.392    21969932.465  
                                
  21796506.271   116351229.567    21796508.272    90495414.726    21796507.468  
                                
  23892892.397   125558042.995                                                  
  23892894.953    93760900.729  
  24701549.939   129807518.778                                                  
  24701552.834    96934194.491  
  26882315.772   141267523.574                                                  
  26882319.203   105491994.437  
  24593335.386   129238868.862                                                  
  24593339.228    96509550.007  
  26490766.899   139209923.995                                                  
  26490771.188   103955478.784  
 21  8 31 22 26 27.0000000  0 18G10G21G23G24G31G32R 5R 7R 9R15R16R21
                                R22E 3E 5E13E15E25
  20308918.811   106724110.511    20308918.615    83161655.160    20308918.543  
  20308917.096    79696582.158  
  24418515.998   128320168.923                    99989737.422    24418514.711  
                                
  21529557.149   113138580.726    21529556.005    88159923.679    21529555.737  
  21529559.954    84486607.714  
  23029835.421   121022613.745    23029836.743    94303342.732    23029836.207  
  23029837.190    90374041.520  
  23601603.182   124027261.590    23601602.539    96644610.114    23601601.002  
                                
  20874607.817   109696837.644    20874607.996    85478079.030    20874607.531  
  20874606.745    81916490.081  
  22116231.624   118223921.835    22116235.287    91951972.558    22116235.412  
                                
  22244194.378   119074910.153    22244195.325    92613874.144    22244194.932  
                                
  22903308.657   122302408.350    22903311.516    95124109.688    22903311.427  
                                
  21629599.465   115582053.991    21629601.109    89897140.332    21629601.127  
                                
  20287926.283   108374473.966    20287926.909    84291273.340    20287927.945  
                                
  21970532.864   117568767.283    21970533.990    91442368.492    21970533.865  
                                
  21796524.265   116351325.585    21796526.249    90495489.409    21796525.462  
                                
  23892784.629   125557476.603                                                  
  23892787.185    93760477.776  
  24701811.309   129808892.294                                                  
  24701814.204    96935220.160  
  26881997.417   141265850.692                                                  
  26882000.866   105490745.190  
  24593510.717   129239790.223                                                  
  24593514.559    96510238.039  
  26490264.137   139207281.876                                                  
  26490268.425   103953505.773  
 21  8 31 22 26 28.0000000  0 18G10G21G23G24G31G32R 5R 7R 9R15R16R21
                                R22E 3E 5E13E15E25
  20308917.453   106724103.340    20308917.257    83161649.567    20308917.185  
  20308915.738    79696576.800  
  24418137.907   128318181.917                    99988189.094    24418136.603  
                                
  21529968.529   113140742.466    21529967.386    88161608.150    21529967.118  
  21529971.335    84488221.979  
  23030463.374   121025913.843    23030464.696    94305914.240    23030464.178  
  23030465.161    90376505.906  
  23600872.321   124023421.104    23600871.642    96641617.588    23600870.123  
                                
  20874443.190   109695972.622    20874443.368    85477404.987    20874442.922  
  20874442.117    81915844.123  
  22116658.783   118226205.286    22116662.428    91953748.585    22116662.554  
                                
  22243720.170   119072371.698    22243721.117    92611899.794    22243720.724  
                                
  22902495.313   122298065.226    22902498.172    95120731.708    22902498.101  
                                
  21629989.581   115584138.577    21629991.207    89898761.677    21629991.225  
                                
  20287520.067   108372304.087    20287520.692    84289585.656    20287521.729  
                                
  21971134.371   117571986.039    21971135.497    91444871.971    21971135.372  
                                
  21796542.420   116351422.461    21796544.404    90495564.753    21796543.599  
                                
  23892676.861   125556910.290                                                  
  23892679.399    93760054.877  
  24702072.679   129810265.830                                                  
  24702075.574    96936245.861  
  26881679.116   141264178.101                                                  
  26881682.547   105489496.212  
  24593686.137   129240712.019                                                  
  24593689.979    96510926.388  
  26489761.374   139204639.872                                                  
  26489765.680   103951532.843  
 21  8 31 22 26 29.0000000  0 18G10G21G23G24G31G32R 5R 7R 9R15R16R21
                                R22E 3E 5E13E15E25
  20308916.202   106724096.755    20308916.006    83161644.438    20308915.934  
  20308914.487    79696571.883  
  24417759.888   128316195.384                    99986641.135    24417758.584  
                                
  21530379.981   113142904.685    21530378.856    88163293.007    21530378.570  
  21530382.805    84489836.641  
  23031091.470   121029214.402    23031092.792    94308486.131    23031092.256  
  23031093.239    90378970.609  
  23600141.532   124019580.877    23600140.835    96638625.186    23600139.334  
                                
  20874278.687   109695108.001    20874278.866    85476731.261    20874278.401  
  20874277.597    81915198.467  
  22117086.014   118228489.012    22117089.659    91955524.786    22117089.784  
                                
  22243245.997   119069833.437    22243246.944    92609925.582    22243246.551  
                                
  22901682.040   122293722.368    22901684.881    95117353.936    22901684.810  
                                
  21630379.859   115586224.128    21630381.485    89900383.779    21630381.485  
                                
  20287114.029   108370135.109    20287114.672    84287898.669    20287115.709  
                                
  21971736.004   117575205.420    21971737.129    91447375.936    21971737.004  
                                
  21796560.754   116351520.375    21796562.737    90495640.915    21796561.933  
                                
  23892569.147   125556344.255                                                  
  23892571.684    93759632.189  
  24702334.103   129811639.589                                                  
  24702336.980    96937271.715  
  26881360.941   141262506.125                                                  
  26881364.371   105488247.630  
  24593861.665   129241634.422                                                  
  24593865.506    96511615.197  
  26489258.665   139201998.159                                                  
  26489262.971   103949560.131  
 21  8 31 22 26 30.0000000  0 17G10G21G23G24G32R 5R 7R 9R15R16R21R22
                                E 3E 5E13E15E25
  20308915.005   106724090.604    20308914.827    83161639.647    20308914.737  
  20308913.308    79696567.290  
  24417381.922   128314209.164                    99985093.445    24417380.600  
                                
  21530791.487   113145067.242    21530790.361    88164978.120    21530790.076  
  21530794.311    84491451.548  
  23031719.602   121032515.234    23031720.942    94311058.226    23031720.424  
  23031721.389    90381435.485  
  20874114.185   109694243.615    20874114.364    85476057.711    20874113.899  
  20874113.113    81914552.986  
  22117513.280   118230772.929    22117516.907    91957301.171    22117517.032  
                                
  22242771.825   119067295.206    22242772.772    92607951.412    22242772.379  
                                
  22900868.750   122289379.545    22900871.609    95113976.190    22900871.537  
                                
  21630770.261   115588310.383    21630771.887    89902006.422    21630771.905  
                                
  20286708.152   108367966.903    20286708.777    84286212.284    20286709.814  
                                
  21972337.689   117578425.230    21972338.815    91449880.233    21972338.690  
                                
  21796579.248   116351619.079    21796581.232    90495717.680    21796580.427  
                                
  23892461.450   125555778.297                                                  
  23892464.005    93759209.560  
  24702595.527   129813013.386                                                  
  24702598.404    96938297.596  
  26881042.836   141260834.464                                                  
  26881046.249   105486999.318  
  24594037.281   129242557.253                                                  
  24594041.123    96512304.318  
  26488755.991   139199356.550                                                  
  26488760.280   103947587.497  
 21  8 31 22 26 31.0000000  0 18G10G21G23G24G31G32R 5R 7R 9R15R16R21
                                R22E 3E 5E13E15E25
  20308913.915   106724084.841    20308913.737    83161635.154    20308913.647  
  20308912.218    79696562.982  
  24417004.028   128312223.352                    99983546.073    24417002.688  
                                
  21531203.082   113147230.145    21531201.957    88166663.506    21531201.671  
  21531205.906    84493066.680  
  23032347.770   121035816.209    23032349.110    94313630.424    23032348.592  
  23032349.557    90383900.502  
                                  23598679.113    96632645.6781                 
                                
  20873949.737   109693379.429    20873949.915    85475384.322    20873949.451  
  20873948.646    81913907.652  
  22117940.546   118233056.912    22117944.173    91959077.597    22117944.299  
                                
  22242297.671   119064757.002    22242298.618    92605977.253    22242298.224  
                                
  22900055.512   122285036.767    22900058.354    95110598.476    22900058.282  
                                
  21631160.806   115590397.312    21631162.432    89903629.589    21631162.450  
                                
  20286302.382   108365799.401    20286303.008    84284526.447    20286304.044  
                                
  21972939.482   117581645.474    21972940.608    91452384.879    21972940.483  
                                
  21796597.886   116351718.590    21796599.869    90495795.085    21796599.065  
                                
  23892353.754   125555212.397                                                  
  23892356.291    93758786.970  
  24702856.951   129814387.180                                                  
  24702859.846    96939323.486  
  26880724.786   141259163.111                                                  
  26880728.199   105485751.238  
  24594212.952   129243480.474                                                  
  24594216.794    96512993.739  
  26488253.335   139196715.027                                                  
  26488257.624   103945614.920  
 21  8 31 22 26 32.0000000  0 18G10G21G23G24G31G32R 5R 7R 9R15R16R21
                                R22E 3E 5E13E15E25
  20308912.915   106724079.535    20308912.718    83161631.020    20308912.647  
  20308911.199    79696559.022  
  24416626.224   128310237.858                    99981998.913    24416624.883  
                                
  21531614.749   113149393.402    21531613.623    88168349.166    21531613.337  
  21531617.572    84494682.102  
  23032975.937   121039117.423    23032977.260    94316202.789    23032976.741  
  23032977.706    90386365.742  
  23597949.306   124008059.9711   23597948.449    96629649.6161   23597947.394  
                                
  20873785.341   109692515.516    20873785.520    85474711.140    20873785.073  
  20873784.269    81913262.522  
  22118367.848   118235341.038    22118371.458    91960854.147    22118371.583  
                                
  22241823.534   119062218.809    22241824.481    92604003.099    22241824.088  
                                
  22899242.257   122280694.106    22899245.099    95107220.857    22899245.027  
                                
  21631551.495   115592484.987    21631553.121    89905253.332    21631553.121  
                                
  20285896.773   108363632.702    20285897.399    84282841.239    20285898.435  
                                
  21973541.347   117584866.220    21973542.472    91454889.909    21973542.347  
                                
  21796616.702   116351819.008    21796618.685    90495873.192    21796617.899  
                                
  23892246.093   125554646.633                                                  
  23892248.630    93758364.488  
  24703118.393   129815761.051                                                  
  24703121.269    96940349.431  
  26880406.842   141257492.221                                                  
  26880410.255   105484503.455  
  24594388.729   129244404.174                                                  
  24594392.571    96513683.508  
  26487750.698   139194073.645                                                  
  26487754.986   103943642.468  
 21  8 31 22 26 33.0000000  0 18G10G21G23G24G31G32R 5R 7R 9R15R16R21
                                R22E 3E 5E13E15E25
  20308912.039   106724074.984    20308911.860    83161627.471    20308911.771  
  20308910.341    79696555.630  
  24416248.544   128308253.082                    99980452.319    24416247.222  
                                
  21532026.523   113151557.329    21532025.397    88170035.343    21532025.111  
  21532029.346    84496298.026  
  23033604.284   121042419.299    23033605.624    94318775.692    23033605.106  
  23033606.053    90388831.394  
  23597218.731   124004220.647    23597217.856    96626657.910    23597216.801  
                                
  20873621.054   109691652.169    20873621.215    85474038.402    20873620.768  
  20873619.964    81912617.815  
  22118795.239   118237625.636    22118798.831    91962631.063    22118798.974  
                                
  22241349.433   119059680.961    22241350.380    92602029.214    22241349.987  
                                
  22898429.092   122276351.876    22898431.933    95103843.570    22898431.862  
                                
  21631942.380   115594573.740    21631944.006    89906877.912    21631944.006  
                                
  20285491.343   108361467.083    20285491.986    84281156.871    20285493.023  
                                
  21974143.372   117588087.731    21974144.498    91457395.528    21974144.373  
                                
  21796635.732   116351920.609    21796637.716    90495952.218    21796636.929  
                                
  23892138.521   125554081.291                                                  
  23892141.076    93757942.313  
  24703379.888   129817135.288                                                  
  24703382.765    96941375.643  
  26880088.970   141255821.974                                                  
  26880092.383   105483256.208  
  24594564.650   129245328.637                                                  
  24594568.492    96514373.856  
  26487248.149   139191432.715                                                  
  26487252.456   103941670.336  
 21  8 31 22 26 34.0000000  0 18G10G21G23G24G31G32R 5R 7R 9R15R16R21
                                R22E 3E 5E13E15E25
  20308911.306   106724071.037    20308911.110    83161624.396    20308911.038  
  20308909.591    79696552.674  
  24415870.954   128306268.849                    99978906.152    24415869.613  
                                
  21532438.386   113153721.772    21532437.260    88171721.904    21532436.974  
  21532441.209    84497914.327  
  23034232.684   121045721.528    23034234.006    94321348.843    23034233.488  
  23034234.453    90391297.326  
  23596488.192   124000381.643    23596487.334    96623666.480    23596486.280  
                                
  20873456.820   109690789.218    20873456.998    85473365.975    20873456.551  
  20873455.747    81911973.402  
  22119222.631   118239910.538    22119226.222    91964408.200    22119226.365  
                                
  22240875.368   119057143.253    22240876.315    92600055.441    22240875.922  
                                
  22897615.980   122272009.853    22897618.821    95100466.434    22897618.749  
                                
  21632333.425   115596663.393    21632335.051    89908503.198    21632335.051  
                                
  20285086.127   108359302.394    20285086.752    84279473.224    20285087.807  
                                
  21974745.504   117591309.875    21974746.612    91459901.622    21974746.505  
                                
  21796654.959   116352023.238    21796656.943    90496032.034    21796656.156  
                                
  23892030.985   125553516.210                                                  
  23892033.523    93757520.337  
  24703641.437   129818509.734                                                  
  24703644.331    96942402.021  
  26879771.223   141254152.229                                                  
  26879774.618   105482009.346  
  24594740.695   129246253.698                                                  
  24594744.537    96515064.648  
  26486745.637   139188792.064                                                  
  26486749.943   103939698.439  
 21  8 31 22 26 35.0000000  0 18G10G21G23G24G31G32R 5R 7R 9R15R16R21
                                R22E 3E 5E13E15E25
  20308910.627   106724067.489    20308910.431    83161621.634    20308910.359  
  20308908.912    79696550.029  
  24415493.453   128304284.927                    99977360.214    24415492.112  
                                
  21532850.356   113155886.553    21532849.212    88173408.750    21532848.927  
  21532853.161    84499530.877  
  23034861.119   121049023.989    23034862.459    94323922.173    23034861.941  
  23034862.888    90393763.452  
  23595757.671   123996542.745    23595756.777    96620675.138    23595755.741  
                                
  20873292.657   109689926.487    20873292.835    85472693.715    20873292.389  
  20873291.585    81911329.159  
  22119650.093   118242195.554    22119653.667    91966185.441    22119653.810  
                                
  22240401.303   119054605.539    22240402.250    92598081.666    22240401.857  
                                
  22896802.868   122267667.874    22896805.709    95097089.337    22896805.637  
                                
  21632724.614   115598753.748    21632726.240    89910129.028    21632726.240  
                                
  20284681.036   108357138.421    20284681.662    84277790.134    20284682.698  
                                
  21975347.726   117594532.468    21975348.852    91462408.083    21975348.727  
                                
  21796674.329   116352126.658    21796676.313    90496112.468    21796675.526  
                                
  23891923.485   125552951.196                                                  
  23891926.023    93757098.411  
  24703902.986   129819884.203                                                  
  24703905.862    96943428.410  
  26879453.565   141252482.886                                                  
  26879456.960   105480762.748  
  24594916.795   129247179.170                                                  
  24594920.636    96515755.752  
  26486243.160   139186151.503                                                  
  26486247.448   103937726.605  
 21  8 31 22 26 36.0000000  0 18G10G21G23G24G31G32R 5R 7R 9R15R16R21
                                R22E 3E 5E13E15E25
  20308910.038   106724064.385    20308909.841    83161619.212    20308909.770  
  20308908.322    79696547.711  
  24415115.987   128302301.351                    99975814.584    24415114.647  
                                
  21533262.362   113158051.692    21533261.218    88175095.878    21533260.933  
  21533265.168    84501147.706  
  23035489.609   121052326.707    23035490.931    94326495.718    23035490.413  
  23035491.378    90396229.776  
  23595027.167   123992703.988    23595026.292    96617683.894    23595025.255  
                                
  20873128.530   109689064.020    20873128.709    85472021.661    20873128.262  
  20873127.458    81910685.103  
  22120077.592   118244480.733    22120081.166    91967962.812    22120081.309  
                                
  22239927.220   119052067.843    22239928.167    92596107.907    22239927.791  
                                
  22895989.774   122263325.985    22895992.615    95093712.321    22895992.543  
                                
  21633115.928   115600844.840    21633117.554    89911755.430    21633117.572  
                                
  20284276.053   108354975.177    20284276.696    84276107.610    20284277.732  
                                
  21975950.037   117597755.581    21975951.163    91464914.951    21975951.038  
                                
  21796693.878   116352230.980    21796695.861    90496193.613    21796695.057  
                                
  23891815.967   125552386.306                                                  
  23891818.523    93756676.580  
  24704164.552   129821258.723                                                  
  24704167.429    96944454.839  
  26879135.961   141250813.904                                                  
  26879139.374   105479516.423  
  24595093.001   129248105.100                                                  
  24595096.843    96516447.187  
  26485740.719   139183511.101                                                  
  26485745.007   103935754.854  
 21  8 31 22 26 37.0000000  0 18G10G21G23G24G31G32R 5R 7R 9R15R16R21
                                R22E 3E 5E13E15E25
  20308909.537   106724061.761    20308909.341    83161617.166    20308909.269  
  20308907.822    79696545.754  
  24414738.629   128300318.204                    99974269.261    24414737.271  
                                
  21533674.440   113160217.239    21533673.314    88176783.315    21533673.028  
  21533677.263    84502764.820  
  23036118.169   121055629.764    23036119.509    94329069.519    23036118.991  
  23036119.956    90398696.300  
  23594296.735   123988865.492    23594295.842    96614692.856    23594294.823  
                                
  20872964.474   109688201.830    20872964.653    85471349.824    20872964.188  
  20872963.402    81910041.263  
  22120505.090   118246766.062    22120508.664    91969740.297    22120508.789  
                                
  22239453.172   119049530.263    22239454.119    92594134.236    22239453.744  
                                
  22895176.697   122258984.259    22895179.539    95090335.430    22895179.467  
                                
  21633507.420   115602936.701    21633509.028    89913382.426    21633509.046  
                                
  20283871.248   108352812.737    20283871.891    84274425.715    20283872.928  
                                
  21976552.456   117600979.177    21976553.582    91467422.190    21976553.456  
                                
  21796713.587   116352336.185    21796715.553    90496275.441    21796714.767  
                                
  23891708.503   125551821.545                                                  
  23891711.041    93756254.843  
  24704426.137   129822633.341                                                  
  24704429.014    96945481.336  
  26878818.447   141249145.338                                                  
  26878821.842   105478270.419  
  24595269.279   129249031.512                                                  
  24595273.121    96517138.987  
  26485238.277   139180870.840                                                  
  26485242.584   103933783.239  
 21  8 31 22 26 38.0000000  0 18G10G21G23G24G31G32R 5R 7R 9R15R16R21
                                R22E 3E 5E13E15E25
  20308909.198   106724060.051    20308909.001    83161615.835    20308908.930  
  20308907.482    79696544.479  
  24414361.432   128298335.861                    99972724.557    24414360.074  
                                
  21534086.696   113162383.589    21534085.570    88178471.383    21534085.284  
  21534089.519    84504382.558  
  23036746.855   121058933.518    23036748.195    94331643.855    23036747.677  
  23036748.642    90401163.386  
  23593566.357   123985027.532    23593565.463    96611702.270    23593564.445  
                                
  20872800.526   109687340.349    20872800.705    85470678.543    20872800.258  
  20872799.454    81909397.954  
  22120932.732   118249052.033    22120936.270    91971518.286    22120936.413  
                                
  22238979.250   119046993.192    22238980.197    92592160.961    22238979.804  
                                
  22894363.728   122254643.053    22894366.569    95086958.943    22894366.498  
                                
  21633899.109   115605029.783    21633900.735    89915010.372    21633900.735  
                                
  20283466.658   108350651.517    20283467.283    84272744.769    20283468.319  
                                
  21977155.017   117604203.679    21977156.143    91469930.129    21977156.018  
                                
  21796733.547   116352442.749    21796735.513    90496358.324    21796734.726  
                                
  23891601.146   125551257.374                                                  
  23891603.701    93755833.544  
  24704687.829   129824008.480                                                  
  24704690.706    96946508.223  
  26878501.093   141247477.615                                                  
  26878504.470   105477025.041  
  24595445.753   129249958.838                                                  
  24595449.595    96517831.472  
  26484735.979   139178231.180                                                  
  26484740.286   103931812.067  
 21  8 31 22 26 39.0000000  0 18G10G21G23G24G31G32R 5R 7R 9R15R16R21
                                R22E 3E 5E13E15E25
  20308908.930   106724058.683    20308908.751    83161614.769    20308908.662  
  20308907.232    79696543.451  
  24413984.217   128296353.805                    99971180.151    24413982.841  
                                
  21534498.988   113164550.213    21534497.844    88180159.654    21534497.576  
  21534501.793    84506000.489  
  23037375.559   121062237.364    23037376.881    94334218.275    23037376.363  
  23037377.328    90403630.582  
  23592836.068   123981189.714    23592835.156    96608711.746    23592834.156  
                                
  20872636.613   109686479.024    20872636.792    85470007.383    20872636.345  
  20872635.541    81908754.754  
  22121360.373   118251338.019    22121363.893    91973296.257    22121364.036  
                                
  22238505.292   119044456.088    22238506.239    92590187.655    22238505.846  
                                
  22893550.777   122250301.915    22893553.600    95083582.498    22893553.529  
                                
  21634290.905   115607123.543    21634292.531    89916638.861    21634292.549  
                                
  20283062.210   108348490.996    20283062.835    84271064.361    20283063.872  
                                
  21977757.668   117607428.552    21977758.776    91472438.366    21977758.651  
                                
  21796753.650   116352550.071    21796755.615    90496441.780    21796754.829  
                                
  23891493.789   125550693.203                                                  
  23891496.326    93755412.252  
  24704949.485   129825383.568                                                  
  24704952.344    96947535.081  
  26878183.757   141245810.132                                                  
  26878187.116   105475779.860  
  24595622.282   129250886.509                                                  
  24595626.123    96518524.208  
  26484233.663   139175591.544                                                  
  26484237.952   103929840.917  
 21  8 31 22 26 40.0000000  0 18G10G21G23G24G31G32R 5R 7R 9R15R16R21
                                R22E 3E 5E13E15E25
  20308908.787   106724057.891    20308908.590    83161614.150    20308908.519  
  20308907.071    79696542.866  
  24413607.127   128294372.246                    99969636.104    24413605.733  
                                
  21534911.387   113166717.347    21534910.261    88181848.330    21534909.975  
  21534914.210    84507618.794  
  23038004.352   121065541.676    23038005.692    94336793.059    23038005.174  
  23038006.139    90406098.064  
  23592105.778   123977352.157    23592104.867    96605721.460    23592103.884  
                                
  20872472.808   109685618.092    20872472.969    85469336.527    20872472.522  
  20872471.718    81908111.853  
  22121788.068   118253624.306    22121791.589    91975074.494    22121791.731  
                                
  22238031.370   119041919.148    22238032.317    92588214.473    22238031.924  
                                
  22892737.844   122245960.980    22892740.685    95080206.213    22892740.613  
                                
  21634682.898   115609218.162    21634684.506    89918268.014    21634684.524  
                                
  20282657.923   108346331.393    20282658.549    84269384.668    20282659.585  
                                
  21978360.443   117610654.064    21978361.551    91474947.100    21978361.426  
                                
  21796773.931   116352658.364    21796775.915    90496526.003    21796775.128  
                                
  23891386.485   125550129.275                                                  
  23891389.023    93754991.137  
  24705211.212   129826758.856                                                  
  24705214.072    96948562.077  
  26877866.546   141244143.210                                                  
  26877869.905   105474535.085  
  24595798.917   129251814.766                                                  
  24595802.759    96519217.389  
  26483731.418   139172952.199                                                  
  26483735.725   103927869.968  
 21  8 31 22 26 41.0000000  0 18G10G21G23G24G31G32R 5R 7R 9R15R16R21
                                R22E 3E 5E13E15E25
  20308908.662   106724057.304    20308908.483    83161613.690    20308908.412  
  20308906.964    79696542.423  
  24413230.073   128292390.853                    99968092.184    24413228.679  
                                
  21535323.804   113168884.587    21535322.660    88183537.077    21535322.375  
  21535326.610    84509237.190  
  23038633.127   121068845.956    23038634.449    94339367.816    23038633.931  
  23038634.896    90408565.563  
  23591375.525   123973514.529    23591374.632    96602731.078    23591373.613  
                                
  20872308.967   109684757.163    20872309.146    85468665.673    20872308.681  
  20872307.877    81907468.951  
  22122215.746   118255910.495    22122219.266    91976852.652    22122219.409  
                                
  22237557.394   119039381.936    22237558.341    92586241.081    22237557.966  
                                
  22891924.910   122241619.866    22891927.752    95076829.789    22891927.662  
                                
  21635074.962   115611313.264    21635076.588    89919897.535    21635076.606  
                                
  20282253.726   108344172.273    20282254.369    84267705.352    20282255.406  
                                
  21978963.237   117613879.806    21978964.345    91477456.010    21978964.238  
                                
  21796794.355   116352767.271    21796796.321    90496610.704    21796795.535  
                                
  23891279.146   125549565.233                                                  
  23891281.684    93754569.934  
  24705472.869   129828133.953                                                  
  24705475.728    96949588.938  
  26877549.389   141242476.449                                                  
  26877552.766   105473290.404  
  24595975.588   129252743.237                                                  
  24595979.430    96519910.730  
  26483229.156   139170312.744                                                  
  26483233.462   103925898.938  
 21  8 31 22 26 42.0000000  0 18G10G21G23G24G31G32R 5R 7R 9R15R16R21
                                R22E 3E 5E13E15E25
  20308908.662   106724057.254    20308908.483    83161613.653    20308908.394  
  20308906.964    79696542.386  
  24412853.108   128290409.916                    99966548.601    24412851.714  
                                
  21535736.310   113171052.302    21535735.167    88185226.199    21535734.881  
  21535739.116    84510855.923  
  23039262.063   121072150.708    23039263.403    94341942.948    23039262.885  
  23039263.850    90411033.321  
  23590645.236   123969677.081    23590644.343    96599740.902    23590643.342  
                                
  20872145.215   109683896.580    20872145.376    85467995.091    20872144.929  
  20872144.125    81906826.311  
  22122643.476   118258196.910    22122646.979    91978630.985    22122647.122  
                                
  22237083.436   119036844.835    22237084.401    92584267.778    22237084.008  
                                
  22891111.995   122237278.951    22891114.818    95073453.527    22891114.747  
                                
  21635467.187   115613409.202    21635468.813    89921527.709    21635468.813  
                                
  20281849.690   108342013.989    20281850.315    84266026.691    20281851.351  
                                
  21979566.174   117617106.104    21979567.282    91479965.351    21979567.156  
                                
  21796814.941   116352877.188    21796816.924    90496696.193    21796816.120  
                                
  23891171.861   125549001.379                                                  
  23891174.398    93754148.872  
  24705734.578   129829509.206                                                  
  24705737.437    96950615.910  
  26877232.285   141240810.137                                                  
  26877235.644   105472046.072  
  24596152.402   129253672.251                                                  
  24596156.244    96520604.470  
  26482726.929   139167673.516                                                  
  26482731.236   103923928.082  
 21  8 31 22 26 43.0000000  0 18G10G21G23G24G31G32R 5R 7R 9R15R16R21
                                R22E 3E 5E13E15E25
  20308908.733   106724057.600    20308908.537    83161613.921    20308908.465  
  20308907.018    79696542.640  
  24412476.214   128288429.289                    99965005.267    24412474.803  
                                
  21536148.870   113173220.308    21536147.745    88186915.552    21536147.459  
  21536151.694    84512474.893  
  23039890.910   121075455.525    23039892.250    94344518.127    23039891.732  
  23039892.697    90413501.239  
  23589915.072   123965839.826    23589914.196    96596750.781    23589913.178  
                                
  20871981.481   109683036.217    20871981.660    85467324.674    20871981.196  
  20871980.409    81906183.828  
  22123071.225   118260483.451    22123074.727    91980409.415    22123074.888  
                                
  22236609.496   119034307.719    22236610.461    92582294.461    22236610.068  
                                
  22890299.079   122232938.094    22890301.921    95070077.304    22890301.831  
                                
  21635859.537   115615505.876    21635861.146    89923158.456    21635861.164  
                                
  20281445.796   108339856.432    20281446.422    84264348.592    20281447.458  
                                
  21980169.164   117620332.841    21980170.272    91482475.028    21980170.147  
                                
  21796835.686   116352987.899    21796837.652    90496782.302    21796836.866  
                                
  23891064.557   125548437.598                                                  
  23891067.095    93753727.869  
  24705996.270   129830884.462                                                  
  24705999.129    96951642.885  
  26876915.253   141239144.128                                                  
  26876918.594   105470801.996  
  24596329.252   129254601.661                                                  
  24596333.093    96521298.517  
  26482224.738   139165034.376                                                  
  26482229.045   103921957.284  
 21  8 31 22 26 44.0000000  0 18G10G21G23G24G31G32R 5R 7R 9R15R16R21
                                R22E 3E 5E13E15E25
  20308908.858   106724058.272    20308908.662    83161614.445    20308908.590  
  20308907.143    79696543.146  
  24412099.375   128286448.918                    99963462.089    24412097.945  
                                
  21536561.484   113175388.569    21536560.340    88188605.108    21536560.055  
  21536564.290    84514094.055  
  23040519.810   121078760.512    23040521.132    94347093.440    23040520.632  
  23040521.597    90415969.271  
  23589184.872   123962002.591    23589183.997    96593760.741    23589182.978  
                                
  20871817.783   109682175.966    20871817.962    85466654.351    20871817.515  
  20871816.711    81905541.432  
  22123498.974   118262769.998    22123502.458    91982187.812    22123502.619  
                                
  22236135.520   119031770.510    22236136.485    92580321.083    22236136.092  
                                
  22889486.164   122228597.209    22889489.005    95066701.063    22889488.916  
                                
  21636252.013   115617603.169    21636253.621    89924789.674    21636253.639  
                                
  20281042.010   108337699.523    20281042.635    84262670.998    20281043.672  
                                
  21980772.208   117623559.934    21980773.333    91484984.980    21980773.208  
                                
  21796856.575   116353099.393    21796858.541    90496869.026    21796857.755  
                                
  23890957.289   125547873.796                                                  
  23890959.827    93753306.846  
  24706257.962   129832259.656                                                  
  24706260.839    96952669.820  
  26876598.292   141237478.411                                                  
  26876601.616   105469558.108  
  24596506.173   129255531.406                                                  
  24596510.015    96521992.809  
  26481722.511   139162395.221                                                  
  26481726.818   103919986.500  
 21  8 31 22 26 45.0000000  0 18G10G21G23G24G31G32R 5R 7R 9R15R16R21
                                R22E 3E 5E13E15E25
  20308909.073   106724059.364    20308908.894    83161615.295    20308908.823  
  20308907.375    79696543.957  
  24411722.571   128284468.887                    99961919.228    24411721.141  
                                
  21536974.133   113177557.158    21536972.990    88190294.918    21536972.704  
  21536976.939    84515713.463  
  23041148.800   121082065.755    23041150.122    94349668.944    23041149.604  
  23041150.586    90418437.460  
  23588454.690   123958165.501    23588453.833    96590770.798    23588452.796  
                                
  20871654.139   109681315.961    20871654.300    85465984.217    20871653.853  
  20871653.049    81904899.217  
  22123926.758   118265056.706    22123930.243    91983966.372    22123930.403  
                                
  22235661.544   119029233.346    22235662.509    92578347.736    22235662.134  
                                
  22888673.284   122224256.403    22888676.108    95063324.882    22888676.018  
                                
  21636644.649   115619701.145    21636646.257    89926421.424    21636646.257  
                                
  20280638.384   108335543.372    20280639.010    84260993.991    20280640.046  
                                
  21981375.341   117626787.451    21981376.467    91487495.273    21981376.341  
                                
  21796877.607   116353211.695    21796879.573    90496956.375    21796878.787  
                                
  23890850.004   125547310.095                                                  
  23890852.541    93752885.900  
  24706519.654   129833634.894                                                  
  24706522.513    96953696.779  
  26876281.331   141235813.021                                                  
  26876284.637   105468314.496  
  24596683.183   129256461.588                                                  
  24596687.025    96522687.414  
  26481220.320   139159756.190                                                  
  26481224.627   103918015.805  
 21  8 31 22 26 46.0000000  0 18G10G21G23G24G31G32R 5R 7R 9R15R16R21
                                R22E 3E 5E13E15E25
  20308909.394   106724061.013    20308909.216    83161616.580    20308909.126  
  20308907.697    79696545.191  
  24411345.892   128282489.323                    99960376.697    24411344.444  
                                
  21537386.908   113179726.250    21537385.782    88191985.124    21537385.496  
  21537389.731    84517333.224  
  23041777.879   121085371.428    23041779.237    94352244.814    23041778.718  
  23041779.665    90420905.928  
  23587724.580   123954328.677    23587723.740    96587781.050    23587722.686  
                                
  20871490.548   109680456.306    20871490.727    85465314.358    20871490.280  
  20871489.476    81904257.266  
  22124354.578   118267343.659    22124358.063    91985745.118    22124358.223  
                                
  22235187.604   119026696.319    22235188.569    92576374.491    22235188.194  
                                
  22887860.405   122219915.766    22887863.246    95059948.831    22887863.156  
                                
  21637037.410   115621799.959    21637039.018    89928053.835    21637039.036  
                                
  20280234.902   108333388.106    20280235.527    84259317.676    20280236.581  
                                
  21981978.617   117630015.545    21981979.725    91490006.015    21981979.600  
                                
  21796898.853   116353324.999    21796900.819    90497044.502    21796900.033  
                                
  23890742.790   125546746.604                                                  
  23890745.327    93752465.112  
  24706781.399   129835010.284                                                  
  24706784.258    96954723.854  
  26875964.549   141234148.156                                                  
  26875967.837   105467071.233  
  24596860.283   129257392.319                                                  
  24596864.143    96523382.445  
  26480718.165   139157117.390                                                  
  26480722.471   103916045.280  
