     2.11           OBSERVATION DATA    M (MIXED)           RINEX VERSION / TYPE
CONVBIN 2.4.3                           20210901 004936 UTC PGM / RUN BY / DATE 
log: logs/21_08_31_19_18_40_pbch_SW.rtcm                    COMMENT             
format: RTCM 3, station ID: 1204                            COMMENT             
1204                                                        MARKER NAME         
                                                            MARKER NUMBER       
                                                            OBSERVER / AGENCY   
                    SWFT                                    REC # / TYPE / VERS 
                    NULL                                    ANT # / TYPE        
   974910.6272 -5655458.4910  2773892.8335                  APPROX POSITION XYZ 
        0.0000        0.0000        0.0000                  ANTENNA: DELTA H/E/N
     1     1                                                WAVELENGTH FACT L1/2
     5    C1    L1    P2    L2    C2                        # / TYPES OF OBSERV 
  2021     8    31    19    18   45.0000000     GPS         TIME OF FIRST OBS   
  2021     8    31    19    48   43.0000000     GPS         TIME OF LAST OBS    
                                                            END OF HEADER       
 21  8 31 19 18 45.0000000  0 12G 5G10G13G15G18G23G24G29E 3E 5E 9E36
  23351704.342   122714009.353    23351706.504    95621299.388                  
  24483010.448   128659008.476    24483015.433   100253752.456                  
  23013479.171   120936628.314    23013480.601    94236328.222                  
  20805757.489   109334990.495    20805758.418    85196095.438                  
  20672774.915   108636160.152    20672776.255    84651554.012                  
  22084430.195   116054453.196    22084431.857    90432040.496                  
  21493362.192   112948312.056    21493366.856    88011654.507                  
  22382039.077   117618374.255    22382041.561    91650671.977                  
  26698084.072   140299305.977                                                  
  23610462.322   124073794.961                                                  
  23116664.077   121478863.059                                                  
  23391584.463   122923540.203                                                  
 21  8 31 19 18 46.0000000  0 12G 5G10G13G15G18G23G24G29E 3E 5E 9E36
  23352052.627   122715839.559    23352054.771    95622725.520                  
  24482661.055   128657172.489    24482666.058   100252321.816                  
  23014099.673   120939889.082    23014101.103    94238869.078                  
  20806163.258   109337122.886    20806164.205    85197757.039                  
  20672433.438   108634365.628    20672434.778    84650155.680                  
  22084189.357   116053187.577    22084191.019    90431054.302                  
  21492936.462   112946074.797    21492941.126    88009911.191                  
  22382590.676   117621272.880    22382593.142    91652930.645                  
  26697710.681   140297343.797                                                  
  23610441.737   124073686.832                                                  
  23117029.606   121480783.849                                                  
  23391679.044   122924037.222                                                  
 21  8 31 19 18 47.0000000  0 12G 5G10G13G15G18G23G24G29E 3E 5E 9E36
  23352400.894   122717669.804    23352403.056    95624151.683                  
  24482311.680   128655336.484    24482316.683   100250891.168                  
  23014720.229   120943150.043    23014721.658    94241410.087                  
  20806569.100   109339255.625    20806570.065    85199418.914                  
  20672092.015   108632571.504    20672093.355    84648757.661                  
  22083948.536   116051922.020    22083950.180    90430068.153                  
  21492510.804   112943837.970    21492515.468    88008168.211                  
  22383142.328   117624171.768    22383144.776    91655189.520                  
  26697337.344   140295381.845                                                  
  23610421.223   124073578.986                                                  
  23117395.116   121482704.727                                                  
  23391773.696   122924534.661                                                  
 21  8 31 19 18 48.0000000  0 12G 5G10G13G15G18G23G24G29E 3E 5E 9E36
  23352749.197   122719500.090    23352751.359    95625577.880                  
  24481962.305   128653500.473    24481967.272   100249460.507                  
  23015340.802   120946411.181    23015342.214    94243951.231                  
  20806975.012   109341388.720    20806975.959    85201081.063                  
  20671750.699   108630777.760    20671752.021    84647359.941                  
  22083707.715   116050656.504    22083709.359    90429082.039                  
  21492085.236   112941601.594    21492089.900    88006425.578                  
  22383694.016   117627070.942    22383696.482    91657448.614                  
  26696964.024   140293420.113                                                  
  23610400.763   124073471.417                                                  
  23117760.681   121484625.699                                                  
  23391868.438   122925032.520                                                  
 21  8 31 19 18 49.0000000  0 12G 5G10G13G15G18G23G24G29E 3E 5E 9E36
  23353097.500   122721330.414    23353099.662    95627004.106                  
  24481612.912   128651664.432    24481617.897   100248029.831                  
  23015961.393   120949672.480    23015962.841    94246492.503                  
  20807380.997   109343522.172    20807381.961    85202743.496                  
  20671409.436   108628984.425    20671410.758    84645962.534                  
  22083466.894   116049391.047    22083468.556    90428095.968                  
  21491659.756   112939365.656    21491664.420    88004683.293                  
  22384245.758   117629970.403    22384248.242    91659707.929                  
  26696590.758   140291458.605                                                  
  23610380.339   124073364.160                                                  
  23118126.245   121486546.777                                                  
  23391963.269   122925530.798                                                  
 21  8 31 19 18 50.0000000  0 12G 5G10G13G15G18G23G24G29E 3E 5E 9E36
  23353445.803   122723160.782    23353447.965    95628430.363                  
  24481263.519   128649828.392    24481268.522   100246599.153                  
  23016582.056   120952933.973    23016583.485    94249033.921                  
  20807787.052   109345655.977    20807787.999    85204406.198                  
  20671068.245   108627191.477    20671069.585    84644565.434                  
  22083226.091   116048125.648    22083227.753    90427109.941                  
  21491234.366   112937130.152    21491238.995    88002941.344                  
  22384797.571   117632870.134    22384800.037    91661967.458                  
  26696217.546   140289497.313                                                  
  23610359.986   124073257.188                                                  
  23118491.828   121488467.937                                                  
  23392058.153   122926029.493                                                  
 21  8 31 19 18 51.0000000  0 16G 5G10G13G15G18G23G24G29C19C22C29C35
                                E 3E 5E 9E36
  23353794.124   122724991.194    23353796.286    95629856.655                  
  24480914.144   128647992.337    24480919.111   100245168.460                  
  23017202.718   120956195.624    23017204.148    94251575.470                  
  20808193.162   109347790.134    20808194.126    85206069.180                  
  20670727.143   108625398.925    20670728.465    84643168.641                  
  22082985.324   116046860.296    22082986.968    90426123.957                  
  21490809.048   112934895.094    21490813.694    88001199.743                  
  22385349.420   117635770.143    22385351.886    91664227.208                  
                 118004199.710                   118004199.710    22661467.817  
                 120510521.119                   120510521.119    23142776.080  
                 126728898.164                   126728898.164    24336962.474  
                 115401059.336                   115401059.336    22161563.602  
  26695844.369   140287536.239                                                  
  23610339.687   124073150.500                                                  
  23118857.446   121490389.208                                                  
  23392153.145   122926528.610                                                  
 21  8 31 19 18 52.0000000  0 16G 5G10G13G15G18G23G24G29C19C22C29C35
                                E 3E 5E 9E36
  23354142.463   122726821.647    23354144.607    95631282.985                  
  24480564.733   128646156.273    24480569.718   100243737.766                  
  23017823.435   120959457.469    23017824.864    94254117.165                  
  20808599.360   109349924.646    20808600.307    85207732.434                  
  20670386.095   108623606.772    20670387.417    84641772.156                  
  22082744.539   116045595.003    22082746.183    90425138.012                  
  21490383.801   112932660.485    21490388.465    87999458.487                  
  22385901.341   117638670.426    22385903.807    91666487.164                  
                 118005525.413                   118005525.413    22661722.415  
                 120509987.848                   120509987.848    23142673.673  
                 126732081.552                   126732081.552    24337573.827  
                 115402222.601                   115402222.601    22161786.983  
  26695471.228   140285575.400                                                  
  23610319.441   124073044.112                                                  
  23119223.064   121492310.571                                                  
  23392248.208   122927028.141                                                  
 21  8 31 19 18 53.0000000  0 16G 5G10G13G15G18G23G24G29C19C22C29C35
                                E 3E 5E 9E36
  23354490.784   122728652.133    23354492.946    95632709.335                  
  24480215.358   128644320.194    24480220.343   100242307.055                  
  23018444.187   120962719.481    23018445.598    94256658.988                  
  20809005.595   109352059.516    20809006.559    85209395.969                  
  20670045.136   108621815.013    20670046.458    84640375.980                  
  22082503.772   116044329.763    22082505.416    90424152.108                  
  21489958.643   112930426.296    21489963.307    87997717.563                  
  22386453.297   117641570.982    22386455.763    91668747.332                  
                 118006851.147                   118006851.147    22661976.995  
                 120509454.734                   120509454.734    23142571.301  
                 126735265.073                   126735265.073    24338185.180  
                 115403386.370                   115403386.370    22162010.489  
  26695098.123   140283614.777                                                  
  23610299.231   124072938.008                                                  
  23119588.700   121494232.027                                                  
  23392343.343   122927528.083                                                  
 21  8 31 19 18 54.0000000  0 16G 5G10G13G15G18G23G24G29C19C22C29C35
                                E 3E 5E 9E36
  23354839.122   122730482.677    23354841.285    95634135.726                  
  24479865.965   128642484.101    24479870.932   100240876.336                  
  23019064.939   120965981.660    23019066.386    94259200.946                  
  20809411.918   109354194.726    20809412.883    85211059.769                  
  20669704.267   108620023.649    20669705.589    84638980.114                  
  22082263.022   116043064.570    22082264.666    90423166.250                  
  21489533.575   112928192.556    21489538.239    87995976.984                  
  22387005.307   117644471.804    22387007.755    91671007.716                  
                 118008176.914                   118008176.914    22662231.593  
                 120508921.774                   120508921.774    23142468.947  
                 126738448.731                   126738448.731    24338796.586  
                 115404550.645                   115404550.645    22162234.066  
  26694725.071   140281654.366                                                  
  23610279.093   124072832.183                                                  
  23119954.354   121496153.589                                                  
  23392438.549   122928028.453                                                  
 21  8 31 19 18 55.0000000  0 16G 5G10G13G15G18G23G24G29C19C22C29C35
                                E 3E 5E 9E36
  23355187.479   122732313.253    23355189.623    95635562.151                  
  24479516.554   128640648.005    24479521.539   100239445.609                  
  23019685.762   120969244.016    23019687.174    94261743.039                  
  20809818.296   109356330.300    20809819.260    85212723.851                  
  20669363.433   108618232.668    20669364.755    84637584.546                  
  22082022.255   116041799.435    22082023.917    90422180.427                  
  21489108.596   112925959.264    21489113.260    87994236.761                  
  22387557.353   117647372.911    22387559.836    91673268.317                  
                 118009502.710                   118009502.710    22662486.227  
                 120508388.972                   120508388.972    23142366.611  
                 126741632.514                   126741632.514    24339407.975  
                 115405715.425                   115405715.425    22162457.732  
  26694352.055   140279694.193                                                  
  23610259.026   124072726.663                                                  
  23120320.043   121498075.230                                                  
  23392533.844   122928529.238                                                  
 21  8 31 19 18 56.0000000  0 16G 5G10G13G15G18G23G24G29C19C22C29C35
                                E 3E 5E 9E36
  23355535.818   122734143.880    23355537.980    95636988.609                  
  24479167.161   128638811.886    24479172.146   100238014.871                  
  23020306.603   120972506.550    23020308.015    94264285.273                  
  20810224.762   109358466.227    20810225.727    85214388.211                  
  20669022.706   108616442.102    20669024.047    84636189.296                  
  22081781.524   116040534.350    22081783.186    90421194.649                  
  21488683.706   112923726.402    21488688.352    87992496.870                  
  22388109.488   117650274.289    22388111.936    91675529.130                  
                 118010828.534                   118010828.534    22662740.825  
                 120507856.320                   120507856.320    23142264.347  
                 126744816.437                   126744816.437    24340019.417  
                 115406880.712                   115406880.712    22162681.524  
  26693979.075   140277734.228                                                  
  23610238.995   124072621.425                                                  
  23120685.733   121499996.980                                                  
  23392629.211   122929030.444                                                  
 21  8 31 19 18 57.0000000  0 16G 5G10G13G15G18G23G24G29C19C22C29C35
                                E 3E 5E 9E36
  23355884.192   122735974.535    23355886.337    95638415.094                  
  24478817.732   128636975.757    24478822.717   100236584.122                  
  23020927.481   120975769.258    23020928.892    94266827.640                  
  20810631.282   109360602.508    20810632.247    85216052.844                  
  20668682.033   108614651.913    20668683.374    84634794.348                  
  22081540.792   116039269.324    22081542.454    90420208.914                  
  21488258.888   112921493.988    21488263.534    87990757.327                  
  22388661.640   117653175.945    22388664.124    91677790.156                  
                 118012154.394                   118012154.394    22662995.440  
                 120507323.829                   120507323.829    23142162.083  
                 126748000.488                   126748000.488    24340630.895  
                 115408046.505                   115408046.505    22162905.405  
  26693606.167   140275774.489                                                  
  23610219.035   124072516.483                                                  
  23121051.440   121501918.823                                                  
  23392724.685   122929532.068                                                  
 21  8 31 19 18 58.0000000  0 16G 5G10G13G15G18G23G24G29C19C22C29C35
                                E 3E 5E 9E36
  23356232.567   122737805.247    23356234.729    95639841.622                  
  24478468.339   128635139.608    24478473.324   100235153.359                  
  23021548.375   120979032.141    23021549.805    94269370.145                  
  20811037.874   109362739.144    20811038.821    85217717.753                  
  20668341.468   108612862.125    20668342.772    84633399.708                  
  22081300.079   116038004.345    22081301.741    90419223.218                  
  21487834.142   112919262.008    21487838.805    87989018.122                  
  22389213.865   117656077.879    22389216.348    91680051.402                  
                 118013480.285                   118013480.285    22663250.056  
                 120506791.491                   120506791.491    23142059.836  
                 126751184.672                   126751184.672    24341242.373  
                 115409212.800                   115409212.800    22163129.375  
  26693233.276   140273814.964                                                  
  23610199.111   124072411.823                                                  
  23121417.183   121503840.758                                                  
  23392820.213   122930034.102                                                  
 21  8 31 19 18 59.0000000  0 16G 5G10G13G15G18G23G24G29C19C22C29C35
                                E 3E 5E 9E36
  23356580.941   122739635.984    23356583.103    95641268.171                  
  24478118.928   128633303.456    24478123.896   100233722.593                  
  23022169.324   120982295.195    23022170.736    94271912.782                  
  20811444.520   109364876.136    20811445.485    85219382.941                  
  20668000.938   108611072.734    20668002.278    84632005.375                  
  22081059.383   116036739.422    22081061.027    90418237.562                  
  21487409.502   112917030.477    21487414.166    87987279.269                  
  22389766.143   117658980.087    22389768.609    91682312.860                  
                 118014806.203                   118014806.203    22663504.707  
                 120506259.308                   120506259.308    23141957.643  
                 126754368.987                   126754368.987    24341853.905  
                 115410379.605                   115410379.605    22163353.453  
  26692860.439   140271855.679                                                  
  23610179.259   124072307.457                                                  
  23121782.944   121505762.780                                                  
  23392915.813   122930536.562                                                  
 21  8 31 19 19  0.0000000  0 16G 5G10G13G15G18G23G24G29C19C22C29C35
                                E 3E 5E 9E36
  23356929.334   122741466.778    23356931.496    95642694.757                  
  24477769.517   128631467.284    24477774.503   100232291.812                  
  23022790.273   120985558.410    23022791.720    94274455.547                  
  20811851.254   109367013.485    20811852.201    85221048.410                  
  20667660.515   108609283.747    20667661.837    84630611.359                  
  22080818.687   116035474.554    22080820.313    90417251.953                  
  21486984.934   112914799.384    21486989.598    87985540.755                  
  22390318.456   117661882.570    22390320.940    91684574.535                  
                 118016132.155                   118016132.155    22663759.341  
                 120505727.276                   120505727.276    23141855.486  
                 126757553.436                   126757553.436    24342465.436  
                 115411546.915                   115411546.915    22163577.620  
  26692487.637   140269896.595                                                  
  23610159.460   124072203.384                                                  
  23122148.705   121507684.906                                                  
  23393011.519   122931039.438                                                  
 21  8 31 19 19  1.0000000  0 16G 5G10G13G15G18G23G24G29C19C22C29C35
                                E 3E 5E 9E36
  23357277.744   122743297.607    23357279.888    95644121.374                  
  24477420.106   128629631.106    24477425.074   100230861.024                  
  23023411.293   120988821.819    23023412.722    94276998.461                  
  20812258.043   109369151.184    20812259.008    85222714.147                  
  20667320.164   108607495.133    20667321.486    84629217.636                  
  22080577.991   116034209.739    22080579.635    90416266.383                  
  21486560.455   112912568.722    21486565.119    87983802.581                  
  22390870.841   117664785.333    22390873.325    91686836.426                  
                 118017458.137                   118017458.137    22664013.975  
                 120505195.407                   120505195.407    23141753.347  
                 126760738.019                   126760738.019    24343077.003  
                 115412714.731                   115412714.731    22163801.894  
  26692114.872   140267937.739                                                  
  23610139.697   124072099.589                                                  
  23122514.484   121509607.125                                                  
  23393107.297   122931542.725                                                  
 21  8 31 19 19  2.0000000  0 16G 5G10G13G15G18G23G24G29C19C22C29C35
                                E 3E 5E 9E36
  23357626.136   122745128.474    23357628.298    95645548.028                  
  24477070.678   128627794.910    24477075.663   100229430.222                  
  23024032.348   120992085.401    23024033.760    94279541.512                  
  20812664.902   109371289.241    20812665.867    85224380.168                  
  20666979.866   108605706.925    20666981.206    84627824.227                  
  22080337.314   116032944.972    22080338.958    90415280.852                  
  21486136.066   112910338.509    21486140.712    87982064.753                  
  22391423.280   117667688.362    22391425.746    91689098.524                  
                 118018784.148                   118018784.148    22664268.626  
                 120504663.689                   120504663.689    23141651.225  
                 126763922.736                   126763922.736    24343688.606  
                 115413883.051                   115413883.051    22164026.257  
  26691742.159   140265979.094                                                  
  23610120.005   124071996.091                                                  
  23122880.299   121511529.441                                                  
  23393203.146   122932046.432                                                  
 21  8 31 19 19  3.0000000  0 16G 5G10G13G15G18G23G24G29C19C22C29C35
                                E 3E 5E 9E36
  23357974.546   122746959.382    23357976.708    95646974.708                  
  24476721.267   128625958.696    24476726.234   100227999.410                  
  23024653.404   120995349.159    23024654.834    94282084.695                  
  20813071.816   109373427.653    20813072.781    85226046.461                  
  20666639.658   108603919.118    20666640.980    84626431.128                  
  22080096.636   116031680.257    22080098.298    90414295.359                  
  21485711.748   112908108.733    21485716.394    87980327.265                  
  22391975.754   117670591.676    22391978.220    91691360.844                  
                 118020110.196                   118020110.196    22664523.277  
                 120504132.122                   120504132.122    23141549.139  
                 126767107.577                   126767107.577    24344300.227  
                 115415051.879                   115415051.879    22164250.728  
  26691369.483   140264020.673                                                  
  23610100.367   124071892.884                                                  
  23123246.114   121513451.851                                                  
  23393299.085   122932550.568                                                  
 21  8 31 19 19  4.0000000  0 16G 5G10G13G15G18G23G24G29C19C22C29C35
                                E 3E 5E 9E36
  23358322.957   122748790.328    23358325.119    95648401.419                  
  24476371.838   128624122.474    24476376.823   100226568.586                  
  23025274.513   120998613.093    23025275.943    94284628.021                  
  20813478.819   109375566.411    20813479.783    85227713.023                  
  20666299.521   108602131.704    20666300.861    84625038.341                  
  22079855.976   116030415.606    22079857.638    90413309.913                  
  21485287.520   112905879.397    21485292.184    87978590.125                  
  22392528.300   117673495.254    22392530.766    91693623.368                  
                 118021436.268                   118021436.268    22664777.947  
                 120503600.715                   120503600.715    23141447.107  
                 126770292.555                   126770292.555    24344911.866  
                 115416221.210                   115416221.210    22164475.288  
  26690996.843   140262062.477                                                  
  23610080.783   124071789.961                                                  
  23123611.964   121515374.364                                                  
  23393395.095   122933055.111                                                  
 21  8 31 19 19  5.0000000  0 16G 5G10G13G15G18G23G24G29C19C22C29C35
                                E 3E 5E 9E36
  23358671.402   122750621.324    23358673.565    95649828.165                  
  24476022.427   128622286.225    24476027.377   100225137.749                  
  23025895.659   121001877.192    23025897.088    94287171.469                  
  20813885.875   109377705.524    20813886.840    85229379.862                  
  20665959.455   108600344.681    20665960.796    84623645.851                  
  22079615.334   116029150.991    22079616.995    90412324.503                  
  21484863.381   112903650.516    21484868.027    87976853.333                  
  22393080.882   117676399.114    22393083.366    91695886.114                  
                 118022762.375                   118022762.375    22665032.598  
                 120503069.459                   120503069.459    23141345.057  
                 126773477.664                   126773477.664    24345523.523  
                 115417391.047                   115417391.047    22164699.937  
  26690624.256   140260104.493                                                  
  23610061.234   124071687.320                                                  
  23123977.814   121517296.962                                                  
  23393491.177   122933560.074                                                  
 21  8 31 19 19  6.0000000  0 16G 5G10G13G15G18G23G24G29C19C22C29C35
                                E 3E 5E 9E36
  23359019.813   122752452.352    23359021.975    95651254.938                  
  24475672.980   128620449.977    24475677.966   100223706.906                  
  23026516.822   121005141.469    23026518.251    94289715.062                  
  20814293.003   109379844.980    20814293.968    85231046.973                  
  20665619.479   108598558.059    20665620.820    84622253.683                  
  22079374.691   116027886.446    22079376.353    90411339.144                  
  21484439.313   112901422.061    21484443.959    87975116.879                  
  22393633.517   117679303.249    22393636.001    91698149.079                  
                 118024088.508                   118024088.508    22665287.268  
                 120502538.361                   120502538.361    23141243.079  
                 126776662.901                   126776662.901    24346135.215  
                 115418561.391                   115418561.391    22164924.676  
  26690251.704   140258146.755                                                  
  23610041.774   124071584.972                                                  
  23124343.700   121519219.665                                                  
  23393587.366   122934065.485                                                  
 21  8 31 19 19  7.0000000  0 16G 5G10G13G15G18G23G24G29C19C22C29C35
                                E 3E 5E 9E36
  23359368.276   122754283.422    23359370.421    95652681.747                  
  24475323.552   128618613.722    24475328.519   100222276.063                  
  23027138.038   121008405.926    23027139.468    94292258.792                  
  20814700.202   109381984.774    20814701.167    85232714.343                  
  20665279.575   108596771.849    20665280.897    84620861.828                  
  22079134.085   116026621.948    22079135.747    90410353.821                  
  21484015.335   112899194.043    21484019.981    87973380.763                  
  22394186.224   117682207.652    22394188.672    91700412.245                  
                 118025414.676                   118025414.676    22665541.937  
                 120502007.419                   120502007.419    23141141.118  
                 126779848.278                   126779848.278    24346746.943  
                 115419732.240                   115419732.240    22165149.540  
  26689879.207   140256189.243                                                  
  23610022.333   124071482.915                                                  
  23124709.587   121521142.462                                                  
  23393683.627   122934571.308                                                  
 21  8 31 19 19  8.0000000  0 16G 5G10G13G15G18G23G24G29C19C22C29C35
                                E 3E 5E 9E36
  23359716.722   122756114.547    23359718.885    95654108.593                  
  24474974.123   128616777.444    24474979.108   100220845.195                  
  23027759.273   121011670.538    23027760.702    94294802.648                  
  20815107.455   109384124.985    20815108.420    85234382.040                  
  20664939.742   108594985.997    20664941.082    84619470.257                  
  22078893.461   116025357.489    22078895.123    90409368.527                  
  21483591.446   112896966.489    21483596.092    87971645.004                  
  22394738.967   117685112.313    22394741.415    91702675.617                  
                 118026740.872                   118026740.872    22665796.624  
                 120501476.626                   120501476.626    23141039.175  
                 126783033.777                   126783033.777    24347358.671  
                 115420903.595                   115420903.595    22165374.475  
  26689506.745   140254231.899                                                  
  23610002.981   124071381.163                                                  
  23125075.508   121523065.333                                                  
  23393779.941   122935077.468                                                  
 21  8 31 19 19  9.0000000  0 16G 5G10G13G15G18G23G24G29C19C22C29C35
                                E 3E 5E 9E36
  23360065.186   122757945.716    23360067.348    95655535.476                  
  24474624.676   128614941.157    24474629.662   100219414.324                  
  23028380.543   121014935.347    23028381.972    94297346.653                  
  20815514.797   109386265.512    20815515.744    85236049.985                  
  20664599.980   108593200.567    20664601.320    84618079.011                  
  22078652.854   116024093.093    22078654.498    90408383.289                  
  21483167.646   112894739.357    21483172.274    87969909.579                  
  22395291.745   117688017.261    22395294.229    91704939.211                  
                 118028067.101                   118028067.101    22666051.311  
                 120500945.992                   120500945.992    23140937.286  
                 126786219.415                   126786219.415    24347970.453  
                 115422075.450                   115422075.450    22165599.518  
  26689134.301   140252274.812                                                  
  23609983.682   124071279.684                                                  
  23125441.448   121524988.315                                                  
  23393876.344   122935584.118                                                  
 21  8 31 19 19 10.0000000  0 16G 5G10G13G15G18G23G24G29C19C22C29C35
                                E 3E 5E 9E36
  23360413.668   122759776.926    23360415.812    95656962.391                  
  24474275.248   128613104.856    24474280.215   100217983.442                  
  23029001.867   121018200.331    23029003.278    94299890.792                  
  20815922.193   109388406.398    20815923.140    85237718.208                  
  20664260.308   108591415.527    20664261.648    84616688.075                  
  22078412.266   116022828.754    22078413.892    90407398.085                  
  21482743.918   112892512.683    21482748.564    87968174.508                  
  22395844.595   117690922.491    22395847.060    91707203.027                  
                 118029393.359                   118029393.359    22666305.998  
                 120500415.513                   120500415.513    23140835.397  
                 126789405.181                   126789405.181    24348582.235  
                 115423247.817                   115423247.817    22165824.667  
  26688761.928   140250317.940                                                  
  23609964.419   124071178.501                                                  
  23125807.388   121526911.394                                                  
  23393972.837   122936091.179                                                  
 21  8 31 19 19 11.0000000  0 16G 5G10G13G15G18G23G24G29C19C22C29C35
                                E 3E 5E 9E36
  23360762.114   122761608.172    23360764.276    95658389.335                  
  24473925.801   128611268.536    24473930.786   100216552.546                  
  23029623.173   121021465.480    23029624.620    94302435.062                  
  20816329.660   109390547.630    20816330.607    85239386.696                  
  20663920.707   108589630.878    20663922.012    84615297.437                  
  22078171.677   116021564.462    22078173.321    90406412.926                  
  21482320.261   112890286.434    21482324.925    87966439.769                  
  22396397.498   117693827.985    22396399.964    91709467.044                  
                 118030719.649                   118030719.649    22666560.703  
                 120499885.185                   120499885.185    23140733.561  
                 126792591.078                   126792591.078    24349194.052  
                 115424420.684                   115424420.684    22166049.906  
  26688389.573   140248361.288                                                  
  23609945.228   124071077.597                                                  
  23126173.363   121528834.567                                                  
  23394069.401   122936598.651                                                  
 21  8 31 19 19 12.0000000  0 16G 5G10G13G15G18G23G24G29C19C22C29C35
                                E 3E 5E 9E36
  23361110.613   122763439.470    23361112.776    95659816.321                  
  24473576.354   128609432.203    24473581.340   100215121.641                  
  23030244.568   121024730.799    23030245.997    94304979.468                  
  20816737.181   109392689.220    20816738.146    85241055.469                  
  20663581.160   108587846.642    20663582.500    84613907.121                  
  22077931.107   116020300.228    22077932.733    90405427.809                  
  21481896.712   112888060.637    21481901.358    87964705.384                  
  22396950.437   117696733.758    22396952.921    91711731.282                  
                 118032045.965                   118032045.965    22666815.426  
                 120499355.011                   120499355.011    23140631.744  
                 126795777.106                   126795777.106    24349805.923  
                 115425594.057                   115425594.057    22166275.235  
  26688017.308   140246404.862                                                  
  23609926.073   124070976.993                                                  
  23126539.339   121530757.828                                                  
  23394166.054   122937106.542                                                  
 21  8 31 19 19 13.0000000  0 16G 5G10G13G15G18G23G24G29C19C22C29C35
                                E 3E 5E 9E36
  23361459.095   122765270.804    23361461.257    95661243.332                  
  24473226.926   128607595.860    24473231.893   100213690.723                  
  23030865.963   121027996.298    23030867.393    94307524.008                  
  20817144.774   109394831.156    20817145.739    85242724.508                  
  20663241.720   108586062.785    20663243.042    84612517.105                  
  22077690.518   116019036.047    22077692.180    90404442.731                  
  21481473.234   112885835.269    21481477.880    87962971.335                  
  22397503.447   117699639.804    22397505.913    91713995.731                  
                 118033372.316                   118033372.316    22667070.114  
                 120498824.997                   120498824.997    23140529.962  
                 126798963.265                   126798963.265    24350417.777  
                 115426767.936                   115426767.936    22166500.688  
  26687645.043   140244448.659                                                  
  23609906.988   124070876.667                                                  
  23126905.332   121532681.183                                                  
  23394262.779   122937614.862                                                  
 21  8 31 19 19 14.0000000  0 16G 5G10G13G15G18G23G24G29C19C22C29C35
                                E 3E 5E 9E36
  23361807.595   122767102.184    23361809.757    95662670.379                  
  24472877.479   128605759.509    24472882.447   100212259.804                  
  23031487.394   121031261.966    23031488.841    94310068.685                  
  20817552.438   109396973.450    20817553.402    85244393.828                  
  20662902.334   108584279.333    20662903.656    84611127.402                  
  22077449.983   116017771.919    22077451.627    90403457.696                  
  21481049.863   112883610.364    21481054.491    87961237.641                  
  22398056.494   117702546.132    22398058.977    91716260.398                  
                 118034698.696                   118034698.696    22667324.836  
                 120498295.134                   120498295.134    23140428.198  
                 126802149.557                   126802149.557    24351029.684  
                 115427942.324                   115427942.324    22166726.195  
  26687272.813   140242492.685                                                  
  23609887.940   124070776.637                                                  
  23127271.361   121534604.644                                                  
  23394359.594   122938123.587                                                  
 21  8 31 19 19 15.0000000  0 16G 5G10G13G15G18G23G24G29C19C22C29C35
                                E 3E 5E 9E36
  23362156.112   122768933.608    23362158.274    95664097.466                  
  24472528.015   128603923.145    24472533.000   100210828.872                  
  23032108.879   121034527.813    23032110.308    94312613.496                  
  20817960.173   109399116.090    20817961.138    85246063.418                  
  20662563.019   108582496.274    20662564.359    84609738.008                  
  22077209.413   116016507.844    22077211.074    90402472.707                  
  21480626.546   112881385.891    21480631.192    87959504.290                  
  22398609.611   117705452.726    22398612.077    91718525.277                  
                 118036025.108                   118036025.108    22667579.559  
                 120497765.425                   120497765.425    23140326.487  
                 126805335.981                   126805335.981    24351641.608  
                 115429117.212                   115429117.212    22166951.827  
  26686900.655   140240536.922                                                  
  23609868.963   124070676.898                                                  
  23127637.408   121536528.195                                                  
  23394456.480   122938632.737                                                  
 21  8 31 19 19 16.0000000  0 16G 5G10G13G15G18G23G24G29C19C22C29C35
                                E 3E 5E 9E36
  23362504.647   122770765.030    23362506.792    95665524.527                  
  24472178.568   128602086.700    24472183.535   100209397.839                  
  23032730.381   121037793.758    23032731.829    94315158.351                  
  20818367.980   109401259.044    20818368.945    85247733.227                  
  20662223.793   108580713.629    20662225.116    84608348.941                  
  22076968.896   116015243.827    22076970.540    90401487.759                  
  21480203.318   112879161.875    21480207.982    87957771.300                  
  22399162.783   117708359.620    22399165.267    91720790.396                  
                 118037351.552                   118037351.552    22667834.300  
                 120497235.876                   120497235.876    23140224.777  
                 126808522.532                   126808522.532    24352253.533  
                 115430292.606                   115430292.606    22167177.549  
  26686528.515   140238581.238                                                  
  23609850.040   124070577.464                                                  
  23128003.455   121538451.843                                                  
  23394553.437   122939142.292                                                  
 21  8 31 19 19 17.0000000  0 16G 5G10G13G15G18G23G24G29C19C22C29C35
                                E 3E 5E 9E36
  23362853.165   122772596.540    23362855.327    95666951.675                  
  24471829.121   128600250.308    24471834.089   100207966.891                  
  23033351.919   121041059.946    23033353.331    94317703.433                  
  20818775.840   109403402.386    20818776.805    85249403.368                  
  20661884.639   108578931.371    20661885.979    84606960.168                  
  22076728.361   116013979.860    22076730.022    90400502.847                  
  21479780.198   112876938.294    21479784.844    87956038.641                  
  22399715.972   117711266.770    22399718.456    91723055.702                  
                 118038678.019                   118038678.019    22668089.041  
                 120496706.473                   120496706.473    23140123.120  
                 126811709.214                   126811709.214    24352865.511  
                 115431468.509                   115431468.509    22167403.360  
  26686156.446   140236625.921                                                  
  23609831.152   124070478.301                                                  
  23128369.538   121540375.586                                                  
  23394650.502   122939652.273                                                  
 21  8 31 19 19 18.0000000  0 16G 5G10G13G15G18G23G24G29C19C22C29C35
                                E 3E 5E 9E36
  23363201.682   122774428.087    23363203.862    95668378.855                  
  24471479.657   128598413.895    24471484.624   100206535.922                  
  23033973.476   121044326.301    23033974.923    94320248.644                  
  20819183.772   109405546.094    20819184.737    85251073.788                  
  20661545.557   108577149.512    20661546.897    84605571.712                  
  22076487.844   116012715.949    22076489.505    90399517.984                  
  21479357.149   112874715.165    21479361.795    87954306.333                  
  22400269.268   117714174.189    22400271.716    91725321.224                  
                 118040004.524                   118040004.524    22668343.782  
                 120496177.229                   120496177.229    23140021.481  
                 126814896.027                   126814896.027    24353477.507  
                 115432644.909                   115432644.909    22167629.278  
  26685784.395   140234670.813                                                  
  23609812.354   124070379.433                                                  
  23128735.620   121542299.422                                                  
  23394747.620   122940162.694                                                  
 21  8 31 19 19 19.0000000  0 16G 5G10G13G15G18G23G24G29C19C22C29C35
                                E 3E 5E 9E36
  23363550.218   122776259.673    23363552.398    95669806.069                  
  24471130.192   128596577.482    24471135.160   100205104.953                  
  23034595.085   121047592.835    23034596.515    94322793.996                  
  20819591.776   109407690.137    20819592.740    85252744.476                  
  20661206.563   108575368.038    20661207.904    84604183.554                  
  22076247.344   116011452.085    22076249.006    90398533.160                  
  21478934.189   112872492.470    21478938.817    87952574.367                  
  22400822.565   117717081.875    22400825.049    91727586.958                  
                 118041331.056                   118041331.056    22668598.523  
                 120495648.140                   120495648.140    23139919.878  
                 126818082.974                   126818082.974    24354089.521  
                 115433821.821                   115433821.821    22167855.303  
  26685412.398   140232715.933                                                  
  23609793.592   124070280.859                                                  
  23129101.739   121544223.355                                                  
  23394844.845   122940673.535                                                  
 21  8 31 19 19 20.0000000  0 16G 5G10G13G15G18G23G24G29C19C22C29C35
                                E 3E 5E 9E36
  23363898.789   122778091.309    23363900.933    95671233.316                  
  24470780.728   128594741.036    24470785.695   100203673.961                  
  23035216.713   121050859.542    23035218.160    94325339.479                  
  20819999.833   109409834.538    20820000.797    85254415.437                  
  20660867.642   108573586.966    20660868.964    84602795.704                  
  22076006.845   116010188.268    22076008.507    90397548.372                  
  21478511.300   112870270.206    21478515.946    87950842.738                  
  22401375.933   117719989.840    22401378.416    91729852.902                  
                 118042657.616                   118042657.616    22668853.281  
                 120495119.202                   120495119.202    23139818.292  
                 126821270.046                   126821270.046    24354701.571  
                 115434999.236                   115434999.236    22168081.400  
  26685040.436   140230761.282                                                  
  23609774.883   124070182.555                                                  
  23129467.857   121546147.376                                                  
  23394942.124   122941184.765                                                  
 21  8 31 19 19 21.0000000  0 16G 5G10G13G15G18G23G24G29C19C22C29C35
                                E 3E 5E 9E36
  23364247.342   122779922.986    23364249.504    95672660.589                  
  24470431.263   128592904.585    24470436.249   100202242.960                  
  23035838.376   121054126.425    23035839.823    94327885.101                  
  20820407.979   109411979.297    20820408.944    85256086.676                  
  20660528.773   108571806.295    20660530.114    84601408.168                  
  22075766.364   116008924.513    22075768.026    90396563.625                  
  21478088.502   112868048.394    21478093.147    87949111.456                  
  22401929.354   117722898.078    22401931.838    91732119.059                  
                 118043984.211                   118043984.211    22669108.040  
                 120494590.421                   120494590.421    23139716.760  
                 126824457.254                   126824457.254    24355313.639  
                 115436177.154                   115436177.154    22168307.622  
  26684668.528   140228806.837                                                  
  23609756.245   124070084.542                                                  
  23129834.011   121548071.485                                                  
  23395039.474   122941696.425                                                  
 21  8 31 19 19 22.0000000  0 16G 5G10G13G15G18G23G24G29C19C22C29C35
                                E 3E 5E 9E36
  23364595.895   122781754.686    23364598.057    95674087.891                  
  24470081.799   128591068.122    24470086.766   100200811.950                  
  23036460.075   121057393.476    23036461.523    94330430.856                  
  20820816.179   109414124.403    20820817.144    85257758.186                  
  20660189.995   108570026.013    20660191.335    84600020.933                  
  22075525.883   116007660.807    22075527.544    90395578.917                  
  21477665.774   112865827.029    21477670.420    87947380.519                  
  22402482.811   117725806.586    22402485.295    91734385.427                  
                 118045310.832                   118045310.832    22669362.799  
                 120494061.794                   120494061.794    23139615.246  
                 126827644.591                   126827644.591    24355925.742  
                 115437355.575                   115437355.575    22168533.915  
  26684296.638   140226852.617                                                  
  23609737.644   124069986.816                                                  
  23130200.183   121549995.699                                                  
  23395136.914   122942208.506                                                  
 21  8 31 19 19 23.0000000  0 16G 5G10G13G15G18G23G24G29C19C22C29C35
                                E 3E 5E 9E36
  23364944.484   122783586.448    23364946.646    95675515.238                  
  24469732.317   128589231.645    24469737.284   100199380.933                  
  23037081.828   121060660.696    23037083.257    94332976.743                  
  20821224.432   109416269.860    20821225.397    85259429.969                  
  20659851.305   108568246.138    20659852.645    84598634.019                  
  22075285.419   116006397.158    22075287.081    90394594.257                  
  21477243.154   112863606.088    21477247.800    87945649.921                  
  22403036.358   117728715.376    22403038.842    91736652.012                  
                 118046637.489                   118046637.489    22669617.557  
                 120493533.321                   120493533.321    23139513.733  
                 126830832.055                   126830832.055    24356537.863  
                 115438534.504                   115438534.504    22168760.315  
  26683924.801   140224898.621                                                  
  23609719.096   124069889.392                                                  
  23130566.355   121551919.999                                                  
  23395234.461   122942720.999                                                  
 21  8 31 19 19 24.0000000  0 16G 5G10G13G15G18G23G24G29C19C22C29C35
                                E 3E 5E 9E36
  23365293.055   122785418.263    23365295.217    95676942.626                  
  24469382.834   128587395.161    24469387.820   100197949.907                  
  23037703.580   121063928.084    23037705.028    94335522.757                  
  20821632.775   109418415.673    20821633.740    85261102.031                  
  20659512.687   108566466.653    20659514.027    84597247.406                  
  22075044.956   116005133.555    22075046.618    90393609.634                  
  21476820.605   112861385.600    21476825.269    87943919.673                  
  22403589.940   117731624.420    22403592.406    91738918.800                  
                 118047964.171                   118047964.171    22669872.334  
                 120493004.999                   120493004.999    23139412.272  
                 126834019.653                   126834019.653    24357150.003  
                 115439713.937                   115439713.937    22168986.823  
  26683553.001   140222944.857                                                  
  23609700.619   124069792.241                                                  
  23130932.563   121553844.399                                                  
  23395332.062   122943233.923                                                  
 21  8 31 19 19 25.0000000  0 16G 5G10G13G15G18G23G24G29C19C22C29C35
                                E 3E 5E 9E36
  23365641.644   122787250.119    23365643.824    95678370.044                  
  24469033.388   128585558.648    24469038.337   100196518.860                  
  23038325.387   121067195.657    23038326.816    94338068.913                  
  20822041.172   109420561.831    20822042.137    85262774.362                  
  20659174.141   108564687.567    20659175.463    84595861.110                  
  22074804.528   116003870.011    22074806.154    90392625.054                  
  21476398.146   112859165.564    21476402.792    87942189.774                  
  22404143.558   117734533.750    22404146.042    91741185.807                  
                 118049290.883                   118049290.883    22670127.128  
                 120492476.837                   120492476.837    23139310.866  
                 126837207.379                   126837207.379    24357762.177  
                 115440893.876                   115440893.876    22169213.420  
  26683181.254   140220991.312                                                  
  23609682.178   124069695.384                                                  
  23131298.789   121555768.886                                                  
  23395429.734   122943747.246                                                  
 21  8 31 19 19 26.0000000  0 16G 5G10G13G15G18G23G24G29C19C22C29C35
                                E 3E 5E 9E36
  23365990.233   122789082.013    23365992.413    95679797.489                  
  24468683.905   128583722.136    24468688.855   100195087.816                  
  23038947.229   121070463.392    23038948.658    94340615.200                  
  20822449.658   109422708.351    20822450.605    85264446.977                  
  20658835.666   108562908.875    20658836.988    84594475.118                  
  22074564.082   116002606.519    22074565.744    90391640.515                  
  21475975.758   112856945.965    21475980.421    87940460.219                  
  22404697.248   117737443.347    22404699.714    91743453.028                  
                 118050617.629                   118050617.629    22670381.923  
                 120491948.824                   120491948.824    23139209.459  
                 126840395.233                   126840395.233    24358374.388  
                 115442074.315                   115442074.315    22169440.107  
  26682809.560   140219037.976                                                  
  23609663.809   124069598.820                                                  
  23131665.014   121557693.474                                                  
  23395527.495   122944261.003                                                  
 21  8 31 19 19 27.0000000  0 16G 5G10G13G15G18G23G24G29C19C22C29C35
                                E 3E 5E 9E36
  23366338.857   122790913.951    23366341.019    95681224.973                  
  24468334.405   128581885.593    24468339.373   100193656.747                  
  23039569.089   121073731.296    23039570.518    94343161.616                  
  20822858.179   109424855.214    20822859.144    85266119.855                  
  20658497.262   108561130.587    20658498.602    84593089.437                  
  22074323.655   116001343.081    22074325.317    90390656.020                  
  21475553.477   112854726.808    21475558.123    87938731.008                  
  22405250.955   117740353.219    22405253.439    91745720.456                  
                 118051944.402                   118051944.402    22670636.699  
                 120491420.964                   120491420.964    23139108.106  
                 126843583.224                   126843583.224    24358986.599  
                 115443255.263                   115443255.263    22169666.900  
  26682437.884   140217084.872                                                  
  23609645.475   124069502.538                                                  
  23132031.276   121559618.155                                                  
  23395625.346   122944775.172                                                  
 21  8 31 19 19 28.0000000  0 16G 5G10G13G15G18G23G24G29C19C22C29C35
                                E 3E 5E 9E36
  23366687.464   122792745.930    23366689.644    95682652.489                  
  24467984.923   128580049.054    24467989.908   100192225.675                  
  23040190.984   121076999.383    23040192.414    94345708.175                  
  20823266.772   109427002.429    20823267.737    85267793.012                  
  20658158.948   108559352.699    20658160.288    84591704.069                  
  22074083.245   116000079.698    22074084.907    90389671.564                  
  21475131.268   112852508.090    21475135.914    87937002.137                  
  22405804.752   117743263.364    22405807.236    91747988.097                  
                 118053271.206                   118053271.206    22670891.493  
                 120490893.262                   120490893.262    23139006.753  
                 126846771.337                   126846771.337    24359598.845  
                 115444436.714                   115444436.714    22169893.783  
  26682066.262   140215131.973                                                  
  23609627.213   124069406.552                                                  
  23132397.537   121561542.930                                                  
  23395723.286   122945289.756                                                  
 21  8 31 19 19 29.0000000  0 16G 5G10G13G15G18G23G24G29C19C22C29C35
                                E 3E 5E 9E36
  23367036.107   122794577.950    23367038.269    95684080.035                  
  24467635.440   128578212.480    24467640.408   100190794.582                  
  23040812.898   121080267.630    23040814.345    94348254.859                  
  20823675.455   109429149.994    20823676.420    85269466.434                  
  20657820.705   108557575.195    20657822.027    84590319.004                  
  22073842.835   115998816.356    22073844.479    90388687.144                  
  21474709.148   112850289.826    21474713.776    87935273.622                  
  22406358.585   117746173.783    22406361.068    91750255.954                  
                 118054598.040                   118054598.040    22671146.324  
                 120490365.714                   120490365.714    23138905.435  
                 126849959.583                   126849959.583    24360211.127  
                 115445618.668                   115445618.668    22170120.756  
  26681694.676   140213179.306                                                  
  23609609.005   124069310.845                                                  
  23132763.834   121563467.796                                                  
  23395821.280   122945804.755                                                  
 21  8 31 19 19 30.0000000  0 16G 5G10G13G15G18G23G24G29C19C22C29C35
                                E 3E 5E 9E36
  23367384.713   122796410.020    23367386.893    95685507.618                  
  24467285.940   128576375.911    24467290.926   100189363.492                  
  23041434.865   121083536.051    23041436.294    94350801.681                  
  20824084.209   109431297.910    20824085.138    85271140.136                  
  20657482.516   108555798.105    20657483.856    84588934.258                  
  22073602.443   115997553.082    22073604.105    90387702.774                  
  21474287.099   112848071.999    21474291.763    87933545.445                  
  22406912.489   117749084.468    22406914.955    91752524.020                  
                 118055924.905                   118055924.905    22671401.118  
                 120489838.319                   120489838.319    23138804.154  
                 126853147.958                   126853147.958    24360823.391  
                 115446801.128                   115446801.128    22170347.835  
  26681323.143   140211226.864                                                  
  23609590.832   124069215.428                                                  
  23133130.131   121565392.759                                                  
  23395919.363   122946320.188                                                  
 21  8 31 19 19 31.0000000  0 16G 5G10G13G15G18G23G24G29C19C22C29C35
                                E 3E 5E 9E36
  23367733.356   122798242.122    23367735.536    95686935.230                  
  24466936.458   128574539.316    24466941.425   100187932.379                  
  23042056.868   121086804.660    23042058.297    94353348.644                  
  20824492.998   109433446.176    20824493.945    85272814.109                  
  20657144.434   108554021.408    20657145.756    84587549.812                  
  22073362.051   115996289.852    22073363.695    90386718.437                  
  21473865.158   112845854.621    21473869.804    87931817.618                  
  22407466.428   117751995.417    22407468.894    91754792.292                  
                 118057251.797                   118057251.797    22671655.948  
                 120489311.079                   120489311.079    23138702.908  
                 126856336.466                   126856336.466    24361435.727  
                 115447984.093                   115447984.093    22170575.022  
  26680951.646   140209274.649                                                  
  23609572.748   124069120.305                                                  
  23133496.482   121567317.816                                                  
  23396017.518   122946836.023                                                  
 21  8 31 19 19 32.0000000  0 16G 5G10G13G15G18G23G24G29C19C22C29C35
                                E 3E 5E 9E36
  23368082.016   122800074.269    23368084.178    95688362.874                  
  24466586.957   128572702.727    24466591.925   100186501.269                  
  23042678.888   121090073.421    23042680.318    94355895.731                  
  20824901.859   109435594.799    20824902.824    85274488.359                  
  20656806.424   108552245.107    20656807.746    84586165.684                  
  22073121.677   115995026.675    22073123.339    90385734.147                  
  21473443.288   112843637.686    21473447.916    87930090.141                  
  22408020.404   117754906.651    22408022.888    91757060.786                  
                 118058578.724                   118058578.724    22671910.760  
                 120488783.988                   120488783.988    23138601.680  
                 126859525.096                   126859525.096    24362048.080  
                 115449167.559                   115449167.559    22170802.298  
  26680580.203   140207322.651                                                  
  23609554.701   124069025.473                                                  
  23133862.815   121569242.964                                                  
  23396115.761   122947352.292                                                  
 21  8 31 19 19 33.0000000  0 16G 5G10G13G15G18G23G24G29C19C22C29C35
                                E 3E 5E 9E36
  23368430.659   122801906.453    23368432.839    95689790.550                  
  24466237.457   128570866.103    24466242.425   100185070.137                  
  23043300.945   121093342.359    23043302.374    94358442.952                  
  20825310.792   109437743.758    20825311.757    85276162.874                  
  20656468.467   108550469.199    20656469.807    84584781.864                  
  22072881.321   115993763.547    22072882.965    90384749.890                  
  21473021.508   112841421.192    21473026.136    87928363.000                  
  22408574.433   117757818.152    22408576.917    91759329.484                  
                 118059905.677                   118059905.677    22672165.573  
                 120488257.056                   120488257.056    23138500.505  
                 126862713.863                   126862713.863    24362660.434  
                 115450351.531                   115450351.531    22171029.663  
  26680208.777   140205370.856                                                  
  23609536.707   124068930.919                                                  
  23134229.183   121571168.208                                                  
  23396214.077   122947868.969                                                  
 21  8 31 19 19 34.0000000  0 16G 5G10G13G15G18G23G24G29C19C22C29C35
                                E 3E 5E 9E36
  23368779.319   122803738.679    23368781.499    95691218.258                  
  24465887.957   128569029.476    24465892.925   100183639.004                  
  23043923.037   121096611.478    23043924.484    94360990.316                  
  20825719.796   109439893.088    20825720.761    85277837.675                  
  20656130.599   108548693.696    20656131.922    84583398.355                  
  22072640.965   115992500.481    22072642.626    90383765.683                  
  21472599.799   112839205.149    21472604.445    87926636.216                  
  22409128.533   117760729.935    22409131.017    91761598.403                  
                 118061232.662                   118061232.662    22672420.421  
                 120487730.278                   120487730.278    23138399.349  
                 126865902.752                   126865902.752    24363272.841  
                 115451536.009                   115451536.009    22171257.118  
  26679837.405   140203419.298                                                  
  23609518.784   124068836.656                                                  
  23134595.552   121573093.547                                                  
  23396312.481   122948386.069                                                  
 21  8 31 19 19 35.0000000  0 16G 5G10G13G15G18G23G24G29C19C22C29C35
                                E 3E 5E 9E36
  23369127.997   122805570.954    23369130.159    95692646.003                  
  24465538.457   128567192.839    24465543.424   100182207.859                  
  23044545.165   121099880.750    23044546.594    94363537.801                  
  20826128.854   109442042.754    20826129.819    85279512.739                  
  20655792.803   108546918.590    20655794.144    84582015.156                  
  22072400.626   115991237.468    22072402.288    90382781.519                  
  21472178.179   112836989.550    21472182.825    87924909.772                  
  22409682.688   117763641.976    22409685.153    91763867.524                  
                 118062559.675                   118062559.675    22672675.269  
                 120487203.649                   120487203.649    23138298.192  
                 126869091.778                   126869091.778    24363885.266  
                 115452720.987                   115452720.987    22171484.698  
  26679466.087   140201467.960                                                  
  23609500.879   124068742.680                                                  
  23134961.956   121575018.973                                                  
  23396410.958   122948903.585                                                  
 21  8 31 19 19 36.0000000  0 16G 5G10G13G15G18G23G24G29C19C22C29C35
                                E 3E 5E 9E36
  23369476.676   122807403.271    23369478.838    95694073.782                  
  24465188.957   128565356.180    24465193.924   100180776.700                  
  23045167.328   121103150.195    23045168.758    94366085.418                  
  20826538.001   109444192.774    20826538.966    85281188.077                  
  20655455.097   108545143.882    20655456.419    84580632.267                  
  22072160.306   115989974.508    22072161.932    90381797.394                  
  21471756.631   112834774.390    21471761.295    87923183.679                  
  22410236.877   117766554.290    22410239.361    91766136.859                  
                 118063886.718                   118063886.718    22672930.099  
                 120486677.176                   120486677.176    23138197.107  
                 126872280.929                   126872280.929    24364497.691  
                 115453906.474                   115453906.474    22171712.367  
  26679094.805   140199516.842                                                  
  23609483.064   124068648.995                                                  
  23135328.379   121576944.491                                                  
  23396509.523   122949421.524                                                  
 21  8 31 19 19 37.0000000  0 16G 5G10G13G15G18G23G24G29C19C22C29C35
                                E 3E 5E 9E36
  23369825.354   122809235.622    23369827.534    95695501.587                  
  24464839.439   128563519.512    24464844.424   100179345.528                  
  23045789.492   121106419.813    23045790.939    94368633.172                  
  20826947.201   109446343.138    20826948.166    85282863.683                  
  20655117.462   108543369.574    20655118.784    84579249.686                  
  22071919.967   115988711.595    22071921.611    90380813.304                  
  21471335.208   112832559.683    21471339.836    87921457.933                  
  22410791.121   117769466.874    22410793.623    91768406.403                  
                 118065213.793                   118065213.793    22673184.965  
                 120486150.861                   120486150.861    23138096.022  
                 126875470.211                   126875470.211    24365110.188  
                 115455092.464                   115455092.464    22171940.126  
  26678723.540   140197565.951                                                  
  23609465.284   124068555.597                                                  
  23135694.801   121578870.108                                                  
  23396608.160   122949939.880                                                  
 21  8 31 19 19 38.0000000  0 16G 5G10G13G15G18G23G24G29C19C22C29C35
                                E 3E 5E 9E36
  23370174.068   122811068.015    23370176.212    95696929.423                  
  24464489.938   128561682.837    24464494.906   100177914.351                  
  23046411.727   121109689.616    23046413.175    94371181.071                  
  20827356.474   109448493.863    20827357.438    85284539.577                  
  20654779.898   108541595.668    20654781.220    84577867.426                  
  22071679.665   115987448.746    22071681.309    90379829.270                  
  21470913.839   112830345.413    21470918.485    87919732.532                  
  22411345.418   117772379.730    22411347.920    91770676.161                  
                 118066540.895                   118066540.895    22673439.813  
                 120485624.697                   120485624.697    23137994.973  
                 126878659.621                   126878659.621    24365722.666  
                 115456278.957                   115456278.957    22172167.956  
  26678352.347   140195615.273                                                  
  23609447.558   124068462.496                                                  
  23136061.259   121580795.825                                                  
  23396706.887   122950458.661                                                  
 21  8 31 19 19 39.0000000  0 16G 5G10G13G15G18G23G24G29C19C22C29C35
                                E 3E 5E 9E36
  23370522.764   122812900.458    23370524.944    95698357.296                  
  24464140.420   128559846.137    24464145.388   100176483.160                  
  23047033.980   121112959.581    23047035.428    94373729.090                  
  20827765.799   109450644.925    20827766.764    85286215.727                  
  20654442.406   108539822.158    20654443.728    84576485.466                  
  22071439.344   115986185.933    22071441.006    90378845.262                  
  21470492.559   112828131.600    21470497.205    87918007.483                  
  22411899.787   117775292.854    22411902.252    91772946.126                  
                 118067868.028                   118067868.028    22673694.679  
                 120485098.684                   120485098.684    23137893.959  
                 126881849.161                   126881849.161    24366335.181  
                 115457465.953                   115457465.953    22172395.929  
  26677981.171   140193664.813                                                  
  23609429.903   124068369.679                                                  
  23136427.717   121582721.625                                                  
  23396805.684   122950977.847                                                  
 21  8 31 19 19 40.0000000  0 16G 5G10G13G15G18G23G24G29C19C22C29C35
                                E 3E 5E 9E36
  23370871.478   122814732.939    23370873.640    95699785.203                  
  24463790.902   128558009.421    24463795.888   100175051.958                  
  23047656.287   121116229.718    23047657.716    94376277.247                  
  20828175.214   109452796.339    20828176.161    85287892.156                  
  20654105.003   108538049.043    20654106.325    84575103.821                  
  22071199.060   115984923.187    22071200.703    90377861.300                  
  21470071.386   112825918.222    21470076.014    87916282.773                  
  22412454.173   117778206.263    22412456.657    91775216.309                  
                 118069195.190                   118069195.190    22673949.544  
                 120484572.825                   120484572.825    23137792.981  
                 126885038.829                   126885038.829    24366947.749  
                 115458653.452                   115458653.452    22172623.956  
  26677610.067   140191714.590                                                  
  23609412.302   124068277.144                                                  
  23136794.228   121584647.527                                                  
  23396904.554   122951497.456                                                  
 21  8 31 19 19 41.0000000  0 16G 5G10G13G15G18G23G24G29C19C22C29C35
                                E 3E 5E 9E36
  23371220.192   122816565.475    23371222.354    95701213.160                  
  24463441.402   128556172.677    24463446.352   100173620.715                  
  23048278.575   121119500.058    23048280.041    94378825.578                  
  20828584.683   109454948.115    20828585.648    85289568.866                  
  20653767.653   108536276.337    20653768.976    84573722.491                  
  22070958.775   115983660.479    22070960.419    90376877.372                  
  21469650.266   112823705.293    21469654.895    87914558.415                  
  22413008.649   117781119.879    22413011.133    91777486.633                  
                 118070522.390                   118070522.390    22674204.428  
                 120484047.108                   120484047.108    23137692.021  
                 126888228.501                   126888228.501    24367560.317  
                 115459841.469                   115459841.469    22172852.107  
  26677238.964   140189764.725                                                  
  23609394.737   124068184.891                                                  
  23137160.722   121586573.523                                                  
  23397003.512   122952017.499                                                  
 21  8 31 19 19 42.0000000  0 16G 5G10G13G15G18G23G24G29C19C22C29C35
                                E 3E 5E 9E36
  23371568.924   122818398.047    23371571.086    95702641.136                  
  24463091.884   128554335.938    24463096.834   100172189.492                  
  23048900.936   121122770.536    23048902.383    94381374.000                  
  20828994.205   109457100.227    20828995.152    85291245.835                  
  20653430.393   108534504.018    20653431.716    84572341.466                  
  22070718.508   115982397.839    22070720.134    90375893.496                  
  21469229.237   112821492.801    21469233.882    87912834.395                  
  22413563.142   117784033.807    22413565.644    91779757.230                  
                 118071849.613                   118071849.613    22674459.294  
                 120483521.558                   120483521.558    23137591.097  
                 126891418.425                   126891418.425    24368172.920  
                 115461029.977                   115461029.977    22173080.348  
  26676867.913   140187814.958                                                  
  23609377.243   124068092.940                                                  
  23137527.233   121588499.609                                                  
  23397102.560   122952537.947                                                  
 21  8 31 19 19 43.0000000  0 16G 5G10G13G15G18G23G24G29C19C22C29C35
                                E 3E 5E 9E36
  23371917.656   122820230.660    23371919.818    95704069.144                  
  24462742.366   128552499.185    24462747.315   100170758.258                  
  23049523.314   121126041.190    23049524.761    94383922.562                  
  20829403.799   109459252.686    20829404.764    85292923.078                  
  20653093.205   108532732.102    20653094.545    84570960.749                  
  22070478.241   115981135.242    22070479.885    90374909.657                  
  21468808.296   112819280.770    21468812.942    87911110.735                  
  22414117.708   117786948.020    22414120.191    91782028.038                  
                 118073176.863                   118073176.863    22674714.178  
                 120482996.161                   120482996.161    23137490.209  
                 126894608.477                   126894608.477    24368785.542  
                 115462218.988                   115462218.988    22173308.679  
  26676496.934   140185865.383                                                  
  23609359.803   124068001.274                                                  
  23137893.781   121590425.784                                                  
  23397201.680   122953058.817                                                  
 21  8 31 19 19 44.0000000  0 16G 5G10G13G15G18G23G24G29C19C22C29C35
                                E 3E 5E 9E36
  23372266.405   122822063.320    23372268.567    95705497.188                  
  24462392.812   128550662.417    24462397.779   100169327.012                  
  23050145.745   121129312.012    23050147.175    94386471.249                  
  20829813.482   109461405.503    20829814.447    85294600.593                  
  20652756.106   108530960.590    20652757.428    84569580.353                  
  22070237.974   115979872.702    22070239.618    90373925.859                  
  21468387.463   112817069.176    21468392.109    87909387.419                  
  22414672.326   117789862.496    22414674.792    91784299.059                  
                 118074504.144                   118074504.144    22674969.079  
                 120482470.919                   120482470.919    23137389.320  
                 126897798.661                   126897798.661    24369398.181  
                 115463408.505                   115463408.505    22173537.116  
  26676125.974   140183916.035                                                  
  23609342.417   124067909.889                                                  
  23138260.346   121592352.056                                                  
  23397300.889   122953580.104                                                  
 21  8 31 19 19 45.0000000  0 16G 5G10G13G15G18G23G24G29C19C22C29C35
                                E 3E 5E 9E36
  23372615.155   122823896.018    23372617.317    95706925.265                  
  24462043.294   128548825.637    24462048.261   100167895.757                  
  23050768.195   121132583.000    23050769.642    94389020.071                  
  20830223.201   109463558.661    20830224.166    85296278.378                  
  20652419.060   108529189.477    20652420.401    84568200.263                  
  22069997.743   115978610.223    22069999.387    90372942.109                  
  21467966.683   112814858.019    21467971.329    87907664.442                  
  22415226.981   117792777.249    22415229.465    91786570.292                  
                 118075831.452                   118075831.452    22675223.963  
                 120481945.825                   120481945.825    23137288.485  
                 126900988.969                   126900988.969    24370010.839  
                 115464598.525                   115464598.525    22173765.661  
  26675755.084   140181966.898                                                  
  23609325.084   124067818.804                                                  
  23138626.929   121594278.422                                                  
  23397400.169   122954101.817                                                  
 21  8 31 19 19 46.0000000  0 16G 5G10G13G15G18G23G24G29C19C22C29C35
                                E 3E 5E 9E36
  23372963.905   122825728.754    23372966.085    95708353.366                  
  24461693.758   128546988.836    24461698.725   100166464.484                  
  23051390.680   121135854.156    23051392.128    94391569.024                  
  20830632.991   109465712.173    20830633.956    85297956.442                  
  20652082.122   108527418.755    20652083.444    84566820.481                  
  22069757.494   115977347.785    22069759.156    90371958.391                  
  21467545.992   112812647.317    21467550.638    87905941.817                  
  22415781.689   117795692.265    22415784.173    91788841.734                  
                 118077158.797                   118077158.797    22675478.865  
                 120481420.888                   120481420.888    23137187.686  
                 126904179.411                   126904179.411    24370623.532  
                 115465789.048                   115465789.048    22173994.277  
  26675384.213   140180017.996                                                  
  23609307.804   124067727.992                                                  
  23138993.494   121596204.875                                                  
  23397499.503   122954623.926                                                  
 21  8 31 19 19 47.0000000  0 16G 5G10G13G15G18G23G24G29C19C22C29C35
                                E 3E 5E 9E36
  23373312.672   122827561.540    23373314.834    95709781.507                  
  24461344.222   128545152.027    24461349.172   100165033.207                  
  23052013.183   121139125.476    23052014.649    94394118.102                  
  20831042.889   109467866.026    20831043.836    85299634.769                  
  20651745.237   108525648.437    20651746.560    84565441.015                  
  22069517.281   115976085.403    22069518.925    90370974.715                  
  21467125.391   112810437.058    21467130.037    87904219.540                  
  22416336.433   117798607.557    22416338.934    91791113.386                  
                 118078486.163                   118078486.163    22675733.784  
                 120480896.105                   120480896.105    23137086.905  
                 126907369.978                   126907369.978    24371236.261  
                 115466980.074                   115466980.074    22174223.001  
  26675013.377   140178069.311                                                  
  23609290.579   124067637.488                                                  
  23139360.113   121598131.423                                                  
  23397598.944   122955146.472                                                  
 21  8 31 19 19 48.0000000  0 16G 5G10G13G15G18G23G24G29C19C22C29C35
                                E 3E 5E 9E36
  23373661.458   122829394.359    23373663.620    95711209.679                  
  24460994.704   128543315.206    24460999.654   100163601.922                  
  23052635.740   121142396.970    23052637.188    94396667.313                  
  20831452.804   109470020.234    20831453.751    85301313.371                  
  20651408.424   108523878.519    20651409.764    84564061.856                  
  22069277.067   115974823.079    22069278.711    90369991.091                  
  21466704.880   112808227.251    21466709.526    87902497.610                  
  22416891.266   117801523.117    22416893.767    91793385.250                  
                 118079813.566                   118079813.566    22675988.704  
                 120480371.473                   120480371.473    23136986.159  
                 126910560.672                   126910560.672    24371849.007  
                 115468171.606                   115468171.606    22174451.814  
  26674642.594   140176120.855                                                  
  23609273.407   124067547.250                                                  
  23139726.731   121600058.056                                                  
  23397698.457   122955669.438                                                  
 21  8 31 19 19 49.0000000  0 16G 5G10G13G15G18G23G24G29C19C22C29C35
                                E 3E 5E 9E36
  23374010.243   122831227.236    23374012.423    95712637.895                  
  24460645.168   128541478.368    24460650.118   100162170.622                  
  23053258.315   121145668.630    23053259.762    94399216.657                  
  20831862.809   109472174.797    20831863.756    85302992.251                  
  20651071.700   108522108.999    20651073.023    84562683.012                  
  22069036.854   115973560.800    22069038.516    90369007.496                  
  21466284.457   112806017.887    21466289.103    87900776.030                  
  22417446.117   117804438.949    22417448.619    91795657.325                  
                 118081140.993                   118081140.993    22676243.605  
                 120479846.995                   120479846.995    23136885.432  
                 126913751.492                   126913751.492    24372461.754  
                 115469363.635                   115469363.635    22174680.734  
  26674271.866   140174172.616                                                  
  23609256.306   124067457.312                                                  
  23140093.386   121601984.794                                                  
  23397798.058   122956192.817                                                  
 21  8 31 19 19 50.0000000  0 16G 5G10G13G15G18G23G24G29C19C22C29C35
                                E 3E 5E 9E36
  23374359.047   122833060.148    23374361.209    95714066.136                  
  24460295.596   128539641.515    24460300.564   100160739.308                  
  23053880.925   121148940.470    23053882.355    94401766.140                  
  20832272.885   109474329.700    20832273.814    85304671.394                  
  20650735.048   108520339.882    20650736.388    84561304.476                  
  22068796.677   115972298.573    22068798.321    90368023.946                  
  21465864.124   112803808.961    21465868.752    87899054.789                  
  22418001.039   117807355.043    22418003.541    91797929.601                  
                 118082468.452                   118082468.452    22676498.543  
                 120479322.672                   120479322.672    23136784.740  
                 126916942.446                   126916942.446    24373074.536  
                 115470556.177                   115470556.177    22174909.761  
  26673901.173   140172224.615                                                  
  23609239.223   124067367.656                                                  
  23140460.040   121603911.617                                                  
  23397897.732   122956716.616                                                  
 21  8 31 19 19 51.0000000  0 16G 5G10G13G15G18G23G24G29C19C22C29C35
                                E 3E 5E 9E36
  23374707.832   122834893.101    23374709.994    95715494.409                  
  24459946.060   128537804.653    24459951.028   100159307.989                  
  23054503.553   121152212.465    23054505.019    94404315.751                  
  20832682.997   109476484.956    20832683.962    85306350.816                  
  20650398.467   108518571.161    20650399.807    84559926.254                  
  22068556.481   115971036.406    22068558.143    90367040.438                  
  21465443.863   112801600.492    21465448.509    87897333.906                  
  22418555.998   117810271.406    22418558.499    91800202.094                  
                 118083795.925                   118083795.925    22676753.462  
                 120478798.517                   120478798.517    23136684.083  
                 126920133.519                   126920133.519    24373687.354  
                 115471749.203                   115471749.203    22175138.860  
  26673530.516   140170276.816                                                  
  23609222.212   124067278.291                                                  
  23140826.748   121605838.540                                                  
  23397997.495   122957240.832                                                  
 21  8 31 19 19 52.0000000  0 16G 5G10G13G15G18G23G24G29C19C22C29C35
                                E 3E 5E 9E36
  23375056.635   122836726.102    23375058.815    95716922.719                  
  24459596.524   128535967.779    24459601.474   100157876.656                  
  23055126.235   121155484.645    23055127.683    94406865.497                  
  20833093.198   109478640.564    20833094.163    85308030.508                  
  20650061.975   108516802.845    20650063.298    84558548.343                  
  22068316.322   115969774.296    22068317.965    90366056.976                  
  21465023.673   112799392.469    21465028.319    87895613.371                  
  22419111.027   117813188.048    22419113.511    91802474.798                  
                 118085123.442                   118085123.442    22677008.400  
                 120478274.495                   120478274.495    23136583.445  
                 126923324.726                   126923324.726    24374300.208  
                 115472942.751                   115472942.751    22175368.084  
  26673159.894   140168329.243                                                  
  23609205.272   124067189.212                                                  
  23141193.421   121607765.554                                                  
  23398097.329   122957765.461                                                  
 21  8 31 19 19 53.0000000  0 16G 5G10G13G15G18G23G24G29C19C22C29C35
                                E 3E 5E 9E36
  23375405.457   122838559.146    23375407.637    95718351.063                  
  24459246.953   128534130.876    24459251.920   100156445.308                  
  23055748.935   121158756.989    23055750.400    94409415.376                  
  20833503.453   109480796.515    20833504.418    85309710.468                  
  20649725.537   108515034.922    20649726.878    84557170.743                  
  22068076.162   115968512.234    22068077.806    90365073.551                  
  21464603.572   112797184.890    21464608.218    87893893.179                  
  22419666.093   117816104.949    22419668.594    91804747.707                  
                 118086450.988                   118086450.988    22677263.337  
                 120477750.634                   120477750.634    23136482.843  
                 126926516.063                   126926516.063    24374913.062  
                 115474136.798                   115474136.798    22175597.379  
  26672789.345   140166381.884                                                  
  23609188.386   124067100.422                                                  
  23141560.147   121609692.654                                                  
  23398197.235   122958290.522                                                  
 21  8 31 19 19 54.0000000  0 16G 5G10G13G15G18G23G24G29C19C22C29C35
                                E 3E 5E 9E36
  23375754.278   122840392.222    23375756.458    95719779.434                  
  24458897.417   128532293.970    24458902.384   100155013.953                  
  23056371.688   121162029.495    23056373.136    94411965.378                  
  20833913.797   109482952.809    20833914.762    85311390.699                  
  20649389.207   108513267.409    20649390.511    84555793.461                  
  22067836.002   115967250.219    22067837.646    90364090.165                  
  21464183.578   112794977.759    21464188.224    87892173.335                  
  22420221.212   117819022.125    22420223.714    91807020.827                  
                 118087778.564                   118087778.564    22677518.274  
                 120477226.921                   120477226.921    23136382.276  
                 126929707.523                   126929707.523    24375525.952  
                 115475331.348                   115475331.348    22175826.781  
  26672418.795   140164434.746                                                  
  23609171.535   124067011.922                                                  
  23141926.873   121611619.853                                                  
  23398297.247   122958816.000                                                  
 21  8 31 19 19 55.0000000  0 16G 5G10G13G15G18G23G24G29C19C22C29C35
                                E 3E 5E 9E36
  23376103.117   122842225.352    23376105.297    95721207.844                  
  24458547.863   128530457.046    24458552.812   100153582.586                  
  23056994.459   121165302.188    23056995.907    94414515.524                  
  20834324.195   109485109.461    20834325.160    85313071.208                  
  20649052.912   108511500.296    20649054.252    84554416.488                  
  22067595.860   115965988.268    22067597.504    90363106.824                  
  21463763.656   112792771.083    21463768.302    87890453.852                  
  22420776.402   117821939.571    22420778.904    91809294.159                  
                 118089106.168                   118089106.168    22677773.247  
                 120476703.362                   120476703.362    23136281.727  
                 126932899.113                   126932899.113    24376138.859  
                 115476526.402                   115476526.402    22176056.273  
  26672048.316   140162487.827                                                  
  23609154.738   124066923.715                                                  
  23142293.634   121613547.146                                                  
  23398397.314   122959341.900                                                  
 21  8 31 19 19 56.0000000  0 16G 5G10G13G15G18G23G24G29C19C22C29C35
                                E 3E 5E 9E36
  23376451.956   122844058.519    23376454.136    95722636.284                  
  24458198.309   128528620.111    24458203.259   100152151.208                  
  23057617.266   121168575.040    23057618.714    94417065.796                  
  20834734.665   109487266.457    20834735.612    85314751.981                  
  20648716.742   108509733.579    20648718.064    84553039.825                  
  22067355.719   115964726.364    22067357.363    90362123.523                  
  21463343.841   112790564.838    21463348.452    87888734.700                  
  22421331.629   117824857.284    22421334.112    91811567.702                  
                 118090433.804                   118090433.804    22678028.203  
                 120476179.958                   120476179.958    23136181.213  
                 126936090.829                   126936090.829    24376751.803  
                 115477721.958                   115477721.958    22176285.872  
  26671677.873   140160541.152                                                  
  23609138.013   124066835.784                                                  
  23142660.396   121615474.532                                                  
  23398497.452   122959868.211                                                  
 21  8 31 19 19 57.0000000  0 16G 5G10G13G15G18G23G24G29C19C22C29C35
                                E 3E 5E 9E36
  23376800.795   122845891.728    23376802.975    95724064.758                  
  24457848.737   128526783.152    24457853.705   100150719.816                  
  23058240.091   121171848.062    23058241.556    94419616.203                  
  20835145.188   109489423.796    20835146.135    85316433.027                  
  20648380.625   108507967.264    20648381.948    84551663.476                  
  22067115.595   115963464.516    22067117.239    90361140.262                  
  21462924.080   112788359.046    21462928.726    87887015.905                  
  22421886.909   117827775.262    22421889.392    91813841.449                  
                 118091761.466                   118091761.466    22678283.158  
                 120475656.704                   120475656.704    23136080.718  
                 126939282.675                   126939282.675    24377364.764  
                 115478918.021                   115478918.021    22176515.561  
  26671307.484   140158594.706                                                  
  23609121.341   124066748.141                                                  
  23143027.176   121617402.004                                                  
  23398597.697   122960394.929                                                  
 21  8 31 19 19 58.0000000  0 16G 5G10G13G15G18G23G24G29C19C22C29C35
                                E 3E 5E 9E36
  23377149.652   122847724.984    23377151.832    95725493.269                  
  24457499.183   128524946.187    24457504.115   100149288.415                  
  23058862.987   121175121.255    23058864.417    94422166.742                  
  20835555.782   109491581.481    20835556.747    85318114.340                  
  20648044.581   108506201.349    20648045.903    84550287.442                  
  22066875.489   115962202.715    22066877.133    90360157.048                  
  21462504.426   112786153.708    21462509.054    87885297.458                  
  22422442.224   117830693.509    22422444.726    91816115.405                  
                 118093089.161                   118093089.161    22678538.149  
                 120475133.605                   120475133.605    23135980.276  
                 126942474.644                   126942474.644    24377977.761  
                 115480114.583                   115480114.583    22176745.356  
  26670937.113   140156648.430                                                  
  23609104.723   124066660.789                                                  
  23143394.009   121619329.573                                                  
  23398698.014   122960922.088                                                  
 21  8 31 19 19 59.0000000  0 16G 5G10G13G15G18G23G24G29C19C22C29C35
                                E 3E 5E 9E36
  23377498.545   122849558.286    23377500.707    95726921.817                  
  24457149.594   128523109.208    24457154.561   100147857.004                  
  23059485.884   121178394.617    23059487.313    94424717.410                  
  20835966.448   109493739.519    20835967.395    85319795.925                  
  20647708.607   108504435.829    20647709.912    84548911.710                  
  22066635.383   115960940.970    22066637.044    90359173.867                  
  21462084.844   112783948.805    21462089.472    87883579.356                  
  22422997.593   117833612.020    22423000.095    91818389.565                  
                 118094416.884                   118094416.884    22678793.104  
                 120474610.657                   120474610.657    23135879.834  
                 126945666.746                   126945666.746    24378590.757  
                 115481311.649                   115481311.649    22176975.241  
  26670566.795   140154702.413                                                  
  23609088.140   124066573.715                                                  
  23143760.824   121621257.230                                                  
  23398798.402   122961449.649                                                  
 21  8 31 19 20  0.0000000  0 16G 5G10G13G15G18G23G24G29C19C22C29C35
                                E 3E 5E 9E36
  23377847.402   122851391.621    23377849.582    95728350.387                  
  24456800.040   128521272.208    24456804.972   100146425.578                  
  23060108.798   121181668.132    23060110.263    94427268.199                  
  20836377.185   109495897.914    20836378.114    85321477.792                  
  20647372.723   108502670.711    20647374.046    84547536.296                  
  22066395.294   115959679.277    22066396.938    90358190.730                  
  21461665.333   112781744.359    21461669.979    87881861.606                  
  22423553.016   117836530.805    22423555.518    91820663.945                  
                 118095744.634                   118095744.634    22679048.077  
                 120474087.863                   120474087.863    23135779.446  
                 126948858.973                   126948858.973    24379203.808  
                 115482509.214                   115482509.214    22177205.216  
  26670196.514   140152756.621                                                  
  23609071.612   124066486.926                                                  
  23144127.657   121623184.981                                                  
  23398898.880   122961977.636                                                  
 21  8 31 19 20  1.0000000  0 16G 5G10G13G15G18G23G24G29C19C22C29C35
                                E 3E 5E 9E36
  23378196.276   122853225.008    23378198.456    95729778.996                  
  24456450.468   128519435.199    24456455.418   100144994.145                  
  23060731.766   121184941.832    23060733.213    94429819.136                  
  20836787.958   109498056.656    20836788.923    85323159.926                  
  20647036.893   108500906.001    20647038.215    84546161.195                  
  22066155.224   115958417.632    22066156.868    90357207.630                  
  21461245.947   112779540.362    21461250.575    87880144.206                  
  22424108.493   117839449.856    22424110.994    91822938.528                  
                 118097072.409                   118097072.409    22679303.086  
                 120473565.223                   120473565.223    23135679.076  
                 126952051.325                   126952051.325    24379816.858  
                 115483707.289                   115483707.289    22177435.297  
  26669826.303   140150811.032                                                  
  23609055.172   124066400.441                                                  
  23144494.508   121625112.825                                                  
  23398999.446   122962506.051                                                  
 21  8 31 19 20  2.0000000  0 16G 5G10G13G15G18G23G24G29C19C22C29C35
                                E 3E 5E 9E36
  23378545.187   122855058.434    23378547.367    95731207.637                  
  24456100.879   128517598.184    24456105.846   100143562.703                  
  23061354.751   121188215.700    23061356.216    94432370.199                  
  20837198.821   109500215.746    20837199.786    85324842.337                  
  20646701.152   108499141.685    20646702.474    84544786.403                  
  22065915.136   115957156.048    22065916.780    90356224.577                  
  21460826.614   112777336.809    21460831.260    87878427.151                  
  22424664.023   117842369.175    22424666.542    91825213.320                  
                 118098400.223                   118098400.223    22679558.059  
                 120473042.734                   120473042.734    23135578.741  
                 126955243.806                   126955243.806    24380429.944  
                 115484905.864                   115484905.864    22177665.486  
  26669456.093   140148865.669                                                  
  23609038.768   124066314.230                                                  
  23144861.377   121627040.767                                                  
  23399100.067   122963034.871                                                  
 21  8 31 19 20  3.0000000  0 16G 5G10G13G15G18G23G24G29C19C22C29C35
                                E 3E 5E 9E36
  23378894.080   122856891.895    23378896.260    95732636.308                  
  24455751.307   128515761.143    24455756.257   100142131.247                  
  23061977.808   121191489.731    23061979.238    94434921.386                  
  20837609.755   109502375.184    20837610.720    85326525.013                  
  20646365.500   108497377.773    20646366.822    84543411.929                  
  22065675.083   115955894.517    22065676.727    90355241.566                  
  21460407.371   112775133.704    21460412.017    87876710.449                  
  22425219.606   117845288.754    22425222.126    91827488.317                  
                 118099728.060                   118099728.060    22679813.068  
                 120472520.399                   120472520.399    23135478.443  
                 126958436.411                   126958436.411    24381043.048  
                 115486104.942                   115486104.942    22177895.746  
  26669085.954   140146920.534                                                  
  23609022.418   124066228.316                                                  
  23145228.282   121628968.790                                                  
  23399200.777   122963564.125                                                  
 21  8 31 19 20  4.0000000  0 16G 5G10G13G15G18G23G24G29C19C22C29C35
                                E 3E 5E 9E36
  23379242.972   122858725.418    23379245.152    95734065.027                  
  24455401.717   128513924.085    24455406.685   100140699.777                  
  23062600.865   121194763.930    23062602.295    94437472.712                  
  20838020.742   109504534.964    20838021.707    85328207.956                  
  20646029.920   108495614.267    20646031.242    84542037.765                  
  22065435.013   115954633.033    22065436.657    90354258.594                  
  21459988.218   112772931.039    21459992.864    87874994.089                  
  22425775.244   117848208.612    22425777.745    91829763.526                  
                 118101055.926                   118101055.926    22680068.059  
                 120471998.216                   120471998.216    23135378.162  
                 126961629.144                   126961629.144    24381656.188  
                 115487304.522                   115487304.522    22178126.096  
  26668715.833   140144975.617                                                  
  23609006.122   124066142.688                                                  
  23145595.187   121630896.911                                                  
  23399301.558   122964093.790                                                  
 21  8 31 19 20  5.0000000  0 16G 5G10G13G15G18G23G24G29C19C22C29C35
                                E 3E 5E 9E36
  23379591.901   122860558.984    23379594.081    95735493.778                  
  24455052.146   128512087.026    24455057.096   100139268.301                  
  23063223.940   121198038.302    23063225.406    94440024.168                  
  20838431.801   109506695.097    20838432.766    85329891.179                  
  20645694.393   108493851.156    20645695.733    84540663.913                  
  22065194.978   115953371.604    22065196.622    90353275.660                  
  21459569.153   112770728.836    21459573.799    87873278.086                  
  22426330.917   117851128.738    22426333.418    91832038.949                  
                 118102383.824                   118102383.824    22680323.085  
                 120471476.184                   120471476.184    23135277.899  
                 126964822.008                   126964822.008    24382269.346  
                 115488504.606                   115488504.606    22178356.588  
  26668345.783   140143030.917                                                  
  23608989.879   124066057.355                                                  
  23145962.127   121632825.122                                                  
  23399402.447   122964623.866                                                  
 21  8 31 19 20  6.0000000  0 16G 5G10G13G15G18G23G24G29C19C22C29C35
                                E 3E 5E 9E36
  23379940.811   122862392.586    23379942.991    95736922.559                  
  24454702.556   128510249.950    24454707.524   100137836.813                  
  23063847.087   121201312.835    23063848.516    94442575.755                  
  20838842.932   109508855.578    20838843.897    85331574.669                  
  20645358.974   108492088.445    20645360.296    84539290.374                  
  22064954.962   115952110.234    22064956.606    90352292.777                  
  21459150.178   112768527.075    21459154.824    87871562.431                  
  22426886.661   117854049.133    22426889.163    91834314.579                  
                 118103711.745                   118103711.745    22680578.094  
                 120470954.305                   120470954.305    23135177.671  
                 126968014.992                   126968014.992    24382882.521  
                 115489705.190                   115489705.190    22178587.134  
  26667975.751   140141086.461                                                  
  23608973.707   124065972.288                                                  
  23146329.067   121634753.430                                                  
  23399503.407   122965154.379                                                  
 21  8 31 19 20  7.0000000  0 16G 5G10G13G15G18G23G24G29C19C22C29C35
                                E 3E 5E 9E36
  23380289.757   122864226.226    23380291.937    95738351.367                  
  24454352.985   128508412.859    24454357.916   100136405.316                  
  23064470.233   121204587.539    23064471.681    94445127.465                  
  20839254.116   109511016.380    20839255.081    85333258.410                  
  20645023.626   108490326.138    20645024.948    84537917.148                  
  22064714.945   115950848.918    22064716.571    90351309.933                  
  21458731.275   112766325.755    21458735.921    87869847.116                  
  22427442.441   117856969.790    22427444.943    91836590.411                  
                 118105039.704                   118105039.704    22680833.121  
                 120470432.581                   120470432.581    23135077.480  
                 126971208.106                   126971208.106    24383495.715  
                 115490906.280                   115490906.280    22178817.806  
  26667605.773   140139142.230                                                  
  23608957.554   124065887.515                                                  
  23146696.026   121636681.835                                                  
  23399604.420   122965685.300                                                  
 21  8 31 19 20  8.0000000  0 16G 5G10G13G15G18G23G24G29C19C22C29C35
                                E 3E 5E 9E36
  23380638.704   122866059.922    23380640.884    95739780.216                  
  24454003.377   128506575.742    24454008.345   100134973.800                  
  23065093.415   121207862.413    23065094.881    94447679.312                  
  20839665.371   109513177.581    20839666.336    85334942.460                  
  20644688.331   108488564.240    20644689.654    84536544.238                  
  22064474.928   115949587.630    22064476.554    90350327.113                  
  21458312.461   112764124.892    21458317.107    87868132.160                  
  22427998.275   117859890.707    22428000.777    91838866.448                  
                 118106367.683                   118106367.683    22681088.148  
                 120469911.009                   120469911.009    23134977.324  
                 126974401.348                   126974401.348    24384108.962  
                 115492107.876                   115492107.876    22179048.548  
  26667235.849   140137198.178                                                  
  23608941.472   124065803.038                                                  
  23147063.002   121638610.296                                                  
  23399705.541   122966216.632                                                  
 21  8 31 19 20  9.0000000  0 16G 5G10G13G15G18G23G24G29C19C22C29C35
                                E 3E 5E 9E36
  23380987.632   122867893.647    23380989.812    95741209.093                  
  24453653.788   128504738.625    24453658.737   100133542.280                  
  23065716.633   121211137.454    23065718.099    94450231.293                  
  20840076.698   109515339.101    20840077.663    85336626.762                  
  20644353.144   108486802.737    20644354.467    84535171.641                  
  22064234.912   115948326.419    22064236.556    90349344.351                  
  21457893.736   112761924.475    21457898.382    87866417.550                  
  22428554.163   117862811.895    22428556.664    91841142.696                  
                 118107695.694                   118107695.694    22681343.156  
                 120469389.590                   120469389.590    23134877.186  
                 126977594.715                   126977594.715    24384722.209  
                 115493309.969                   115493309.969    22179279.398  
  26666865.942   140135254.368                                                  
  23608925.461   124065718.851                                                  
  23147429.996   121640538.886                                                  
  23399806.715   122966748.395                                                  
 21  8 31 19 20 10.0000000  0 16G 5G10G13G15G18G23G24G29C19C22C29C35
                                E 3E 5E 9E36
  23381336.596   122869727.419    23381338.776    95742638.004                  
  24453304.180   128502901.481    24453309.148   100132110.742                  
  23066339.905   121214412.656    23066341.334    94452783.398                  
  20840488.097   109517500.965    20840489.062    85338311.331                  
  20644017.993   108485041.628    20644019.333    84533799.352                  
  22063994.913   115947065.249    22063996.557    90348361.626                  
  21457475.100   112759724.496    21457479.746    87864703.285                  
  22429110.104   117865733.356    22429112.605    91843419.161                  
                 118109023.737                   118109023.737    22681598.201  
                 120468868.320                   120468868.320    23134777.083  
                 126980788.207                   126980788.207    24385335.474  
                 115494512.565                   115494512.565    22179510.337  
  26666496.107   140133310.788                                                  
  23608909.504   124065634.941                                                  
  23147797.008   121642467.555                                                  
  23399907.997   122967280.572                                                  
 21  8 31 19 20 11.0000000  0 16G 5G10G13G15G18G23G24G29C19C22C29C35
                                E 3E 5E 9E36
  23381685.560   122871561.235    23381687.758    95744066.953                  
  24452954.573   128501064.331    24452959.540   100130679.199                  
  23066963.176   121217688.044    23066964.642    94455335.644                  
  20840899.567   109519663.187    20840900.514    85339996.180                  
  20643682.967   108483280.927    20643684.289    84532427.375                  
  22063754.932   115945804.137    22063756.576    90347378.937                  
  21457056.536   112757524.986    21457061.182    87862989.379                  
  22429666.081   117868655.074    22429668.582    91845695.825                  
                 118110351.810                   118110351.810    22681853.246  
                 120468347.206                   120468347.206    23134677.017  
                 126983981.824                   126983981.824    24385948.774  
                 115495715.665                   115495715.665    22179741.384  
  26666126.272   140131367.421                                                  
  23608893.583   124065551.321                                                  
  23148164.037   121644396.321                                                  
  23400009.332   122967813.165                                                  
 21  8 31 19 20 12.0000000  0 16G 5G10G13G15G18G23G24G29C19C22C29C35
                                E 3E 5E 9E36
  23382034.542   122873395.095    23382036.722    95745495.931                  
  24452604.983   128499227.164    24452609.933   100129247.640                  
  23067586.501   121220963.575    23067587.949    94457888.008                  
  20841311.073   109521825.761    20841312.038    85341681.305                  
  20643347.976   108481520.636    20643349.316    84531055.718                  
  22063514.969   115944543.078    22063516.595    90346396.294                  
  21456638.080   112755325.919    21456642.708    87861275.825                  
  22430222.129   117871577.069    22430224.613    91847972.700                  
                 118111679.905                   118111679.905    22682108.308  
                 120467826.247                   120467826.247    23134576.968  
                 126987175.570                   126987175.570    24386562.128  
                 115496919.267                   115496919.267    22179972.520  
  26665756.526   140129424.279                                                  
  23608877.733   124065467.985                                                  
  23148531.085   121646325.172                                                  
  23400110.775   122968346.187                                                  
 21  8 31 19 20 13.0000000  0 16G 5G10G13G15G18G23G24G29C19C22C29C35
                                E 3E 5E 9E36
  23382383.524   122875228.993    23382385.704    95746924.942                  
  24452255.376   128497389.985    24452260.343   100127816.075                  
  23068209.844   121224239.294    23068211.292    94460440.511                  
  20841722.668   109523988.673    20841723.615    85343366.683                  
  20643013.075   108479760.739    20643014.415    84529684.372                  
  22063275.006   115943282.076    22063276.632    90345413.694                  
  21456219.676   112753127.289    21456224.322    87859562.609                  
  22430778.195   117874499.328    22430780.714    91850249.782                  
                 118113008.030                   118113008.030    22682363.335  
                 120467305.433                   120467305.433    23134476.937  
                 126990369.443                   126990369.443    24387175.465  
                 115498123.372                   115498123.372    22180203.763  
  26665386.798   140127481.372                                                  
  23608861.919   124065384.940                                                  
  23148898.168   121648254.114                                                  
  23400212.289   122968879.620                                                  
 21  8 31 19 20 14.0000000  0 16G 5G10G13G15G18G23G24G29C19C22C29C35
                                E 3E 5E 9E36
  23382732.524   122877062.942    23382734.704    95748353.988                  
  24451905.786   128495552.786    24451910.718   100126384.493                  
  23068833.223   121227515.177    23068834.688    94462993.145                  
  20842134.316   109526151.933    20842135.281    85345052.343                  
  20642678.263   108478001.243    20642679.603    84528313.336                  
  22063035.060   115942021.117    22063036.704    90344431.129                  
  21455801.398   112750929.129    21455806.026    87857849.757                  
  22431334.332   117877421.851    22431336.852    91852527.070                  
                 118114336.187                   118114336.187    22682618.397  
                 120466784.776                   120466784.776    23134376.960  
                 126993563.438                   126993563.438    24387788.837  
                 115499327.978                   115499327.978    22180435.095  
  26665017.106   140125538.649                                                  
  23608846.176   124065302.183                                                  
  23149265.234   121650183.159                                                  
  23400313.874   122969413.475                                                  
 21  8 31 19 20 15.0000000  0 16G 5G10G13G15G18G23G24G29C19C22C29C35
                                E 3E 5E 9E36
  23383081.506   122878896.931    23383083.704    95749783.071                  
  24451556.161   128493715.574    24451561.128   100124952.897                  
  23069456.638   121230791.221    23069458.103    94465545.910                  
  20842546.037   109528315.543    20842547.001    85346738.273                  
  20642343.522   108476242.144    20642344.845    84526942.610                  
  22062795.115   115940760.213    22062796.759    90343448.609                  
  21455383.174   112748731.403    21455387.802    87856137.241                  
  22431890.542   117880344.652    22431893.043    91854804.573                  
                 118115664.375                   118115664.375    22682873.477  
                 120466264.270                   120466264.270    23134277.001  
                 126996757.564                   126996757.564    24388402.245  
                 115500533.086                   115500533.086    22180666.517  
  26664647.467   140123596.182                                                  
  23608830.487   124065219.705                                                  
  23149632.335   121652112.286                                                  
  23400415.549   122969947.750                                                  
 21  8 31 19 20 16.0000000  0 16G 5G10G13G15G18G23G24G29C19C22C29C35
                                E 3E 5E 9E36
  23383430.524   122880730.949    23383432.704    95751212.171                  
  24451206.535   128491878.354    24451211.503   100123521.304                  
  23070080.088   121234067.442    23070081.535    94468098.804                  
  20842957.846   109530479.508    20842958.793    85348424.480                  
  20642008.853   108474483.462    20642010.176    84525572.208                  
  22062555.188   115939499.363    22062556.814    90342466.128                  
  21454965.039   112746534.129    21454969.685    87854425.082                  
  22432446.786   117883267.703    22432449.288    91857082.273                  
                 118116992.587                   118116992.587    22683128.540  
                 120465743.919                   120465743.919    23134177.077  
                 126999951.812                   126999951.812    24389015.653  
                 115501738.698                   115501738.698    22180898.046  
  26664277.864   140121653.930                                                  
  23608814.834   124065137.522                                                  
  23149999.454   121654041.504                                                  
  23400517.295   122970482.442                                                  
 21  8 31 19 20 17.0000000  0 16G 5G10G13G15G18G23G24G29C19C22C29C35
                                E 3E 5E 9E36
  23383779.524   122882565.009    23383781.722    95752641.300                  
  24450856.946   128490041.149    24450861.878   100122089.729                  
  23070703.556   121237343.812    23070705.021    94470651.813                  
  20843369.691   109532643.840    20843370.656    85350110.976                  
  20641674.256   108472725.173    20641675.596    84524202.110                  
  22062315.260   115938238.648    22062316.904    90341483.789                  
  21454546.993   112744337.290    21454551.639    87852713.250                  
  22433003.085   117886191.004    22433005.586    91859360.156                  
                 118118320.828                   118118320.828    22683383.620  
                 120465223.719                   120465223.719    23134077.172  
                 127003146.188                   127003146.188    24389629.114  
                 115502944.812                   115502944.812    22181129.664  
  26663908.297   140119711.859                                                  
  23608799.252   124065055.640                                                  
  23150366.609   121655970.824                                                  
  23400619.113   122971017.559                                                  
 21  8 31 19 20 18.0000000  0 16G 5G10G13G15G18G23G24G29C19C22C29C35
                                E 3E 5E 9E36
  23384128.542   122884399.118    23384130.740    95754070.476                  
  24450507.321   128488203.882    24450512.252   100120658.097                  
  23071327.060   121240620.356    23071328.525    94473204.962                  
  20843781.626   109534808.512    20843782.573    85351797.734                  
  20641339.766   108470967.286    20641341.088    84522832.328                  
  22062075.333   115936977.903    22062076.977    90340501.396                  
  21454129.037   112742140.914    21454133.682    87851001.788                  
  22433559.419   117889114.595    22433561.921    91861638.276                  
                 118119649.098                   118119649.098    22683638.700  
                 120464703.667                   120464703.667    23133977.302  
                 127006340.686                   127006340.686    24390242.575  
                 115504151.427                   115504151.427    22181361.372  
  26663538.784   140117770.035                                                  
  23608783.724   124064974.024                                                  
  23150733.764   121657900.242                                                  
  23400721.020   122971553.079                                                  
 21  8 31 19 20 19.0000000  0 16G 5G10G13G15G18G23G24G29C19C22C29C35
                                E 3E 5E 9E36
  23384477.577   122886233.278    23384479.757    95755499.691                  
  24450157.695   128486366.624    24450162.645   100119226.472                  
  23071950.599   121243897.064    23071952.065    94475758.238                  
  20844193.596   109536973.537    20844194.561    85353484.766                  
  20641005.311   108469209.803    20641006.634    84521462.863                  
  22061835.441   115935717.211    22061837.085    90339519.036                  
  21453711.187   112739944.984    21453715.797    87849290.676                  
  22434115.807   117892038.447    22434118.326    91863916.601                  
                 118120977.398                   118120977.398    22683893.781  
                 120464183.774                   120464183.774    23133877.467  
                 127009535.313                   127009535.313    24390856.073  
                 115505358.542                   115505358.542    22181593.204  
  26663169.324   140115828.442                                                  
  23608768.267   124064892.698                                                  
  23151100.918   121659829.742                                                  
  23400823.016   122972089.035                                                  
 21  8 31 19 20 20.0000000  0 16G 5G10G13G15G18G23G24G29C19C22C29C35
                                E 3E 5E 9E36
  23384826.613   122888067.475    23384828.793    95756928.934                  
  24449808.052   128484529.336    24449813.020   100117794.820                  
  23072574.175   121247173.945    23072575.640    94478311.652                  
  20844605.656   109539138.919    20844606.621    85355172.074                  
  20640670.964   108467452.726    20640672.286    84520093.710                  
  22061595.568   115934456.575    22061597.194    90338536.722                  
  21453293.392   112737749.503    21453298.020    87847579.914                  
  22434672.248   117894962.575    22434674.768    91866195.139                  
                 118122305.726                   118122305.726    22684148.879  
                 120463664.028                   120463664.028    23133777.651  
                 127012730.064                   127012730.064    24391469.605  
                 115506566.163                   115506566.163    22181825.126  
  26662799.882   140113887.070                                                  
  23608752.846   124064811.664                                                  
  23151468.127   121661759.320                                                  
  23400925.084   122972625.402                                                  
 21  8 31 19 20 21.0000000  0 16G 5G10G13G15G18G23G24G29C19C22C29C35
                                E 3E 5E 9E36
  23385175.667   122889901.726    23385177.847    95758358.220                  
  24449458.445   128482692.040    24449463.377   100116363.160                  
  23073197.786   121250450.987    23073199.233    94480865.187                  
  20845017.787   109541304.630    20845018.734    85356859.641                  
  20640336.652   108465696.048    20640337.993    84518724.872                  
  22061355.658   115933195.983    22061357.320    90337554.445                  
  21452875.703   112735554.486    21452880.313    87845869.511                  
  22435228.743   117897886.958    22435231.263    91868473.880                  
                 118123634.083                   118123634.083    22684403.977  
                 120463144.432                   120463144.432    23133677.888  
                 127015924.940                   127015924.940    24392083.138  
                 115507774.284                   115507774.284    22182057.120  
  26662430.493   140111945.920                                                  
  23608737.461   124064730.908                                                  
  23151835.317   121663688.996                                                  
  23401027.241   122973162.186                                                  
 21  8 31 19 20 22.0000000  0 16G 5G10G13G15G18G23G24G29C19C22C29C35
                                E 3E 5E 9E36
  23385524.720   122891736.023    23385526.900    95759787.540                  
  24449108.802   128480854.717    24449113.751   100114931.485                  
  23073821.397   121253728.200    23073822.862    94483418.859                  
  20845429.972   109543470.690    20845430.937    85358547.481                  
  20640002.466   108463939.775    20640003.788    84517356.343                  
  22061115.802   115931935.453    22061117.446    90336572.216                  
  21452458.086   112733359.903    21452462.697    87844159.449                  
  22435785.274   117900811.608    22435787.793    91870752.828                  
                 118124962.469                   118124962.469    22684659.075  
                 120462624.997                   120462624.997    23133578.126  
                 127019119.941                   127019119.941    24392696.725  
                 115508982.911                   115508982.911    22182289.221  
  26662061.141   140110005.003                                                  
  23608722.165   124064650.442                                                  
  23152202.544   121665618.763                                                  
  23401129.452   122973699.390                                                  
 21  8 31 19 20 23.0000000  0 16G 5G10G13G15G18G23G24G29C19C22C29C35
                                E 3E 5E 9E36
  23385873.774   122893570.352    23385875.954    95761216.888                  
  24448759.176   128479017.392    24448764.126   100113499.800                  
  23074445.079   121257005.582    23074446.544    94485972.664                  
  20845842.228   109545637.085    20845843.175    85360235.578                  
  20639668.315   108462183.895    20639669.655    84515988.129                  
  22060875.946   115930674.969    22060877.572    90335590.018                  
  21452040.541   112731165.775    21452045.187    87842449.738                  
  22436341.876   117903736.529    22436344.396    91873031.980                  
                 118126290.879                   118126290.879    22684914.173  
                 120462105.706                   120462105.706    23133478.399  
                 127022315.071                   127022315.071    24393310.294  
                 115510192.035                   115510192.035    22182521.429  
  26661691.841   140108064.311                                                  
  23608706.905   124064570.255                                                  
  23152569.788   121667548.617                                                  
  23401231.752   122974237.022                                                  
 21  8 31 19 20 24.0000000  0 16G 5G10G13G15G18G23G24G29C19C22C29C35
                                E 3E 5E 9E36
  23386222.863   122895404.726    23386225.043    95762646.265                  
  24448409.533   128477180.046    24448414.483   100112068.106                  
  23075068.780   121260283.121    23075070.245    94488526.585                  
  20846254.538   109547803.831    20846255.503    85361923.952                  
  20639334.272   108460428.425    20639335.594    84514620.231                  
  22060636.073   115929414.538    22060637.716    90334607.867                  
  21451623.103   112728972.098    21451627.749    87840740.382                  
  22436898.514   117906661.698    22436901.033    91875311.335                  
                 118127619.324                   118127619.324    22685169.307  
                 120461586.570                   120461586.570    23133378.707  
                 127025510.319                   127025510.319    24393923.916  
                 115511401.665                   115511401.665    22182753.726  
  26661322.578   140106123.825                                                  
  23608691.680   124064490.359                                                  
  23152937.032   121669478.566                                                  
  23401334.159   122974775.062                                                  
 21  8 31 19 20 25.0000000  0 16G 5G10G13G15G18G23G24G29C19C22C29C35
                                E 3E 5E 9E36
  23386571.934   122897239.150    23386574.114    95764075.684                  
  24448059.908   128475342.688    24448064.840   100110636.399                  
  23075692.498   121263560.829    23075693.963    94491080.642                  
  20846666.919   109549970.922    20846667.902    85363612.594                  
  20639000.300   108458673.364    20639001.622    84513252.649                  
  22060396.234   115928154.163    22060397.878    90333625.759                  
  21451205.736   112726778.871    21451210.382    87839031.374                  
  22437455.223   117909587.153    22437457.743    91877590.905                  
                 118128947.794                   118128947.794    22685424.423  
                 120461067.585                   120461067.585    23133279.034  
                 127028705.698                   127028705.698    24394537.556  
                 115512611.792                   115512611.792    22182986.113  
  26660953.368   140104183.559                                                  
  23608676.545   124064410.759                                                  
  23153304.312   121671408.605                                                  
  23401436.620   122975313.536                                                  
 21  8 31 19 20 26.0000000  0 16G 5G10G13G15G18G23G24G29C19C22C29C35
                                E 3E 5E 9E36
  23386921.023   122899073.608    23386923.203    95765505.132                  
  24447710.265   128473505.315    24447715.196   100109204.685                  
  23076316.252   121266838.711    23076317.717    94493634.835                  
  20847079.372   109552138.355    20847080.337    85365301.503                  
  20638666.399   108456918.699    20638667.721    84511885.379                  
  22060156.396   115926893.844    22060158.058    90332643.687                  
  21450788.476   112724586.099    21450793.104    87837322.718                  
  22438011.969   117912512.871    22438014.488    91879870.688                  
                 118130276.288                   118130276.288    22685679.539  
                 120460548.755                   120460548.755    23133179.396  
                 127031901.200                   127031901.200    24395151.214  
                 115513822.425                   115513822.425    22183218.606  
  26660584.176   140102243.525                                                  
  23608661.446   124064331.429                                                  
  23153671.592   121673338.739                                                  
  23401539.153   122975852.418                                                  
 21  8 31 19 20 27.0000000  0 16G 5G10G13G15G18G23G24G29C19C22C29C35
                                E 3E 5E 9E36
  23387270.113   122900908.117    23387272.293    95766934.617                  
  24447360.621   128471667.922    24447365.553   100107772.950                  
  23076940.059   121270116.762    23076941.525    94496189.156                  
  20847491.896   109554306.132    20847492.861    85366990.680                  
  20638332.552   108455164.433    20638333.892    84510518.421                  
  22059916.576   115925633.575    22059918.220    90331661.659                  
  21450371.288   112722393.760    21450375.916    87835614.409                  
  22438568.767   117915438.851    22438571.287    91882150.668                  
                 118131604.817                   118131604.817    22685934.673  
                 120460030.075                   120460030.075    23133079.776  
                 127035096.829                   127035096.829    24395764.925  
                 115515033.559                   115515033.559    22183451.208  
  26660215.038   140100303.708                                                  
  23608646.400   124064252.399                                                  
  23154038.925   121675268.957                                                  
  23401641.792   122976391.714                                                  
 21  8 31 19 20 28.0000000  0 16G 5G10G13G15G18G23G24G29C19C22C29C35
                                E 3E 5E 9E36
  23387619.220   122902742.681    23387621.418    95768364.145                  
  24447010.960   128469830.517    24447015.892   100106341.208                  
  23077563.885   121273394.973    23077565.332    94498743.608                  
  20847904.474   109556474.255    20847905.439    85368680.124                  
  20637998.812   108453410.577    20638000.135    84509151.781                  
  22059676.774   115924373.356    22059678.418    90330679.672                  
  21449954.172   112720201.886    21449958.800    87833906.453                  
  22439125.620   117918365.085    22439128.121    91884430.848                  
                 118132933.372                   118132933.372    22686189.807  
                 120459511.547                   120459511.547    23132980.228  
                 127038292.578                   127038292.578    24396378.619  
                 115516245.192                   115516245.192    22183683.880  
  26659845.953   140098364.105                                                  
  23608631.426   124064173.656                                                  
  23154406.241   121677199.270                                                  
  23401744.504   122976931.441                                                  
 21  8 31 19 20 29.0000000  0 16G 5G10G13G15G18G23G24G29C19C22C29C35
                                E 3E 5E 9E36
  23387968.345   122904577.275    23387970.525    95769793.699                  
  24446661.317   128467993.095    24446666.267   100104909.450                  
  23078187.746   121276673.350    23078189.193    94501298.188                  
  20848317.123   109558642.727    20848318.088    85370369.840                  
  20637665.144   108451657.121    20637666.484    84507785.449                  
  22059436.972   115923113.192    22059438.616    90329697.727                  
  21449537.162   112718010.469    21449541.808    87832198.860                  
  22439682.508   117921291.596    22439685.027    91886711.246                  
                 118134261.956                   118134261.956    22686444.941  
                 120458993.172                   120458993.172    23132880.662  
                 127041488.457                   127041488.457    24396992.367  
                 115517457.329                   115517457.329    22183916.660  
  26659476.905   140096424.742                                                  
  23608616.505   124064095.200                                                  
  23154773.574   121679129.679                                                  
  23401847.286   122977471.585                                                  
 21  8 31 19 20 30.0000000  0 16G 5G10G13G15G18G23G24G29C19C22C29C35
                                E 3E 5E 9E36
  23388317.452   122906411.915    23388319.632    95771223.284                  
  24446311.656   128466155.669    24446316.606   100103477.692                  
  23078811.625   121279951.898    23078813.073    94503852.898                  
  20848729.844   109560811.528    20848730.791    85372059.818                  
  20637331.565   108449904.079    20637332.888    84506419.442                  
  22059197.187   115921853.081    22059198.813    90328715.824                  
  21449120.242   112715819.472    21449124.852    87830491.590                  
  22440239.467   117924218.368    22440241.987    91888991.843                  
                 118135590.567                   118135590.567    22686700.093  
                 120458474.946                   120458474.946    23132781.131  
                 127044684.456                   127044684.456    24397606.114  
                 115518669.969                   115518669.969    22184149.511  
  26659107.891   140094485.594                                                  
  23608601.621   124064017.024                                                  
  23155140.944   121681060.171                                                  
  23401950.158   122978012.152                                                  
 21  8 31 19 20 31.0000000  0 16G 5G10G13G15G18G23G24G29C19C22C29C35
                                E 3E 5E 9E36
  23388666.577   122908246.603    23388668.775    95772652.911                  
  24445961.995   128464318.211    24445966.945   100102045.909                  
  23079435.540   121283230.613    23079437.005    94506407.734                  
  20849142.601   109562980.678    20849143.566    85373750.067                  
  20636998.040   108448151.430    20636999.362    84505053.741                  
  22058957.403   115920593.023    22058959.047    90327733.961                  
  21448703.394   112713628.953    21448708.022    87828784.696                  
  22440796.463   117927145.395    22440798.964    91891272.644                  
                 118136919.206                   118136919.206    22686955.245  
                 120457956.872                   120457956.872    23132681.655  
                 127047880.583                   127047880.583    24398219.897  
                 115519883.108                   115519883.108    22184382.505  
  26658738.914   140092546.669                                                  
  23608586.807   124063939.132                                                  
  23155508.313   121682990.753                                                  
  23402053.102   122978553.126                                                  
 21  8 31 19 20 32.0000000  0 16G 5G10G13G15G18G23G24G29C19C22C29C35
                                E 3E 5E 9E36
  23389015.720   122910081.320    23389017.917    95774082.563                  
  24445612.334   128462480.742    24445617.284   100100614.117                  
  23080059.508   121286509.483    23080060.956    94508962.698                  
  20849555.447   109565150.175    20849556.412    85375440.579                  
  20636664.604   108446399.180    20636665.926    84503688.351                  
  22058717.636   115919333.015    22058719.280    90326752.137                  
  21448286.634   112711438.875    21448291.262    87827078.142                  
  22441353.494   117930072.698    22441356.013    91893553.657                  
                 118138247.874                   118138247.874    22687210.397  
                 120457438.954                   120457438.954    23132582.178  
                 127051076.831                   127051076.831    24398833.716  
                 115521096.751                   115521096.751    22184615.553  
  26658370.008   140090607.964                                                  
  23608572.012   124063861.530                                                  
  23155875.718   121684921.426                                                  
  23402156.117   122979094.523                                                  
 21  8 31 19 20 33.0000000  0 16G 5G10G13G15G18G23G24G29C19C22C29C35
                                E 3E 5E 9E36
  23389364.880   122911916.090    23389367.060    95775512.249                  
  24445262.673   128460643.267    24445267.623   100099182.321                  
  23080683.477   121289788.530    23080684.942    94511517.797                  
  20849968.364   109567320.015    20849969.311    85377131.368                  
  20636331.222   108444647.331    20636332.562    84502323.277                  
  22058477.852   115918073.060    22058479.496    90325770.351                  
  21447869.965   112709249.251    21447874.575    87825371.937                  
  22441910.596   117933000.257    22441913.116    91895834.871                  
                 118139576.575                   118139576.575    22687465.566  
                 120456921.184                   120456921.184    23132482.755  
                 127054273.208                   127054273.208    24399447.535  
                 115522310.891                   115522310.891    22184848.744  
  26658001.120   140088669.468                                                  
  23608557.323   124063784.208                                                  
  23156243.141   121686852.191                                                  
  23402259.221   122979636.343                                                  
 21  8 31 19 20 34.0000000  0 16G 5G10G13G15G18G23G24G29C19C22C29C35
                                E 3E 5E 9E36
  23389714.023   122913750.898    23389716.221    95776941.969                  
  24444913.012   128458805.777    24444917.962   100097750.513                  
  23081307.481   121293067.738    23081308.964    94514073.024                  
  20850381.317   109569490.203    20850382.300    85378822.417                  
  20635997.946   108442895.897    20635999.269    84500958.523                  
  22058238.121   115916813.160    22058239.765    90324788.613                  
  21447453.384   112707060.085    21447457.994    87823666.102                  
  22442467.734   117935928.082    22442470.254    91898116.289                  
                 118140905.296                   118140905.296    22687720.736  
                 120456403.563                   120456403.563    23132383.367  
                 127057469.707                   127057469.707    24400061.407  
                 115523525.534                   115523525.534    22185082.006  
  26657632.285   140086731.203                                                  
  23608542.653   124063707.175                                                  
  23156610.564   121688783.046                                                  
  23402362.414   122980178.585                                                  
 21  8 31 19 20 35.0000000  0 16G 5G10G13G15G18G23G24G29C19C22C29C35
                                E 3E 5E 9E36
  23390063.184   122915585.755    23390065.382    95778371.726                  
  24444563.333   128456968.266    24444568.301   100096318.688                  
  23081931.539   121296347.113    23081933.004    94516628.379                  
  20850794.360   109571660.739    20850795.342    85380513.743                  
  20635664.743   108441144.868    20635666.065    84499594.083                  
  22057998.372   115915553.313    22058000.016    90323806.915                  
  21447036.875   112704871.359    21447041.503    87821960.597                  
  22443024.944   117938856.174    22443027.464    91900397.917                  
                 118142234.051                   118142234.051    22687975.905  
                 120455886.096                   120455886.096    23132283.979  
                 127060666.328                   127060666.328    24400675.279  
                 115524740.683                   115524740.683    22185315.340  
  26657263.487   140084793.164                                                  
  23608528.036   124063630.437                                                  
  23156978.004   121690713.992                                                  
  23402465.680   122980721.235                                                  
 21  8 31 19 20 36.0000000  0 16G 5G10G13G15G18G23G24G29C19C22C29C35
                                E 3E 5E 9E36
  23390412.362   122917420.657    23390414.542    95779801.520                  
  24444213.672   128455130.738    24444218.622   100094886.848                  
  23082555.614   121299626.644    23082557.080    94519183.856                  
  20851207.474   109573831.620    20851208.439    85382205.339                  
  20635331.593   108439394.237    20635332.915    84498229.957                  
  22057758.642   115914293.511    22057760.286    90322825.255                  
  21446620.455   112702683.097    21446625.083    87820255.460                  
  22443582.208   117941784.528    22443584.727    91902679.751                  
                 118143562.833                   118143562.833    22688231.075  
                 120455368.780                   120455368.780    23132184.646  
                 127063863.074                   127063863.074    24401289.188  
                 115525956.327                   115525956.327    22185548.799  
  26656894.723   140082855.342                                                  
  23608513.508   124063553.977                                                  
  23157345.481   121692645.024                                                  
  23402569.016   122981264.316                                                  
 21  8 31 19 20 37.0000000  0 16G 5G10G13G15G18G23G24G29C19C22C29C35
                                E 3E 5E 9E36
  23390761.541   122919255.609    23390763.721    95781231.355                  
  24443864.029   128453293.181    24443868.961   100093454.972                  
  23083179.726   121302906.380    23083181.173    94521739.508                  
  20851620.641   109576002.836    20851621.606    85383897.203                  
  20634998.532   108437644.021    20634999.854    84496866.152                  
  22057518.929   115913033.761    22057520.555    90321843.624                  
  21446204.143   112700495.281    21446208.753    87818550.668                  
  22444139.507   117944713.105    22444142.026    91904961.734                  
                 118144891.647                   118144891.647    22688486.263  
                 120454851.610                   120454851.610    23132085.312  
                 127067059.828                   127067059.828    24401903.131  
                 115527172.488                   115527172.488    22185782.347  
  26656525.978   140080917.902                                                  
  23608498.999   124063477.801                                                  
  23157712.957   121694576.164                                                  
  23402672.442   122981807.826                                                  
 21  8 31 19 20 38.0000000  0 16G 5G10G13G15G18G23G24G29C19C22C29C35
                                E 3E 5E 9E36
  23391110.720   122921090.593    23391112.917    95782661.215                  
  24443514.332   128451455.629    24443519.282   100092023.118                  
  23083803.855   121306186.251    23083805.320    94524295.249                  
  20852033.880   109578174.398    20852034.845    85385589.329                  
  20634665.561   108435894.200    20634666.883    84495502.656                  
  22057279.216   115911774.075    22057280.860    90320862.051                  
  21445787.884   112698307.913    21445792.512    87816846.231                  
  22444696.859   117947641.992    22444699.379    91907243.981                  
                 118146220.484                   118146220.484    22688741.468  
                 120454334.597                   120454334.597    23131986.031  
                 127070256.824                   127070256.824    24402517.075  
                 115528389.140                   115528389.140    22186016.002  
  26656157.305   140078980.526                                                  
  23608484.561   124063401.908                                                  
  23158080.452   121696507.374                                                  
  23402775.939   122982351.731                                                  
 21  8 31 19 20 39.0000000  0 16G 5G10G13G15G18G23G24G29C19C22C29C35
                                E 3E 5E 9E36
  23391459.916   122922925.624    23391462.096    95784091.107                  
  24443164.653   128449618.060    24443169.603   100090591.246                  
  23084428.020   121309466.281    23084429.485    94526851.117                  
  20852447.173   109580346.292    20852448.138    85387281.712                  
  20634332.661   108434144.785    20634333.983    84494139.477                  
  22057039.521   115910514.437    22057041.165    90319880.515                  
  21445371.732   112696121.007    21445376.360    87815142.148                  
  22445254.266   117950571.141    22445256.785    91909526.433                  
                 118147549.347                   118147549.347    22688996.656  
                 120453817.737                   120453817.737    23131886.787  
                 127073453.942                   127073453.942    24403131.055  
                 115529606.290                   115529606.290    22186249.747  
  26655788.685   140077043.371                                                  
  23608470.176   124063326.304                                                  
  23158447.964   121698438.678                                                  
  23402879.544   122982896.066                                                  
 21  8 31 19 20 40.0000000  0 16G 5G10G13G15G18G23G24G29C19C22C29C35
                                E 3E 5E 9E36
  23391809.112   122924760.684    23391811.328    95785521.019                  
  24442814.974   128447780.470    24442819.924   100089159.360                  
  23085052.221   121312746.481    23085053.686    94529407.114                  
  20852860.537   109582518.544    20852861.502    85388974.375                  
  20633999.814   108432395.766    20634001.155    84492776.605                  
  22056799.826   115909254.843    22056801.452    90318899.015                  
  21444955.652   112693934.544    21444960.280    87813438.410                  
  22445811.708   117953500.563    22445814.245    91911809.097                  
                 118148878.243                   118148878.243    22689251.861  
                 120453301.032                   120453301.032    23131787.542  
                 127076651.183                   127076651.183    24403745.052  
                 115530823.942                   115530823.942    22186483.581  
  26655420.100   140075106.453                                                  
  23608455.845   124063250.989                                                  
  23158815.494   121700370.074                                                  
  23402983.202   122983440.826                                                  
 21  8 31 19 20 41.0000000  0 16G 5G10G13G15G18G23G24G29C19C22C29C35
                                E 3E 5E 9E36
  23392158.345   122926595.797    23392160.525    95786950.977                  
  24442465.277   128445942.872    24442470.245   100087727.465                  
  23085676.457   121316026.845    23085677.922    94531963.237                  
  20853273.955   109584691.133    20853274.937    85390667.300                  
  20633667.075   108430647.157    20633668.398    84491414.051                  
  22056560.148   115907995.313    22056561.774    90317917.563                  
  21444539.679   112691748.535    21444544.307    87811735.031                  
  22446369.203   117956430.237    22446371.741    91914091.957                  
                 118150207.164                   118150207.164    22689507.066  
                 120452784.472                   120452784.472    23131688.333  
                 127079848.551                   127079848.551    24404359.086  
                 115532042.095                   115532042.095    22186717.504  
  26655051.534   140073169.726                                                  
  23608441.568   124063175.952                                                  
  23159183.042   121702301.560                                                  
  23403086.932   122983985.996                                                  
 21  8 31 19 20 42.0000000  0 16G 5G10G13G15G18G23G24G29C19C22C29C35
                                E 3E 5E 9E36
  23392507.559   122928430.948    23392509.739    95788380.961                  
  24442115.599   128444105.258    24442120.548   100086295.559                  
  23086300.711   121319307.367    23086302.177    94534519.489                  
  20853687.462   109586864.066    20853688.427    85392360.496                  
  20633334.408   108428898.948    20633335.748    84490051.812                  
  22056320.453   115906735.833    22056322.097    90316936.148                  
  21444123.777   112689562.984    21444128.406    87810032.005                  
  22446926.753   117959360.181    22446929.272    91916375.028                  
                 118151536.115                   118151536.115    22689762.254  
                 120452268.067                   120452268.067    23131589.178  
                 127083046.038                   127083046.038    24404973.119  
                 115533260.751                   115533260.751    22186951.535  
  26654683.039   140071233.233                                                  
  23608427.344   124063101.215                                                  
  23159550.625   121704233.146                                                  
  23403190.769   122984531.592                                                  
 21  8 31 19 20 43.0000000  0 16G 5G10G13G15G18G23G24G29C19C22C29C35
                                E 3E 5E 9E36
  23392856.773   122930266.149    23392858.971    95789810.988                  
  24441765.920   128442267.627    24441770.852   100084863.645                  
  23086925.019   121322588.057    23086926.485    94537075.871                  
  20854101.022   109589037.339    20854101.987    85394053.958                  
  20633001.812   108427151.155    20633003.134    84488689.896                  
  22056080.794   115905476.403    22056082.438    90315954.776                  
  21443707.965   112687377.871    21443712.593    87808329.321                  
  22447484.355   117962290.383    22447486.875    91918658.301                  
                 118152865.091                   118152865.091    22690017.477  
                 120451751.812                   120451751.812    23131490.041  
                 127086243.651                   127086243.651    24405587.206  
                 115534479.907                   115534479.907    22187185.655  
  26654314.580   140069296.982                                                  
  23608413.174   124063026.753                                                  
  23159918.191   121706164.805                                                  
  23403294.659   122985077.605                                                  
 21  8 31 19 20 44.0000000  0 16G 5G10G13G15G18G23G24G29C19C22C29C35
                                E 3E 5E 9E36
  23393206.023   122932101.383    23393208.203    95791241.040                  
  24441416.223   128440429.979    24441421.155   100083431.711                  
  23087549.345   121325868.914    23087550.828    94539632.378                  
  20854514.655   109591210.961    20854515.619    85395747.683                  
  20632669.305   108425403.762    20632670.627    84487328.290                  
  22055841.152   115904217.028    22055842.796    90314973.446                  
  21443292.242   112685193.212    21443296.853    87806626.985                  
  22448041.994   117965220.844    22448044.531    91920941.774                  
                 118154194.094                   118154194.094    22690272.700  
                 120451235.706                   120451235.706    23131390.921  
                 127089441.391                   127089441.391    24406201.275  
                 115535699.563                   115535699.563    22187419.882  
  26653946.156   140067360.926                                                  
  23608399.057   124062952.582                                                  
  23160285.793   121708096.562                                                  
  23403398.657   122985624.041                                                  
 21  8 31 19 20 45.0000000  0 16G 5G10G13G15G18G23G24G29C19C22C29C35
                                E 3E 5E 9E36
  23393555.255   122933936.672    23393557.453    95792671.133                  
  24441066.526   128438592.322    24441071.458   100081999.768                  
  23088173.707   121329149.939    23088175.172    94542189.020                  
  20854928.340   109593384.927    20854929.305    85397441.684                  
  20632336.852   108423656.773    20632338.174    84485967.000                  
  22055601.493   115902957.698    22055603.137    90313992.152                  
  21442876.591   112683009.008    21442881.219    87804925.013                  
  22448599.704   117968151.562    22448602.242    91923225.449                  
                 118155523.126                   118155523.126    22690527.941  
                 120450719.757                   120450719.757    23131291.838  
                 127092639.251                   127092639.251    24406815.397  
                 115536919.719                   115536919.719    22187654.198  
  26653577.786   140065425.100                                                  
  23608384.994   124062878.695                                                  
  23160653.412   121710028.412                                                  
  23403502.726   122986170.890                                                  
 21  8 31 19 20 46.0000000  0 16G 5G10G13G15G18G23G24G29C19C22C29C35
                                E 3E 5E 9E36
  23393904.506   122935771.993    23393906.703    95794101.251                  
  24440716.811   128436754.641    24440721.761   100080567.812                  
  23088798.104   121332431.130    23088799.551    94544745.789                  
  20855342.097   109595559.227    20855343.062    85399135.946                  
  20632004.506   108421910.186    20632005.828    84484606.028                  
  22055361.887   115901698.430    22055363.514    90313010.906                  
  21442461.047   112680825.247    21442465.657    87803223.383                  
  22449157.468   117971082.554    22449159.987    91925509.341                  
                 118156852.187                   118156852.187    22690783.165  
                 120450203.956                   120450203.956    23131192.772  
                 127095837.236                   127095837.236    24407429.538  
                 115538140.378                   115538140.378    22187888.622  
  26653209.452   140063489.500                                                  
  23608371.003   124062805.091                                                  
  23161021.067   121711960.353                                                  
  23403606.867   122986718.161                                                  
 21  8 31 19 20 47.0000000  0 16G 5G10G13G15G18G23G24G29C19C22C29C35
                                E 3E 5E 9E36
  23394253.756   122937607.356    23394255.953    95795531.401                  
  24440367.115   128434916.954    24440372.064   100079135.850                  
  23089422.519   121335712.483    23089423.984    94547302.687                  
  20855755.926   109597733.879    20855756.873    85400830.476                  
  20631672.196   108420164.010    20631673.518    84483245.367                  
  22055122.264   115900439.214    22055123.908    90312029.699                  
  21442045.574   112678641.953    21442050.202    87801522.113                  
  22449715.267   117974013.804    22449717.787    91927793.429                  
                 118158181.274                   118158181.274    22691038.406  
                 120449688.306                   120449688.306    23131093.760  
                 127099035.340                   127099035.340    24408043.714  
                 115539361.535                   115539361.535    22188123.135  
  26652841.154   140061554.128                                                  
  23608357.047   124062731.776                                                  
  23161388.722   121713892.376                                                  
  23403711.079   122987265.847                                                  
 21  8 31 19 20 48.0000000  0 16G 5G10G13G15G18G23G24G29C19C22C29C35
                                E 3E 5E 9E36
  23394603.041   122939442.756    23394605.221    95796961.586                  
  24440017.418   128433079.247    24440022.368   100077703.875                  
  23090046.988   121338994.007    23090048.435    94549859.718                  
  20856169.808   109599908.866    20856170.773    85402525.273                  
  20631339.993   108418418.234    20631341.315    84481885.024                  
  22054882.640   115899180.048    22054884.284    90311048.528                  
  21441630.173   112676459.102    21441634.819    87799821.194                  
  22450273.102   117976945.309    22450275.640    91930077.714                  
                 118159510.390                   118159510.390    22691293.647  
                 120449172.808                   120449172.808    23130994.765  
                 127102233.571                   127102233.571    24408657.908  
                 115540583.194                   115540583.194    22188357.737  
  26652472.927   140059618.977                                                  
  23608343.145   124062658.747                                                  
  23161756.378   121715824.496                                                  
  23403815.380   122987813.961                                                  
 21  8 31 19 20 49.0000000  0 16G 5G10G13G15G18G23G24G29C19C22C29C35
                                E 3E 5E 9E36
  23394952.327   122941278.228    23394954.507    95798391.821                  
  24439667.703   128431241.523    24439672.635   100076271.882                  
  23090671.457   121342275.688    23090672.922    94552416.868                  
  20856583.762   109602084.202    20856584.727    85404220.336                  
  20631007.861   108416672.868    20631009.183    84480524.996                  
  22054643.035   115897920.935    22054644.678    90310067.403                  
  21441214.897   112674276.712    21441219.525    87798120.628                  
  22450830.991   117979877.081    22450833.546    91932362.212                  
                 118160839.536                   118160839.536    22691548.906  
                 120448657.460                   120448657.460    23130895.807  
                 127105431.922                   127105431.922    24409272.120  
                 115541805.357                   115541805.357    22188592.447  
  26652104.700   140057684.043                                                  
  23608329.297   124062585.999                                                  
  23162124.068   121717756.698                                                  
  23403919.753   122988362.485                                                  
 21  8 31 19 20 50.0000000  0 16G 5G10G13G15G18G23G24G29C19C22C29C35
                                E 3E 5E 9E36
  23395301.595   122943113.746    23395303.793    95799822.090                  
  24439318.006   128429403.777    24439322.938   100074839.875                  
  23091295.979   121345557.540    23091297.444    94554974.153                  
  20856997.788   109604259.887    20856998.735    85405915.675                  
  20630675.801   108414927.901    20630677.123    84479165.284                  
  22054403.465   115896661.874    22054405.108    90309086.317                  
  21440799.675   112672094.785    21440804.303    87796420.430                  
  22451388.951   117982809.115    22451391.489    91934646.911                  
                 118162168.704                   118162168.704    22691804.165  
                 120448142.264                   120448142.264    23130796.866  
                 127108630.398                   127108630.398    24409886.332  
                 115543028.020                   115543028.020    22188827.246  
  26651736.544   140055749.329                                                  
  23608315.520   124062513.542                                                  
  23162491.777   121719688.997                                                  
  23404024.216   122988911.439                                                  
 21  8 31 19 20 51.0000000  0 16G 5G10G13G15G18G23G24G29C19C22C29C35
                                E 3E 5E 9E36
  23395650.899   122944949.316    23395653.097    95801252.403                  
  24438968.274   128427566.023    24438973.224   100073407.859                  
  23091920.519   121348839.554    23091922.002    94557531.566                  
  20857411.866   109606435.907    20857412.813    85407611.274                  
  20630343.812   108413183.348    20630345.135    84477805.890                  
  22054163.859   115895402.864    22054165.503    90308105.270                  
  21440384.559   112669913.301    21440389.187    87794720.575                  
  22451946.965   117985741.415    22451949.485    91936931.816                  
                 118163497.899                   118163497.899    22692059.406  
                 120447627.219                   120447627.219    23130697.943  
                 127111828.988                   127111828.988    24410500.597  
                 115544251.203                   115544251.203    22189062.134  
  26651368.424   140053814.835                                                  
  23608301.778   124062441.375                                                  
  23162859.504   121721621.379                                                  
  23404128.767   122989460.805                                                  
 21  8 31 19 20 52.0000000  0 16G 5G10G13G15G18G23G24G29C19C22C29C35
                                E 3E 5E 9E36
  23396000.202   122946784.922    23396002.400    95802682.745                  
  24438618.559   128425728.260    24438623.491   100071975.841                  
  23092545.095   121352121.734    23092546.578    94560089.109                  
  20857826.017   109608612.270    20857826.982    85409307.144                  
  20630011.913   108411439.194    20630013.235    84476446.809                  
  22053924.307   115894143.909    22053925.933    90307124.269                  
  21439969.516   112667732.273    21439974.144    87793021.070                  
  22452504.997   117988673.965    22452507.534    91939216.917                  
                 118164827.126                   118164827.126    22692314.683  
                 120447112.323                   120447112.323    23130599.056  
                 127115027.711                   127115027.711    24411114.881  
                 115545474.866                   115545474.866    22189297.148  
  26651000.340   140051880.575                                                  
  23608288.109   124062369.481                                                  
  23163227.248   121723553.860                                                  
  23404233.373   122990010.595                                                  
 21  8 31 19 20 53.0000000  0 16G 5G10G13G15G18G23G24G29C19C22C29C35
                                E 3E 5E 9E36
  23396349.524   122948620.575    23396351.722    95804113.122                  
  24438268.845   128423890.474    24438273.777   100070543.801                  
  23093169.725   121355404.073    23093171.172    94562646.774                  
  20858240.221   109610788.979    20858241.204    85411003.281                  
  20629680.103   108409695.445    20629681.426    84475088.048                  
  22053684.737   115892885.004    22053686.381    90306143.304                  
  21439554.579   112665551.699    21439559.207    87791321.921                  
  22453063.100   117991606.785    22453065.620    91941502.232                  
                 118166156.379                   118166156.379    22692569.942  
                 120446597.583                   120446597.583    23130500.222  
                 127118226.554                   127118226.554    24411729.200  
                 115546699.026                   115546699.026    22189532.215  
  26650632.292   140049946.527                                                  
  23608274.475   124062297.874                                                  
  23163594.975   121725486.423                                                  
  23404338.085   122990560.798                                                  
 21  8 31 19 20 54.0000000  0 16G 5G10G13G15G18G23G24G29C19C22C29C35
                                E 3E 5E 9E36
  23396698.845   122950456.273    23396701.043    95805543.535                  
  24437919.112   128422052.676    24437924.062   100069111.753                  
  23093794.354   121358686.568    23093795.819    94565204.559                  
  20858654.496   109612966.035    20858655.479    85412699.684                  
  20629348.365   108407952.101    20629349.687    84473729.598                  
  22053445.185   115891626.152    22053446.828    90305162.378                  
  21439139.696   112663371.568    21439144.324    87789623.120                  
  22453621.239   117994539.872    22453623.776    91943787.749                  
                 118167485.663                   118167485.663    22692825.219  
                 120446082.989                   120446082.989    23130401.406  
                 127121425.518                   127121425.518    24412343.519  
                 115547923.692                   115547923.692    22189767.407  
  26650264.297   140048012.702                                                  
  23608260.894   124062226.561                                                  
  23163962.755   121727419.074                                                  
  23404442.851   122991111.427                                                  
 21  8 31 19 20 55.0000000  0 16G 5G10G13G15G18G23G24G29C19C22C29C35
                                E 3E 5E 9E36
  23397048.185   122952292.008    23397050.383    95806973.976                  
  24437569.397   128420214.863    24437574.347   100067679.691                  
  23094419.019   121361969.227    23094420.503    94567762.478                  
  20859068.861   109615143.425    20859069.826    85414396.351                  
  20629016.680   108406209.171    20629018.002    84472371.468                  
  22053205.632   115890367.356    22053207.276    90304181.500                  
  21438724.920   112661191.892    21438729.548    87787924.671                  
  22454179.432   117997473.214    22454181.987    91946073.468                  
                 118168814.972                   118168814.972    22693080.496  
                 120445568.552                   120445568.552    23130302.609  
                 127124624.611                   127124624.611    24412957.874  
                 115549148.856                   115549148.856    22190002.688  
  26649896.356   140046079.098                                                  
  23608247.385   124062155.527                                                  
  23164330.535   121729351.816                                                  
  23404547.724   122991662.469                                                  
 21  8 31 19 20 56.0000000  0 16G 5G10G13G15G18G23G24G29C19C22C29C35
                                E 3E 5E 9E36
  23397397.524   122954127.790    23397399.704    95808404.453                  
  24437219.665   128418377.036    24437224.597   100066247.618                  
  23095043.721   121365252.050    23095045.204    94570320.519                  
  20859483.261   109617321.161    20859484.226    85416093.289                  
  20628685.102   108404466.639    20628686.425    84471013.652                  
  22052966.116   115889108.610    22052967.742    90303200.659                  
  21438310.234   112659012.676    21438314.862    87786226.582                  
  22454737.696   118000406.811    22454740.215    91948359.390                  
                 118170144.309                   118170144.309    22693335.773  
                 120445054.257                   120445054.257    23130203.847  
                 127127823.820                   127127823.820    24413572.265  
                 115550374.522                   115550374.522    22190238.059  
  26649528.433   140044145.722                                                  
  23608233.912   124062084.789                                                  
  23164698.351   121731284.643                                                  
  23404652.687   122992213.940                                                  
 21  8 31 19 20 57.0000000  0 16G 5G10G13G15G18G23G24G29C19C22C29C35
                                E 3E 5E 9E36
  23397746.864   122955963.613    23397749.062    95809834.965                  
  24436869.932   128416539.179    24436874.864   100064815.524                  
  23095668.457   121368535.034    23095669.923    94572878.687                  
  20859897.733   109619499.241    20859898.698    85417790.496                  
  20628353.578   108402724.513    20628354.901    84469656.153                  
  22052726.582   115887849.911    22052728.226    90302219.854                  
  21437895.637   112656833.910    21437900.265    87784528.848                  
  22455295.978   118003340.673    22455298.515    91950645.512                  
                 118171473.672                   118171473.672    22693591.085  
                 120444540.117                   120444540.117    23130105.102  
                 127131023.156                   127131023.156    24414186.655  
                 115551600.689                   115551600.689    22190473.537  
  26649160.582   140042212.551                                                  
  23608220.492   124062014.310                                                  
  23165066.185   121733217.570                                                  
  23404757.686   122992765.819                                                  
 21  8 31 19 20 58.0000000  0 16G 5G10G13G15G18G23G24G29C19C22C29C35
                                E 3E 5E 9E36
  23398096.221   122957799.477    23398098.419    95811265.508                  
  24436520.200   128414701.325    24436525.132   100063383.430                  
  23096293.212   121371818.195    23096294.695    94575436.987                  
  20860312.277   109621677.673    20860313.242    85419487.968                  
  20628022.144   108400982.792    20628023.466    84468298.970                  
  22052487.083   115886591.270    22052488.727    90301239.098                  
  21437481.111   112654655.602    21437485.739    87782831.465                  
  22455854.349   118006274.798    22455856.868    91952931.839                  
                 118172803.068                   118172803.068    22693846.380  
                 120444026.130                   120444026.130    23130006.394  
                 127134222.610                   127134222.610    24414801.082  
                 115552827.352                   115552827.352    22190709.104  
  26648792.748   140040279.624                                                  
  23608207.162   124061944.135                                                  
  23165434.019   121735150.583                                                  
  23404862.791   122993318.126                                                  
 21  8 31 19 20 59.0000000  0 16G 5G10G13G15G18G23G24G29C19C22C29C35
                                E 3E 5E 9E36
  23398445.578   122959635.383    23398447.776    95812696.082                  
  24436170.467   128412863.439    24436175.399   100061951.313                  
  23096918.020   121375101.511    23096919.485    94577995.418                  
  20860726.874   109623856.439    20860727.857    85421185.710                  
  20627690.781   108399241.481    20627692.103    84466942.098                  
  22052247.585   115885332.676    22052249.229    90300258.375                  
  21437066.675   112652477.742    21437071.303    87781134.434                  
  22456412.738   118009209.179    22456415.257    91955218.372                  
                 118174132.483                   118174132.483    22694101.675  
                 120443512.292                   120443512.292    23129907.721  
                 127137422.188                   127137422.188    24415415.526  
                 115554054.519                   115554054.519    22190944.761  
  26648424.967   140038346.914                                                  
  23608193.867   124061874.257                                                  
  23165801.889   121737083.671                                                  
  23404967.986   122993870.856                                                  
 21  8 31 19 21  0.0000000  0 16G 5G10G13G15G18G23G24G29C19C22C29C35
                                E 3E 5E 9E36
  23398794.935   122961471.335    23398797.133    95814126.692                  
  24435820.717   128411025.547    24435825.667   100060519.192                  
  23097542.846   121378384.995    23097544.312    94580553.976                  
  20861141.560   109626035.554    20861142.525    85422883.723                  
  20627359.507   108397500.570    20627360.811    84465585.548                  
  22052008.086   115884074.141    22052009.712    90299277.699                  
  21436652.346   112650300.349    21436656.956    87779437.762                  
  22456971.181   118012143.815    22456973.718    91957505.101                  
                 118175461.934                   118175461.934    22694356.987  
                 120442998.605                   120442998.605    23129809.066  
                 127140621.888                   127140621.888    24416030.006  
                 115555282.183                   115555282.183    22191180.543  
  26648057.223   140036414.415                                                  
  23608180.626   124061804.652                                                  
  23166169.740   121739016.862                                                  
  23405073.235   122994424.005                                                  
 21  8 31 19 21  1.0000000  0 16G 5G10G13G15G18G23G24G29C19C22C29C35
                                E 3E 5E 9E36
  23399144.329   122963307.331    23399146.526    95815557.336                  
  24435470.985   128409187.637    24435475.898   100059087.055                  
  23098167.708   121381668.639    23098169.173    94583112.656                  
  20861556.300   109628214.996    20861557.265    85424581.988                  
  20627028.287   108395760.069    20627029.609    84464229.311                  
  22051768.606   115882815.659    22051770.232    90298297.063                  
  21436238.088   112648123.399    21436242.681    87777741.437                  
  22457529.677   118015078.722    22457532.196    91959792.039                  
                 118176791.405                   118176791.405    22694612.300  
                 120442485.070                   120442485.070    23129710.447  
                 127143821.710                   127143821.710    24416644.486  
                 115556510.350                   115556510.350    22191416.378  
  26647689.514   140034482.152                                                  
  23608167.421   124061735.332                                                  
  23166537.646   121740950.135                                                  
  23405178.572   122994977.560                                                  
 21  8 31 19 21  2.0000000  0 16G 5G10G13G15G18G23G24G29C19C22C29C35
                                E 3E 5E 9E36
  23399493.722   122965143.366    23399495.919    95816988.012                  
  24435121.216   128407349.710    24435126.166   100057654.906                  
  23098792.606   121384952.443    23098794.053    94585671.461                  
  20861971.094   109630394.792    20861972.059    85426280.531                  
  20626697.156   108394019.968    20626698.478    84462873.390                  
  22051529.125   115881557.224    22051530.769    90297316.464                  
  21435823.902   112645946.898    21435828.512    87776045.465                  
  22458088.227   118018013.892    22458090.764    91962079.180                  
                 118178120.905                   118178120.905    22694867.595  
                 120441971.685                   120441971.685    23129611.864  
                 127147021.655                   127147021.655    24417259.001  
                 115557739.015                   115557739.015    22191652.339  
  26647321.859   140032550.090                                                  
  23608154.287   124061666.290                                                  
  23166905.533   121742883.500                                                  
  23405284.000   122995531.542                                                  
 21  8 31 19 21  3.0000000  0 16G 5G10G13G15G18G23G24G29C19C22C29C35
                                E 3E 5E 9E36
  23399843.115   122966979.450    23399845.312    95818418.722                  
  24434771.484   128405511.780    24434776.416   100056222.757                  
  23099417.521   121388236.422    23099418.987    94588230.406                  
  20862385.959   109632574.935    20862386.924    85427979.343                  
  20626366.096   108392280.280    20626367.419    84461517.790                  
  22051289.662   115880298.847    22051291.306    90296335.913                  
  21435409.805   112643770.852    21435414.416    87774349.847                  
  22458646.812   118020949.318    22458649.332    91964366.525                  
                 118179450.437                   118179450.437    22695122.925  
                 120441458.449                   120441458.449    23129513.298  
                 127150221.719                   127150221.719    24417873.535  
                 115558968.182                   115558968.182    22191888.388  
  26646954.240   140030618.269                                                  
  23608141.207   124061597.542                                                  
  23167273.474   121744816.964                                                  
  23405389.498   122996085.959                                                  
 21  8 31 19 21  4.0000000  0 16G 5G10G13G15G18G23G24G29C19C22C29C35
                                E 3E 5E 9E36
  23400192.525   122968815.570    23400194.723    95819849.465                  
  24434421.715   128403673.818    24434426.665   100054790.579                  
  23100042.455   121391520.563    23100043.938    94590789.477                  
  20862800.896   109634755.415    20862801.861    85429678.414                  
  20626035.126   108390541.000    20626036.466    84460162.504                  
  22051050.217   115879040.520    22051051.861    90295355.399                  
  21434995.798   112641595.267    21435000.426    87772654.585                  
  22459205.452   118023885.004    22459208.007    91966654.066                  
                 118180779.992                   118180779.992    22695378.255  
                 120440945.364                   120440945.364    23129414.768  
                 127153421.907                   127153421.907    24418488.104  
                 115560197.853                   115560197.853    22192124.545  
  26646586.674   140028686.663                                                  
  23608128.163   124061529.069                                                  
  23167641.415   121746750.495                                                  
  23405495.086   122996640.770                                                  
 21  8 31 19 21  5.0000000  0 16G 5G10G13G15G18G23G24G29C19C22C29C35
                                E 3E 5E 9E36
  23400541.918   122970651.739    23400544.116    95821280.242                  
  24434071.965   128401835.843    24434076.897   100053358.396                  
  23100667.459   121394804.874    23100668.925    94593348.676                  
  20863215.904   109636936.238    20863216.869    85431377.762                  
  20625704.246   108388802.122    20625705.568    84458807.535                  
  22050810.772   115877782.244    22050812.398    90294374.926                  
  21434581.898   112639420.142    21434586.526    87770959.688                  
  22459764.145   118026820.949    22459766.682    91968941.817                  
                 118182109.577                   118182109.577    22695633.604  
                 120440432.430                   120440432.430    23129316.256  
                 127156622.218                   127156622.218    24419102.691  
                 115561428.015                   115561428.015    22192360.774  
  26646219.144   140026755.276                                                  
  23608115.208   124061460.893                                                  
  23168009.356   121748684.132                                                  
  23405600.728   122997196.011                                                  
 21  8 31 19 21  6.0000000  0 16G 5G10G13G15G18G23G24G29C19C22C29C35
                                E 3E 5E 9E36
  23400891.347   122972487.941    23400893.545    95822711.051                  
  24433722.215   128399997.860    24433727.147   100051926.199                  
  23101292.464   121398089.332    23101293.947    94595907.991                  
  20863630.965   109639117.402    20863631.912    85433077.368                  
  20625373.419   108387063.655    20625374.741    84457452.887                  
  22050571.345   115876524.031    22050572.971    90293394.501                  
  21434168.051   112637245.449    21434172.679    87769265.121                  
  22460322.891   118029757.167    22460325.446    91971229.777                  
                 118183439.187                   118183439.187    22695888.916  
                 120439919.644                   120439919.644    23129217.780  
                 127159822.648                   127159822.648    24419717.296  
                 115562658.682                   115562658.682    22192597.127  
  26645851.667   140024824.122                                                  
  23608102.289   124061392.975                                                  
  23168377.333   121750617.852                                                  
  23405706.477   122997751.699                                                  
 21  8 31 19 21  7.0000000  0 16G 5G10G13G15G18G23G24G29C19C22C29C35
                                E 3E 5E 9E36
  23401240.776   122974324.187    23401242.974    95824141.892                  
  24433372.464   128398159.860    24433377.378   100050493.995                  
  23101917.505   121401373.957    23101918.988    94598467.442                  
  20864046.081   109641298.894    20864047.046    85434777.230                  
  20625042.681   108385325.602    20625044.003    84456098.558                  
  22050331.918   115875265.875    22050333.562    90292414.117                  
  21433754.312   112635071.210    21433758.940    87767570.910                  
  22460881.673   118032693.643    22460884.229    91973517.938                  
                 118184768.824                   118184768.824    22696144.283  
                 120439407.013                   120439407.013    23129119.340  
                 127163023.201                   127163023.201    24420331.937  
                 115563889.847                   115563889.847    22192833.535  
  26645484.209   140022893.173                                                  
  23608089.405   124061325.339                                                  
  23168745.346   121752551.671                                                  
  23405812.297   122998307.827                                                  
 21  8 31 19 21  8.0000000  0 16G 5G10G13G15G18G23G24G29C19C22C29C35
                                E 3E 5E 9E36
  23401590.222   122976160.497    23401592.420    95825572.778                  
  24433022.678   128396321.839    24433027.628   100049061.769                  
  23102542.581   121404658.746    23102544.064    94601027.011                  
  20864461.285   109643480.765    20864462.232    85436477.386                  
  20624711.997   108383587.924    20624713.319    84454744.528                  
  22050092.491   115874007.727    22050094.135    90291433.746                  
  21433340.662   112632897.462    21433345.272    87765877.082                  
  22461440.527   118035630.363    22461443.064    91975806.289                  
                 118186098.493                   118186098.493    22696399.613  
                 120438894.530                   120438894.530    23129020.917  
                 127166223.875                   127166223.875    24420946.596  
                 115565121.515                   115565121.515    22193070.085  
  26645116.804   140020962.476                                                  
  23608076.593   124061258.079                                                  
  23169113.340   121754485.555                                                  
  23405918.171   122998864.242                                                  
 21  8 31 19 21  9.0000000  0 16G 5G10G13G15G18G23G24G29C19C22C29C35
                                E 3E 5E 9E36
  23401939.651   122977996.837    23401941.867    95827003.692                  
  24432672.928   128394483.806    24432677.842   100047629.540                  
  23103167.693   121407943.699    23103169.158    94603586.715                  
  20864876.544   109645662.950    20864877.508    85438177.793                  
  20624381.420   108381850.681    20624382.742    84453390.827                  
  22049853.100   115872749.667    22049854.744    90290453.438                  
  21432927.101   112630724.148    21432931.711    87764183.593                  
  22461999.416   118038567.356    22462001.954    91978094.852                  
                 118187428.185                   118187428.185    22696654.979  
                 120438382.198                   120438382.198    23128922.548  
                 127169424.668                   127169424.668    24421561.272  
                 115566353.684                   115566353.684    22193306.706  
  26644749.434   140019031.987                                                  
  23608063.834   124061191.027                                                  
  23169481.389   121756419.547                                                  
  23406024.153   122999421.183                                                  
 21  8 31 19 21 10.0000000  0 16G 5G10G13G15G18G23G24G29C19C22C29C35
                                E 3E 5E 9E36
  23402289.098   122979833.212    23402291.314    95828434.634                  
  24432323.142   128392645.750    24432328.074   100046197.293                  
  23103792.823   121411228.809    23103794.306    94606146.540                  
  20865291.855   109647845.475    20865292.820    85439878.462                  
  20624050.896   108380113.831    20624052.219    84452037.442                  
  22049613.709   115871491.649    22049615.335    90289473.164                  
  21432513.612   112628551.285    21432518.222    87762490.453                  
  22462558.359   118041504.601    22462560.897    91980383.612                  
                 118188757.903                   118188757.903    22696910.345  
                 120437870.014                   120437870.014    23128824.179  
                 127172625.587                   127172625.587    24422175.985  
                 115567586.346                   115567586.346    22193543.417  
  26644382.119   140017101.710                                                  
  23608051.147   124061124.259                                                  
  23169849.419   121758353.618                                                  
  23406130.223   122999978.520                                                  
 21  8 31 19 21 11.0000000  0 16G 5G10G13G15G18G23G24G29C19C22C29C35
                                E 3E 5E 9E36
  23402638.580   122981669.639    23402640.778    95829865.614                  
  24431973.373   128390807.687    24431978.305   100044765.034                  
  23104418.007   121414514.082    23104419.472    94608706.491                  
  20865707.239   109650028.347    20865708.204    85441579.403                  
  20623720.480   108378377.403    20623721.803    84450684.379                  
  22049374.317   115870233.695    22049375.961    90288492.942                  
  21432100.212   112626378.896    21432104.840    87760797.684                  
  22463117.356   118044442.121    22463119.894    91982672.585                  
                 118190087.647                   118190087.647    22697165.694  
                 120437357.985                   120437357.985    23128725.846  
                 127175826.625                   127175826.625    24422790.697  
                 115568819.512                   115568819.512    22193780.235  
  26644014.839   140015171.676                                                  
  23608038.478   124061057.797                                                  
  23170217.485   121760287.784                                                  
  23406236.365   123000536.285                                                  
 21  8 31 19 21 12.0000000  0 16G 5G10G13G15G18G23G24G29C19C22C29C35
                                E 3E 5E 9E36
  23402988.045   122983506.102    23402990.243    95831296.622                  
  24431623.605   128388969.602    24431628.519   100043332.762                  
  23105043.208   121417799.508    23105044.673    94611266.563                  
  20866122.693   109652211.562    20866123.658    85443280.605                  
  20623390.118   108376641.372    20623391.440    84449331.630                  
  22049134.962   115868975.782    22049136.606    90287512.750                  
  21431686.920   112624206.958    21431691.512    87759105.265                  
  22463676.406   118047379.892    22463678.944    91984961.759                  
                 118191417.421                   118191417.421    22697421.060  
                 120436846.107                   120436846.107    23128627.549  
                 127179027.782                   127179027.782    24423405.463  
                 115570053.180                   115570053.180    22194017.161  
  26643647.595   140013241.836                                                  
  23608025.899   124060991.610                                                  
  23170585.533   121762222.034                                                  
  23406342.578   123001094.461                                                  
 21  8 31 19 21 13.0000000  0 16G 5G10G13G15G18G23G24G29C19C22C29C35
                                E 3E 5E 9E36
  23403337.527   122985342.612    23403339.725    95832727.668                  
  24431273.819   128387131.504    24431278.733   100041900.480                  
  23105668.427   121421085.101    23105669.892    94613826.762                  
  20866538.202   109654395.109    20866539.185    85444982.070                  
  20623059.845   108374905.751    20623061.167    84447979.196                  
  22048895.606   115867717.931    22048897.232    90286532.606                  
  21431273.698   112622035.469    21431278.309    87757413.198                  
  22464235.474   118050317.917    22464238.012    91987251.129                  
                 118192747.223                   118192747.223    22697676.444  
                 120436334.374                   120436334.374    23128529.269  
                 127182229.061                   127182229.061    24424020.247  
                 115571287.343                   115571287.343    22194254.158  
  26643280.422   140011312.243                                                  
  23608013.354   124060925.700                                                  
  23170953.635   121764156.379                                                  
  23406448.881   123001653.063                                                  
 21  8 31 19 21 14.0000000  0 16G 5G10G13G15G18G23G24G29C19C22C29C35
                                E 3E 5E 9E36
  23403686.992   122987179.157    23403689.207    95834158.738                  
  24430924.033   128385293.398    24430928.965   100040468.192                  
  23106293.682   121424370.850    23106295.165    94616387.085                  
  20866953.782   109656579.007    20866954.765    85446683.809                  
  20622729.643   108373170.539    20622730.965    84446627.082                  
  22048656.233   115866460.126    22048657.877    90285552.499                  
  21430860.567   112619864.429    21430865.177    87755721.481                  
  22464794.614   118053256.204    22464797.151    91989540.699                  
                 118194077.052                   118194077.052    22697931.828  
                 120435822.792                   120435822.792    23128431.025  
                 127185430.460                   127185430.460    24424635.012  
                 115572522.007                   115572522.007    22194491.262  
  26642913.267   140009382.852                                                  
  23608000.864   124060860.088                                                  
  23171321.755   121766090.805                                                  
  23406555.256   123002212.081                                                  
 21  8 31 19 21 15.0000000  0 16G 5G10G13G15G18G23G24G29C19C22C29C35
                                E 3E 5E 9E36
  23404036.492   122989015.796    23404038.707    95835589.901                  
  24430574.247   128383455.324    24430579.179   100039035.957                  
  23106918.973   121427656.749    23106920.438    94618947.517                  
  20867369.433   109658763.255    20867370.398    85448385.825                  
  20622399.513   108371435.699    20622400.835    84445275.247                  
  22048416.895   115865202.342    22048418.539    90284572.387                  
  21430447.506   112617693.856    21430452.116    87754030.125                  
  22465353.825   118056194.734    22465356.363    91991830.449                  
                 118195406.907                   118195406.907    22698187.194  
                 120435311.364                   120435311.364    23128332.817  
                 127188631.983                   127188631.983    24425249.832  
                 115573757.173                   115573757.173    22194728.455  
  26642546.166   140007453.833                                                  
  23607988.445   124060794.630                                                  
  23171689.875   121768025.331                                                  
  23406661.719   123002771.516                                                  
 21  8 31 19 21 16.0000000  0 16G 5G10G13G15G18G23G24G29C19C22C29C35
                                E 3E 5E 9E36
  23404385.992   122990852.444    23404388.208    95837021.058                  
  24430224.461   128381617.189    24430229.375   100037603.645                  
  23107544.299   121430942.829    23107545.765    94621508.090                  
  20867785.138   109660947.840    20867786.121    85450088.097                  
  20622069.454   108369701.305    20622070.794    84443923.769                  
  22048177.557   115863944.641    22048179.201    90283592.360                  
  21430034.535   112615523.734    21430039.163    87752339.121                  
  22465913.054   118059133.543    22465915.591    91994120.425                  
                 118196736.790                   118196736.790    22698442.596  
                 120434800.082                   120434800.082    23128234.627  
                 127191833.626                   127191833.626    24425864.705  
                 115574992.836                   115574992.836    22194965.756  
  26642179.101   140005524.885                                                  
  23607976.062   124060729.593                                                  
  23172058.012   121769959.940                                                  
  23406768.254   123003331.374                                                  
 21  8 31 19 21 17.0000000  0 16G 5G10G13G15G18G23G24G29C19C22C29C35
                                E 3E 5E 9E36
  23404735.492   122992689.121    23404737.708    95838452.230                  
  24429874.657   128379779.033    24429879.606   100036171.316                  
  23108169.644   121434229.071    23108171.127    94624068.800                  
  20868200.914   109663132.754    20868201.879    85451790.629                  
  20621739.503   108367967.313    20621740.825    84442572.606                  
  22047938.238   115862687.004    22047939.882    90282612.383                  
  21429621.672   112613354.073    21429626.282    87750648.481                  
  22466472.337   118062072.613    22466474.874    91996410.610                  
                 118198066.695                   118198066.695    22698697.998  
                 120434288.954                   120434288.954    23128136.454  
                 127195035.387                   127195035.387    24426479.560  
                 115576229.000                   115576229.000    22195203.164  
  26641812.089   140003596.181                                                  
  23607963.732   124060664.845                                                  
  23172426.186   121771894.639                                                  
  23406874.879   123003891.660                                                  
 21  8 31 19 21 18.0000000  0 16G 5G10G13G15G18G23G24G29C19C22C29C35
                                E 3E 5E 9E36
  23405085.028   122994525.848    23405087.226    95839883.448                  
  24429524.888   128377940.856    24429529.802   100034738.977                  
  23108795.024   121437515.468    23108796.507    94626629.633                  
  20868616.762   109665318.012    20868617.745    85453493.430                  
  20621409.623   108366233.737    20621410.945    84441221.773                  
  22047698.936   115861429.413    22047700.562    90281632.449                  
  21429208.879   112611184.853    21429213.507    87748958.184                  
  22467031.673   118065011.933    22467034.228    91998700.993                  
                 118199396.634                   118199396.634    22698953.400  
                 120433777.971                   120433777.971    23128038.335  
                 127198237.269                   127198237.269    24427094.433  
                 115577465.660                   115577465.660    22195440.643  
  26641445.077   140001667.691                                                  
  23607951.456   124060600.363                                                  
  23172794.359   121773829.439                                                  
  23406981.557   123004452.360                                                  
 21  8 31 19 21 19.0000000  0 16G 5G10G13G15G18G23G24G29C19C22C29C35
                                E 3E 5E 9E36
  23405434.564   122996362.622    23405436.762    95841314.703                  
  24429175.084   128376102.659    24429179.998   100033306.621                  
  23109420.440   121440802.024    23109421.923    94629190.581                  
  20869032.664   109667503.610    20869033.647    85455196.495                  
  20621079.796   108364500.561    20621081.118    84439871.246                  
  22047459.634   115860171.867    22047461.260    90280652.543                  
  21428796.176   112609016.105    21428800.804    87747268.253                  
  22467591.063   118067951.519    22467593.600    92000991.578                  
                 118200726.593                   118200726.593    22699208.802  
                 120433267.146                   120433267.146    23127940.234  
                 127201439.275                   127201439.275    24427709.360  
                 115578702.824                   115578702.824    22195678.212  
  26641078.154   139999739.438                                                  
  23607939.234   124060536.172                                                  
  23173162.568   121775764.308                                                  
  23407088.342   123005013.494                                                  
 21  8 31 19 21 20.0000000  0 16G 5G10G13G15G18G23G24G29C19C22C29C35
                                E 3E 5E 9E36
  23405784.082   122998199.440    23405786.298    95842745.987                  
  24428825.280   128374264.441    24428830.194   100031874.245                  
  23110045.873   121444088.753    23110047.356    94631751.669                  
  20869448.637   109669689.554    20869449.602    85456899.828                  
  20620750.059   108362767.793    20620751.381    84438521.039                  
  22047220.332   115858914.380    22047221.976    90279672.683                  
  21428383.563   112606847.811    21428388.173    87745578.671                  
  22468150.506   118070891.367    22468153.043    92003282.366                  
                 118202056.585                   118202056.585    22699464.204  
                 120432756.465                   120432756.465    23127842.151  
                 127204641.397                   127204641.397    24428324.305  
                 115579940.485                   115579940.485    22195915.905  
  26640711.268   139997811.394                                                  
  23607927.083   124060472.278                                                  
  23173530.759   121777699.269                                                  
  23407195.199   123005575.038                                                  
 21  8 31 19 21 21.0000000  0 16G 5G10G13G15G18G23G24G29C19C22C29C35
                                E 3E 5E 9E36
  23406133.636   123000036.305    23406135.834    95844177.308                  
  24428475.476   128372426.223    24428480.408   100030441.868                  
  23110671.360   121447375.632    23110672.844    94634312.871                  
  20869864.681   109671875.841    20869865.646    85458603.426                  
  20620420.393   108361035.429    20620421.716    84437171.144                  
  22046981.065   115857656.945    22046982.692    90278692.866                  
  21427971.038   112604679.964    21427975.666    87743889.442                  
  22468709.985   118073831.467    22468712.522    92005573.351                  
                 118203386.602                   118203386.602    22699719.624  
                 120432245.933                   120432245.933    23127744.122  
                 127207843.642                   127207843.642    24428939.267  
                 115581178.643                   115581178.643    22196153.688  
  26640344.399   139995883.567                                                  
  23607914.986   124060408.656                                                  
  23173899.004   121779634.320                                                  
  23407302.145   123006137.003                                                  
 21  8 31 19 21 22.0000000  0 16G 5G10G13G15G18G23G24G29C19C22C29C35
                                E 3E 5E 9E36
  23406483.172   123001873.197    23406485.388    95845608.652                  
  24428125.655   128370587.991    24428130.604   100029009.481                  
  23111296.866   121450662.672    23111298.349    94636874.198                  
  20870280.779   109674062.460    20870281.744    85460307.285                  
  20620090.817   108359303.486    20620092.157    84435821.577                  
  22046741.781   115856399.558    22046743.425    90277713.086                  
  21427558.603   112602512.575    21427563.214    87742200.569                  
  22469269.518   118076771.832    22469272.055    92007864.544                  
                 118204716.643                   118204716.643    22699975.044  
                 120431735.555                   120431735.555    23127646.128  
                 127211046.008                   127211046.008    24429554.247  
                 115582417.305                   115582417.305    22196391.561  
  26639977.601   139993955.984                                                  
  23607902.924   124060345.316                                                  
  23174267.231   121781569.466                                                  
  23407409.163   123006699.384                                                  
 21  8 31 19 21 23.0000000  0 16G 5G10G13G15G18G23G24G29C19C22C29C35
                                E 3E 5E 9E36
  23406832.744   123003710.129    23406834.942    95847040.028                  
  24427775.868   128368749.729    24427780.782   100027577.070                  
  23111922.407   121453949.867    23111923.872    94639435.649                  
  20870696.949   109676249.419    20870697.914    85462011.407                  
  20619761.312   108357571.938    20619762.635    84434472.321                  
  22046502.515   115855142.226    22046504.159    90276733.344                  
  21427146.240   112600345.649    21427150.868    87740512.056                  
  22469829.104   118079712.445    22469831.641    92010155.927                  
                 118206046.716                   118206046.716    22700230.481  
                 120431225.323                   120431225.323    23127548.117  
                 127214248.491                   127214248.491    24430169.245  
                 115583656.460                   115583656.460    22196629.523  
  26639610.822   139992028.603                                                  
  23607890.916   124060282.266                                                  
  23174635.494   121783504.688                                                  
  23407516.252   123007262.197                                                  
 21  8 31 19 21 24.0000000  0 16G 5G10G13G15G18G23G24G29C19C22C29C35
                                E 3E 5E 9E36
  23407182.315   123005547.126    23407184.513    95848471.450                  
  24427426.047   128366911.453    24427430.961   100026144.653                  
  23112547.965   121457237.227    23112549.448    94641997.226                  
  20871113.172   109678436.719    20871114.137    85463715.796                  
  20619431.897   108355840.801    20619433.219    84433123.384                  
  22046263.267   115853884.947    22046264.893    90275753.644                  
  21426733.984   112598179.175    21426738.594    87738823.899                  
  22470388.726   118082653.329    22470391.281    92012447.520                  
                 118207376.809                   118207376.809    22700485.901  
                 120430715.242                   120430715.242    23127450.176  
                 127217451.096                   127217451.096    24430784.279  
                 115584896.122                   115584896.122    22196867.574  
  26639244.096   139990101.448                                                  
  23607878.979   124060219.504                                                  
  23175003.774   121785440.006                                                  
  23407623.448   123007825.414                                                  
 21  8 31 19 21 25.0000000  0 16G 5G10G13G15G18G23G24G29C19C22C29C35
                                E 3E 5E 9E36
  23407531.887   123007384.149    23407534.103    95849902.894                  
  24427076.225   128365073.167    24427081.157   100024712.223                  
  23113173.560   121460524.746    23113175.043    94644558.927                  
  20871529.467   109680624.359    20871530.432    85465420.453                  
  20619102.553   108354110.075    20619103.875    84431774.766                  
  22046024.018   115852627.714    22046025.662    90274773.987                  
  21426321.799   112596013.159    21426326.391    87737136.094                  
  22470948.402   118085594.465    22470950.957    92014739.312                  
                 118208706.935                   118208706.935    22700741.339  
                 120430205.312                   120430205.312    23127352.236  
                 127220653.821                   127220653.821    24431399.313  
                 115586136.278                   115586136.278    22197105.732  
  26638877.406   139988174.519                                                  
  23607867.079   124060157.012                                                  
  23175372.073   121787375.407                                                  
  23407730.698   123008389.066                                                  
 21  8 31 19 21 26.0000000  0 16G 5G10G13G15G18G23G24G29C19C22C29C35
                                E 3E 5E 9E36
  23407881.459   123009221.220    23407883.675    95851334.378                  
  24426726.403   128363234.865    24426731.335   100023279.777                  
  23113799.172   121463812.434    23113800.655    94647120.762                  
  20871945.815   109682812.342    20871946.798    85467125.376                  
  20618773.280   108352379.754    20618774.603    84430426.464                  
  22045784.806   115851370.544    22045786.414    90273794.372                  
  21425909.704   112593847.598    21425914.314    87735448.641                  
  22471508.131   118088535.862    22471510.686    92017031.310                  
                 118210037.083                   118210037.083    22700996.777  
                 120429695.536                   120429695.536    23127254.332  
                 127223856.664                   127223856.664    24432014.401  
                 115587376.934                   115587376.934    22197343.998  
  26638510.769   139986247.813                                                  
  23607855.231   124060094.814                                                  
  23175740.371   121789310.899                                                  
  23407838.037   123008953.128                                                  
 21  8 31 19 21 27.0000000  0 16G 5G10G13G15G18G23G24G29C19C22C29C35
                                E 3E 5E 9E36
  23408231.066   123011058.337    23408233.282    95852765.898                  
  24426376.581   128361396.533    24426381.495   100021847.313                  
  23114424.838   121467100.278    23114426.321    94649682.716                  
  20872362.253   109685000.663    20872363.217    85468830.558                  
  20618444.097   108350649.847    20618445.420    84429078.484                  
  22045545.558   115850113.423    22045547.201    90272814.797                  
  21425497.698   112591682.485    21425502.308    87733761.543                  
  22472067.914   118091477.509    22472070.451    92019323.500                  
                 118211367.261                   118211367.261    22701252.214  
                 120429185.902                   120429185.902    23127156.481  
                 127227059.630                   127227059.630    24432629.506  
                 115588618.090                   115588618.090    22197582.353  
  26638144.168   139984321.315                                                  
  23607843.456   124060032.882                                                  
  23176108.723   121791246.473                                                  
  23407945.448   123009517.599                                                  
 21  8 31 19 21 28.0000000  0 16G 5G10G13G15G18G23G24G29C19C22C29C35
                                E 3E 5E 9E36
  23408580.656   123012895.501    23408582.872    95854197.452                  
  24426026.759   128359558.203    24426031.673   100020414.851                  
  23115050.522   121470388.286    23115052.023    94652244.796                  
  20872778.744   109687189.333    20872779.726    85470536.016                  
  20618114.986   108348920.339    20618116.308    84427730.816                  
  22045306.363   115848856.347    22045307.989    90271835.261                  
  21425085.781   112589517.839    21425090.373    87732074.808                  
  22472627.733   118094419.411    22472630.306    92021615.891                  
                 118212697.464                   118212697.464    22701507.688  
                 120428676.423                   120428676.423    23127058.648  
                 127230262.715                   127230262.715    24433244.611  
                 115589859.743                   115589859.743    22197820.797  
  26637777.603   139982395.046                                                  
  23607831.734   124059971.253                                                  
  23176477.057   121793182.132                                                  
  23408052.948   123010082.495                                                  
 21  8 31 19 21 29.0000000  0 16G 5G10G13G15G18G23G24G29C19C22C29C35
                                E 3E 5E 9E36
  23408930.281   123014732.698    23408932.479    95855629.032                  
  24425676.937   128357719.856    24425681.851   100018982.370                  
  23115676.242   121473676.450    23115677.725    94654806.999                  
  20873195.306   109689378.344    20873196.253    85472241.733                  
  20617785.945   108347191.250    20617787.268    84426383.476                  
  22045067.168   115847599.332    22045068.776    90270855.769                  
  21424673.936   112587353.657    21424678.564    87730388.433                  
  22473187.623   118097361.577    22473190.178    92023908.485                  
                 118214027.694                   118214027.694    22701763.143  
                 120428167.089                   120428167.089    23126960.815  
                 127233465.919                   127233465.919    24433859.753  
                 115591101.894                   115591101.894    22198059.348  
  26637411.091   139980469.007                                                  
  23607820.065   124059909.902                                                  
  23176845.427   121795117.879                                                  
  23408160.519   123010647.814                                                  
 21  8 31 19 21 30.0000000  0 16G 5G10G13G15G18G23G24G29C19C22C29C35
                                E 3E 5E 9E36
  23409279.906   123016569.941    23409282.104    95857060.652                  
  24425327.098   128355881.483    24425332.012   100017549.879                  
  23116301.997   121476964.761    23116303.480    94657369.321                  
  20873611.923   109691567.683    20873612.888    85473947.714                  
  20617456.977   108345462.570    20617458.317    84425036.450                  
  22044827.955   115846342.372    22044829.599    90269876.316                  
  21424262.198   112585189.921    21424266.826    87728702.409                  
  22473747.549   118100304.001    22473750.104    92026201.281                  
                 118215357.950                   118215357.950    22702018.599  
                 120427657.909                   120427657.909    23126863.036  
                 127236669.242                   127236669.242    24434474.912  
                 115592344.547                   115592344.547    22198297.971  
  26637044.616   139978543.184                                                  
  23607808.433   124059848.839                                                  
  23177213.797   121797053.714                                                  
  23408268.180   123011213.555                                                  
 21  8 31 19 21 31.0000000  0 16G 5G10G13G15G18G23G24G29C19C22C29C35
                                E 3E 5E 9E36
  23409629.514   123018407.238    23409631.712    95858492.305                  
  24424977.258   128354043.098    24424982.172   100016117.371                  
  23116927.788   121480253.242    23116929.253    94659931.769                  
  20874028.593   109693757.362    20874029.557    85475653.960                  
  20617128.097   108343734.294    20617129.438    84423689.742                  
  22044588.779   115845085.454    22044590.423    90268896.901                  
  21423850.549   112583026.652    21423855.159    87727016.747                  
  22474307.528   118103246.672    22474310.083    92028494.269                  
                 118216688.236                   118216688.236    22702274.054  
                 120427148.880                   120427148.880    23126765.275  
                 127239872.685                   127239872.685    24435090.124  
                 115593587.698                   115593587.698    22198536.719  
  26636678.176   139976617.587                                                  
  23607796.871   124059788.058                                                  
  23177582.203   121798989.640                                                  
  23408375.912   123011779.715                                                  
 21  8 31 19 21 32.0000000  0 16G 5G10G13G15G18G23G24G29C19C22C29C35
                                E 3E 5E 9E36
  23409979.157   123020244.581    23409981.355    95859924.001                  
  24424627.418   128352204.687    24424632.368   100014684.847                  
  23117553.579   121483541.890    23117555.062    94662494.352                  
  20874445.334   109695947.397    20874446.317    85477360.481                  
  20616799.307   108342006.429    20616800.612    84422343.356                  
  22044349.602   115843828.598    22044351.246    90267917.535                  
  21423438.972   112580863.849    21423443.582    87725331.446                  
  22474867.543   118106189.610    22474870.098    92030787.465                  
                 118218018.544                   118218018.544    22702529.546  
                 120426639.997                   120426639.997    23126667.567  
                 127243076.247                   127243076.247    24435705.319  
                 115594831.346                   115594831.346    22198775.539  
  26636311.807   139974692.199                                                  
  23607785.364   124059727.562                                                  
  23177950.609   121800925.651                                                  
  23408483.734   123012346.290                                                  
 21  8 31 19 21 33.0000000  0 16G 5G10G13G15G18G23G24G29C19C22C29C35
                                E 3E 5E 9E36
  23410328.782   123022081.860    23410330.980    95861355.649                  
  24424277.543   128350366.237    24424282.439   100013252.355                  
  23118179.388   121486830.749    23118180.835    94665057.180                  
  20874862.165   109698137.628    20874863.147    85479067.113                  
  20616470.589   108340278.934    20616471.893    84420997.263                  
  22044110.425   115842571.788    22044112.033    90266938.242                  
  21423027.484   112578701.407    21423032.076    87723646.422                  
  22475427.683   118109132.351    22475430.274    92033080.325                  
                 118219348.733                   118219348.733    22702785.019  
                 120426131.311                   120426131.311    23126569.841  
                 127246284.406                   127246284.406    24436319.656  
                 115596075.021                   115596075.021    22199014.537  
  26635945.438   139972766.933                                                  
  23607773.892   124059667.294                                                  
  23178318.978   121802861.862                                                  
  23408591.645   123012913.178                                                  
 21  8 31 19 21 34.0000000  0 16G 5G10G13G15G18G23G24G29C19C22C29C35
                                E 3E 5E 9E36
  23410678.443   123023919.294    23410680.641    95862787.411                  
  24423927.703   128348527.799    24423932.599   100011819.809                  
  23118805.233   121490119.720    23118806.716    94667620.012                  
  20875279.049   109700328.335    20875280.014    85480774.155                  
  20616141.924   108338551.882    20616143.246    84419651.508                  
  22043871.266   115841315.031    22043872.874    90265958.948                  
  21422616.085   112576539.499    21422620.696    87721961.820                  
  22475987.806   118112075.793    22475990.397    92035373.910                  
                 118220679.091                   118220679.091    22703040.492  
                 120425622.727                   120425622.727    23126472.151  
                 127249488.203                   127249488.203    24436934.922  
                 115597319.660                   115597319.660    22199253.589  
  26635579.141   139970841.997                                                  
  23607762.491   124059607.361                                                  
  23178687.438   121804798.052                                                  
  23408699.592   123013480.589                                                  
 21  8 31 19 21 35.0000000  0 16G 5G10G13G15G18G23G24G29C19C22C29C35
                                E 3E 5E 9E36
  23411028.104   123025756.766    23411030.302    95864219.208                  
  24423577.845   128346689.335    24423582.741   100010387.239                  
  23119431.149   121493408.832    23119432.614    94670182.954                  
  20875695.987   109702519.364    20875696.952    85482481.453                  
  20615813.366   108336825.229    20615814.688    84418306.066                  
  22043632.125   115840058.313    22043633.733    90264979.687                  
  21422204.776   112574378.058    21422209.386    87720277.583                  
  22476547.964   118115019.491    22476550.555    92037667.700                  
                 118222009.472                   118222009.472    22703296.002  
                 120425114.286                   120425114.286    23126374.515  
                 127252692.117                   127252692.117    24437550.206  
                 115598564.800                   115598564.800    22199492.676  
  26635212.862   139968917.275                                                  
  23607751.144   124059547.706                                                  
  23179055.897   121806734.313                                                  
  23408807.664   123014048.425                                                  
 21  8 31 19 21 36.0000000  0 16G 5G10G13G15G18G23G24G29C19C22C29C35
                                E 3E 5E 9E36
  23411377.765   123027594.294    23411379.981    95865651.043                  
  24423228.006   128344850.859    24423232.902   100008954.665                  
  23120057.083   121496698.105    23120058.548    94672746.024                  
  20876112.996   109704710.743    20876113.979    85484189.023                  
  20615484.862   108335098.996    20615486.184    84416960.949                  
  22043392.984   115838801.653    22043394.627    90264000.472                  
  21421793.556   112572217.059    21421798.167    87718593.688                  
  22477108.176   118117963.450    22477110.785    92039961.692                  
                 118223339.882                   118223339.882    22703551.475  
                 120424605.996                   120424605.996    23126276.914  
                 127255896.152                   127255896.152    24438165.508  
                 115599810.440                   115599810.440    22199731.907  
  26634846.636   139966992.769                                                  
  23607739.833   124059488.336                                                  
  23179424.374   121808670.664                                                  
  23408915.807   123014616.676                                                  
 21  8 31 19 21 37.0000000  0 16G 5G10G13G15G18G23G24G29C19C22C29C35
                                E 3E 5E 9E36
  23411727.444   123029431.861    23411729.660    95867082.913                  
  24422878.148   128343012.377    24422883.044   100007522.077                  
  23120683.035   121499987.554    23120684.500    94675309.227                  
  20876530.059   109706902.450    20876531.042    85485896.845                  
  20615156.465   108333373.168    20615157.787    84415616.148                  
  22043153.860   115837545.054    22043155.504    90263021.304                  
  21421382.426   112570056.528    21421387.018    87716910.157                  
  22477668.459   118120907.664    22477671.068    92042255.882                  
                 118224670.322                   118224670.322    22703806.984  
                 120424097.860                   120424097.860    23126179.332  
                 127259100.304                   127259100.304    24438780.846  
                 115601056.577                   115601056.577    22199971.226  
  26634480.482   139965068.505                                                  
  23607728.594   124059429.243                                                  
  23179792.851   121810607.107                                                  
  23409024.022   123015185.348                                                  
 21  8 31 19 21 38.0000000  0 16G 5G10G13G15G18G23G24G29C19C22C29C35
                                E 3E 5E 9E36
  23412077.141   123031269.485    23412079.357    95868514.829                  
  24422528.272   128341173.878    24422533.204   100006089.485                  
  23121309.040   121503277.156    23121310.505    94677872.550                  
  20876947.194   109709094.504    20876948.176    85487604.938                  
  20614828.122   108331647.759    20614829.444    84414271.672                  
  22042914.755   115836288.500    22042916.381    90262042.175                  
  21420971.385   112567896.448    21420975.977    87715226.980                  
  22478228.778   118123852.137    22478231.387    92044550.274                  
                 118226000.784                   118226000.784    22704062.493  
                 120423589.867                   120423589.867    23126081.785  
                 127262304.579                   127262304.579    24439396.183  
                 115602303.212                   115602303.212    22200210.618  
  26634114.346   139963144.454                                                  
  23607717.426   124059370.436                                                  
  23180161.382   121812543.640                                                  
  23409132.326   123015754.440                                                  
 21  8 31 19 21 39.0000000  0 16G 5G10G13G15G18G23G24G29C19C22C29C35
                                E 3E 5E 9E36
  23412426.838   123033107.146    23412429.054    95869946.769                  
  24422178.433   128339335.352    24422183.347   100004656.867                  
  23121935.063   121506566.919    23121936.529    94680436.000                  
  20877364.400   109711286.895    20877365.382    85489313.293                  
  20614499.868   108329922.749    20614501.172    84412927.513                  
  22042675.667   115835031.999    22042677.276    90261063.086                  
  21420560.415   112565736.832    21420565.025    87713544.165                  
  22478789.133   118126796.868    22478791.741    92046844.867                  
                 118227331.273                   118227331.273    22704318.003  
                 120423082.027                   120423082.027    23125984.255  
                 127265508.969                   127265508.969    24440011.557  
                 115603550.349                   115603550.349    22200450.116  
  26633748.245   139961220.621                                                  
  23607706.275   124059311.935                                                  
  23180529.895   121814480.265                                                  
  23409240.702   123016323.958                                                  
 21  8 31 19 21 40.0000000  0 16G 5G10G13G15G18G23G24G29C19C22C29C35
                                E 3E 5E 9E36
  23412776.535   123034944.844    23412778.768    95871378.742                  
  24421828.575   128337496.821    24421833.471   100003224.245                  
  23122561.122   121509856.841    23122562.588    94682999.575                  
  20877781.659   109713479.626    20877782.642    85491021.914                  
  20614171.685   108328198.148    20614173.008    84411583.667                  
  22042436.562   115833775.556    22042438.188    90260084.035                  
  21420149.535   112563577.665    21420154.145    87711861.694                  
  22479349.559   118129741.848    22479352.168    92049139.657                  
                 118228661.788                   118228661.788    22704573.512  
                 120422574.336                   120422574.336    23125886.762  
                 127268713.482                   127268713.482    24440626.966  
                 115604797.981                   115604797.981    22200689.722  
  26633382.198   139959297.023                                                  
  23607695.197   124059253.704                                                  
  23180898.461   121816416.965                                                  
  23409349.167   123016893.896                                                  
 21  8 31 19 21 41.0000000  0 16G 5G10G13G15G18G23G24G29C19C22C29C35
                                E 3E 5E 9E36
  23413126.267   123036782.578    23413128.465    95872810.742                  
  24421478.700   128335658.254    24421483.596   100001791.603                  
  23123187.199   121513146.927    23123188.665    94685563.278                  
  20878199.008   109715672.701    20878199.973    85492730.804                  
  20613843.574   108326473.968    20613844.897    84410240.149                  
  22042197.474   115832519.157    22042199.101    90259105.023                  
  21419738.762   112561418.970    21419743.354    87710179.595                  
  22479910.021   118132687.086    22479912.612    92051434.643                  
                 118229992.332                   118229992.332    22704829.039  
                 120422066.793                   120422066.793    23125789.304  
                 127271918.111                   127271918.111    24441242.357  
                 115606046.110                   115606046.110    22200929.417  
  26633016.205   139957373.633                                                  
  23607684.171   124059195.743                                                  
  23181267.028   121818353.754                                                  
  23409457.685   123017464.247                                                  
 21  8 31 19 21 42.0000000  0 16G 5G10G13G15G18G23G24G29C19C22C29C35
                                E 3E 5E 9E36
  23413475.982   123038620.364    23413478.198    95874242.781                  
  24421128.842   128333819.687    24421133.738   100000358.953                  
  23123813.312   121516437.148    23123814.777    94688127.082                  
  20878616.393   109717866.104    20878617.375    85494439.949                  
  20613515.553   108324750.194    20613516.875    84408896.950                  
  22041958.405   115831262.811    22041960.013    90258126.054                  
  21419328.060   112559260.733    21419332.652    87708497.856                  
  22480470.536   118135632.577    22480473.145    92053729.836                  
                 118231322.899                   118231322.899    22705084.566  
                 120421559.399                   120421559.399    23125691.865  
                 127275122.856                   127275122.856    24441857.820  
                 115607294.739                   115607294.739    22201169.202  
  26632650.212   139955450.480                                                  
  23607673.200   124059138.078                                                  
  23181635.594   121820290.625                                                  
  23409566.293   123018035.015                                                  
 21  8 31 19 21 43.0000000  0 16G 5G10G13G15G18G23G24G29C19C22C29C35
                                E 3E 5E 9E36
  23413825.696   123040458.188    23413827.912    95875674.852                  
  24420778.967   128331981.102    24420783.863    99998926.290                  
  23124439.461   121519727.542    23124440.926    94690691.028                  
  20879033.849   109720059.845    20879034.814    85496149.355                  
  20613187.620   108323026.819    20613188.943    84407554.058                  
  22041719.335   115830006.524    22041720.961    90257147.129                  
  21418917.448   112557102.945    21418922.040    87706816.465                  
  22481031.105   118138578.323    22481033.696    92056025.220                  
                 118232653.492                   118232653.492    22705340.075  
                 120421052.155                   120421052.155    23125594.461  
                 127278327.717                   127278327.717    24442473.283  
                 115608543.868                   115608543.868    22201409.075  
  26632284.308   139953527.542                                                  
  23607662.282   124059080.692                                                  
  23182004.179   121822227.599                                                  
  23409675.008   123018606.199                                                  
 21  8 31 19 21 44.0000000  0 16G 5G10G13G15G18G23G24G29C19C22C29C35
                                E 3E 5E 9E36
  23414175.447   123042296.074    23414177.663    95877106.969                  
  24420429.091   128330142.497    24420434.005    99997493.613                  
  23125065.645   121523018.088    23125067.092    94693255.086                  
  20879451.376   109722253.929    20879452.359    85497859.036                  
  20612859.760   108321303.863    20612861.082    84406211.496                  
  22041480.283   115828750.287    22041481.927    90256168.243                  
  21418506.925   112554945.624    21418511.517    87705135.433                  
  22481591.692   118141524.324    22481594.301    92058320.801                  
                 118233984.112                   118233984.112    22705595.620  
                 120420545.057                   120420545.057    23125497.074  
                 127281532.704                   127281532.704    24443088.763  
                 115609793.492                   115609793.492    22201649.056  
  26631918.422   139951604.827                                                  
  23607651.417   124059023.590                                                  
  23182372.799   121824164.649                                                  
  23409783.777   123019177.812                                                  
 21  8 31 19 21 45.0000000  0 16G 5G10G13G15G18G23G24G29C19C22C29C35
                                E 3E 5E 9E36
  23414525.197   123044133.987    23414527.395    95878539.109                  
  24420079.216   128328303.874    24420084.112    99996060.922                  
  23125691.847   121526308.808    23125693.294    94695819.285                  
  20879868.958   109724448.351    20879869.940    85499568.973                  
  20612531.952   108319581.322    20612533.275    84404869.253                  
  22041241.232   115827494.102    22041242.875    90255189.398                  
  21418096.473   112552788.757    21418101.084    87703454.763                  
  22482152.369   118144470.598    22482154.960    92060616.597                  
                 118235314.761                   118235314.761    22705851.165  
                 120420038.114                   120420038.114    23125399.724  
                 127284737.804                   127284737.804    24443704.280  
                 115611043.612                   115611043.612    22201889.144  
  26631552.607   139949682.335                                                  
  23607640.625   124058966.797                                                  
  23182741.419   121826101.790                                                  
  23409892.635   123019749.868                                                  
 21  8 31 19 21 46.0000000  0 16G 5G10G13G15G18G23G24G29C19C22C29C35
                                E 3E 5E 9E36
  23414874.965   123045971.961    23414877.163    95879971.292                  
  24419729.340   128326465.237    24419734.236    99994628.218                  
  23126318.085   121529599.684    23126319.532    94698383.597                  
  20880286.592   109726643.118    20880287.593    85501279.177                  
  20612204.252   108317859.179    20612205.575    84403527.328                  
  22041002.215   115826237.967    22041003.842    90254210.594                  
  21417686.147   112550632.348    21417690.739    87701774.442                  
  22482713.063   118147417.113    22482715.654    92062912.582                  
                 118236645.432                   118236645.432    22706106.692  
                 120419531.315                   120419531.315    23125302.391  
                 127287943.026                   127287943.026    24444319.796  
                 115612294.233                   115612294.233    22202129.322  
  26631186.792   139947760.075                                                  
  23607629.867   124058910.271                                                  
  23183110.057   121828039.016                                                  
  23410001.583   123020322.320                                                  
 21  8 31 19 21 47.0000000  0 16G 5G10G13G15G18G23G24G29C19C22C29C35
                                E 3E 5E 9E36
  23415224.716   123047809.968    23415226.932    95881403.507                  
  24419379.465   128324626.582    24419384.361    99993195.504                  
  23126944.340   121532890.706    23126945.805    94700948.032                  
  20880704.317   109728838.215    20880705.299    85502989.644                  
  20611876.624   108316137.450    20611877.946    84402185.723                  
  22040763.199   115824981.874    22040764.826    90253231.819                  
  21417275.856   112548476.403    21417280.484    87700094.489                  
  22483273.828   118150363.883    22483276.419    92065208.762                  
                 118237976.133                   118237976.133    22706362.255  
                 120419024.671                   120419024.671    23125205.095  
                 127291148.365                   127291148.365    24444935.366  
                 115613545.354                   115613545.354    22202369.589  
  26630821.031   139945838.028                                                  
  23607619.164   124058854.011                                                  
  23183478.712   121829976.324                                                  
  23410110.602   123020895.192                                                  
 21  8 31 19 21 48.0000000  0 16G 5G10G13G15G18G23G24G29C19C22C29C35
                                E 3E 5E 9E36
  23415574.484   123049648.024    23415576.700    95882835.754                  
  24419029.554   128322787.918    24419034.468    99991762.777                  
  23127570.632   121536181.892    23127572.097    94703512.591                  
  20881122.094   109731033.655    20881123.077    85504700.374                  
  20611549.085   108314416.138    20611550.407    84400844.437                  
  22040524.183   115823725.851    22040525.792    90252253.102                  
  21416865.709   112546320.919    21416870.301    87698414.886                  
  22483834.612   118153310.903    22483837.221    92067505.141                  
                 118239306.855                   118239306.855    22706617.799  
                 120418518.172                   120418518.172    23125107.833  
                 127294353.819                   127294353.819    24445550.936  
                 115614796.973                   115614796.973    22202609.945  
  26630455.342   139943916.202                                                  
  23607608.514   124058798.054                                                  
  23183847.404   121831913.723                                                  
  23410219.674   123021468.483                                                  
 21  8 31 19 21 49.0000000  0 16G 5G10G13G15G18G23G24G29C19C22C29C35
                                E 3E 5E 9E36
  23415924.288   123051486.124    23415926.486    95884268.040                  
  24418679.678   128320949.234    24418684.574    99990330.038                  
  23128196.959   121539473.228    23128198.424    94706077.261                  
  20881539.944   109733229.426    20881540.944    85506411.362                  
  20611221.599   108312695.228    20611222.921    84399503.470                  
  22040285.185   115822469.872    22040286.793    90251274.417                  
  21416455.597   112544165.877    21416460.225    87696735.640                  
  22484395.485   118156258.187    22484398.076    92069801.724                  
                 118240637.605                   118240637.605    22706873.362  
                 120418011.824                   120418011.824    23125010.608  
                 127297559.393                   127297559.393    24446166.542  
                 115616049.091                   115616049.091    22202850.409  
  26630089.652   139941994.594                                                  
  23607597.918   124058742.370                                                  
  23184216.096   121833851.207                                                  
  23410328.854   123022042.192                                                  
 21  8 31 19 21 50.0000000  0 16G 5G10G13G15G18G23G24G29C19C22C29C35
                                E 3E 5E 9E36
  23416274.056   123053324.277    23416276.272    95885700.363                  
  24418329.785   128319110.523    24418334.681    99988897.281                  
  23128823.304   121542764.723    23128824.787    94708642.067                  
  20881957.864   109735425.538    20881958.847    85508122.621                  
  20610894.203   108310974.731    20610895.525    84398162.821                  
  22040046.187   115821213.945    22040047.795    90250295.774                  
  21416045.592   112542011.320    21416050.220    87695056.762                  
  22484956.376   118159205.723    22484958.985    92072098.500                  
                 118241968.382                   118241968.382    22707128.925  
                 120417505.622                   120417505.622    23124913.383  
                 127300765.086                   127300765.086    24446782.165  
                 115617301.704                   115617301.704    22203090.961  
  26629724.034   139940073.219                                                  
  23607587.375   124058686.974                                                  
  23184584.823   121835788.782                                                  
  23410438.123   123022616.331                                                  
 21  8 31 19 21 51.0000000  0 16G 5G10G13G15G18G23G24G29C19C22C29C35
                                E 3E 5E 9E36
  23416623.860   123055162.478    23416626.076    95887132.726                  
  24417979.874   128317271.801    24417984.788    99987464.513                  
  23129449.702   121546056.387    23129451.168    94711206.996                  
  20882375.839   109737621.988    20882376.821    85509834.140                  
  20610566.878   108309254.646    20610568.200    84396822.497                  
  22039807.207   115819958.072    22039808.815    90249317.169                  
  21415635.694   112539857.212    21415640.305    87693378.239                  
  22485517.320   118162153.511    22485519.947    92074395.481                  
                 118243299.155                   118243299.155    22707384.506  
                 120416999.562                   120416999.562    23124816.193  
                 127303970.896                   127303970.896    24447397.807  
                 115618554.808                   115618554.808    22203331.603  
  26629358.452   139938152.060                                                  
  23607576.886   124058631.847                                                  
  23184953.532   121837726.434                                                  
  23410547.463   123023190.887                                                  
 21  8 31 19 21 52.0000000  0 16G 5G10G13G15G18G23G24G29C19C22C29C35
                                E 3E 5E 9E36
  23416973.682   123057000.722    23416975.898    95888565.124                  
  24417629.980   128315433.070    24417634.876    99986031.735                  
  23130076.101   121549348.199    23130077.584    94713772.043                  
  20882793.866   109739818.774    20882794.831    85511545.917                  
  20610239.643   108307534.968    20610240.965    84395482.488                  
  22039568.226   115818702.245    22039569.835    90248338.605                  
  21415225.886   112537703.562    21415230.479    87691700.070                  
  22486078.318   118165101.558    22486080.927    92076692.655                  
                 118244629.984                   118244629.984    22707640.068  
                 120416493.659                   120416493.659    23124719.057  
                 127307176.822                   127307176.822    24448013.484  
                 115619808.418                   115619808.418    22203572.335  
  26628992.923   139936231.128                                                  
  23607566.468   124058577.026                                                  
  23185322.277   121839664.170                                                  
  23410656.875   123023765.860                                                  
 21  8 31 19 21 53.0000000  0 16G 5G10G13G15G18G23G24G29C19C22C29C35
                                E 3E 5E 9E36
  23417323.504   123058839.016    23417325.720    95889997.559                  
  24417280.087   128313594.309    24417284.983    99984598.937                  
  23130702.553   121552640.169    23130704.018    94716337.210                  
  20883211.984   109742015.901    20883212.967    85513257.969                  
  20609912.479   108305815.707    20609913.801    84394142.804                  
  22039329.264   115817446.480    22039330.872    90247360.087                  
  21414816.132   112535550.378    21414820.742    87690022.266                  
  22486639.387   118168049.857    22486641.978    92078990.031                  
                 118245960.839                   118245960.839    22707895.631  
                 120415987.908                   120415987.908    23124621.939  
                 127310382.867                   127310382.867    24448629.161  
                 115621062.523                   115621062.523    22203813.174  
  26628627.412   139934310.415                                                  
  23607556.086   124058522.460                                                  
  23185691.040   121841602.004                                                  
  23410766.359   123024341.247                                                  
 21  8 31 19 21 54.0000000  0 16G 5G10G13G15G18G23G24G29C19C22C29C35
                                E 3E 5E 9E36
  23417673.326   123060677.351    23417675.542    95891430.028                  
  24416930.176   128311755.540    24416935.072    99983166.132                  
  23131329.023   121555932.288    23131330.506    94718902.500                  
  20883630.137   109744213.363    20883631.120    85514970.274                  
  20609585.386   108304096.851    20609586.709    84392803.438                  
  22039090.302   115816190.762    22039091.945    90246381.605                  
  21414406.484   112533397.655    21414411.095    87688344.820                  
  22487200.457   118170998.414    22487203.084    92081287.606                  
                 118247291.718                   118247291.718    22708151.247  
                 120415482.301                   120415482.301    23124524.839  
                 127313589.031                   127313589.031    24449244.874  
                 115622317.130                   115622317.130    22204054.120  
  26628261.955   139932389.930                                                  
  23607545.758   124058468.219                                                  
  23186059.821   121843539.922                                                  
  23410875.932   123024917.074                                                  
 21  8 31 19 21 55.0000000  0 16G 5G10G13G15G18G23G24G29C19C22C29C35
                                E 3E 5E 9E36
  23418023.166   123062515.730    23418025.381    95892862.526                  
  24416580.264   128309916.753    24416585.161    99981733.308                  
  23131955.547   121559224.587    23131956.994    94721467.921                  
  20884048.361   109746411.159    20884049.344    85516682.843                  
  20609258.383   108302378.414    20609259.705    84391464.394                  
  22038851.357   115814935.094    22038852.983    90245403.160                  
  21413996.926   112531245.390    21414001.519    87686667.730                  
  22487761.598   118173947.218    22487764.225    92083585.375                  
                 118248622.628                   118248622.628    22708406.828  
                 120414976.843                   120414976.843    23124427.774  
                 127316795.309                   127316795.309    24449860.623  
                 115623572.229                   115623572.229    22204295.155  
  26627896.534   139930469.653                                                  
  23607535.483   124058414.234                                                  
  23186428.602   121845477.917                                                  
  23410985.594   123025493.311                                                  
 21  8 31 19 21 56.0000000  0 16G 5G10G13G15G18G23G24G29C19C22C29C35
                                E 3E 5E 9E36
  23418373.005   123064354.147    23418375.221    95894295.062                  
  24416230.353   128308077.960    24416235.267    99980300.487                  
  23132582.053   121562517.038    23132583.536    94724033.470                  
  20884466.657   109748609.296    20884467.640    85518395.676                  
  20608931.451   108300660.374    20608932.774    84390125.664                  
  22038612.448   115813679.482    22038614.056    90244424.761                  
  21413587.458   112529093.582    21413592.068    87684990.999                  
  22488322.792   118176896.280    22488325.401    92085883.343                  
                 118249953.559                   118249953.559    22708662.427  
                 120414471.540                   120414471.540    23124330.745  
                 127320001.708                   127320001.708    24450476.354  
                 115624827.831                   115624827.831    22204536.279  
  26627531.183   139928549.617                                                  
  23607525.262   124058360.531                                                  
  23186797.419   121847416.009                                                  
  23411095.345   123026069.960                                                  
 21  8 31 19 21 57.0000000  0 16G 5G10G13G15G18G23G24G29C19C22C29C35
                                E 3E 5E 9E36
  23418722.845   123066192.608    23418725.061    95895727.624                  
  24415880.442   128306239.132    24415885.338    99978867.637                  
  23133208.648   121565809.644    23133210.095    94726599.133                  
  20884885.025   109750807.782    20884886.007    85520108.782                  
  20608604.591   108298942.759    20608605.914    84388787.261                  
  22038373.504   115812423.922    22038375.112    90243446.407                  
  21413178.061   112526942.247    21413182.653    87683314.634                  
  22488884.040   118179845.594    22488886.632    92088181.508                  
                 118251284.519                   118251284.519    22708918.025  
                 120413966.378                   120413966.378    23124233.717  
                 127323208.222                   127323208.222    24451092.156  
                 115626083.930                   115626083.930    22204777.493  
  26627165.833   139926629.792                                                  
  23607515.095   124058307.112                                                  
  23187166.235   121849354.183                                                  
  23411205.169   123026647.034                                                  
 21  8 31 19 21 58.0000000  0 16G 5G10G13G15G18G23G24G29C19C22C29C35
                                E 3E 5E 9E36
  23419072.703   123068031.120    23419074.919    95897160.230                  
  24415530.513   128304400.298    24415535.427    99977434.777                  
  23133835.243   121569102.409    23133836.708    94729164.921                  
  20885303.446   109753006.593    20885304.428    85521822.137                  
  20608277.838   108297225.546    20608279.143    84387449.175                  
  22038134.595   115811168.413    22038136.221    90242468.090                  
  21412768.753   112524791.349    21412773.363    87681638.610                  
  22489445.324   118182795.164    22489447.933    92090479.871                  
                 118252615.504                   118252615.504    22709173.624  
                 120413461.368                   120413461.368    23124136.741  
                 127326414.857                   127326414.857    24451707.958  
                 115627340.524                   115627340.524    22205018.814  
  26626800.555   139924710.199                                                  
  23607504.999   124058253.987                                                  
  23187535.088   121851292.450                                                  
  23411315.045   123027224.536                                                  
 21  8 31 19 21 59.0000000  0 16G 5G10G13G15G18G23G24G29C19C22C29C35
                                E 3E 5E 9E36
  23419422.578   123069869.675    23419424.794    95898592.866                  
  24415180.602   128302561.449    24415185.498    99976001.915                  
  23134461.856   121572395.324    23134463.339    94731730.831                  
  20885721.920   109755205.742    20885722.921    85523535.762                  
  20607951.139   108295508.753    20607952.461    84386111.414                  
  22037895.686   115809912.956    22037897.312    90241489.812                  
  21412359.552   112522640.918    21412364.162    87679962.953                  
  22490006.662   118185744.989    22490009.289    92092778.434                  
                 118253946.511                   118253946.511    22709429.222  
                 120412956.509                   120412956.509    23124039.802  
                 127329621.606                   127329621.606    24452323.778  
                 115628597.617                   115628597.617    22205260.243  
  26626435.312   139922790.821                                                  
  23607494.938   124058201.129                                                  
  23187903.940   121853230.792                                                  
  23411425.011   123027802.446                                                  
 21  8 31 19 22  0.0000000  0 16G 5G10G13G15G18G23G24G29C19C22C29C35
                                E 3E 5E 9E36
  23419772.454   123071708.274    23419774.687    95900025.543                  
  24414830.673   128300722.577    24414835.587    99974569.027                  
  23135088.505   121575688.395    23135089.988    94734296.855                  
  20886140.484   109757405.226    20886141.467    85525249.646                  
  20607624.511   108293792.371    20607625.833    84384773.973                  
  22037656.795   115808657.552    22037658.421    90240511.573                  
  21411950.423   112520490.950    21411955.033    87678287.652                  
  22490568.035   118188695.057    22490570.662    92095077.186                  
                 118255277.546                   118255277.546    22709684.839  
                 120412451.796                   120412451.796    23123942.880  
                 127332828.468                   127332828.468    24452939.616  
                 115629855.208                   115629855.208    22205501.743  
  26626070.123   139920871.665                                                  
  23607484.932   124058148.558                                                  
  23188272.828   121855169.218                                                  
  23411535.084   123028380.782                                                  
 21  8 31 19 22  1.0000000  0 16G 5G10G13G15G18G23G24G29C19C22C29C35
                                E 3E 5E 9E36
  23420122.347   123073546.917    23420124.563    95901458.250                  
  24414480.761   128298883.696    24414485.640    99973136.133                  
  23135715.207   121578981.629    23135716.672    94736863.012                  
  20886559.102   109759605.050    20886560.085    85526963.794                  
  20607297.973   108292076.393    20607299.295    84383436.853                  
  22037417.922   115807402.204    22037419.548    90239533.382                  
  21411541.401   112518341.437    21411545.993    87676612.711                  
  22491129.480   118191645.390    22491132.089    92097376.145                  
                 118256608.611                   118256608.611    22709940.455  
                 120411947.230                   120411947.230    23123845.977  
                 127336035.452                   127336035.452    24453555.508  
                 115631113.293                   115631113.293    22205743.368  
  26625704.951   139918952.735                                                  
  23607474.997   124058096.281                                                  
  23188641.699   121857107.738                                                  
  23411645.229   123028959.540                                                  
 21  8 31 19 22  2.0000000  0 16G 5G10G13G15G18G23G24G29C19C22C29C35
                                E 3E 5E 9E36
  23420472.240   123075385.613    23420474.456    95902891.000                  
  24414130.814   128297044.789    24414135.728    99971703.218                  
  23136341.892   121582275.011    23136343.375    94739429.281                  
  20886977.773   109761805.211    20886978.756    85528678.203                  
  20606971.523   108290360.827    20606972.846    84382100.043                  
  22037179.049   115806146.899    22037180.657    90238555.223                  
  21411132.433   112516192.391    21411137.043    87674938.130                  
  22491690.960   118194595.978    22491693.551    92099675.302                  
                 118257939.695                   118257939.695    22710196.071  
                 120411442.816                   120411442.816    23123749.127  
                 127339242.555                   127339242.555    24454171.400  
                 115632371.879                   115632371.879    22205985.064  
  26625339.834   139917034.020                                                  
  23607465.097   124058044.283                                                  
  23189010.605   121859046.343                                                  
  23411755.445   123029538.721                                                  
 21  8 31 19 22  3.0000000  0 16G 5G10G13G15G18G23G24G29C19C22C29C35
                                E 3E 5E 9E36
  23420822.134   123077224.356    23420824.367    95904323.785                  
  24413780.885   128295205.864    24413785.782    99970270.292                  
  23136968.648   121585568.550    23136970.113    94741995.676                  
  20887396.516   109764005.704    20887397.499    85530392.871                  
  20606645.146   108288645.680    20606646.468    84380763.562                  
  22036940.176   115804891.651    22036941.802    90237577.110                  
  21410723.572   112514043.805    21410728.182    87673263.910                  
  22492252.476   118197546.797    22492255.103    92101974.642                  
                 118259270.809                   118259270.809    22710451.706  
                 120410938.548                   120410938.548    23123652.276  
                 127342449.769                   127342449.769    24454787.291  
                 115633630.958                   115633630.958    22206226.832  
  26624974.752   139915115.542                                                  
  23607455.251   124057992.557                                                  
  23189379.528   121860985.028                                                  
  23411865.715   123030118.319                                                  
 21  8 31 19 22  4.0000000  0 16G 5G10G13G15G18G23G24G29C19C22C29C35
                                E 3E 5E 9E36
  23421172.045   123079063.126    23421174.261    95905756.590                  
  24413430.938   128293366.918    24413435.835    99968837.352                  
  23137595.421   121588862.254    23137596.905    94744562.196                  
  20887815.312   109766206.543    20887816.295    85532107.808                  
  20606318.839   108286930.938    20606320.162    84379427.402                  
  22036701.320   115803636.452    22036702.946    90236599.035                  
  21410314.818   112511895.687    21410319.428    87671590.051                  
  22492814.064   118200497.887    22492816.673    92104274.188                  
                 118260601.949                   118260601.949    22710707.340  
                 120410434.430                   120410434.430    23123555.462  
                 127345657.102                   127345657.102    24455403.236  
                 115634890.538                   115634890.538    22206468.743  
  26624609.723   139913197.270                                                  
  23607445.477   124057941.116                                                  
  23189748.452   121862923.809                                                  
  23411976.092   123030698.333                                                  
 21  8 31 19 22  5.0000000  0 16G 5G10G13G15G18G23G24G29C19C22C29C35
                                E 3E 5E 9E36
  23421521.956   123080901.948    23421524.172    95907189.438                  
  24413080.992   128291527.961    24413085.906    99967404.398                  
  23138222.213   121592156.117    23138223.696    94747128.840                  
  20888234.198   109768407.720    20888235.181    85533823.011                  
  20605992.623   108285216.610    20605993.945    84378091.562                  
  22036462.483   115802381.315    22036464.091    90235621.004                  
  21409906.117   112509748.017    21409910.728    87669916.544                  
  22493375.687   118203449.229    22493378.296    92106573.937                  
                 118261933.113                   118261933.113    22710962.974  
                 120409930.461                   120409930.461    23123458.683  
                 127348864.555                   127348864.555    24456019.199  
                 115636150.612                   115636150.612    22206710.725  
  26624244.749   139911279.235                                                  
  23607435.738   124057889.972                                                  
  23190117.412   121864862.675                                                  
  23412086.558   123031278.764                                                  
 21  8 31 19 22  6.0000000  0 16G 5G10G13G15G18G23G24G29C19C22C29C35
                                E 3E 5E 9E36
  23421871.903   123082740.820    23421874.119    95908622.323                  
  24412731.062   128289689.001    24412735.959    99965971.445                  
  23138849.059   121595450.121    23138850.542    94749695.594                  
  20888653.137   109770609.223    20888654.120    85535538.470                  
  20605666.477   108283502.692    20605667.800    84376756.040                  
  22036223.646   115801126.234    22036225.254    90234643.019                  
  21409497.524   112507600.816    21409502.117    87668243.403                  
  22493937.364   118206400.824    22493939.973    92108873.878                  
                 118263264.302                   118263264.302    22711218.626  
                 120409426.640                   120409426.640    23123361.941  
                 127352072.121                   127352072.121    24456635.180  
                 115637411.187                   115637411.187    22206952.797  
  26623879.792   139909361.423                                                  
  23607426.053   124057839.118                                                  
  23190486.407   121866801.612                                                  
  23412197.096   123031859.653                                                  
 21  8 31 19 22  7.0000000  0 16G 5G10G13G15G18G23G24G29C19C22C29C35
                                E 3E 5E 9E36
  23422221.832   123084579.733    23422224.066    95910055.243                  
  24412381.116   128287850.023    24412386.012    99964538.477                  
  23139475.922   121598744.285    23139477.405    94752262.473                  
  20889072.112   109772811.048    20889073.095    85537254.175                  
  20605340.403   108281789.177    20605341.726    84375420.835                  
  22035984.826   115799871.206    22035986.434    90233665.079                  
  21409089.021   112505454.062    21409093.613    87666570.610                  
  22494499.077   118209352.662    22494501.704    92111174.007                  
                 118264595.515                   118264595.515    22711474.278  
                 120408922.965                   120408922.965    23123265.198  
                 127355279.806                   127355279.806    24457251.197  
                 115638672.258                   115638672.258    22207194.976  
  26623514.888   139907443.829                                                  
  23607416.440   124057788.531                                                  
  23190855.385   121868740.640                                                  
  23412307.723   123032440.950                                                  
 21  8 31 19 22  8.0000000  0 16G 5G10G13G15G18G23G24G29C19C22C29C35
                                E 3E 5E 9E36
  23422571.779   123086418.687    23422573.995    95911488.192                  
  24412031.169   128286011.004    24412036.065    99963105.473                  
  23140102.821   121602038.609    23140104.304    94754829.481                  
  20889491.194   109775013.249    20889492.177    85538970.176                  
  20605014.419   108280076.099    20605015.741    84374085.969                  
  22035746.007   115798616.198    22035747.615    90232687.149                  
  21408680.606   112503307.806    21408685.198    87664898.200                  
  22495060.844   118212304.761    22495063.452    92113474.349                  
                 118265926.757                   118265926.757    22711729.912  
                 120408419.440                   120408419.440    23123168.526  
                 127358487.601                   127358487.601    24457867.214  
                 115639933.824                   115639933.824    22207437.262  
  26623150.021   139905526.448                                                  
  23607406.862   124057738.214                                                  
  23191224.380   121870679.773                                                  
  23412418.404   123033022.598                                                  
 21  8 31 19 22  9.0000000  0 16G 5G10G13G15G18G23G24G29C19C22C29C35
                                E 3E 5E 9E36
  23422921.744   123088257.695    23422923.960    95912921.184                  
  24411681.222   128284171.980    24411686.100    99961672.472                  
  23140729.737   121605333.102    23140731.221    94757396.614                  
  20889910.312   109777215.766    20889911.295    85540686.426                  
  20604688.506   108278363.419    20604689.828    84372751.414                  
  22035507.205   115797361.267    22035508.813    90231709.278                  
  21408272.263   112501161.976    21408276.856    87663226.129                  
  22495622.663   118215257.109    22495625.272    92115774.876                  
                 118267258.025                   118267258.025    22711985.582  
                 120407916.062                   120407916.062    23123071.837  
                 127361695.519                   127361695.519    24458483.284  
                 115641195.890                   115641195.890    22207679.619  
  26622785.207   139903609.294                                                  
  23607397.356   124057688.199                                                  
  23191593.393   121872618.968                                                  
  23412529.174   123033604.725                                                  
 21  8 31 19 22 10.0000000  0 16G 5G10G13G15G18G23G24G29C19C22C29C35
                                E 3E 5E 9E36
  23423271.709   123090096.734    23423273.924    95914354.200                  
  24411331.257   128282332.935    24411336.135    99960239.454                  
  23141356.672   121608627.728    23141358.155    94759963.852                  
  20890329.519   109779418.616    20890330.502    85542402.929                  
  20604362.682   108276651.145    20604364.004    84371417.177                  
  22035268.403   115796106.382    22035270.012    90230731.450                  
  21407864.028   112499016.630    21407868.620    87661554.429                  
  22496184.537   118218209.710    22496187.146    92118075.601                  
                 118268589.316                   118268589.316    22712241.235  
                 120407412.837                   120407412.837    23122975.219  
                 127364903.550                   127364903.550    24459099.337  
                 115642458.450                   115642458.450    22207922.102  
  26622420.428   139901692.374                                                  
  23607387.885   124057638.457                                                  
  23191962.442   121874558.266                                                  
  23412640.033   123034187.260                                                  
 21  8 31 19 22 11.0000000  0 16G 5G10G13G15G18G23G24G29C19C22C29C35
                                E 3E 5E 9E36
  23423621.656   123091935.823    23423623.871    95915787.254                  
  24410981.292   128280493.886    24410986.188    99958806.429                  
  23141983.678   121611922.535    23141985.161    94762531.230                  
  20890748.762   109781621.808    20890749.763    85544119.703                  
  20604036.912   108274939.294    20604038.234    84370083.266                  
  22035029.620   115794851.559    22035031.246    90229753.664                  
  21407455.863   112496871.730    21407460.456    87659883.083                  
  22496746.446   118221162.563    22496749.055    92120376.524                  
                 118269920.633                   118269920.633    22712496.922  
                 120406909.755                   120406909.755    23122878.601  
                 127368111.700                   127368111.700    24459715.443  
                 115643721.508                   115643721.508    22208164.656  
  26622055.686   139899775.663                                                  
  23607378.486   124057589.000                                                  
  23192331.509   121876497.640                                                  
  23412750.982   123034770.218                                                  
 21  8 31 19 22 12.0000000  0 16G 5G10G13G15G18G23G24G29C19C22C29C35
                                E 3E 5E 9E36
  23423971.638   123093774.953    23423973.854    95917220.340                  
  24410631.345   128278654.809    24410636.223    99957373.380                  
  23142610.684   121615217.469    23142612.168    94765098.716                  
  20891168.077   109783825.336    20891169.078    85545836.735                  
  20603711.249   108273227.847    20603712.553    84368749.671                  
  22034790.836   115793596.768    22034792.462    90228775.907                  
  21407047.788   112494727.297    21407052.381    87658212.094                  
  22497308.391   118224115.669    22497311.018    92122677.640                  
                 118271251.974                   118271251.974    22712752.575  
                 120406406.823                   120406406.823    23122782.019  
                 127371319.961                   127371319.961    24460331.566  
                 115644985.062                   115644985.062    22208407.299  
  26621690.997   139897859.183                                                  
  23607369.123   124057539.833                                                  
  23192700.558   121878437.093                                                  
  23412862.002   123035353.610                                                  
 21  8 31 19 22 13.0000000  0 16G 5G10G13G15G18G23G24G29C19C22C29C35
                                E 3E 5E 9E36
  23424321.621   123095614.128    23424323.837    95918653.465                  
  24410281.362   128276815.720    24410286.258    99955940.323                  
  23143237.726   121618512.573    23143239.192    94767666.329                  
  20891587.481   109786029.200    20891588.464    85547554.032                  
  20603385.639   108271516.811    20603386.962    84367416.395                  
  22034552.088   115792342.039    22034553.696    90227798.196                  
  21406639.803   112492583.327    21406644.395    87656541.468                  
  22497870.426   118227069.018    22497873.017    92124978.954                  
                 118272583.344                   118272583.344    22713008.262  
                 120405904.038                   120405904.038    23122685.455  
                 127374528.341                   127374528.341    24460947.708  
                 115646249.117                   115646249.117    22208650.068  
  26621326.344   139895942.918                                                  
  23607359.813   124057490.943                                                  
  23193069.660   121880376.643                                                  
  23412973.076   123035937.409                                                  
 21  8 31 19 22 14.0000000  0 16G 5G10G13G15G18G23G24G29C19C22C29C35
                                E 3E 5E 9E36
  23424671.622   123097453.352    23424673.837    95920086.620                  
  24409931.398   128274976.607    24409936.276    99954507.253                  
  23143864.804   121621807.835    23143866.287    94770234.059                  
  20892006.920   109788233.400    20892007.903    85549271.590                  
  20603060.137   108269806.195    20603061.442    84366083.449                  
  22034313.322   115791087.363    22034314.948    90226820.524                  
  21406231.907   112490439.821    21406236.499    87654871.204                  
  22498432.460   118230022.629    22498435.087    92127280.466                  
                 118273914.734                   118273914.734    22713263.932  
                 120405401.406                   120405401.406    23122588.945  
                 127377736.837                   127377736.837    24461563.868  
                 115647513.663                   115647513.663    22208892.908  
  26620961.744   139894026.888                                                  
  23607350.575   124057442.328                                                  
  23193438.763   121882316.270                                                  
  23413084.257   123036521.629                                                  
 21  8 31 19 22 15.0000000  0 16G 5G10G13G15G18G23G24G29C19C22C29C35
                                E 3E 5E 9E36
  23425021.622   123099292.597    23425023.838    95921519.800                  
  24409581.415   128273137.491    24409586.329    99953074.180                  
  23144491.899   121625103.265    23144493.383    94772801.926                  
  20892426.431   109790437.933    20892427.414    85550989.406                  
  20602734.707   108268095.993    20602736.029    84364750.824                  
  22034074.574   115789832.743    22034076.200    90225842.897                  
  21405824.100   112488296.800    21405828.692    87653201.321                  
  22498994.584   118232976.491    22498997.175    92129582.175                  
                 118275246.153                   118275246.153    22713519.638  
                 120404898.917                   120404898.917    23122492.434  
                 127380945.449                   127380945.449    24462180.045  
                 115648778.710                   115648778.710    22209135.837  
  26620597.163   139892111.071                                                  
  23607341.372   124057394.003                                                  
  23193807.883   121884255.987                                                  
  23413195.527   123037106.271                                                  
 21  8 31 19 22 16.0000000  0 16G 5G10G13G15G18G23G24G29C19C22C29C35
                                E 3E 5E 9E36
  23425371.641   123101131.909    23425373.856    95922953.028                  
  24409231.432   128271298.343    24409236.346    99951641.078                  
  23145119.013   121628398.832    23145120.496    94775369.899                  
  20892845.996   109792642.807    20892846.997    85552707.492                  
  20602409.347   108266386.204    20602410.652    84363418.519                  
  22033835.844   115788578.175    22033837.452    90224865.317                  
  21405416.382   112486154.200    21405420.975    87651531.761                  
  22499556.725   118235930.598    22499559.334    92131884.074                  
                 118276577.598                   118276577.598    22713775.326  
                 120404396.579                   120404396.579    23122395.977  
                 127384154.175                   127384154.175    24462796.241  
                 115650044.253                   115650044.253    22209378.874  
  26620232.635   139890195.481                                                  
  23607332.241   124057345.949                                                  
  23194177.004   121886195.792                                                  
  23413306.852   123037691.323                                                  
 21  8 31 19 22 17.0000000  0 16G 5G10G13G15G18G23G24G29C19C22C29C35
                                E 3E 5E 9E36
  23425721.659   123102971.186    23425723.875    95924386.188                  
  24408881.467   128269459.222    24408886.363    99950208.015                  
  23145746.180   121631694.602    23145747.663    94777938.043                  
  20893265.632   109794848.007    20893266.615    85554425.820                  
  20602084.042   108264676.820    20602085.364    84362086.536                  
  22033597.114   115787323.522    22033598.740    90223887.594                  
  21405008.754   112484012.109    21405013.347    87649862.622                  
  22500118.921   118238884.945    22500121.547    92134186.148                  
                 118277909.070                   118277909.070    22714031.014  
                 120403894.390                   120403894.390    23122299.538  
                 127387363.024                   127387363.024    24463412.454  
                 115651310.297                   115651310.297    22209622.018  
  26619868.160   139888280.114                                                  
  23607323.146   124057298.094                                                  
  23194546.160   121888135.692                                                  
  23413418.283   123038276.781                                                  
