     2.11           OBSERVATION DATA    M (MIXED)           RINEX VERSION / TYPE
CONVBIN 2.4.3                           20210902 202023 UTC PGM / RUN BY / DATE 
log: logs/21_09_02_07_16_57_scwt_SW.rtcm                    COMMENT             
format: RTCM 3, station ID: 3053                            COMMENT             
3053                                                        MARKER NAME         
                                                            MARKER NUMBER       
                                                            OBSERVER / AGENCY   
                    SWFT                                    REC # / TYPE / VERS 
                    NULL                                    ANT # / TYPE        
   877834.0614 -5342142.3465  3360930.2191                  APPROX POSITION XYZ 
        0.0000        0.0000        0.0000                  ANTENNA: DELTA H/E/N
     1     1                                                WAVELENGTH FACT L1/2
     5    C1    L1    P2    L2    C2                        # / TYPES OF OBSERV 
  2021     9     2     7    17    2.0000000     GPS         TIME OF FIRST OBS   
  2021     9     2     7    47    0.0000000     GPS         TIME OF LAST OBS    
                                                            END OF HEADER       
 21  9  2  7 17  2.0000000  0 19G 1G 4G 7G 8G 9G14G17G21C24C25C26C34
                                C35E 2E 3E 8E24E25E36
  22562810.958   118568323.085    22562814.353    92390887.997                  
  24606310.995   129307025.755    24606312.675   100758719.859                  
  20346487.092   106921525.655    20346486.449    83315477.804                  
  21170771.094   111253112.475    21170773.453    86690727.024                  
  22919843.061   120444550.887    22919845.348    93852887.347                  
  23796914.641   125053634.520    23796915.213    97444393.597                  
  24032554.894   126291928.004    24032555.126    98409293.851                  
  21563994.634   113319556.626    21563993.847    88300953.784                  
                 114884076.254                   114884076.254    22062273.554  
                 127334583.942                   127334583.942    24453265.208  
                 122183128.735                   122183128.735    23463985.027  
                 119806101.694                   119806101.694    23007502.859  
                 132431887.500                   132431887.500    25432151.478  
  24688785.542   129740419.683                                                  
  26307129.541   138244876.984                                                  
  24569011.893   129111021.981                                                  
  27831132.408   146253623.565                                                  
  24300856.344   127701849.879                                                  
  24993819.002   131343350.132                                                  
 21  9  2  7 17  3.0000000  0 19G 1G 4G 7G 8G 9G14G17G21C24C25C26C34
                                C35E 2E 3E 8E24E25E36
  22562185.739   118565037.554    22562189.134    92388327.840                  
  24606972.864   129310503.843    24606974.525   100761430.059                  
  20346256.725   106920314.993    20346256.063    83314534.431                  
  21171208.153   111255409.224    21171210.511    86692516.696                  
  22920389.728   120447423.589    22920391.997    93855125.816                  
  23796495.898   125051433.969    23796496.488    97442678.884                  
  24031952.815   126288764.085    24031953.047    98406828.464                  
  21563756.904   113318307.328    21563756.100    88299980.308                  
                 114883820.355                   114883820.355    22062224.414  
                 127332152.059                   127332152.059    24452798.183  
                 122184992.192                   122184992.192    23464342.872  
                 119803689.046                   119803689.046    23007039.515  
                 132434827.597                   132434827.597    25432716.104  
  24688567.522   129739273.993                                                  
  26307579.609   138247242.015                                                  
  24569113.157   129111554.047                                                  
  27831440.702   146255243.759                                                  
  24300931.269   127702243.570                                                  
  24993361.359   131340945.160                                                  
 21  9  2  7 17  4.0000000  0 19G 1G 4G 7G 8G 9G14G17G21C24C25C26C34
                                C35E 2E 3E 8E24E25E36
  22561560.555   118561752.233    22561563.968    92385767.852                  
  24607634.696   129313981.845    24607636.376   100764140.188                  
  20346026.429   106919104.797    20346025.785    83313591.421                  
  21171645.283   111257706.304    21171647.641    86694306.629                  
  22920936.395   120450296.440    22920938.700    93857364.401                  
  23796077.155   125049233.452    23796077.727    97440964.196                  
  24031350.808   126285600.409    24031351.022    98404363.262                  
  21563519.282   113317058.589    21563518.478    88299007.266                  
                 114883564.751                   114883564.751    22062175.346  
                 127329720.214                   127329720.214    24452331.158  
                 122186855.902                   122186855.902    23464700.788  
                 119801276.765                   119801276.765    23006576.279  
                 132437767.878                   132437767.878    25433280.747  
  24688349.502   129738128.319                                                  
  26308029.676   138249607.198                                                  
  24569214.474   129112086.526                                                  
  27831749.014   146256863.985                                                  
  24301006.176   127702637.324                                                  
  24992903.769   131338540.465                                                  
 21  9  2  7 17  5.0000000  0 19G 1G 4G 7G 8G 9G14G17G21C24C25C26C34
                                C35E 2E 3E 8E24E25E36
  22560935.443   118558467.145    22560938.839    92383208.043                  
  24608296.511   129317459.759    24608298.191   100766850.251                  
  20345796.222   106917895.085    20345795.579    83312648.788                  
  21172082.466   111260003.757    21172084.843    86696096.854                  
  22921483.133   120453169.556    22921485.421    93859603.190                  
  23795658.413   125047033.000    23795659.002    97439249.558                  
  24030748.818   126282436.956    24030749.033    98401898.234                  
  21563281.749   113315810.397    21563280.963    88298034.648                  
                 114883309.425                   114883309.425    22062126.295  
                 127327288.415                   127327288.415    24451864.151  
                 122188719.874                   122188719.874    23465058.741  
                 119798864.864                   119798864.864    23006113.096  
                 132440708.341                   132440708.341    25433845.444  
  24688131.500   129736982.655                                                  
  26308479.778   138251972.495                                                  
  24569315.899   129112619.422                                                  
  27832057.362   146258484.265                                                  
  24301081.136   127703031.159                                                  
  24992446.197   131336136.045                                                  
 21  9  2  7 17  6.0000000  0 19G 1G 4G 7G 8G 9G14G17G21C24C25C26C34
                                C35E 2E 3E 8E24E25E36
  22560310.331   118555182.273    22560313.744    92380648.403                  
  24608958.344   129320937.591    24608960.006   100769560.250                  
  20345566.123   106916685.866    20345565.461    83311706.540                  
  21172519.721   111262301.571    21172522.098    86697887.356                  
  22922029.926   120456042.885    22922032.195    93861842.153                  
  23795239.706   125044832.610    23795240.278    97437534.968                  
  24030146.882   126279273.736    24030147.097    98399433.382                  
  21563044.323   113314562.761    21563043.537    88297062.466                  
                 114883054.390                   114883054.390    22062077.316  
                 127324856.652                   127324856.652    24451397.180  
                 122190584.101                   122190584.101    23465416.746  
                 119796453.333                   119796453.333    23005649.984  
                 132443648.979                   132443648.979    25434410.159  
  24687913.480   129735837.008                                                  
  26308929.917   138254337.954                                                  
  24569417.377   129113152.758                                                  
  27832365.692   146260104.603                                                  
  24301156.097   127703425.073                                                  
  24991988.714   131333731.911                                                  
 21  9  2  7 17  7.0000000  0 19G 1G 4G 7G 8G 9G14G17G21C24C25C26C34
                                C35E 2E 3E 8E24E25E36
  22559685.309   118551897.645    22559688.704    92378088.952                  
  24609620.124   129324415.341    24609621.803   100772270.183                  
  20345336.095   106915477.120    20345335.451    83310764.660                  
  21172957.065   111264599.726    21172959.424    86699678.128                  
  22922576.736   120458916.450    22922579.023    93864081.290                  
  23794820.981   125042632.267    23794821.553    97435820.415                  
  24029544.982   126276110.738    24029545.197    98396968.715                  
  21562807.023   113313315.685    21562806.218    88296090.718                  
                 114882799.640                   114882799.640    22062028.409  
                 127322424.935                   127322424.935    24450930.173  
                 122192448.585                   122192448.585    23465774.806  
                 119794042.171                   119794042.171    23005186.944  
                 132446589.801                   132446589.801    25434974.891  
  24687695.478   129734691.356                                                  
  26309380.073   138256703.551                                                  
  24569518.963   129113686.505                                                  
  27832674.040   146261724.993                                                  
  24301231.057   127703819.049                                                  
  24991531.285   131331328.063                                                  
 21  9  2  7 17  8.0000000  0 19G 1G 4G 7G 8G 9G14G17G21C24C25C26C34
                                C35E 2E 3E 8E24E25E36
  22559060.304   118548613.197    22559063.699    92375529.644                  
  24610281.903   129327892.999    24610283.583   100774980.047                  
  20345106.174   106914268.829    20345105.513    83309823.132                  
  21173394.445   111266898.250    21173396.822    86701469.184                  
  22923123.599   120461790.235    22923125.904    93866320.605                  
  23794402.274   125040431.976    23794402.864    97434105.903                  
  24028943.118   126272948.004    24028943.332    98394504.245                  
  21562569.793   113312069.146    21562569.025    88295119.387                  
                 114882545.175                   114882545.175    22061979.537  
                 127319993.253                   127319993.253    24450463.202  
                 122194313.324                   122194313.324    23466132.901  
                 119791631.387                   119791631.387    23004723.976  
                 132449530.799                   132449530.799    25435539.695  
  24687477.458   129733545.747                                                  
  26309830.266   138259069.286                                                  
  24569620.602   129114220.677                                                  
  27832982.406   146263345.422                                                  
  24301306.054   127704213.111                                                  
  24991073.891   131328924.492                                                  
 21  9  2  7 17  9.0000000  0 19G 1G 4G 7G 8G 9G14G17G21C24C25C26C34
                                C35E 2E 3E 8E24E25E36
  22558435.335   118545329.003    22558438.748    92372970.532                  
  24610943.664   129331370.567    24610945.344   100777689.840                  
  20344876.343   106913061.039    20344875.681    83308881.999                  
  21173831.897   111269197.120    21173834.274    86703260.511                  
  22923670.498   120464664.230    22923672.804    93868560.077                  
  23793983.603   125038231.742    23793984.175    97432391.434                  
  24028341.325   126269785.481    24028341.539    98392039.942                  
  21562332.707   113310823.161    21562331.921    88294148.492                  
                 114882290.995                   114882290.995    22061930.719  
                 127317561.617                   127317561.617    24449996.249  
                 122196178.325                   122196178.325    23466491.068  
                 119789220.972                   119789220.972    23004261.079  
                 132452471.984                   132452471.984    25436104.517  
  24687259.474   129732400.217                                                  
  26310280.458   138261435.152                                                  
  24569722.312   129114755.263                                                  
  27833290.772   146264965.898                                                  
  24301381.068   127704607.245                                                  
  24990616.552   131326521.196                                                  
 21  9  2  7 17 10.0000000  0 19G 1G 4G 7G 8G 9G14G17G21C24C25C26C34
                                C35E 2E 3E 8E24E25E36
  22557810.419   118542045.026    22557813.814    92370411.589                  
  24611605.408   129334848.044    24611607.088   100780399.562                  
  20344646.600   106911853.740    20344645.939    83307941.242                  
  21174269.438   111271496.363    21174271.797    86705052.129                  
  22924217.451   120467538.493    22924219.739    93870799.765                  
  23793564.914   125036031.571    23793565.503    97430677.011                  
  24027739.568   126266623.196    24027739.782    98389575.824                  
  21562095.692   113309577.732    21562094.924    88293178.027                  
                 114882037.109                   114882037.109    22061881.954  
                 127315130.019                   127315130.019    24449529.278  
                 122198043.579                   122198043.579    23466849.252  
                 119786810.932                   119786810.932    23003798.253  
                 132455413.344                   132455413.344    25436669.375  
  24687041.472   129731254.656                                                  
  26310730.704   138263801.169                                                  
  24569824.148   129115290.281                                                  
  27833599.155   146266586.432                                                  
  24301456.064   127705001.450                                                  
  24990159.283   131324118.191                                                  
 21  9  2  7 17 11.0000000  0 19G 1G 4G 7G 8G 9G14G17G21C24C25C26C34
                                C35E 2E 3E 8E24E25E36
  22557185.540   118538761.273    22557188.935    92367852.820                  
  24612267.133   129338325.448    24612268.795   100783109.229                  
  20344416.948   106910646.915    20344416.305    83307000.864                  
  21174707.032   111273795.923    21174709.391    86706843.992                  
  22924764.440   120470412.929    22924766.745    93873039.585                  
  23793146.242   125033831.442    23793146.814    97428962.629                  
  24027137.846   126263461.140    24027138.060    98387111.886                  
  21561858.821   113308332.848    21561858.017    88292207.988                  
                 114881783.505                   114881783.505    22061833.261  
                 127312698.462                   127312698.462    24449062.324  
                 122199909.089                   122199909.089    23467207.526  
                 119784401.271                   119784401.271    23003335.517  
                 132458354.886                   132458354.886    25437234.268  
  24686823.505   129730109.109                                                  
  26311180.985   138266167.332                                                  
  24569926.019   129115825.712                                                  
  27833907.539   146268207.011                                                  
  24301531.096   127705395.723                                                  
  24989702.069   131321715.465                                                  
 21  9  2  7 17 12.0000000  0 19G 1G 4G 7G 8G 9G14G17G21C24C25C26C34
                                C35E 2E 3E 8E24E25E36
  22556560.696   118535477.754    22556564.109    92365294.234                  
  24612928.841   129341802.760    24612930.521   100785818.824                  
  20344187.384   106909440.567    20344186.741    83306060.852                  
  21175144.681   111276095.823    21175147.057    86708636.124                  
  22925311.482   120473287.618    22925313.787    93875279.602                  
  23792727.571   125031631.375    23792728.161    97427248.293                  
  24026536.160   126260299.316    24026536.375    98384648.130                  
  21561622.020   113307088.512    21561621.234    88291238.376                  
                 114881530.189                   114881530.189    22061784.622  
                 127310266.946                   127310266.946    24448595.389  
                 122201774.855                   122201774.855    23467565.818  
                 119781991.975                   119781991.975    23002872.834  
                 132461296.606                   132461296.606    25437799.198  
  24686605.503   129728963.573                                                  
  26311631.267   138268533.621                                                  
  24570027.997   129116361.571                                                  
  27834215.940   146269827.645                                                  
  24301606.146   127705790.086                                                  
  24989244.872   131319313.023                                                  
 21  9  2  7 17 13.0000000  0 19G 1G 4G 7G 8G 9G14G17G21C24C25C26C34
                                C35E 2E 3E 8E24E25E36
  22555935.905   118532194.456    22555939.300    92362735.824                  
  24613590.531   129345279.991    24613592.229   100788528.352                  
  20343957.928   106908234.696    20343957.267    83305121.210                  
  21175582.418   111278396.073    21175584.777    86710428.527                  
  22925858.560   120476162.509    22925860.848    93877519.772                  
  23792308.936   125029431.363    23792309.525    97425533.996                  
  24025934.546   126257137.739    24025934.743    98382184.558                  
  21561385.345   113305844.744    21561384.559    88290269.208                  
                 114881277.157                   114881277.157    22061736.018  
                 127307835.473                   127307835.473    24448128.435  
                 122203640.883                   122203640.883    23467924.163  
                 119779583.055                   119779583.055    23002410.223  
                 132464238.509                   132464238.509    25438364.162  
  24686387.519   129727818.067                                                  
  26312081.584   138270900.057                                                  
  24570130.065   129116897.851                                                  
  27834524.342   146271448.335                                                  
  24301681.196   127706184.511                                                  
  24988787.782   131316910.863                                                  
 21  9  2  7 17 14.0000000  0 21G 1G 4G 7G 8G 9G14G17G21G27G30C24C25
                                C26C34C35E 2E 3E 8E24E25E36
  22555311.168   118528911.386    22555314.564    92360177.586                  
  24614252.221   129348757.136    24614253.883   100791237.815                  
  20343728.544   106907029.310    20343727.883    83304181.948                  
  21176020.191   111280696.675    21176022.568    86712221.203                  
  22926405.656   120479037.622    22926407.961    93879760.125                  
  23791890.300   125027231.398    23791890.872    97423819.743                  
  24025332.932   126253976.390    24025333.164    98379721.172                  
  21561148.759   113304601.523    21561147.973    88289300.465                  
  23504632.908   123517648.727    23504634.802    96247511.727                  
  22290828.382   117139057.339    22290830.348    91277178.505                  
                 114881024.411                   114881024.411    22061687.486  
                 127305404.038                   127305404.038    24447661.500  
                 122205507.163                   122205507.163    23468282.562  
                 119777174.510                   119777174.510    23001947.683  
                 132467180.589                   132467180.589    25438929.163  
  24686169.535   129726672.559                                                  
  26312531.919   138273266.634                                                  
  24570232.187   129117434.549                                                  
  27834832.761   146273069.075                                                  
  24301756.264   127706579.013                                                  
  24988330.693   131314508.976                                                  
 21  9  2  7 17 15.0000000  0 21G 1G 4G 7G 8G 9G14G17G21G27G30C24C25
                                C26C34C35E 2E 3E 8E24E25E36
  22554686.467   118525628.539    22554689.863    92357619.519                  
  24614913.875   129352234.199    24614915.555   100793947.215                  
  20343499.266   106905824.402    20343498.605    83303243.059                  
  21176458.054   111282997.570    21176460.412    86714014.079                  
  22926952.823   120481912.930    22926955.129    93882000.618                  
  23791471.683   125025031.524    23791472.237    97422105.571                  
  24024731.407   126250815.378    24024731.621    98377258.094                  
  21560912.299   113303358.849    21560911.494    88288332.145                  
  23505288.916   123521096.094    23505290.792    96250198.003                  
  22290299.316   117136277.169    22290301.282    91275012.148                  
                 114880771.952                   114880771.952    22061639.007  
                 127302972.643                   127302972.643    24447194.582  
                 122207373.703                   122207373.703    23468641.015  
                 119774766.335                   119774766.335    23001485.215  
                 132470122.853                   132470122.853    25439494.182  
  24685951.569   129725527.038                                                  
  26312982.308   138275633.507                                                  
  24570334.398   129117971.574                                                  
  27835141.180   146274689.917                                                  
  24301831.367   127706973.590                                                  
  24987873.692   131312107.332                                                  
 21  9  2  7 17 16.0000000  0 21G 1G 4G 7G 8G 9G14G17G21G27G30C24C25
                                C26C34C35E 2E 3E 8E24E25E36
  22554061.802   118522345.910    22554065.197    92355061.628                  
  24615575.512   129355711.168    24615577.191   100796656.542                  
  20343270.060   106904619.981    20343269.399    83302304.551                  
  21176895.988   111285298.888    21176898.346    86715807.313                  
  22927500.027   120484788.493    22927502.314    93884241.316                  
  23791053.065   125022831.677    23791053.619    97420391.397                  
  24024129.918   126247654.487    24024130.114    98374795.062                  
  21560675.927   113302116.738    21560675.141    88287364.271                  
  23505944.941   123524543.542    23505946.835    96252884.329                  
  22289770.322   117133497.246    22289772.287    91272845.974                  
                 114880519.782                   114880519.782    22061590.582  
                 127300541.293                   127300541.293    24446727.665  
                 122209240.501                   122209240.501    23468999.521  
                 119772358.540                   119772358.540    23001022.836  
                 132473065.288                   132473065.288    25440059.236  
  24685733.602   129724381.591                                                  
  26313432.696   138278000.366                                                  
  24570436.680   129118509.124                                                  
  27835449.618   146276310.763                                                  
  24301906.453   127707368.238                                                  
  24987416.746   131309706.020                                                  
 21  9  2  7 17 17.0000000  0 21G 1G 4G 7G 8G 9G14G17G21G27G30C24C25
                                C26C34C35E 2E 3E 8E24E25E36
  22553437.173   118519063.515    22553440.586    92352503.918                  
  24616237.166   129359188.050    24616238.828   100799365.800                  
  20343040.962   106903416.035    20343040.300    83301366.410                  
  21177333.975   111287600.540    21177336.334    86717600.809                  
  22928047.265   120487664.267    22928049.553    93886482.184                  
  23790634.448   125020631.871    23790635.019    97418677.265                  
  24023528.464   126244493.831    24023528.679    98372332.215                  
  21560439.663   113300875.173    21560438.877    88286396.813                  
  23506600.985   123527991.094    23506602.879    96255570.726                  
  22289241.363   117130717.542    22289243.328    91270679.973                  
                 114880267.899                   114880267.899    22061542.193  
                 127298109.986                   127298109.986    24446260.765  
                 122211107.552                   122211107.552    23469358.063  
                 119769951.114                   119769951.114    23000560.493  
                 132476007.909                   132476007.909    25440624.344  
  24685515.618   129723236.149                                                  
  26313883.121   138280367.357                                                  
  24570539.052   129119047.096                                                  
  27835758.055   146277931.661                                                  
  24301981.556   127707762.966                                                  
  24986959.835   131307304.987                                                  
 21  9  2  7 17 18.0000000  0 21G 1G 4G 7G 8G 9G14G17G21G27G30C24C25
                                C26C34C35E 2E 3E 8E24E25E36
  22552812.597   118515781.358    22552815.992    92349946.395                  
  24616898.766   129362664.843    24616900.446   100802074.992                  
  20342811.934   106902212.574    20342811.309    83300428.648                  
  21177772.034   111289902.556    21177774.393    86719394.585                  
  22928594.558   120490540.279    22928596.845    93888723.230                  
  23790215.848   125018432.132    23790216.420    97416963.187                  
  24022927.064   126241333.419    24022927.261    98369869.554                  
  21560203.506   113299634.157    21560202.720    88285429.789                  
  23507257.064   123531438.739    23507258.940    96258257.202                  
  22288712.458   117127938.086    22288714.405    91268514.161                  
                 114880016.301                   114880016.301    22061493.875  
                 127295678.713                   127295678.713    24445793.865  
                 122212974.859                   122212974.859    23469716.659  
                 119767544.058                   119767544.058    23000098.257  
                 132478950.708                   132478950.708    25441189.487  
  24685297.652   129722090.725                                                  
  26314333.563   138282734.503                                                  
  24570641.495   129119585.491                                                  
  27836066.528   146279552.598                                                  
  24302056.696   127708157.772                                                  
  24986502.995   131304904.247                                                  
 21  9  2  7 17 19.0000000  0 21G 1G 4G 7G 8G 9G14G17G21G27G30C24C25
                                C26C34C35E 2E 3E 8E24E25E36
  22552188.056   118512499.398    22552191.451    92347389.024                  
  24617560.367   129366141.542    24617562.047   100804784.110                  
  20342583.014   106901009.591    20342582.389    83299491.258                  
  21178210.165   111292204.939    21178212.524    86721188.652                  
  22929141.886   120493416.508    22929144.173    93890964.445                  
  23789797.266   125016232.446    23789797.838    97415249.144                  
  24022325.700   126238173.244    24022325.897    98367407.082                  
  21559967.456   113298393.689    21559966.652    88284463.191                  
  23507913.143   123534886.481    23507915.019    96260943.757                  
  22288183.588   117125158.867    22288185.536    91266348.535                  
                 114879764.991                   114879764.991    22061445.629  
                 127293247.488                   127293247.488    24445326.966  
                 122214842.424                   122214842.424    23470075.308  
                 119765137.383                   119765137.383    22999636.075  
                 132481893.687                   132481893.687    25441754.649  
  24685079.685   129720945.319                                                  
  26314784.041   138285101.769                                                  
  24570744.045   129120124.294                                                  
  27836374.983   146281173.570                                                  
  24302131.835   127708552.649                                                  
  24986046.192   131302503.769                                                  
 21  9  2  7 17 20.0000000  0 21G 1G 4G 7G 8G 9G14G17G21G27G30C24C25
                                C26C34C35E 2E 3E 8E24E25E36
  22551563.588   118509217.675    22551566.983    92344831.839                  
  24618221.932   129369618.168    24618223.611   100807493.165                  
  20342354.201   106899807.086    20342353.540    83298554.242                  
  21178648.367   111294507.668    21178650.726    86722982.984                  
  22929689.268   120496292.945    22929691.537    93893205.825                  
  23789378.684   125014032.810    23789379.256    97413535.140                  
  24021724.372   126235013.292    24021724.586    98364944.784                  
  21559731.496   113297153.782    21559730.727    88283497.032                  
  23508569.240   123538334.323    23508571.134    96263630.387                  
  22287654.754   117122379.882    22287656.720    91264183.093                  
                 114879513.969                   114879513.969    22061397.418  
                 127290816.300                   127290816.300    24444860.084  
                 122216710.249                   122216710.249    23470433.993  
                 119762731.079                   119762731.079    22999173.982  
                 132484836.843                   132484836.843    25442319.846  
  24684861.719   129719799.931                                                  
  26315234.537   138287469.191                                                  
  24570846.649   129120663.531                                                  
  27836683.438   146282794.615                                                  
  24302206.974   127708947.597                                                  
  24985589.459   131300103.589                                                  
 21  9  2  7 17 21.0000000  0 21G 1G 4G 7G 8G 9G14G17G21G27G30C24C25
                                C26C34C35E 2E 3E 8E24E25E36
  22550939.119   118505936.187    22550942.514    92342274.836                  
  24618883.497   129373094.691    24618885.176   100810202.144                  
  20342125.460   106898605.060    20342124.799    83297617.598                  
  21179086.623   111296810.732    21179088.981    86724777.582                  
  22930236.667   120499169.608    22930238.955    93895447.383                  
  23788960.120   125011833.235    23788960.692    97411821.188                  
  24021123.097   126231853.577    24021123.312    98362482.669                  
  21559495.660   113295914.426    21559494.874    88282531.298                  
  23509225.354   123541782.276    23509227.266    96266317.106                  
  22287125.974   117119601.144    22287127.940    91262017.841                  
                 114879263.235                   114879263.235    22061349.279  
                 127288385.156                   127288385.156    24444393.202  
                 122218578.329                   122218578.329    23470792.767  
                 119760325.146                   119760325.146    22998711.943  
                 132487780.183                   132487780.183    25442885.079  
  24684643.753   129718654.554                                                  
  26315685.087   138289836.740                                                  
  24570949.342   129121203.179                                                  
  27836991.947   146284415.710                                                  
  24302282.167   127709342.617                                                  
  24985132.781   131297703.683                                                  
 21  9  2  7 17 22.0000000  0 21G 1G 4G 7G 8G 9G14G17G21G27G30C24C25
                                C26C34C35E 2E 3E 8E24E25E36
  22550314.722   118502654.910    22550318.117    92339717.997                  
  24619545.044   129376571.141    24619546.723   100812911.066                  
  20341896.826   106897403.515    20341896.165    83296681.331                  
  21179524.932   111299114.153    21179527.309    86726572.453                  
  22930784.121   120502046.497    22930786.408    93897689.112                  
  23788541.556   125009633.702    23788542.146    97410107.266                  
  24020521.858   126228694.107    24020522.073    98360020.741                  
  21559259.914   113294675.614    21559259.146    88281565.992                  
  23509881.505   123545230.330    23509883.399    96269003.899                  
  22286597.266   117116822.636    22286599.196    91259852.773                  
                 114879012.785                   114879012.785    22061301.175  
                 127285954.052                   127285954.052    24443926.338  
                 122220446.669                   122220446.669    23471151.541  
                 119757919.590                   119757919.590    22998249.975  
                 132490723.700                   132490723.700    25443450.365  
  24684425.822   129717509.195                                                  
  26316135.636   138292204.423                                                  
  24571052.125   129121743.247                                                  
  27837300.420   146286036.848                                                  
  24302357.342   127709737.712                                                  
  24984676.138   131295304.055                                                  
 21  9  2  7 17 23.0000000  0 21G 1G 4G 7G 8G 9G14G17G21G27G30C24C25
                                C26C34C35E 2E 3E 8E24E25E36
  22549690.360   118499373.871    22549693.755    92337161.340                  
  24620206.573   129380047.503    24620208.234   100815619.922                  
  20341668.263   106896202.454    20341667.602    83295745.437                  
  21179963.348   111301417.910    21179965.707    86728367.590                  
  22931331.628   120504923.610    22931333.897    93899931.016                  
  23788123.028   125007434.230    23788123.582    97408393.391                  
  24019920.673   126225534.865    24019920.905    98357558.997                  
  21559024.293   113293437.356    21559023.507    88280601.113                  
  23510537.656   123548678.468    23510539.568    96271690.762                  
  22286068.557   117114044.370    22286070.523    91257687.891                  
                 114878762.621                   114878762.621    22061253.143  
                 127283522.989                   127283522.989    24443459.474  
                 122222315.261                   122222315.261    23471510.387  
                 119755514.406                   119755514.406    22997788.079  
                 132493667.394                   132493667.394    25444015.652  
  24684207.856   129716363.847                                                  
  26316586.222   138294572.247                                                  
  24571154.961   129122283.731                                                  
  27837608.928   146287658.029                                                  
  24302432.535   127710132.879                                                  
  24984219.567   131292904.715                                                  
 21  9  2  7 17 24.0000000  0 21G 1G 4G 7G 8G 9G14G17G21G27G30C24C25
                                C26C34C35E 2E 3E 8E24E25E36
  22549066.034   118496093.058    22549069.447    92334604.863                  
  24620868.102   129383523.777    24620869.764   100818328.706                  
  20341439.808   106895001.863    20341439.147    83294809.914                  
  21180401.801   111303722.036    21180404.159    86730163.011                  
  22931879.134   120507800.933    22931881.440    93902173.090                  
  23787704.482   125005234.814    23787705.054    97406679.563                  
  24019319.541   126222375.863    24019319.755    98355097.437                  
  21558788.762   113292199.643    21558787.976    88279636.669                  
  23511193.842   123552126.718    23511195.736    96274377.710                  
  22285539.920   117111266.343    22285541.885    91255523.194                  
                 114878512.747                   114878512.747    22061205.147  
                 127281091.970                   127281091.970    24442992.628  
                 122224184.115                   122224184.115    23471869.286  
                 119753109.598                   119753109.598    22997326.272  
                 132496611.265                   132496611.265    25444580.992  
  24683989.925   129715218.523                                                  
  26317036.825   138296940.218                                                  
  24571257.904   129122824.647                                                  
  27837917.437   146289279.264                                                  
  24302507.763   127710528.129                                                  
  24983763.013   131290505.645                                                  
 21  9  2  7 17 25.0000000  0 21G 1G 4G 7G 8G 9G14G17G21G27G30C24C25
                                C26C34C35E 2E 3E 8E24E25E36
  22548441.762   118492812.474    22548445.157    92332048.563                  
  24621529.577   129386999.960    24621531.257   100821037.418                  
  20341211.424   106893801.761    20341210.763    83293874.765                  
  21180840.324   111306026.517    21180842.683    86731958.710                  
  22932426.713   120510678.477    22932429.018    93904415.328                  
  23787285.953   125003035.445    23787286.525    97404965.769                  
  24018718.463   126219217.091    24018718.659    98352636.054                  
  21558553.337   113290962.489    21558552.551    88278672.648                  
  23511850.046   123555575.073    23511851.940    96277064.738                  
  22285011.318   117108488.561    22285013.284    91253358.687                  
                 114878263.159                   114878263.159    22061157.223  
                 127278660.989                   127278660.989    24442525.782  
                 122226053.219                   122226053.219    23472228.221  
                 119750705.161                   119750705.161    22996864.518  
                 132499555.320                   132499555.320    25445146.386  
  24683771.959   129714073.211                                                  
  26317487.464   138299308.320                                                  
  24571360.902   129123365.974                                                  
  27838225.963   146290900.559                                                  
  24302582.974   127710923.446                                                  
  24983306.567   131288106.863                                                  
 21  9  2  7 17 26.0000000  0 21G 1G 4G 7G 8G 9G14G17G21G27G30C24C25
                                C26C34C35E 2E 3E 8E24E25E36
  22547817.543   118489532.109    22547820.921    92329492.438                  
  24622191.053   129390476.051    24622192.732   100823746.063                  
  20340983.147   106892602.144    20340982.486    83292940.001                  
  21181278.920   111308331.353    21181281.278    86733754.687                  
  22932974.345   120513556.249    22932976.632    93906657.745                  
  23786867.443   125000836.140    23786868.015    97403252.027                  
  24018117.402   126216058.559    24018117.617    98350174.863                  
  21558318.020   113289725.892    21558317.234    88277709.066                  
  23512506.268   123559023.531    23512508.162    96279751.848                  
  22284482.788   117105711.024    22284484.736    91251194.370                  
                 114878013.858                   114878013.858    22061109.334  
                 127276230.051                   127276230.051    24442058.936  
                 122227922.581                   122227922.581    23472587.228  
                 119748301.103                   119748301.103    22996402.836  
                 132502499.549                   132502499.549    25445711.780  
  24683554.028   129712927.925                                                  
  26317938.120   138301676.570                                                  
  24571464.006   129123907.731                                                  
  27838534.508   146292521.897                                                  
  24302658.220   127711318.839                                                  
  24982850.138   131285708.380                                                  
 21  9  2  7 17 27.0000000  0 21G 1G 4G 7G 8G 9G14G17G21G27G30C24C25
                                C26C34C35E 2E 3E 8E24E25E36
  22547193.343   118486251.971    22547196.738    92326936.488                  
  24622852.528   129393952.061    24622854.208   100826454.640                  
  20340754.960   106891402.996    20340754.298    83292005.602                  
  21181717.586   111310636.535    21181719.945    86735550.933                  
  22933522.012   120516434.239    22933524.300    93908900.337                  
  23786448.933   124998636.892    23786449.522    97401538.325                  
  24017516.396   126212900.268    24017516.628    98347713.859                  
  21558082.792   113288489.820    21558082.024    88276745.895                  
  23513162.508   123562472.083    23513164.402    96282439.031                  
  22283954.276   117102933.715    22283956.242    91249030.238                  
                 114877764.848                   114877764.848    22061061.516  
                 127273799.157                   127273799.157    24441592.126  
                 122229792.206                   122229792.206    23472946.252  
                 119745897.414                   119745897.414    22995941.244  
                 132505443.962                   132505443.962    25446277.245  
  24683336.080   129711782.648                                                  
  26318388.813   138304044.957                                                  
  24571567.182   129124449.906                                                  
  27838843.034   146294143.286                                                  
  24302733.485   127711714.300                                                  
  24982393.781   131283310.164                                                  
 21  9  2  7 17 28.0000000  0 21G 1G 4G 7G 8G 9G14G17G21G27G30C24C25
                                C26C34C35E 2E 3E 8E24E25E36
  22546569.196   118482972.071    22546572.609    92324380.719                  
  24623513.986   129397427.989    24623515.648   100829163.157                  
  20340526.861   106890204.345    20340526.200    83291071.586                  
  21182156.306   111312942.058    21182158.665    86737347.446                  
  22934069.716   120519312.446    22934072.021    93911143.093                  
  23786030.440   124996437.687    23786031.012    97399824.661                  
  24016915.443   126209742.203    24016915.657    98345253.027                  
  21557847.708   113287254.297    21557846.903    88275783.152                  
  23513818.766   123565920.729    23513820.660    96285126.288                  
  22283425.818   117100156.653    22283427.783    91246866.293                  
                 114877516.120                   114877516.120    22061013.752  
                 127271368.300                   127271368.300    24441125.297  
                 122231662.083                   122231662.083    23473305.348  
                 119743494.103                   119743494.103    22995479.722  
                 132508388.552                   132508388.552    25446842.692  
  24683118.167   129710637.391                                                  
  26318839.523   138306413.477                                                  
  24571670.429   129124992.491                                                  
  27839151.579   146295764.718                                                  
  24302808.731   127712109.835                                                  
  24981937.460   131280912.235                                                  
 21  9  2  7 17 29.0000000  0 21G 1G 4G 7G 8G 9G14G17G21G27G30C24C25
                                C26C34C35E 2E 3E 8E24E25E36
  22545945.102   118479692.390    22545948.497    92321825.124                  
  24624175.408   129400903.828    24624177.087   100831871.601                  
  20340298.835   106889006.165    20340298.192    83290137.937                  
  21182595.098   111315247.921    21182597.457    86739144.223                  
  22934617.455   120522190.876    22934619.760    93913386.023                  
  23785611.966   124994238.538    23785612.537    97398111.038                  
  24016314.525   126206584.388    24016314.740    98342792.391                  
  21557612.694   113286019.331    21557611.908    88274820.839                  
  23514475.041   123569369.484    23514476.917    96287813.629                  
  22282897.395   117097379.831    22282899.361    91244702.534                  
                 114877267.680                   114877267.680    22060966.042  
                 127268937.488                   127268937.488    24440658.487  
                 122233532.220                   122233532.220    23473664.480  
                 119741091.164                   119741091.164    22995018.255  
                 132511333.319                   132511333.319    25447408.211  
  24682900.218   129709492.144                                                  
  26319290.251   138308782.137                                                  
  24571773.765   129125535.505                                                  
  27839460.141   146297386.212                                                  
  24302884.013   127712505.457                                                  
  24981481.192   131278514.582                                                  
 21  9  2  7 17 30.0000000  0 21G 1G 4G 7G 8G 9G14G17G21G27G30C24C25
                                C26C34C35E 2E 3E 8E24E25E36
  22545321.044   118476412.939    22545324.440    92319269.707                  
  24624836.812   129404379.568    24624838.474   100834579.972                  
  20340070.933   106887808.461    20340070.272    83289204.664                  
  21183033.961   111317554.136    21183036.320    86740941.274                  
  22935165.266   120525069.531    22935167.553    93915629.134                  
  23785193.473   124992039.444    23785194.063    97396397.457                  
  24015713.661   126203426.792    24015713.876    98340331.929                  
  21557377.788   113284784.917    21557377.002    88273858.958                  
  23515131.317   123572818.332    23515133.229    96290501.044                  
  22282369.044   117094603.250    22282370.992    91242538.964                  
                 114877019.531                   114877019.531    22060918.403  
                 127266506.716                   127266506.716    24440191.677  
                 122235402.609                   122235402.609    23474023.683  
                 119738688.597                   119738688.597    22994556.859  
                 132514278.266                   132514278.266    25447973.766  
  24682682.288   129708346.922                                                  
  26319741.033   138311150.930                                                  
  24571877.155   129126078.939                                                  
  27839768.703   146299007.750                                                  
  24302959.314   127712901.150                                                  
  24981024.996   131276117.223                                                  
 21  9  2  7 17 31.0000000  0 21G 1G 4G 7G 8G 9G14G17G21G27G30C24C25
                                C26C34C35E 2E 3E 8E24E25E36
  22544697.022   118473133.716    22544700.418    92316714.469                  
  24625498.216   129407855.225    24625499.878   100837288.275                  
  20339843.121   106886611.250    20339842.460    83288271.770                  
  21183472.878   111319860.704    21183475.237    86742738.599                  
  22935713.076   120527948.398    22935715.381    93917872.407                  
  23784775.016   124989840.410    23784775.606    97394683.926                  
  24015112.833   126200269.437    24015113.048    98337871.653                  
  21557143.007   113283551.067    21557142.203    88272897.521                  
  23515787.646   123576267.286    23515789.540    96293188.538                  
  22281840.728   117091826.907    22281842.676    91240375.582                  
                 114876771.667                   114876771.667    22060870.800  
                 127264075.987                   127264075.987    24439724.884  
                 122237273.263                   122237273.263    23474382.922  
                 119736286.406                   119736286.406    22994095.552  
                 132517223.391                   132517223.391    25448539.338  
  24682464.357   129707201.716                                                  
  26320191.815   138313519.863                                                  
  24571980.653   129126622.800                                                  
  27840077.284   146300629.347                                                  
  24303034.631   127713296.913                                                  
  24980568.854   131273720.146                                                  
 21  9  2  7 17 32.0000000  0 21G 1G 4G 7G 8G 9G14G17G21G27G30C24C25
                                C26C34C35E 2E 3E 8E24E25E36
  22544073.036   118469854.720    22544076.431    92314159.407                  
  24626159.602   129411330.792    24626161.264   100839996.508                  
  20339615.381   106885414.515    20339614.719    83287339.251                  
  21183911.866   111322167.614    21183914.243    86744536.187                  
  22936260.958   120530827.488    22936263.263    93920115.856                  
  23784356.559   124987641.422    23784357.131    97392970.427                  
  24014512.059   126197112.328    24014512.256    98335411.571                  
  21556908.297   113282317.768    21556907.529    88271936.504                  
  23516443.975   123579716.337    23516445.851    96295876.110                  
  22281312.449   117089050.807    22281314.396    91238212.388                  
                 114876524.090                   114876524.090    22060823.233  
                 127261645.300                   127261645.300    24439258.092  
                 122239144.169                   122239144.169    23474742.196  
                 119733884.595                   119733884.595    22993634.299  
                 132520168.691                   132520168.691    25449104.964  
  24682246.444   129706056.535                                                  
  26320642.633   138315888.937                                                  
  24572084.240   129127167.073                                                  
  27840385.882   146302250.994                                                  
  24303109.967   127713692.755                                                  
  24980112.765   131271323.347                                                  
 21  9  2  7 17 33.0000000  0 21G 1G 4G 7G 8G 9G14G17G21G27G30C24C25
                                C26C34C35E 2E 3E 8E24E25E36
  22543449.121   118466575.958    22543452.516    92311604.527                  
  24626820.952   129414806.273    24626822.614   100842704.676                  
  20339387.747   106884218.269    20339387.104    83286407.114                  
  21184350.944   111324474.904    21184353.303    86746334.077                  
  22936808.876   120533706.801    22936811.181    93922359.472                  
  23783938.121   124985442.493    23783938.692    97391256.976                  
  24013911.320   126193955.446    24013911.535    98332951.660                  
  21556673.713   113281085.027    21556672.944    88270975.929                  
  23517100.322   123583165.488    23517102.216    96298563.762                  
  22280784.222   117086274.945    22280786.188    91236049.378                  
                 114876276.802                   114876276.802    22060775.755  
                 127259214.653                   127259214.653    24438791.317  
                 122241015.329                   122241015.329    23475101.542  
                 119731483.154                   119731483.154    22993173.135  
                 132523114.173                   132523114.173    25449670.608  
  24682028.514   129704911.358                                                  
  26321093.504   138318258.155                                                  
  24572187.880   129127711.774                                                  
  27840694.480   146303872.684                                                  
  24303185.303   127714088.668                                                  
  24979656.712   131268926.833                                                  
 21  9  2  7 17 34.0000000  0 21G 1G 4G 7G 8G 9G14G17G21G27G30C24C25
                                C26C34C35E 2E 3E 8E24E25E36
  22542825.242   118463297.407    22542828.619    92309049.817                  
  24627482.303   129418281.667    24627483.982   100845412.777                  
  20339160.203   106883022.505    20339159.542    83285475.347                  
  21184790.057   111326782.551    21184792.416    86748132.246                  
  22937356.848   120536586.329    22937359.117    93924603.257                  
  23783519.699   124983243.626    23783520.253    97389543.575                  
  24013310.617   126190798.798    24013310.832    98330491.934                  
  21556439.235   113279852.828    21556438.467    88270015.774                  
  23517756.705   123586614.741    23517758.599    96301251.492                  
  22280256.032   117083499.321    22280257.997    91233886.554                  
                 114876029.801                   114876029.801    22060728.312  
                 127256784.052                   127256784.052    24438324.542  
                 122242886.751                   122242886.751    23475460.942  
                 119729082.085                   119729082.085    22992712.043  
                 132526059.833                   132526059.833    25450236.306  
  24681810.601   129703766.210                                                  
  26321544.375   138320627.511                                                  
  24572291.627   129128256.892                                                  
  27841003.078   146305494.419                                                  
  24303260.657   127714484.651                                                  
  24979200.712   131266530.594                                                  
 21  9  2  7 17 35.0000000  0 21G 1G 4G 7G 8G 9G14G17G21G27G30C24C25
                                C26C34C35E 2E 3E 8E24E25E36
  22542201.381   118460019.097    22542204.776    92306495.290                  
  24628143.617   129421756.981    24628145.297   100848120.811                  
  20338932.748   106881827.228    20338932.105    83284543.960                  
  21185229.260   111329090.542    21185231.619    86749930.680                  
  22937904.819   120539466.070    22937907.124    93926847.214                  
  23783101.278   124981044.806    23783101.832    97387830.206                  
  24012709.986   126187642.379    24012710.200    98328032.387                  
  21556204.883   113278621.199    21556204.079    88269056.063                  
  23518413.088   123590064.086    23518414.982    96303939.288                  
  22279727.895   117080723.937    22279729.861    91231723.918                  
                 114875783.086                   114875783.086    22060680.942  
                 127254353.489                   127254353.489    24437857.786  
                 122244758.425                   122244758.425    23475820.360  
                 119726681.393                   119726681.393    22992251.004  
                 132529005.673                   132529005.673    25450802.003  
  24681592.706   129702621.077                                                  
  26321995.282   138322997.004                                                  
  24572395.429   129128802.430                                                  
  27841311.694   146307116.224                                                  
  24303336.028   127714880.723                                                  
  24978744.802   131264134.652                                                  
 21  9  2  7 17 36.0000000  0 21G 1G 4G 7G 8G 9G14G17G21G27G30C24C25
                                C26C34C35E 2E 3E 8E24E25E36
  22541577.573   118456741.013    22541580.986    92303940.934                  
  24628804.932   129425232.198    24628806.612   100850828.773                  
  20338705.383   106880632.417    20338704.721    83283612.941                  
  21185668.517   111331398.882    21185670.875    86751729.387                  
  22938452.862   120542346.035    22938455.167    93929091.344                  
  23782682.857   124978846.038    23782683.447    97386116.883                  
  24012109.372   126184486.204    24012109.605    98325573.032                  
  21555970.602   113277390.101    21555969.798    88268096.766                  
  23519069.506   123593513.536    23519071.383    96306627.172                  
  22279199.794   117077948.806    22279201.760    91229561.478                  
                 114875536.661                   114875536.661    22060633.624  
                 127251922.967                   127251922.967    24437391.029  
                 122246630.358                   122246630.358    23476179.867  
                 119724281.074                   119724281.074    22991790.055  
                 132531951.685                   132531951.685    25451367.754  
  24681374.776   129701475.952                                                  
  26322446.207   138325366.633                                                  
  24572499.319   129129348.387                                                  
  27841620.327   146308738.058                                                  
  24303411.400   127715276.853                                                  
  24978288.891   131261738.972                                                  
 21  9  2  7 17 37.0000000  0 21G 1G 4G 7G 8G 9G14G17G21G27G30C24C25
                                C26C34C35E 2E 3E 8E24E25E36
  22540953.837   118453463.146    22540957.232    92301386.754                  
  24629466.247   129428707.316    24629467.909   100853536.657                  
  20338478.107   106879438.094    20338477.463    83282682.302                  
  21186107.862   111333707.571    21186110.221    86753528.363                  
  22939000.959   120545226.231    22939003.246    93931335.649                  
  23782264.454   124976647.324    23782265.044    97384403.601                  
  24011508.812   126181330.254    24011509.045    98323113.848                  
  21555736.447   113276159.570    21555735.643    88267137.915                  
  23519725.925   123596963.082    23519727.819    96309315.132                  
  22278671.764   117075173.892    22278673.712    91227399.202                  
                 114875290.521                   114875290.521    22060586.361  
                 127249492.492                   127249492.492    24436924.272  
                 122248502.550                   122248502.550    23476539.373  
                 119721881.134                   119721881.134    22991329.159  
                 132534897.880                   132534897.880    25451933.541  
  24681156.881   129700330.843                                                  
  26322897.132   138327736.400                                                  
  24572603.299   129129894.766                                                  
  27841928.961   146310359.957                                                  
  24303486.807   127715673.062                                                  
  24977833.088   131259343.593                                                  
 21  9  2  7 17 38.0000000  0 21G 1G 4G 7G 8G 9G14G17G21G27G30C24C25
                                C26C34C35E 2E 3E 8E24E25E36
  22540330.119   118450185.517    22540333.514    92298832.757                  
  24630127.526   129432182.354    24630129.188   100856244.481                  
  20338250.920   106878244.258    20338250.276    83281752.040                  
  21186547.244   111336016.606    21186549.620    86755327.613                  
  22939549.073   120548106.642    22939551.378    93933580.124                  
  23781846.069   124974448.665    23781846.641    97382690.360                  
  24010908.324   126178174.552    24010908.520    98320654.859                  
  21555502.380   113274929.590    21555501.576    88266179.484                  
  23520382.361   123600412.723    23520384.256    96312003.164                  
  22278143.753   117072399.236    22278145.718    91225237.137                  
                 114875044.672                   114875044.672    22060539.133  
                 127247062.054                   127247062.054    24436457.533  
                 122250374.995                   122250374.995    23476898.987  
                 119719481.568                   119719481.568    22990868.353  
                 132537844.249                   132537844.249    25452499.364  
  24680938.986   129699185.762                                                  
  26323348.128   138330106.307                                                  
  24572707.332   129130441.571                                                  
  27842237.595   146311981.886                                                  
  24303562.214   127716069.350                                                  
  24977377.321   131256948.493                                                  
 21  9  2  7 17 39.0000000  0 21G 1G 4G 7G 8G 9G14G17G21G27G30C24C25
                                C26C34C35E 2E 3E 8E24E25E36
  22539706.454   118446908.116    22539709.832    92296278.941                  
  24630788.787   129435657.305    24630790.449   100858952.235                  
  20338023.840   106877050.903    20338023.179    83280822.153                  
  21186986.714   111338326.011    21186989.073    86757127.148                  
  22940097.241   120550987.269    22940099.546    93935824.769                  
  23781427.684   124972250.061    23781428.255    97380977.161                  
  24010307.835   126175019.078    24010308.068    98318196.050                  
  21555268.421   113273700.165    21555267.635    88265221.493                  
  23521038.834   123603862.472    23521040.728    96314691.280                  
  22277615.794   117069624.818    22277617.760    91223075.251                  
                 114874799.110                   114874799.110    22060491.977  
                 127244631.663                   127244631.663    24435990.794  
                 122252247.702                   122252247.702    23477258.602  
                 119717082.371                   119717082.371    22990407.618  
                 132540790.802                   132540790.802    25453065.222  
  24680721.073   129698040.699                                                  
  26323799.142   138332476.353                                                  
  24572811.473   129130988.790                                                  
  27842546.264   146313603.899                                                  
  24303637.640   127716465.715                                                  
  24976921.607   131254553.675                                                  
 21  9  2  7 17 40.0000000  0 21G 1G 4G 7G 8G 9G14G17G21G27G30C24C25
                                C26C34C35E 2E 3E 8E24E25E36
  22539082.826   118443630.936    22539086.221    92293725.297                  
  24631450.012   129439132.164    24631451.674   100861659.915                  
  20337796.832   106875858.023    20337796.189    83279892.634                  
  21187426.239   111340635.748    21187428.597    86758926.942                  
  22940645.445   120553868.117    22940647.732    93938069.586                  
  23781009.316   124970051.508    23781009.906    97379264.005                  
  24009707.418   126171863.841    24009707.633    98315737.422                  
  21555034.587   113272471.294    21555033.783    88264263.929                  
  23521695.324   123607312.310    23521697.200    96317379.465                  
  22277087.908   117066850.637    22277089.855    91220913.554                  
                 114874553.831                   114874553.831    22060444.874  
                 127242201.313                   127242201.313    24435524.073  
                 122254120.664                   122254120.664    23477618.287  
                 119714683.556                   119714683.556    22989946.937  
                 132543737.529                   132543737.529    25453631.098  
  24680503.178   129696895.645                                                  
  26324250.156   138334846.527                                                  
  24572915.703   129131536.426                                                  
  27842854.934   146315225.954                                                  
  24303713.083   127716862.144                                                  
  24976465.912   131252159.142                                                  
 21  9  2  7 17 41.0000000  0 21G 1G 4G 7G 8G 9G14G17G21G27G30C24C25
                                C26C34C35E 2E 3E 8E24E25E36
  22538459.232   118440353.994    22538462.645    92291171.833                  
  24632111.237   129442606.941    24632112.917   100864367.531                  
  20337569.931   106874665.633    20337569.288    83278963.497                  
  21187865.835   111342945.822    21187868.193    86760727.000                  
  22941193.702   120556749.185    22941196.007    93940314.569                  
  23780590.967   124967853.016    23780591.538    97377550.894                  
  24009107.037   126168708.848    24009107.251    98313278.989                  
  21554800.843   113271242.966    21554800.038    88263306.788                  
  23522351.814   123610762.253    23522353.726    96320067.735                  
  22276560.039   117064076.700    22276561.987    91218752.042                  
                 114874308.842                   114874308.842    22060397.843  
                 127239771.003                   127239771.003    24435057.352  
                 122255993.880                   122255993.880    23477978.026  
                 119712285.109                   119712285.109    22989486.363  
                 132546684.430                   132546684.430    25454197.046  
  24680285.301   129695750.615                                                  
  26324701.224   138337216.843                                                  
  24573019.987   129132084.487                                                  
  27843163.603   146316848.040                                                  
  24303788.543   127717258.653                                                  
  24976010.323   131249764.902                                                  
 21  9  2  7 17 42.0000000  0 21G 1G 4G 7G 8G 9G14G17G21G27G30C24C25
                                C26C34C35E 2E 3E 8E24E25E36
  22537835.693   118437077.280    22537839.106    92288618.551                  
  24632772.463   129446081.622    24632774.125   100867075.075                  
  20337343.120   106873473.719    20337342.477    83278034.735                  
  21188305.502   111345256.263    21188307.861    86762527.344                  
  22941741.977   120559630.464    22941744.283    93942559.726                  
  23780172.599   124965654.566    23780173.189    97375837.816                  
  24008506.727   126165554.090    24008506.942    98310820.733                  
  21554567.205   113270015.184    21554566.401    88262350.082                  
  23523008.339   123614212.293    23523010.234    96322756.075                  
  22276032.224   117061303.006    22276034.171    91216590.727                  
                 114874064.145                   114874064.145    22060350.847  
                 127237340.734                   127237340.734    24434590.667  
                 122257867.354                   122257867.354    23478337.801  
                 119709887.044                   119709887.044    22989025.824  
                 132549631.512                   132549631.512    25454762.976  
  24680067.406   129694605.602                                                  
  26325152.292   138339587.293                                                  
  24573124.360   129132632.965                                                  
  27843472.309   146318470.189                                                  
  24303864.004   127717655.235                                                  
  24975554.752   131247370.929                                                  
 21  9  2  7 17 43.0000000  0 21G 1G 4G 7G 8G 9G14G17G21G27G30C24C25
                                C26C34C35E 2E 3E 8E24E25E36
  22537212.207   118433800.792    22537215.602    92286065.442                  
  24633433.634   129449556.208    24633435.314   100869782.547                  
  20337116.398   106872282.280    20337115.736    83277106.341                  
  21188745.223   111347567.056    21188747.581    86764327.962                  
  22942290.324   120562511.969    22942292.611    93944805.055                  
  23779754.267   124963456.188    23779754.839    97374124.792                  
  24007906.435   126162399.561    24007906.632    98308362.663                  
  21554333.675   113268787.983    21554332.889    88261393.821                  
  23523664.883   123617662.441    23523666.777    96325444.500                  
  22275504.444   117058529.554    22275506.392    91214429.593                  
                 114873819.735                   114873819.735    22060303.905  
                 127234910.512                   127234910.512    24434123.964  
                 122259741.085                   122259741.085    23478697.648  
                 119707489.348                   119707489.348    22988565.376  
                 132552578.774                   132552578.774    25455328.977  
  24679849.512   129693460.595                                                  
  26325603.413   138341957.893                                                  
  24573228.822   129133181.871                                                  
  27843780.978   146320092.390                                                  
  24303939.483   127718051.899                                                  
  24975099.253   131244977.247                                                  
 21  9  2  7 17 44.0000000  0 21G 1G 4G 7G 8G 9G14G17G21G27G30C24C25
                                C26C34C35E 2E 3E 8E24E25E36
  22536588.757   118430524.530    22536592.152    92283512.513                  
  24634094.824   129453030.710    24634096.504   100872489.948                  
  20336889.783   106871091.343    20336889.122    83276178.340                  
  21189185.015   111349878.186    21189187.374    86766128.845                  
  22942838.707   120565393.694    22942840.994    93947050.555                  
  23779335.936   124961257.855    23779336.525    97372411.808                  
  24007306.179   126159245.270    24007306.393    98305904.774                  
  21554100.234   113267561.337    21554099.466    88260437.993                  
  23524321.445   123621112.683    23524323.339    96328133.001                  
  22274976.718   117055756.333    22274978.684    91212268.641                  
                 114873575.610                   114873575.610    22060257.017  
                 127232480.327                   127232480.327    24433657.261  
                 122261615.074                   122261615.074    23479057.512  
                 119705092.032                   119705092.032    22988104.998  
                 132555526.211                   132555526.211    25455894.996  
  24679631.635   129692315.626                                                  
  26326054.534   138344328.622                                                  
  24573333.338   129133731.197                                                  
  27844089.701   146321714.641                                                  
  24304014.980   127718448.636                                                  
  24974643.807   131242583.843                                                  
 21  9  2  7 17 45.0000000  0 21G 1G 4G 7G 8G 9G14G17G21G27G30C24C25
                                C26C34C35E 2E 3E 8E24E25E36
  22535965.342   118427248.500    22535968.737    92280959.762                  
  24634755.978   129456505.126    24634757.658   100875197.286                  
  20336663.239   106869900.887    20336662.578    83275250.707                  
  21189624.879   111352189.669    21189627.238    86767930.000                  
  22943387.107   120568275.634    22943389.394    93949296.218                  
  23778917.622   124959059.578    23778918.194    97370698.864                  
  24006705.994   126156091.219    24006706.209    98303447.070                  
  21553866.918   113266335.227    21553866.132    88259482.583                  
  23524978.024   123624563.019    23524979.918    96330821.575                  
  22274449.046   117052983.358    22274450.994    91210107.882                  
                 114873331.773                   114873331.773    22060210.200  
                 127230050.192                   127230050.192    24433190.576  
                 122263489.321                   122263489.321    23479417.448  
                 119702695.087                   119702695.087    22987644.674  
                 132558473.824                   132558473.824    25456461.051  
  24679413.758   129691170.660                                                  
  26326505.691   138346699.489                                                  
  24573437.961   129134280.936                                                  
  27844398.406   146323336.942                                                  
  24304090.476   127718845.444                                                  
  24974188.415   131240190.730                                                  
 21  9  2  7 17 46.0000000  0 21G 1G 4G 7G 8G 9G14G17G21G27G30C24C25
                                C26C34C35E 2E 3E 8E24E25E36
  22535341.981   118423972.699    22535345.376    92278407.192                  
  24635417.114   129459979.448    24635418.794   100877904.550                  
  20336436.803   106868710.910    20336436.142    83274323.452                  
  21190064.796   111354501.501    21190067.155    86769731.425                  
  22943935.561   120571157.793    22943937.866    93951542.059                  
  23778499.326   124956861.356    23778499.880    97368985.964                  
  24006105.845   126152937.403    24006106.060    98300989.551                  
  21553633.692   113265109.667    21553632.923    88258527.601                  
  23525634.621   123628013.458    23525636.497    96333510.226                  
  22273921.392   117050210.630    22273923.357    91207947.312                  
                 114873088.227                   114873088.227    22060163.419  
                 127227620.094                   127227620.094    24432723.908  
                 122265363.825                   122265363.825    23479777.419  
                 119700298.519                   119700298.519    22987184.457  
                 132561421.613                   132561421.613    25457027.160  
  24679195.881   129690025.714                                                  
  26326956.902   138349070.491                                                  
  24573542.638   129134831.098                                                  
  27844707.112   146324959.293                                                  
  24304166.027   127719242.328                                                  
  24973733.077   131237797.899                                                  
 21  9  2  7 17 47.0000000  0 21G 1G 4G 7G 8G 9G14G17G21G27G30C24C25
                                C26C34C35E 2E 3E 8E24E25E36
  22534718.656   118420697.133    22534722.051    92275854.801                  
  24636078.232   129463453.683    24636079.912   100880611.750                  
  20336210.438   106867521.422    20336209.777    83273396.579                  
  21190504.803   111356813.667    21190507.162    86771533.113                  
  22944484.068   120574040.179    22944486.356    93953788.073                  
  23778081.012   124954663.187    23778081.584    97367273.105                  
  24005505.732   126149783.833    24005505.964    98298532.226                  
  21553400.608   113263884.684    21553399.804    88257573.066                  
  23526291.236   123631463.991    23526293.113    96336198.957                  
  22273393.827   117047438.151    22273395.774    91205786.942                  
                 114872844.966                   114872844.966    22060116.727  
                 127225190.040                   127225190.040    24432257.241  
                 122267238.582                   122267238.582    23480137.444  
                 119697902.323                   119697902.323    22986724.276  
                 132564369.581                   132564369.581    25457593.286  
  24678978.004   129688880.789                                                  
  26327408.095   138351441.634                                                  
  24573647.422   129135381.692                                                  
  27845015.853   146326581.694                                                  
  24304241.559   127719639.289                                                  
  24973277.774   131235405.355                                                  
 21  9  2  7 17 48.0000000  0 21G 1G 4G 7G 8G 9G14G17G21G27G30C24C25
                                C26C34C35E 2E 3E 8E24E25E36
  22534095.385   118417421.790    22534098.780    92273302.583                  
  24636739.368   129466927.817    24636741.012   100883318.863                  
  20335984.181   106866332.419    20335983.519    83272470.085                  
  21190944.864   111359126.218    21190947.222    86773335.101                  
  22945032.594   120576922.770    22945034.899    93956034.246                  
  23777662.716   124952465.065    23777663.306    97365560.285                  
  24004905.672   126146630.487    24004905.887    98296075.075                  
  21553167.596   113262660.250    21553166.792    88256618.964                  
  23526947.851   123634914.624    23526949.763    96338887.762                  
  22272866.280   117044665.896    22272868.245    91203626.742                  
                 114872601.995                   114872601.995    22060070.053  
                 127222760.027                   127222760.027    24431790.573  
                 122269113.600                   122269113.600    23480497.523  
                 119695506.508                   119695506.508    22986264.203  
                 132567317.730                   132567317.730    25458159.448  
  24678760.145   129687735.867                                                  
  26327859.341   138353812.906                                                  
  24573752.277   129135932.696                                                  
  27845324.594   146328204.147                                                  
  24304317.091   127720036.317                                                  
  24972822.561   131233013.093                                                  
 21  9  2  7 17 49.0000000  0 21G 1G 4G 7G 8G 9G14G17G21G27G30C24C25
                                C26C34C35E 2E 3E 8E24E25E36
  22533472.167   118414146.684    22533475.562    92270750.555                  
  24637400.432   129470401.878    24637402.112   100886025.922                  
  20335758.012   106865143.900    20335757.351    83271543.964                  
  21191384.978   111361439.103    21191387.354    86775137.347                  
  22945581.173   120579805.583    22945583.478    93958280.594                  
  23777244.438   124950267.005    23777245.028    97363847.509                  
  24004305.666   126143477.375    24004305.881    98293618.101                  
  21552934.691   113261436.362    21552933.905    88255665.286                  
  23527604.520   123638365.350    23527606.396    96341576.640                  
  22272338.786   117041893.884    22272340.734    91201466.735                  
                 114872359.312                   114872359.312    22060023.433  
                 127220330.058                   127220330.058    24431323.942  
                 122270988.874                   122270988.874    23480857.655  
                 119693111.065                   119693111.065    22985804.183  
                 132570266.051                   132570266.051    25458725.646  
  24678542.285   129686590.977                                                  
  26328310.624   138356184.328                                                  
  24573857.204   129136484.117                                                  
  27845633.353   146329826.651                                                  
  24304392.677   127720433.427                                                  
  24972367.383   131230621.118                                                  
 21  9  2  7 17 50.0000000  0 21G 1G 4G 7G 8G 9G14G17G21G27G30C24C25
                                C26C34C35E 2E 3E 8E24E25E36
  22532848.967   118410871.805    22532852.362    92268198.698                  
  24638061.515   129473875.840    24638063.195   100888732.909                  
  20335531.934   106863955.859    20335531.272    83270618.218                  
  21191825.181   111363752.334    21191827.540    86776939.867                  
  22946129.805   120582688.609    22946132.093    93960527.109                  
  23776826.178   124948068.991    23776826.768    97362134.773                  
  24003705.678   126140324.507    24003705.892    98291161.325                  
  21552701.893   113260213.014    21552701.125    88254712.032                  
  23528261.189   123641816.182    23528263.083    96344265.598                  
  22271811.346   117039122.121    22271813.276    91199306.918                  
                 114872116.915                   114872116.915    22059976.902  
                 127217900.129                   127217900.129    24430857.292  
                 122272864.402                   122272864.402    23481217.823  
                 119690716.001                   119690716.001    22985344.234  
                 132573214.552                   132573214.552    25459291.862  
  24678324.408   129685446.094                                                  
  26328761.906   138358555.882                                                  
  24573962.220   129137035.961                                                  
  27845942.111   146331449.204                                                  
  24304468.263   127720830.604                                                  
  24971912.241   131228229.414                                                  
 21  9  2  7 17 51.0000000  0 21G 1G 4G 7G 8G 9G14G17G21G27G30C24C25
                                C26C34C35E 2E 3E 8E24E25E36
  22532225.820   118407597.157    22532229.215    92265647.027                  
  24638722.579   129477349.722    24638724.241   100891439.828                  
  20335305.962   106862768.299    20335305.301    83269692.851                  
  21192265.438   111366065.921    21192267.797    86778742.660                  
  22946678.474   120585571.863    22946680.779    93962773.796                  
  23776407.918   124945871.040    23776408.507    97360422.081                  
  24003105.761   126137171.871    24003105.976    98288704.727                  
  21552469.221   113258990.227    21552468.417    88253759.208                  
  23528917.875   123645267.108    23528919.752    96346954.628                  
  22271283.942   117036350.605    22271285.872    91197147.297                  
                 114871874.808                   114871874.808    22059930.407  
                 127215470.247                   127215470.247    24430390.660  
                 122274740.191                   122274740.191    23481578.063  
                 119688321.308                   119688321.308    22984884.357  
                 132576163.227                   132576163.227    25459858.113  
  24678106.531   129684301.239                                                  
  26329213.224   138360927.567                                                  
  24574067.326   129137588.227                                                  
  27846250.906   146333071.813                                                  
  24304543.831   127721227.858                                                  
  24971457.189   131225838.011                                                  
 21  9  2  7 17 52.0000000  0 21G 1G 4G 7G 8G 9G14G17G21G27G30C24C25
                                C26C34C35E 2E 3E 8E24E25E36
  22531602.727   118404322.738    22531606.123    92263095.536                  
  24639383.626   129480823.507    24639385.288   100894146.672                  
  20335080.062   106861581.230    20335079.401    83268767.860                  
  21192705.767   111368379.848    21192708.143    86780545.720                  
  22947227.178   120588455.328    22947229.483    93965020.652                  
  23775989.675   124943673.141    23775990.265    97358709.437                  
  24002505.880   126134019.481    24002506.095    98286248.317                  
  21552236.638   113257767.985    21552235.834    88252806.812                  
  23529574.580   123648718.137    23529576.474    96349643.742                  
  22270756.573   117033579.333    22270758.539    91194987.864                  
                 114871632.957                   114871632.957    22059883.965  
                 127213040.402                   127213040.402    24429924.047  
                 122276616.259                   122276616.259    23481938.338  
                 119685926.985                   119685926.985    22984424.533  
                 132579112.071                   132579112.071    25460424.418  
  24677888.708   129683156.402                                                  
  26329664.559   138363299.406                                                  
  24574172.485   129138140.915                                                  
  27846559.683   146334694.470                                                  
  24304619.453   127721625.200                                                  
  24971002.154   131223446.879                                                  
 21  9  2  7 17 53.0000000  0 21G 1G 4G 7G 8G 9G14G17G21G27G30C24C25
                                C26C34C35E 2E 3E 8E24E25E36
  22530979.652   118401048.542    22530983.065    92260544.215                  
  24640044.637   129484297.187    24640046.299   100896853.437                  
  20334854.269   106860394.642    20334853.608    83267843.241                  
  21193146.167   111370694.121    21193148.525    86782349.052                  
  22947775.918   120591339.022    22947778.223    93967267.687                  
  23775571.433   124941475.301    23775572.023    97356996.832                  
  24001906.035   126130867.317    24001906.267    98283792.085                  
  21552004.162   113256546.309    21552003.358    88251854.855                  
  23530231.320   123652169.257    23530233.196    96352332.926                  
  22270229.259   117030808.301    22270231.224    91192828.616                  
                 114871391.426                   114871391.426    22059837.577  
                 127210610.602                   127210610.602    24429457.415  
                 122278492.559                   122278492.559    23482298.667  
                 119683533.043                   119683533.043    22983964.817  
                 132582061.098                   132582061.098    25460990.741  
  24677670.849   129682011.577                                                  
  26330115.949   138365671.359                                                  
  24574277.734   129138694.012                                                  
  27846868.459   146336317.190                                                  
  24304695.075   127722022.601                                                  
  24970547.209   131221056.043                                                  
 21  9  2  7 17 54.0000000  0 21G 1G 4G 7G 8G 9G14G17G21G27G30C24C25
                                C26C34C35E 2E 3E 8E24E25E36
  22530356.631   118397774.578    22530360.044    92257993.074                  
  24640705.648   129487770.790    24640707.327   100899560.141                  
  20334628.547   106859208.523    20334627.904    83266918.995                  
  21193586.620   111373008.738    21193588.979    86784152.649                  
  22948324.729   120594222.922    22948327.016    93969514.884                  
  23775153.226   124939277.513    23775153.780    97355284.271                  
  24001306.244   126127715.387    24001306.458    98281336.039                  
  21551771.775   113255325.171    21551770.989    88250903.321                  
  23530888.060   123655620.479    23530889.954    96355022.192                  
  22269701.997   117028037.506    22269703.963    91190669.558                  
                 114871150.188                   114871150.188    22059791.243  
                 127208180.847                   127208180.847    24428990.801  
                 122280369.113                   122280369.113    23482659.013  
                 119681139.482                   119681139.482    22983505.154  
                 132585010.305                   132585010.305    25461557.118  
  24677453.008   129680866.772                                                  
  26330567.338   138368043.470                                                  
  24574383.071   129139247.540                                                  
  27847177.254   146337939.949                                                  
  24304770.714   127722420.087                                                  
  24970092.299   131218665.489                                                  
 21  9  2  7 17 55.0000000  0 21G 1G 4G 7G 8G 9G14G17G21G27G30C24C25
                                C26C34C35E 2E 3E 8E24E25E36
  22529733.681   118394500.851    22529737.076    92255442.118                  
  24641366.623   129491244.309    24641368.303   100902266.777                  
  20334402.915   106858022.891    20334402.272    83265995.129                  
  21194027.145   111375323.698    21194029.504    86785956.512                  
  22948873.540   120597107.036    22948875.845    93971762.243                  
  23774735.002   124937079.781    23774735.574    97353571.755                  
  24000706.505   126124563.702    24000706.720    98278880.180                  
  21551539.514   113254104.599    21551538.727    88249952.228                  
  23531544.818   123659071.804    23531546.713    96357711.534                  
  22269174.772   117025266.953    22269176.737    91188510.683                  
                 114870909.230                   114870909.230    22059744.980  
                 127205751.134                   127205751.134    24428524.205  
                 122282245.928                   122282245.928    23483019.467  
                 119678746.290                   119678746.290    22983045.581  
                 132587959.687                   132587959.687    25462123.512  
  24677235.148   129679721.988                                                  
  26331018.763   138370415.696                                                  
  24574488.481   129139801.488                                                  
  27847486.084   146339562.755                                                  
  24304846.372   127722817.646                                                  
  24969637.443   131216275.216                                                  
 21  9  2  7 17 56.0000000  0 21G 1G 4G 7G 8G 9G14G17G21G27G30C24C25
                                C26C34C35E 2E 3E 8E24E25E36
  22529110.767   118391227.357    22529114.144    92252891.341                  
  24642027.598   129494717.733    24642029.278   100904973.343                  
  20334177.408   106856837.738    20334176.747    83265071.633                  
  21194467.724   111377639.025    21194470.100    86787760.660                  
  22949422.423   120599991.375    22949424.728    93974009.778                  
  23774316.795   124934882.085    23774317.367    97351859.266                  
  24000106.803   126121412.254    24000107.018    98276424.509                  
  21551307.341   113252884.576    21551306.555    88249001.558                  
  23532201.594   123662523.217    23532203.506    96360400.950                  
  22268647.600   117022496.646    22268649.565    91186352.004                  
                 114870668.565                   114870668.565    22059698.753  
                 127203321.464                   127203321.464    24428057.591  
                 122284123.000                   122284123.000    23483379.921  
                 119676353.476                   119676353.476    22982586.061  
                 132590909.249                   132590909.249    25462689.942  
  24677017.307   129678577.210                                                  
  26331470.206   138372788.071                                                  
  24574593.980   129140355.849                                                  
  27847794.897   146341185.616                                                  
  24304922.047   127723215.272                                                  
  24969182.641   131213885.225                                                  
 21  9  2  7 17 57.0000000  0 21G 1G 4G 7G 8G 9G14G17G21G27G30C24C25
                                C26C34C35E 2E 3E 8E24E25E36
  22528487.853   118387954.082    22528491.266    92250340.737                  
  24642688.555   129498191.067    24642690.217   100907679.837                  
  20333951.954   106855653.075    20333951.311    83264148.516                  
  21194908.374   111379954.695    21194910.768    86789565.083                  
  22949971.342   120602875.932    22949973.647    93976257.489                  
  23773898.607   124932684.462    23773899.178    97350146.828                  
  23999507.137   126118261.044    23999507.351    98273969.016                  
  21551075.294   113251665.113    21551074.508    88248051.327                  
  23532858.406   123665974.727    23532860.300    96363090.438                  
  22268120.482   117019726.573    22268122.447    91184193.504                  
                 114870428.192                   114870428.192    22059652.597  
                 127200891.837                   127200891.837    24427591.013  
                 122286000.327                   122286000.327    23483740.447  
                 119673961.040                   119673961.040    22982126.613  
                 132593858.986                   132593858.986    25463256.426  
  24676799.466   129677432.449                                                  
  26331921.685   138375160.581                                                  
  24574699.532   129140910.633                                                  
  27848103.745   146342808.539                                                  
  24304997.722   127723612.981                                                  
  24968727.892   131211495.525                                                  
 21  9  2  7 17 58.0000000  0 21G 1G 4G 7G 8G 9G14G17G21G27G30C24C25
                                C26C34C35E 2E 3E 8E24E25E36
  22527865.028   118384681.048    22527868.423    92247790.324                  
  24643349.495   129501664.280    24643351.157   100910386.228                  
  20333726.626   106854468.896    20333725.983    83263225.781                  
  21195349.095   111382270.699    21195351.472    86791369.762                  
  22950520.278   120605760.712    22950522.583    93978505.367                  
  23773480.418   124930486.927    23773480.972    97348434.484                  
  23998907.542   126115110.053    23998907.756    98271513.692                  
  21550843.336   113250446.193    21550842.568    88247101.512                  
  23533515.218   123669426.337    23533517.112    96365779.999                  
  22267593.399   117016956.730    22267595.365    91182035.180                  
                 114870188.106                   114870188.106    22059606.477  
                 127198462.231                   127198462.231    24427124.453  
                 122287877.919                   122287877.919    23484101.026  
                 119671568.967                   119671568.967    22981667.236  
                 132596808.906                   132596808.906    25463822.892  
  24676581.625   129676287.715                                                  
  26332373.182   138377533.250                                                  
  24574805.191   129141465.825                                                  
  27848412.557   146344431.480                                                  
  24305073.416   127724010.769                                                  
  24968273.197   131209106.089                                                  
 21  9  2  7 17 59.0000000  0 21G 1G 4G 7G 8G 9G14G17G21G27G30C24C25
                                C26C34C35E 2E 3E 8E24E25E36
  22527242.239   118381408.235    22527245.616    92245240.081                  
  24644010.416   129505137.434    24644012.078   100913092.577                  
  20333501.387   106853285.198    20333500.726    83262303.417                  
  21195789.906   111384587.042    21195792.265    86793174.704                  
  22951069.286   120608645.703    22951071.573    93980753.415                  
  23773062.247   124928289.404    23773062.801    97346722.125                  
  23998307.982   126111959.316    23998308.197    98269058.571                  
  21550611.504   113249227.839    21550610.700    88246152.148                  
  23534172.065   123672878.049    23534173.959    96368469.645                  
  22267066.388   117014187.148    22267068.318    91179877.062                  
                 114869948.305                   114869948.305    22059560.447  
                 127196032.686                   127196032.686    24426657.875  
                 122289755.760                   122289755.760    23484461.640  
                 119669177.282                   119669177.282    22981207.948  
                 132599758.997                   132599758.997    25464389.447  
  24676363.801   129675142.987                                                  
  26332824.696   138379906.025                                                  
  24574910.940   129142021.439                                                  
  27848721.423   146346054.491                                                  
  24305149.127   127724408.619                                                  
  24967818.555   131206716.955                                                  
 21  9  2  7 18  0.0000000  0 21G 1G 4G 7G 8G 9G14G17G21G27G30C24C25
                                C26C34C35E 2E 3E 8E24E25E36
  22526619.486   118378135.655    22526622.881    92242690.020                  
  24644671.320   129508610.489    24644672.982   100915798.851                  
  20333276.220   106852101.987    20333275.558    83261381.437                  
  21196230.735   111386903.753    21196233.112    86794979.929                  
  22951618.311   120611530.906    22951620.617    93983001.620                  
  23772644.076   124926091.945    23772644.648    97345009.825                  
  23997708.459   126108808.824    23997708.673    98266603.641                  
  21550379.760   113248010.040    21550378.956    88245203.212                  
  23534828.913   123676329.865    23534830.825    96371159.367                  
  22266539.377   117011417.809    22266541.342    91177719.138                  
                 114869708.794                   114869708.794    22059514.434  
                 127193603.191                   127193603.191    24426191.315  
                 122291633.858                   122291633.858    23484822.309  
                 119666785.974                   119666785.974    22980748.714  
                 132602709.263                   132602709.263    25464956.003  
  24676145.960   129673998.288                                                  
  26333276.264   138382278.949                                                  
  24575016.743   129142577.482                                                  
  27849030.272   146347677.567                                                  
  24305224.838   127724806.556                                                  
  24967363.985   131204328.117                                                  
 21  9  2  7 18  1.0000000  0 21G 1G 4G 7G 8G 9G14G17G21G27G30C24C25
                                C26C34C35E 2E 3E 8E24E25E36
  22525996.786   118374863.311    22526000.163    92240140.141                  
  24645332.206   129512083.467    24645333.886   100918505.071                  
  20333051.159   106850919.261    20333050.498    83260459.832                  
  21196671.671   111389220.829    21196674.048    86796785.445                  
  22952167.409   120614416.329    22952169.696    93985250.004                  
  23772225.923   124923894.530    23772226.477    97343297.556                  
  23997108.989   126105658.559    23997109.203    98264148.891                  
  21550148.124   113246792.793    21550147.338    88244254.712                  
  23535485.796   123679781.762    23535487.708    96373849.159                  
  22266012.437   117008648.714    22266014.403    91175561.399                  
                 114869469.569                   114869469.569    22059468.493  
                 127191173.733                   127191173.733    24425724.773  
                 122293512.217                   122293512.217    23485183.013  
                 119664395.038                   119664395.038    22980289.552  
                 132605659.703                   132605659.703    25465522.611  
  24675928.137   129672853.607                                                  
  26333727.814   138384651.999                                                  
  24575122.635   129143133.944                                                  
  27849339.138   146349300.684                                                  
  24305300.584   127725204.555                                                  
  24966909.469   131201939.555                                                  
 21  9  2  7 18  2.0000000  0 21G 1G 4G 7G 8G 9G14G17G21G27G30C24C25
                                C26C34C35E 2E 3E 8E24E25E36
  22525374.122   118371591.193    22525377.499    92237590.438                  
  24645993.056   129515556.343    24645994.736   100921211.207                  
  20332826.188   106849737.024    20332825.527    83259538.607                  
  21197112.661   111391538.233    21197115.019    86798591.215                  
  22952716.524   120617301.965    22952718.829    93987498.552                  
  23771807.788   124921697.180    23771808.342    97341585.332                  
  23996509.554   126102508.534    23996509.769    98261694.328                  
  21549916.595   113245576.103    21549915.791    88243306.637                  
  23536142.697   123683233.759    23536144.573    96376539.027                  
  22265485.533   117005879.862    22265487.499    91173403.857                  
                 114869230.637                   114869230.637    22059422.623  
                 127188744.325                   127188744.325    24425258.248  
                 122295390.827                   122295390.827    23485543.806  
                 119662004.481                   119662004.481    22979830.479  
                 132608610.318                   132608610.318    25466089.238  
  24675710.313   129671708.943                                                  
  26334179.436   138387025.196                                                  
  24575228.598   129143690.835                                                  
  27849648.022   146350923.859                                                  
  24305376.331   127725602.640                                                  
  24966454.988   131199551.272                                                  
 21  9  2  7 18  3.0000000  0 21G 1G 4G 7G 8G 9G14G17G21G27G30C24C25
                                C26C34C35E 2E 3E 8E24E25E36
  22524751.494   118368319.309    22524754.871    92235040.919                  
  24646653.924   129519029.125    24646655.604   100923917.269                  
  20332601.307   106848555.269    20332600.645    83258617.761                  
  21197553.722   111393855.984    21197556.081    86800397.254                  
  22953265.675   120620187.813    22953267.980    93989747.262                  
  23771389.635   124919499.868    23771390.207    97339873.141                  
  23995910.156   126099358.747    23995910.388    98259239.944                  
  21549685.174   113244359.962    21549684.387    88242358.997                  
  23536799.598   123686685.856    23536801.492    96379228.973                  
  22264958.701   117003111.251    22264960.666    91171246.495                  
                 114868991.991                   114868991.991    22059376.789  
                 127186314.957                   127186314.957    24424791.706  
                 122297269.698                   122297269.698    23485904.600  
                 119659614.301                   119659614.301    22979371.477  
                 132611561.110                   132611561.110    25466655.919  
  24675492.508   129670564.288                                                  
  26334631.058   138389398.516                                                  
  24575334.668   129144248.125                                                  
  27849956.923   146352547.076                                                  
  24305452.096   127726000.792                                                  
  24966000.561   131197163.283                                                  
 21  9  2  7 18  4.0000000  0 21G 1G 4G 7G 8G 9G14G17G21G27G30C24C25
                                C26C34C35E 2E 3E 8E24E25E36
  22524128.919   118365047.658    22524132.314    92232491.578                  
  24647314.738   129522501.825    24647316.418   100926623.269                  
  20332376.514   106847373.995    20332375.853    83257697.290                  
  21197994.837   111396174.066    21197997.195    86802203.554                  
  22953814.879   120623073.888    22953817.184    93991996.153                  
  23770971.518   124917302.620    23770972.072    97338161.000                  
  23995310.829   126096209.204    23995311.043    98256785.757                  
  21549453.859   113243144.384    21549453.055    88241411.794                  
  23537456.535   123690138.047    23537458.446    96381918.991                  
  22264431.904   117000342.884    22264433.852    91169089.323                  
                 114868753.638                   114868753.638    22059331.026  
                 127183885.630                   127183885.630    24424325.164  
                 122299148.828                   122299148.828    23486265.483  
                 119657224.497                   119657224.497    22978912.547  
                 132614512.079                   132614512.079    25467222.617  
  24675274.684   129669419.656                                                  
  26335082.715   138391771.980                                                  
  24575440.775   129144805.852                                                  
  27850265.825   146354170.348                                                  
  24305527.878   127726399.023                                                  
  24965546.205   131194775.575                                                  
 21  9  2  7 18  5.0000000  0 21G 1G 4G 7G 8G 9G14G17G21G27G30C24C25
                                C26C34C35E 2E 3E 8E24E25E36
  22523506.380   118361776.235    22523509.775    92229942.417                  
  24647975.553   129525974.424    24647977.232   100929329.191                  
  20332151.811   106846193.208    20332151.168    83256777.192                  
  21198436.023   111398492.503    21198438.381    86804010.124                  
  22954364.119   120625960.173    22954366.424    93994245.202                  
  23770553.400   124915105.426    23770553.972    97336448.903                  
  23994711.538   126093059.898    23994711.734    98254331.755                  
  21549222.634   113241929.355    21549221.848    88240465.020                  
  23538113.471   123693590.337    23538115.383    96384609.086                  
  22263905.143   116997574.757    22263907.109    91166932.344                  
                 114868515.570                   114868515.570    22059285.299  
                 127181456.347                   127181456.347    24423858.657  
                 122301028.211                   122301028.211    23486626.401  
                 119654835.067                   119654835.067    22978453.689  
                 132617463.223                   132617463.223    25467789.369  
  24675056.861   129668275.037                                                  
  26335534.408   138394145.582                                                  
  24575547.006   129145363.981                                                  
  27850574.727   146355793.673                                                  
  24305603.679   127726797.333                                                  
  24965091.885   131192388.151                                                  
 21  9  2  7 18  6.0000000  0 21G 1G 4G 7G 8G 9G14G17G21G27G30C24C25
                                C26C34C35E 2E 3E 8E24E25E36
  22522883.895   118358505.055    22522887.308    92227393.448                  
  24648636.367   129529446.945    24648638.047   100932035.051                  
  20331927.216   106845012.912    20331926.554    83255857.480                  
  21198877.263   111400811.290    21198879.639    86805816.968                  
  22954913.395   120628846.675    22954915.700    93996494.425                  
  23770135.301   124912908.278    23770135.855    97334736.840                  
  23994112.282   126089910.815    23994112.497    98251877.926                  
  21548991.534   113240714.884    21548990.748    88239518.677                  
  23538770.462   123697042.727    23538772.338    96387299.262                  
  22263378.418   116994806.879    22263380.384    91164775.554                  
                 114868277.793                   114868277.793    22059239.644  
                 127179027.110                   127179027.110    24423392.133  
                 122302907.853                   122302907.853    23486987.355  
                 119652446.013                   119652446.013    22977994.883  
                 132620414.542                   132620414.542    25468356.120  
  24674839.038   129667130.423                                                  
  26335986.102   138396519.331                                                  
  24575653.273   129145922.550                                                  
  27850883.647   146357417.042                                                  
  24305679.497   127727195.711                                                  
  24964637.619   131190001.001                                                  
 21  9  2  7 18  7.0000000  0 21G 1G 4G 7G 8G 9G14G17G21G27G30C24C25
                                C26C34C35E 2E 3E 8E24E25E36
  22522261.463   118355234.114    22522264.859    92224844.665                  
  24649297.146   129532919.383    24649298.825   100934740.847                  
  20331702.691   106843833.102    20331702.048    83254938.148                  
  21199318.574   111403130.411    21199320.933    86807624.078                  
  22955462.725   120631733.392    22955465.012    93998743.817                  
  23769717.219   124910711.189    23769717.773    97333024.820                  
  23993513.080   126086761.982    23993513.295    98249424.285                  
  21548760.541   113239500.961    21548759.737    88238572.761                  
  23539427.434   123700495.206    23539429.346    96389989.503                  
  22262851.764   116992039.222    22262853.712    91162618.942                  
                 114868040.300                   114868040.300    22059194.024  
                 127176597.914                   127176597.914    24422925.644  
                 122304787.750                   122304787.750    23487348.381  
                 119650057.337                   119650057.337    22977536.168  
                 132623366.040                   132623366.040    25468922.926  
  24674621.232   129665985.818                                                  
  26336437.848   138398893.229                                                  
  24575759.665   129146481.530                                                  
  27851192.566   146359040.464                                                  
  24305755.315   127727594.176                                                  
  24964183.424   131187614.141                                                  
 21  9  2  7 18  8.0000000  0 21G 1G 4G 7G 8G 9G14G17G21G27G30C24C25
                                C26C34C35E 2E 3E 8E24E25E36
  22521639.067   118351963.360    22521642.463    92222296.028                  
  24649957.906   129536391.693    24649959.586   100937446.543                  
  20331478.274   106842653.750    20331477.613    83254019.177                  
  21199759.957   111405449.922    21199762.333    86809431.492                  
  22956012.108   120634620.335    22956014.395    94000993.383                  
  23769299.138   124908514.167    23769299.692    97331312.855                  
  23992913.914   126083613.374    23992914.146    98246970.827                  
  21548529.637   113238287.593    21548528.833    88237627.286                  
  23540084.442   123703947.793    23540086.336    96392679.833                  
  22262325.146   116989271.846    22262327.094    91160462.543                  
                 114867803.102                   114867803.102    22059148.476  
                 127174168.762                   127174168.762    24422459.137  
                 122306667.901                   122306667.901    23487709.443  
                 119647669.039                   119647669.039    22977077.524  
                 132626317.710                   132626317.710    25469489.767  
  24674403.444   129664841.309                                                  
  26336889.595   138401267.183                                                  
  24575866.129   129147040.933                                                  
  27851501.504   146360663.936                                                  
  24305831.151   127727992.698                                                  
  24963729.283   131185227.593                                                  
 21  9  2  7 18  9.0000000  0 21G 1G 4G 7G 8G 9G14G17G21G27G30C24C25
                                C26C34C35E 2E 3E 8E24E25E36
  22521016.707   118348692.870    22521020.102    92219747.594                  
  24650618.631   129539863.926    24650620.329   100940152.179                  
  20331253.964   106841474.894    20331253.303    83253100.585                  
  21200201.429   111407769.762    21200203.787    86811239.159                  
  22956561.509   120637507.486    22956563.796    94003243.108                  
  23768881.056   124906317.187    23768881.628    97329600.922                  
  23992314.801   126080465.011    23992315.016    98244517.559                  
  21548298.841   113237074.777    21548298.055    88236682.230                  
  23540741.468   123707400.456    23540743.363    96395370.220                  
  22261798.582   116986504.697    22261800.548    91158306.325                  
                 114867566.191                   114867566.191    22059102.982  
                 127171739.653                   127171739.653    24421992.666  
                 122308548.316                   122308548.316    23488070.558  
                 119645281.113                   119645281.113    22976618.933  
                 132629269.555                   132629269.555    25470056.644  
  24674185.639   129663696.754                                                  
  26337341.378   138403641.325                                                  
  24575972.646   129147600.741                                                  
  27851810.459   146362287.464                                                  
  24305907.005   127728391.308                                                  
  24963275.178   131182841.305                                                  
 21  9  2  7 18 10.0000000  0 21G 1G 4G 7G 8G 9G14G17G21G27G30C24C25
                                C26C34C35E 2E 3E 8E24E25E36
  22520394.401   118345422.609    22520397.778    92217199.337                  
  24651279.374   129543336.077    24651281.054   100942857.751                  
  20331029.726   106840296.528    20331029.065    83252182.376                  
  21200642.936   111410089.942    21200645.295    86813047.090                  
  22957110.945   120640394.839    22957113.233    94005492.996                  
  23768462.993   124904120.262    23768463.565    97327889.031                  
  23991715.742   126077316.887    23991715.957    98242064.476                  
  21548068.152   113235862.515    21548067.366    88235737.612                  
  23541398.495   123710853.222    23541400.407    96398060.686                  
  22261272.053   116983737.797    22261274.001    91156150.297                  
                 114867329.565                   114867329.565    22059057.541  
                 127169310.591                   127169310.591    24421526.178  
                 122310428.984                   122310428.984    23488431.726  
                 119642893.568                   119642893.568    22976160.432  
                 132632221.577                   132632221.577    25470623.539  
  24673967.833   129662552.231                                                  
  26337793.196   138406015.608                                                  
  24576079.235   129148160.980                                                  
  27852119.397   146363911.038                                                  
  24305982.877   127728789.982                                                  
  24962821.144   131180455.305                                                  
 21  9  2  7 18 11.0000000  0 21G 1G 4G 7G 8G 9G14G17G21G27G30C24C25
                                C26C34C35E 2E 3E 8E24E25E36
  22519772.112   118342152.586    22519775.525    92214651.264                  
  24651940.081   129546808.140    24651941.761   100945563.254                  
  20330805.577   106839118.643    20330804.916    83251264.546                  
  21201084.516   111412410.457    21201086.874    86814855.285                  
  22957660.436   120643282.421    22957662.741    94007743.058                  
  23768044.947   124901923.390    23768045.519    97326177.187                  
  23991116.719   126074168.999    23991116.916    98239611.578                  
  21547837.588   113234650.802    21547836.784    88234793.423                  
  23542055.556   123714306.085    23542057.468    96400751.231                  
  22260745.578   116980971.128    22260747.526    91153994.454                  
                 114867093.233                   114867093.233    22059012.154  
                 127166881.566                   127166881.566    24421059.725  
                 122312309.911                   122312309.911    23488792.913  
                 119640506.398                   119640506.398    22975702.002  
                 132635173.774                   132635173.774    25471190.487  
  24673750.064   129661407.711                                                  
  26338245.014   138408390.020                                                  
  24576185.949   129148721.636                                                  
  27852428.388   146365534.663                                                  
  24306058.767   127729188.747                                                  
  24962367.163   131178069.601                                                  
 21  9  2  7 18 12.0000000  0 21G 1G 4G 7G 8G 9G14G17G21G27G30C24C25
                                C26C34C35E 2E 3E 8E24E25E36
  22519149.895   118338882.798    22519153.308    92212103.380                  
  24652600.788   129550280.106    24652602.468   100948268.685                  
  20330581.517   106837941.255    20330580.856    83250347.102                  
  21201526.167   111414731.313    21201528.525    86816663.746                  
  22958209.962   120646170.206    22958212.267    94009993.280                  
  23767626.901   124899726.574    23767627.473    97324465.382                  
  23990517.732   126071021.348    23990517.946    98237158.859                  
  21547607.096   113233439.644    21547606.291    88233849.663                  
  23542712.636   123717759.056    23542714.548    96403441.856                  
  22260219.139   116978204.703    22260221.105    91151838.798                  
                 114866857.192                   114866857.192    22058966.820  
                 127164452.591                   127164452.591    24420593.254  
                 122314191.091                   122314191.091    23489154.189  
                 119638119.606                   119638119.606    22975243.644  
                 132638126.148                   132638126.148    25471757.453  
  24673532.258   129660263.224                                                  
  26338696.886   138410764.570                                                  
  24576292.698   129149282.711                                                  
  27852737.361   146367158.349                                                  
  24306134.639   127729587.580                                                  
  24961913.218   131175684.179                                                  
 21  9  2  7 18 13.0000000  0 21G 1G 4G 7G 8G 9G14G17G21G27G30C24C25
                                C26C34C35E 2E 3E 8E24E25E36
  22518527.713   118335613.238    22518531.126    92209555.671                  
  24653261.460   129553751.978    24653263.139   100950974.035                  
  20330357.565   106836764.336    20330356.904    83249430.020                  
  21201967.853   111417052.508    21201970.247    86818472.466                  
  22958759.541   120649058.223    22958761.847    94012243.681                  
  23767208.873   124897529.817    23767209.445    97322753.621                  
  23989918.798   126067873.938    23989919.012    98234706.331                  
  21547376.746   113232229.046    21547375.942    88232906.340                  
  23543369.734   123721212.118    23543371.646    96406132.551                  
  22259692.753   116975438.534    22259694.701    91149683.339                  
                 114866621.433                   114866621.433    22058921.540  
                 127162023.657                   127162023.657    24420126.801  
                 122316072.530                   122316072.530    23489515.500  
                 119635733.189                   119635733.189    22974785.357  
                 132641078.696                   132641078.696    25472324.455  
  24673314.488   129659118.745                                                  
  26339148.776   138413139.249                                                  
  24576399.555   129149844.203                                                  
  27853046.335   146368782.079                                                  
  24306210.564   127729986.488                                                  
  24961459.345   131173299.039                                                  
 21  9  2  7 18 14.0000000  0 21G 1G 4G 7G 8G 9G14G17G21G27G30C24C25
                                C26C34C35E 2E 3E 8E24E25E36
  22517905.603   118332343.911    22517908.998    92207008.145                  
  24653922.113   129557223.750    24653923.775   100953679.317                  
  20330133.702   106835587.909    20330133.041    83248513.324                  
  21202409.647   111419374.044    21202412.005    86820281.457                  
  22959309.139   120651946.460    22959311.444    94014494.257                  
  23766790.863   124895333.112    23766791.417    97321041.905                  
  23989319.917   126064726.765    23989320.132    98232253.991                  
  21547146.468   113231019.000    21547145.682    88231963.445                  
  23544026.867   123724665.286    23544028.743    96408823.327                  
  22259166.421   116972672.602    22259168.387    91147528.070                  
                 114866385.967                   114866385.967    22058876.313  
                 127159594.766                   127159594.766    24419660.366  
                 122317954.227                   122317954.227    23489876.866  
                 119633347.150                   119633347.150    22974327.141  
                 132644031.419                   132644031.419    25472891.493  
  24673096.701   129657974.298                                                  
  26339600.683   138415514.071                                                  
  24576506.483   129150406.132                                                  
  27853355.344   146370405.868                                                  
  24306286.472   127730385.477                                                  
  24961005.526   131170914.192                                                  
 21  9  2  7 18 15.0000000  0 21G 1G 4G 7G 8G 9G14G17G21G27G30C24C25
                                C26C34C35E 2E 3E 8E24E25E36
  22517283.493   118329074.853    22517286.906    92204460.844                  
  24654582.767   129560695.461    24654584.429   100956384.560                  
  20329909.928   106834411.950    20329909.267    83247596.988                  
  21202851.476   111421695.918    21202853.835    86822090.707                  
  22959858.808   120654834.878    22959861.095    94016744.957                  
  23766372.835   124893136.419    23766373.425    97319330.176                  
  23988721.073   126061579.790    23988721.287    98229801.789                  
  21546916.315   113229809.546    21546915.529    88231021.036                  
  23544683.982   123728118.539    23544685.877    96411514.187                  
  22258640.125   116969906.890    22258642.073    91145372.960                  
                 114866150.793                   114866150.793    22058831.158  
                 127157165.919                   127157165.919    24419193.913  
                 122319836.181                   122319836.181    23490238.267  
                 119630961.483                   119630961.483    22973868.998  
                 132646984.313                   132646984.313    25473458.566  
  24672878.913   129656829.863                                                  
  26340052.627   138417888.926                                                  
  24576613.501   129150968.493                                                  
  27853664.335   146372029.677                                                  
  24306362.415   127730784.544                                                  
  24960551.760   131168529.516                                                  
 21  9  2  7 18 16.0000000  0 21G 1G 4G 7G 8G 9G14G17G21G27G30C24C25
                                C26C34C35E 2E 3E 8E24E25E36
  22516661.455   118325805.989    22516664.868    92201913.677                  
  24655243.385   129564167.060    24655245.064   100959089.695                  
  20329686.243   106833236.492    20329685.582    83246681.040                  
  21203293.377   111424018.143    21203295.754    86823900.231                  
  22960408.495   120657723.567    22960410.800    94018995.878                  
  23765954.843   124890939.817    23765955.415    97317618.538                  
  23988122.282   126058433.090    23988122.478    98227349.812                  
  21546686.251   113228600.612    21546685.465    88230079.005                  
  23545341.134   123731571.898    23545343.046    96414205.114                  
  22258113.882   116967141.454    22258115.848    91143218.075                  
                 114865915.906                   114865915.906    22058786.057  
                 127154737.119                   127154737.119    24418727.496  
                 122321718.387                   122321718.387    23490599.721  
                 119628576.194                   119628576.194    22973410.943  
                 132649937.388                   132649937.388    25474025.675  
  24672661.143   129655685.449                                                  
  26340504.606   138420264.025                                                  
  24576720.572   129151531.250                                                  
  27853973.362   146373653.577                                                  
  24306438.377   127731183.685                                                  
  24960098.047   131166145.247                                                  
 21  9  2  7 18 17.0000000  0 21G 1G 4G 7G 8G 9G14G17G21G27G30C24C25
                                C26C34C35E 2E 3E 8E24E25E36
  22516039.452   118322537.368    22516042.865    92199366.700                  
  24655903.984   129567638.559    24655905.664   100961794.762                  
  20329462.648   106832061.515    20329462.005    83245765.476                  
  21203735.367   111426340.715    21203737.726    86825710.023                  
  22960958.235   120660612.417    22960960.523    94021246.933                  
  23765536.869   124888743.268    23765537.423    97315906.946                  
  23987523.527   126055286.630    23987523.741    98224898.028                  
  21546456.313   113227392.247    21546455.526    88229137.418                  
  23545998.303   123735025.345    23546000.197    96416896.109                  
  22257587.675   116964376.265    22257589.641    91141063.382                  
                 114865681.310                   114865681.310    22058740.991  
                 127152308.356                   127152308.356    24418261.078  
                 122323600.855                   122323600.855    23490961.247  
                 119626191.290                   119626191.290    22972952.942  
                 132652890.631                   132652890.631    25474592.820  
  24672443.356   129654541.046                                                  
  26340956.585   138422639.247                                                  
  24576827.768   129152094.429                                                  
  27854282.388   146375277.519                                                  
  24306514.338   127731582.890                                                  
  24959644.389   131163761.254                                                  
 21  9  2  7 18 18.0000000  0 21G 1G 4G 7G 8G 9G14G17G21G27G30C24C25
                                C26C34C35E 2E 3E 8E24E25E36
  22515417.520   118319268.980    22515420.898    92196819.903                  
  24656564.566   129571109.968    24656566.246   100964499.753                  
  20329239.161   106830887.034    20329238.499    83244850.294                  
  21204177.393   111428663.639    21204179.752    86827520.098                  
  22961508.012   120663501.528    22961510.317    94023498.188                  
  23765118.877   124886546.784    23765119.448    97314195.395                  
  23986924.825   126052140.400    23986925.022    98222446.418                  
  21546226.481   113226184.434    21546225.677    88228196.269                  
  23546655.508   123738478.891    23546657.384    96419587.184                  
  22257061.522   116961611.313    22257063.487    91138908.874                  
                 114865447.001                   114865447.001    22058695.997  
                 127149879.640                   127149879.640    24417794.679  
                 122325483.579                   122325483.579    23491322.791  
                 119623806.754                   119623806.754    22972495.013  
                 132655844.055                   132655844.055    25475159.983  
  24672225.604   129653396.673                                                  
  26341408.600   138425014.606                                                  
  24576935.000   129152658.028                                                  
  27854591.415   146376901.519                                                  
  24306590.317   127731982.186                                                  
  24959190.783   131161377.558                                                  
 21  9  2  7 18 19.0000000  0 21G 1G 4G 7G 8G 9G14G17G21G27G30C24C25
                                C26C34C35E 2E 3E 8E24E25E36
  22514795.607   118316000.817    22514799.002    92194273.285                  
  24657225.149   129574581.285    24657226.828   100967204.676                  
  20329015.744   106829713.032    20329015.101    83243935.484                  
  21204619.509   111430986.913    21204621.868    86829330.438                  
  22962057.824   120666390.798    22962060.129    94025749.567                  
  23764700.920   124884350.340    23764701.474    97312483.883                  
  23986326.159   126048994.410    23986326.356    98219994.999                  
  21545996.739   113224977.173    21545995.935    88227255.544                  
  23547312.694   123741932.523    23547314.606    96422278.328                  
  22256535.422   116958846.599    22256537.388    91136754.552                  
                 114865212.981                   114865212.981    22058651.056  
                 127147450.970                   127147450.970    24417328.280  
                 122327366.559                   122327366.559    23491684.407  
                 119621422.596                   119621422.596    22972037.155  
                 132658797.653                   132658797.653    25475727.200  
  24672007.834   129652252.300                                                  
  26341860.632   138427390.098                                                  
  24577042.339   129153222.044                                                  
  27854900.460   146378525.563                                                  
  24306666.314   127732381.544                                                  
  24958737.214   131158994.140                                                  
 21  9  2  7 18 20.0000000  0 21G 1G 4G 7G 8G 9G14G17G21G27G30C24C25
                                C26C34C35E 2E 3E 8E24E25E36
  22514173.747   118312732.895    22514177.142    92191726.853                  
  24657885.677   129578052.503    24657887.357   100969909.523                  
  20328792.435   106828539.520    20328791.774    83243021.061                  
  21205061.678   111433310.535    21205064.036    86831141.056                  
  22962607.671   120669280.340    22962609.976    94028001.161                  
  23764282.964   124882153.961    23764283.518    97310772.419                  
  23985727.547   126045848.661    23985727.743    98217543.766                  
  21545767.122   113223770.469    21545766.318    88226315.257                  
  23547969.917   123745386.245    23547971.811    96424969.538                  
  22256009.358   116956082.140    22256011.324    91134600.426                  
                 114864979.251                   114864979.251    22058606.187  
                 127145022.344                   127145022.344    24416861.880  
                 122329249.798                   122329249.798    23492046.058  
                 119619038.820                   119619038.820    22971579.386  
                 132661751.423                   132661751.423    25476294.434  
  24671790.064   129651107.953                                                  
  26342312.701   138429765.731                                                  
  24577149.732   129153786.473                                                  
  27855209.523   146380149.654                                                  
  24306742.347   127732780.981                                                  
  24958283.734   131156611.004                                                  
 21  9  2  7 18 21.0000000  0 21G 1G 4G 7G 8G 9G14G17G21G27G30C24C25
                                C26C34C35E 2E 3E 8E24E25E36
  22513551.923   118309465.202    22513555.300    92189180.598                  
  24658546.223   129581523.642    24658547.903   100972614.304                  
  20328569.215   106827366.486    20328568.554    83242107.009                  
  21205503.900   111435634.507    21205506.277    86832951.940                  
  22963157.573   120672170.044    22963159.878    94030252.871                  
  23763865.007   124879957.624    23763865.579    97309060.989                  
  23985128.952   126042703.140    23985129.185    98215092.716                  
  21545537.577   113222564.320    21545536.808    88225375.403                  
  23548627.158   123748840.079    23548629.052    96427660.835                  
  22255483.348   116953317.919    22255485.295    91132446.489                  
                 114864745.810                   114864745.810    22058561.354  
                 127142593.758                   127142593.758    24416395.499  
                 122331133.292                   122331133.292    23492407.763  
                 119616655.418                   119616655.418    22971121.689  
                 132664705.367                   132664705.367    25476861.722  
  24671572.294   129649963.612                                                  
  26342764.805   138432141.489                                                  
  24577257.214   129154351.325                                                  
  27855518.585   146381773.777                                                  
  24306818.361   127733180.483                                                  
  24957830.308   131154228.153                                                  
 21  9  2  7 18 22.0000000  0 21G 1G 4G 7G 8G 9G14G17G21G27G30C24C25
                                C26C34C35E 2E 3E 8E24E25E36
  22512930.135   118306197.743    22512933.548    92186634.527                  
  24659206.734   129584994.680    24659208.414   100975319.007                  
  20328346.085   106826193.930    20328345.441    83241193.329                  
  21205946.212   111437958.839    21205948.589    86834763.109                  
  22963707.527   120675059.971    22963709.815    94032504.765                  
  23763447.069   124877761.350    23763447.640    97307349.605                  
  23984530.447   126039557.872    23984530.662    98212641.855                  
  21545308.174   113221358.722    21545307.388    88224435.972                  
  23549284.416   123752293.995    23549286.328    96430352.203                  
  22254957.373   116950553.950    22254959.339    91130292.745                  
                 114864512.659                   114864512.659    22058516.574  
                 127140165.219                   127140165.219    24415929.117  
                 122333017.043                   122333017.043    23492769.521  
                 119614272.395                   119614272.395    22970664.045  
                 132667659.488                   132667659.488    25477429.027  
  24671354.560   129648819.300                                                  
  26343216.927   138434517.395                                                  
  24577364.804   129154916.594                                                  
  27855827.666   146383398.000                                                  
  24306894.394   127733580.079                                                  
  24957376.899   131151845.589                                                  
 21  9  2  7 18 23.0000000  0 21G 1G 4G 7G 8G 9G14G17G21G27G30C24C25
                                C26C34C35E 2E 3E 8E24E25E36
  22512308.400   118302930.508    22512311.795    92184088.629                  
  24659867.244   129588465.625    24659868.924   100978023.640                  
  20328123.043   106825021.867    20328122.400    83240280.036                  
  21206388.578   111440283.515    21206390.937    86836574.542                  
  22964257.500   120677950.136    22964259.805    94034756.839                  
  23763029.148   124875565.130    23763029.702    97305638.265                  
  23983931.960   126036412.848    23983932.175    98210191.187                  
  21545078.861   113220153.679    21545078.057    88223496.982                  
  23549941.692   123755748.014    23549943.604    96433043.644                  
  22254431.452   116947790.219    22254433.417    91128139.191                  
                 114864279.796                   114864279.796    22058471.866  
                 127137736.727                   127137736.727    24415462.754  
                 122334901.052                   122334901.052    23493131.315  
                 119611889.746                   119611889.746    22970206.473  
                 132670613.784                   132670613.784    25477996.369  
  24671136.808   129647675.003                                                  
  26343669.067   138436893.427                                                  
  24577472.447   129155482.282                                                  
  27856136.746   146385022.235                                                  
  24306970.445   127733979.739                                                  
  24956923.580   131149463.322                                                  
 21  9  2  7 18 24.0000000  0 21G 1G 4G 7G 8G 9G14G17G21G27G30C24C25
                                C26C34C35E 2E 3E 8E24E25E36
  22511686.719   118299663.522    22511690.114    92181542.926                  
  24660527.719   129591936.476    24660529.399   100980728.203                  
  20327900.092   106823850.289    20327899.466    83239367.117                  
  21206831.015   111442608.552    21206833.374    86838386.261                  
  22964807.527   120680840.509    22964809.814    94037009.078                  
  23762611.227   124873368.968    23762611.799    97303926.970                  
  23983333.527   126033268.055    23983333.741    98207740.699                  
  21544849.655   113218949.185    21544848.869    88222558.415                  
  23550599.004   123759202.130    23550600.898    96435735.160                  
  22253905.584   116945026.735    22253907.532    91125985.824                  
                 114864047.226                   114864047.226    22058427.193  
                 127135308.273                   127135308.273    24414996.408  
                 122336785.317                   122336785.317    23493493.181  
                 119609507.476                   119609507.476    22969748.973  
                 132673568.255                   132673568.255    25478563.746  
  24670919.056   129646530.724                                                  
  26344121.242   138439269.590                                                  
  24577580.161   129156048.399                                                  
  27856445.845   146386646.531                                                  
  24307046.513   127734379.475                                                  
  24956470.296   131147081.327                                                  
 21  9  2  7 18 25.0000000  0 21G 1G 4G 7G 8G 9G14G17G21G27G30C24C25
                                C26C34C35E 2E 3E 8E24E25E36
  22511065.073   118296396.762    22511068.468    92178997.398                  
  24661188.176   129595407.230    24661189.856   100983432.685                  
  20327677.265   106822679.191    20327676.604    83238454.574                  
  21207273.523   111444933.920    21207275.900    86840198.239                  
  22965357.589   120683731.090    22965359.876    94039261.481                  
  23762193.324   124871172.856    23762193.878    97302215.716                  
  23982735.147   126030123.497    23982735.343    98205290.394                  
  21544620.556   113217745.257    21544619.752    88221620.289                  
  23551256.298   123762656.325    23551258.193    96438426.743                  
  22253379.753   116942263.491    22253381.718    91123832.649                  
                 114863814.945                   114863814.945    22058382.592  
                 127132879.867                   127132879.867    24414530.044  
                 122338669.841                   122338669.841    23493855.082  
                 119607125.586                   119607125.586    22969291.561  
                 132676522.894                   132676522.894    25479131.141  
  24670701.304   129645386.456                                                  
  26344573.418   138441645.883                                                  
  24577687.983   129156614.923                                                  
  27856754.943   146388270.895                                                  
  24307122.599   127734779.282                                                  
  24956017.084   131144699.632                                                  
 21  9  2  7 18 26.0000000  0 21G 1G 4G 7G 8G 9G14G17G21G27G30C24C25
                                C26C34C35E 2E 3E 8E24E25E36
  22510443.481   118293130.243    22510446.859    92176452.059                  
  24661848.615   129598877.899    24661850.295   100986137.102                  
  20327454.492   106821508.575    20327453.849    83237542.406                  
  21207716.103   111447259.641    21207718.462    86842010.489                  
  22965907.669   120686621.874    22965909.956    94041514.040                  
  23761775.422   124868976.794    23761775.975    97300504.497                  
  23982136.802   126026979.177    23982136.999    98202840.272                  
  21544391.565   113216541.887    21544390.761    88220682.598                  
  23551913.646   123766110.629    23551915.540    96441118.411                  
  22252853.975   116939500.499    22252855.940    91121679.669                  
                 114863582.954                   114863582.954    22058338.045  
                 127130451.503                   127130451.503    24414063.698  
                 122340554.618                   122340554.618    23494217.019  
                 119604744.069                   119604744.069    22968834.222  
                 132679477.710                   132679477.710    25479698.572  
  24670483.553   129644242.212                                                  
  26345025.647   138444022.320                                                  
  24577795.858   129157181.865                                                  
  27857064.041   146389895.288                                                  
  24307198.703   127735179.168                                                  
  24955563.908   131142318.210                                                  
 21  9  2  7 18 27.0000000  0 21G 1G 4G 7G 8G 9G14G17G21G27G30C24C25
                                C26C34C35E 2E 3E 8E24E25E36
  22509821.925   118289863.958    22509825.320    92173906.902                  
  24662509.054   129602348.471    24662510.734   100988841.446                  
  20327231.826   106820338.458    20327231.183    83236630.622                  
  21208158.719   111449585.676    21208161.096    86843822.981                  
  22966457.820   120689512.890    22966460.125    94043766.777                  
  23761357.537   124866780.785    23761358.108    97298793.325                  
  23981538.494   126023835.098    23981538.708    98200390.343                  
  21544162.663   113215339.071    21544161.876    88219745.337                  
  23552570.994   123769565.032    23552572.888    96443810.149                  
  22252328.232   116936737.746    22252330.198    91119526.876                  
                 114863351.251                   114863351.251    22058293.533  
                 127128023.188                   127128023.188    24413597.388  
                 122342439.653                   122342439.653    23494579.046  
                 119602362.933                   119602362.933    22968376.935  
                 132682432.704                   132682432.704    25480266.056  
  24670265.819   129643097.977                                                  
  26345477.894   138446398.886                                                  
  24577903.823   129157749.226                                                  
  27857373.176   146391519.743                                                  
  24307274.808   127735579.136                                                  
  24955110.803   131139937.090                                                  
 21  9  2  7 18 28.0000000  0 21G 1G 4G 7G 8G 9G14G17G21G27G30C24C25
                                C26C34C35E 2E 3E 8E24E25E36
  22509200.423   118286597.902    22509203.800    92171361.925                  
  24663169.458   129605818.947    24663171.137   100991545.710                  
  20327009.267   106819168.819    20327008.606    83235719.219                  
  21208601.424   111451912.065    21208603.783    86845635.754                  
  22967008.008   120692404.123    22967010.295    94046019.683                  
  23760939.652   124864584.832    23760940.223    97297082.188                  
  23980940.239   126020691.259    23980940.453    98197940.598                  
  21543933.886   113214136.810    21543933.099    88218808.512                  
  23553228.360   123773019.515    23553230.254    96446501.958                  
  22251802.561   116933975.241    22251804.509    91117374.273                  
                 114863119.836                   114863119.836    22058249.093  
                 127125594.911                   127125594.911    24413131.043  
                 122344324.945                   122344324.945    23494941.072  
                 119599982.172                   119599982.172    22967919.739  
                 132685387.867                   132685387.867    25480833.559  
  24670048.084   129641953.771                                                  
  26345930.159   138448775.595                                                  
  24578011.877   129158317.012                                                  
  27857682.292   146393144.254                                                  
  24307350.912   127735979.175                                                  
  24954657.734   131137556.246                                                  
 21  9  2  7 18 29.0000000  0 21G 1G 4G 7G 8G 9G14G17G21G27G30C24C25
                                C26C34C35E 2E 3E 8E24E25E36
  22508578.938   118283332.090    22508582.333    92168817.137                  
  24663829.861   129609289.328    24663831.541   100994249.906                  
  20326786.762   106817999.676    20326786.119    83234808.194                  
  21209044.183   111454238.801    21209046.559    86847448.793                  
  22967558.213   120695295.558    22967560.518    94048272.754                  
  23760521.802   124862388.937    23760522.356    97295371.101                  
  23980342.038   126017547.657    23980342.234    98195491.039                  
  21543705.198   113212935.106    21543704.412    88217872.122                  
  23553885.743   123776474.106    23553887.637    96449193.843                  
  22251276.926   116931212.983    22251278.856    91115221.864                  
                 114862888.715                   114862888.715    22058204.724  
                 127123166.683                   127123166.683    24412664.733  
                 122346210.495                   122346210.495    23495303.188  
                 119597601.794                   119597601.794    22967462.613  
                 132688343.207                   132688343.207    25481401.115  
  24669830.368   129640809.574                                                  
  26346382.460   138451152.425                                                  
  24578120.002   129158885.215                                                  
  27857991.444   146394768.806                                                  
  24307427.052   127736379.293                                                  
  24954204.719   131135175.689                                                  
 21  9  2  7 18 30.0000000  0 21G 1G 4G 7G 8G 9G14G17G21G27G30C24C25
                                C26C34C35E 2E 3E 8E24E25E36
  22507957.525   118280066.504    22507960.920    92166272.524                  
  24664490.247   129612759.610    24664491.908   100996954.019                  
  20326564.382   106816831.021    20326563.721    83233897.556                  
  21209487.013   111456565.872    21209489.372    86849262.095                  
  22968108.471   120698187.216    22968110.776    94050525.992                  
  23760103.935   124860193.092    23760104.507    97293660.058                  
  23979743.854   126014404.294    23979744.087    98193041.664                  
  21543476.635   113211733.960    21543475.849    88216936.164                  
  23554543.144   123779928.794    23554545.039    96451885.810                  
  22250751.327   116928450.972    22250753.274    91113069.647                  
                 114862657.881                   114862657.881    22058160.373  
                 127120738.496                   127120738.496    24412198.423  
                 122348096.304                   122348096.304    23495665.339  
                 119595221.786                   119595221.786    22967005.559  
                 132691298.718                   132691298.718    25481968.688  
  24669612.616   129639665.403                                                  
  26346834.779   138453529.399                                                  
  24578228.199   129159453.841                                                  
  27858300.596   146396393.419                                                  
  24307503.227   127736779.484                                                  
  24953751.775   131132795.423                                                  
 21  9  2  7 18 31.0000000  0 21G 1G 4G 7G 8G 9G14G17G21G27G30C24C25
                                C26C34C35E 2E 3E 8E24E25E36
  22507336.165   118276801.161    22507339.543    92163728.101                  
  24665150.578   129616229.812    24665152.258   100999658.073                  
  20326342.074   106815662.837    20326341.448    83232987.281                  
  21209929.897   111458893.288    21209932.273    86851075.668                  
  22968658.784   120701079.086    22968661.089    94052779.395                  
  23759686.104   124857997.300    23759686.658    97291949.051                  
  23979145.760   126011261.156    23979145.957    98190592.469                  
  21543248.180   113210533.375    21543247.376    88216000.645                  
  23555200.582   123783383.567    23555202.458    96454577.841                  
  22250225.781   116925689.207    22250227.728    91110917.620                  
                 114862427.339                   114862427.339    22058116.111  
                 127118310.356                   127118310.356    24411732.113  
                 122349982.366                   122349982.366    23496027.526  
                 119592842.162                   119592842.162    22966548.577  
                 132694254.407                   132694254.407    25482536.298  
  24669394.900   129638521.241                                                  
  26347287.133   138455906.501                                                  
  24578336.486   129160022.874                                                  
  27858609.766   146398018.079                                                  
  24307579.403   127737179.755                                                  
  24953298.884   131130415.441                                                  
 21  9  2  7 18 32.0000000  0 21G 1G 4G 7G 8G 9G14G17G21G27G30C24C25
                                C26C34C35E 2E 3E 8E24E25E36
  22506714.824   118273536.047    22506718.219    92161183.859                  
  24665810.928   129619699.920    24665812.608   101002362.054                  
  20326119.872   106814495.150    20326119.211    83232077.394                  
  21210372.887   111461221.078    21210375.246    86852889.528                  
  22969209.132   120703971.167    22969211.437    94055032.964                  
  23759268.255   124855801.567    23759268.826    97290238.086                  
  23978547.684   126008118.265    23978547.898    98188143.465                  
  21543019.814   113209333.341    21543019.027    88215065.551                  
  23555858.019   123786838.437    23555859.895    96457269.945                  
  22249700.289   116922927.680    22249702.218    91108765.781                  
                 114862197.087                   114862197.087    22058071.903  
                 127115882.259                   127115882.259    24411265.838  
                 122351868.687                   122351868.687    23496389.785  
                 119590462.909                   119590462.909    22966091.684  
                 132697210.264                   132697210.264    25483103.943  
  24669177.184   129637377.096                                                  
  26347739.505   138458283.739                                                  
  24578444.861   129160592.333                                                  
  27858918.935   146399642.790                                                  
  24307655.579   127737580.087                                                  
  24952846.047   131128035.753                                                  
 21  9  2  7 18 33.0000000  0 21G 1G 4G 7G 8G 9G14G17G21G27G30C24C25
                                C26C34C35E 2E 3E 8E24E25E36
  22506093.536   118270271.171    22506096.913    92158639.797                  
  24666471.242   129623169.929    24666472.922   101005065.957                  
  20325897.778   106813327.949    20325897.117    83231167.890                  
  21210815.896   111463549.216    21210818.255    86854703.660                  
  22969759.515   120706863.462    22969761.821    94057286.699                  
  23758850.441   124853605.878    23758850.995    97288527.163                  
  23977949.661   126004975.618    23977949.858    98185694.644                  
  21542791.555   113208133.853    21542790.768    88214130.888                  
  23556515.456   123790293.406    23556517.368    96459962.129                  
  22249174.814   116920166.399    22249176.780    91106614.134                  
                 114861967.120                   114861967.120    22058027.731  
                 127113454.208                   127113454.208    24410799.564  
                 122353755.267                   122353755.267    23496752.080  
                 119588084.038                   119588084.038    22965634.845  
                 132700166.302                   132700166.302    25483671.624  
  24668959.468   129636232.970                                                  
  26348191.895   138460661.112                                                  
  24578553.308   129161162.212                                                  
  27859228.123   146401267.544                                                  
  24307731.754   127737980.504                                                  
  24952393.264   131125656.344                                                  
 21  9  2  7 18 34.0000000  0 21G 1G 4G 7G 8G 9G14G17G21G27G30C24C25
                                C26C34C35E 2E 3E 8E24E25E36
  22505472.301   118267006.536    22505475.678    92156095.926                  
  24667131.556   129626639.853    24667133.236   101007769.793                  
  20325675.756   106812161.233    20325675.095    83230258.763                  
  21211258.994   111465877.683    21211261.353    86856518.050                  
  22970309.935   120709755.965    22970312.240    94059540.602                  
  23758432.628   124851410.250    23758433.182    97286816.285                  
  23977351.657   126001833.196    23977351.871    98183246.008                  
  21542563.421   113206934.937    21542562.617    88213196.667                  
  23557172.946   123793748.464    23557174.841    96462654.382                  
  22248649.393   116917405.359    22248651.359    91104462.676                  
                 114861737.450                   114861737.450    22057983.613  
                 127111026.199                   127111026.199    24410333.272  
                 122355642.097                   122355642.097    23497114.428  
                 119585705.548                   119585705.548    22965178.059  
                 132703122.508                   132703122.508    25484239.323  
  24668741.734   129635088.861                                                  
  26348644.339   138463038.617                                                  
  24578661.827   129161732.507                                                  
  27859537.329   146402892.371                                                  
  24307807.984   127738381.003                                                  
  24951940.517   131123277.225                                                  
 21  9  2  7 18 35.0000000  0 21G 1G 4G 7G 8G 9G14G17G21G27G30C24C25
                                C26C34C35E 2E 3E 8E24E25E36
  22504851.103   118263742.129    22504854.498    92153552.234                  
  24667791.834   129630109.665    24667793.514   101010473.543                  
  20325453.822   106810995.013    20325453.179    83229350.015                  
  21211702.164   111468206.491    21211704.523    86858332.707                  
  22970860.408   120712648.680    22970862.713    94061794.663                  
  23758014.814   124849214.675    23758015.386    97285105.445                  
  23976753.741   125998691.018    23976753.938    98180797.558                  
  21542335.359   113205736.564    21542334.572    88212262.868                  
  23557830.437   123797203.610    23557832.331    96465346.703                  
  22248124.044   116914644.571    22248125.992    91102311.413                  
                 114861508.067                   114861508.067    22057939.583  
                 127108598.239                   127108598.239    24409867.015  
                 122357529.191                   122357529.191    23497476.811  
                 119583327.430                   119583327.430    22964721.380  
                 132706078.886                   132706078.886    25484807.058  
  24668524.018   129633944.769                                                  
  26349096.782   138465416.256                                                  
  24578770.417   129162303.222                                                  
  27859846.516   146404517.231                                                  
  24307884.195   127738781.573                                                  
  24951487.841   131120898.394                                                  
 21  9  2  7 18 36.0000000  0 21G 1G 4G 7G 8G 9G14G17G21G27G30C24C25
                                C26C34C35E 2E 3E 8E24E25E36
  22504229.940   118260477.960    22504233.335    92151008.726                  
  24668452.095   129633579.386    24668453.775   101013177.222                  
  20325231.996   106809829.277    20325231.335    83228441.651                  
  21212145.387   111470535.654    21212147.746    86860147.637                  
  22971410.917   120715541.606    22971413.222    94064048.886                  
  23757597.019   124847019.147    23757597.572    97283394.649                  
  23976155.844   125995549.078    23976156.058    98178349.293                  
  21542107.439   113204538.751    21542106.635    88211329.508                  
  23558487.964   123800658.858    23558489.840    96468039.104                  
  22247598.748   116911884.036    22247600.696    91100160.349                  
                 114861278.972                   114861278.972    22057895.572  
                 127106170.319                   127106170.319    24409400.759  
                 122359416.538                   122359416.538    23497839.267  
                 119580949.693                   119580949.693    22964264.755  
                 132709035.442                   132709035.442    25485374.846  
  24668306.319   129632800.698                                                  
  26349549.262   138467794.028                                                  
  24578879.096   129162874.354                                                  
  27860155.722   146406142.141                                                  
  24307960.442   127739182.214                                                  
  24951035.218   131118519.845                                                  
 21  9  2  7 18 37.0000000  0 21G 1G 4G 7G 8G 9G14G17G21G27G30C24C25
                                C26C34C35E 2E 3E 8E24E25E36
  22503608.848   118257214.023    22503612.243    92148465.398                  
  24669112.355   129637049.028    24669114.035   101015880.837                  
  20325010.260   106808664.019    20325009.599    83227533.656                  
  21212588.664   111472865.145    21212591.023    86861962.825                  
  22971961.461   120718434.743    22971963.767    94066303.281                  
  23757179.241   124844823.684    23757179.795    97281683.896                  
  23975558.000   125992407.387    23975558.197    98175901.222                  
  21541879.591   113203341.499    21541878.805    88210396.586                  
  23559145.472   123804114.201    23559147.384    96470731.579                  
  22247073.453   116909123.747    22247075.418    91098009.472                  
                 114861050.172                   114861050.172    22057851.632  
                 127103742.446                   127103742.446    24408934.503  
                 122361304.145                   122361304.145    23498201.758  
                 119578572.333                   119578572.333    22963808.219  
                 132711992.168                   132711992.168    25485942.634  
  24668088.603   129631656.648                                                  
  26350001.759   138470171.929                                                  
  24578987.883   129163445.914                                                  
  27860464.945   146407767.118                                                  
  24308036.707   127739582.933                                                  
  24950582.668   131116141.595                                                  
 21  9  2  7 18 38.0000000  0 21G 1G 4G 7G 8G 9G14G17G21G27G30C24C25
                                C26C34C35E 2E 3E 8E24E25E36
  22502987.774   118253950.335    22502991.187    92145922.265                  
  24669772.580   129640518.570    24669774.260   101018584.378                  
  20324788.594   106807499.255    20324787.951    83226626.052                  
  21213032.013   111475194.986    21213034.371    86863778.285                  
  22972512.042   120721328.106    22972514.365    94068557.848                  
  23756761.463   124842628.265    23756762.017    97279973.179                  
  23974960.192   125989265.931    23974960.406    98173453.332                  
  21541651.886   113202144.802    21541651.082    88209464.095                  
  23559803.016   123807569.628    23559804.928    96473424.122                  
  22246548.246   116906363.698    22246550.194    91095858.785                  
                 114860821.661                   114860821.661    22057807.764  
                 127101314.617                   127101314.617    24408468.282  
                 122363192.004                   122363192.004    23498564.302  
                 119576195.352                   119576195.352    22963351.737  
                 132714949.067                   132714949.067    25486510.476  
  24667870.905   129630512.615                                                  
  26350454.274   138472549.974                                                  
  24579096.723   129164017.879                                                  
  27860774.187   146409392.145                                                  
  24308112.972   127739983.735                                                  
  24950130.135   131113763.620                                                  
 21  9  2  7 18 39.0000000  0 21G 1G 4G 7G 8G 9G14G17G21G27G30C24C25
                                C26C34C35E 2E 3E 8E24E25E36
  22502366.754   118250686.871    22502370.167    92143379.308                  
  24670432.805   129643988.007    24670434.484   101021287.835                  
  20324567.054   106806334.974    20324566.393    83225718.820                  
  21213475.432   111477525.184    21213477.809    86865594.024                  
  22973062.676   120724221.684    22973064.981    94070812.586                  
  23756343.703   124840432.910    23756344.257    97278262.515                  
  23974362.437   125986124.700    23974362.652    98171005.624                  
  21541424.253   113200948.659    21541423.467    88208532.035                  
  23560460.596   123811025.155    23560462.473    96476116.739                  
  22246023.076   116903603.900    22246025.041    91093708.292                  
                 114860593.436                   114860593.436    22057763.949  
                 127098886.837                   127098886.837    24408002.043  
                 122365080.124                   122365080.124    23498926.900  
                 119573818.746                   119573818.746    22962895.345  
                 132717906.140                   132717906.140    25487078.353  
  24667653.207   129629368.591                                                  
  26350906.843   138474928.136                                                  
  24579205.635   129164590.270                                                  
  27861083.428   146411017.211                                                  
  24308189.255   127740384.601                                                  
  24949677.673   131111385.942                                                  
 21  9  2  7 18 40.0000000  0 21G 1G 4G 7G 8G 9G14G17G21G27G30C24C25
                                C26C34C35E 2E 3E 8E24E25E36
  22501745.806   118247423.644    22501749.183    92140836.536                  
  24671092.993   129647457.346    24671094.655   101023991.219                  
  20324345.586   106805171.186    20324344.942    83224811.973                  
  21213918.924   111479855.726    21213921.300    86867410.031                  
  22973613.345   120727115.458    22973615.633    94073067.472                  
  23755925.943   124838237.602    23755926.515    97276551.886                  
  23973764.736   125982983.720    23973764.933    98168558.105                  
  21541196.744   113199753.065    21541195.958    88207600.406                  
  23561118.177   123814480.782    23561120.089    96478809.430                  
  22245497.959   116900844.338    22245499.907    91091557.987                  
                 114860365.505                   114860365.505    22057720.152  
                 127096459.097                   127096459.097    24407535.823  
                 122366968.501                   122366968.501    23499289.534  
                 119571442.518                   119571442.518    22962439.006  
                 132720863.387                   132720863.387    25487646.285  
  24667435.508   129628224.590                                                  
  26351359.412   138477306.448                                                  
  24579314.636   129165163.074                                                  
  27861392.687   146412642.332                                                  
  24308265.538   127740785.543                                                  
  24949225.283   131109008.552                                                  
 21  9  2  7 18 41.0000000  0 21G 1G 4G 7G 8G 9G14G17G21G27G30C24C25
                                C26C34C35E 2E 3E 8E24E25E36
  22501124.857   118244160.651    22501128.252    92138293.945                  
  24671753.165   129650926.607    24671754.844   101026694.534                  
  20324124.224   106804007.886    20324123.563    83223905.505                  
  21214362.486   111482186.591    21214364.845    86869226.289                  
  22974164.069   120730009.458    22974166.356    94075322.535                  
  23755508.201   124836042.353    23755508.755    97274841.298                  
  23973167.053   125979842.977    23973167.286    98166110.772                  
  21540969.343   113198558.034    21540968.539    88206669.211                  
  23561775.774   123817936.497    23561777.686    96481502.195                  
  22244972.878   116898085.038    22244974.825    91089407.883                  
                 114860137.864                   114860137.864    22057676.444  
                 127094031.402                   127094031.402    24407069.602  
                 122368857.134                   122368857.134    23499652.240  
                 119569066.677                   119569066.677    22961982.738  
                 132723820.809                   132723820.809    25488214.216  
  24667217.828   129627080.601                                                  
  26351812.016   138479684.880                                                  
  24579423.726   129165736.298                                                  
  27861701.946   146414267.517                                                  
  24308341.856   127741186.562                                                  
  24948772.947   131106631.441                                                  
 21  9  2  7 18 42.0000000  0 21G 1G 4G 7G 8G 9G14G17G21G27G30C24C25
                                C26C34C35E 2E 3E 8E24E25E36
  22500503.980   118240897.894    22500507.375    92135751.534                  
  24672413.318   129654395.765    24672414.997   101029397.774                  
  20323902.934   106802845.076    20323902.309    83222999.414                  
  21214806.103   111484517.819    21214808.461    86871042.833                  
  22974714.792   120732903.672    22974717.115    94077577.769                  
  23755090.477   124833847.154    23755091.049    97273130.753                  
  23972569.442   125976702.468    23972569.656    98163663.625                  
  21540742.031   113197363.558    21540741.245    88205738.453                  
  23562433.408   123821392.300    23562435.302    96484195.031                  
  22244447.832   116895325.976    22244449.798    91087257.965                  
                 114859910.511                   114859910.511    22057632.772  
                 127091603.753                   127091603.753    24406603.399  
                 122370746.022                   122370746.022    23500014.981  
                 119566691.208                   119566691.208    22961526.560  
                 132726778.399                   132726778.399    25488782.183  
  24667000.112   129625936.636                                                  
  26352264.639   138482063.456                                                  
  24579532.888   129166309.945                                                  
  27862011.206   146415892.738                                                  
  24308418.175   127741587.672                                                  
  24948320.646   131104254.622                                                  
 21  9  2  7 18 43.0000000  0 21G 1G 4G 7G 8G 9G14G17G21G27G30C24C25
                                C26C34C35E 2E 3E 8E24E25E36
  22499883.139   118237635.374    22499886.534    92133209.313                  
  24673073.453   129657864.826    24673075.133   101032100.941                  
  20323681.751   106801682.746    20323681.108    83222093.708                  
  21215249.773   111486849.376    21215252.131    86872859.629                  
  22975265.605   120735798.088    22975267.892    94079833.161                  
  23754672.735   124831652.007    23754673.325    97271420.254                  
  23971971.884   125973562.215    23971972.080    98161216.675                  
  21540514.845   113196169.640    21540514.040    88204808.124                  
  23563091.042   123824848.203    23563092.918    96486887.942                  
  22243922.858   116892567.157    22243924.806    91085108.233                  
                 114859683.449                   114859683.449    22057589.172  
                 127089176.147                   127089176.147    24406137.196  
                 122372635.169                   122372635.169    23500377.758  
                 119564316.114                   119564316.114    22961070.453  
                 132729736.164                   132729736.164    25489350.203  
  24666782.431   129624792.691                                                  
  26352717.297   138484442.155                                                  
  24579642.122   129166884.005                                                  
  27862320.483   146417518.023                                                  
  24308494.511   127741988.837                                                  
  24947868.399   131101878.086                                                  
 21  9  2  7 18 44.0000000  0 21G 1G 4G 7G 8G 9G14G17G21G27G30C24C25
                                C26C34C35E 2E 3E 8E24E25E36
  22499262.351   118234373.095    22499265.746    92130667.278                  
  24673733.606   129661333.790    24673735.268   101034804.027                  
  20323460.676   106800520.910    20323460.015    83221188.379                  
  21215693.514   111489181.274    21215695.873    86874676.692                  
  22975816.417   120738692.719    22975818.740    94082088.715                  
  23754255.047   124829456.917    23754255.601    97269709.793                  
  23971374.361   125970422.191    23971374.558    98158769.905                  
  21540287.765   113194976.273    21540286.961    88203878.230                  
  23563748.675   123828304.194    23563750.587    96489580.922                  
  22243397.920   116889808.591    22243399.885    91082958.704                  
                 114859456.681                   114859456.681    22057545.643  
                 127086748.591                   127086748.591    24405671.011  
                 122374524.570                   122374524.570    23500740.606  
                 119561941.403                   119561941.403    22960614.417  
                 132732694.101                   132732694.101    25489918.241  
  24666564.769   129623648.761                                                  
  26353169.973   138486820.995                                                  
  24579751.444   129167458.488                                                  
  27862629.777   146419143.353                                                  
  24308570.884   127742390.085                                                  
  24947416.223   131099501.852                                                  
 21  9  2  7 18 45.0000000  0 21G 1G 4G 7G 8G 9G14G17G21G27G30C24C25
                                C26C34C35E 2E 3E 8E24E25E36
  22498641.617   118231111.051    22498644.994    92128125.425                  
  24674393.706   129664802.663    24674395.385   101037507.048                  
  20323239.672   106799359.549    20323239.029    83220283.422                  
  21216137.345   111491513.527    21216139.704    86876494.031                  
  22976367.301   120741587.556    22976369.607    94084344.430                  
  23753837.340   124827261.882    23753837.894    97267999.374                  
  23970776.857   125967282.411    23970777.071    98156323.321                  
  21540060.757   113193783.464    21540059.989    88202948.769                  
  23564406.363   123831760.282    23564408.257    96492273.975                  
  22242873.017   116887050.268    22242874.983    91080809.359                  
                 114859230.200                   114859230.200    22057502.132  
                 127084321.079                   127084321.079    24405204.844  
                 122376414.231                   122376414.231    23501103.508  
                 119559567.071                   119559567.071    22960158.436  
                 132735652.212                   132735652.212    25490486.316  
  24666347.088   129622504.848                                                  
  26353622.684   138489199.964                                                  
  24579860.838   129168033.390                                                  
  27862939.072   146420768.735                                                  
  24308647.256   127742791.409                                                  
  24946964.083   131097125.899                                                  
 21  9  2  7 18 46.0000000  0 21G 1G 4G 7G 8G 9G14G17G21G27G30C24C25
                                C26C34C35E 2E 3E 8E24E25E36
  22498020.919   118227849.253    22498024.296    92125583.762                  
  24675053.788   129668271.439    24675055.467   101040209.988                  
  20323018.757   106798198.688    20323018.114    83219378.854                  
  21216581.211   111493846.128    21216583.588    86878311.646                  
  22976918.203   120744482.600    22976920.508    94086600.309                  
  23753419.634   124825066.903    23753420.206    97266289.003                  
  23970179.442   125964142.868    23970179.638    98153876.921                  
  21539833.892   113192591.218    21539833.106    88202019.746                  
  23565064.032   123835216.461    23565065.944    96494967.106                  
  22242348.186   116884292.192    22242350.134    91078660.211                  
                 114859004.010                   114859004.010    22057458.692  
                 127081893.610                   127081893.610    24404738.659  
                 122378304.149                   122378304.149    23501466.446  
                 119557193.114                   119557193.114    22959702.561  
                 132738610.497                   132738610.497    25491054.425  
  24666129.408   129621360.953                                                  
  26354075.396   138491579.062                                                  
  24579970.322   129168608.707                                                  
  27863248.385   146422394.161                                                  
  24308723.646   127743192.812                                                  
  24946512.015   131094750.232                                                  
 21  9  2  7 18 47.0000000  0 21G 1G 4G 7G 8G 9G14G17G21G27G30C24C25
                                C26C34C35E 2E 3E 8E24E25E36
  22497400.256   118224587.687    22497403.633    92123042.282                  
  24675713.851   129671740.121    24675715.513   101042912.860                  
  20322797.967   106797038.316    20322797.306    83218474.669                  
  21217025.167   111496179.074    21217027.526    86880129.523                  
  22977469.159   120747377.845    22977471.464    94088856.343                  
  23753001.964   124822871.973    23753002.517    97264578.669                  
  23969582.045   125961003.542    23969582.259    98151430.700                  
  21539607.098   113191399.468    21539606.312    88201091.110                  
  23565721.755   123838672.739    23565723.631    96497660.308                  
  22241823.373   116881534.362    22241825.339    91076511.250                  
                 114858778.114                   114858778.114    22057415.324  
                 127079466.185                   127079466.185    24404272.492  
                 122380194.323                   122380194.323    23501829.419  
                 119554819.538                   119554819.538    22959246.740  
                 132741568.948                   132741568.948    25491622.553  
  24665911.745   129620217.079                                                  
  26354528.161   138493958.301                                                  
  24580079.877   129169184.434                                                  
  27863557.698   146424019.658                                                  
  24308800.036   127743594.289                                                  
  24946060.000   131092374.854                                                  
 21  9  2  7 18 48.0000000  0 21G 1G 4G 7G 8G 9G14G17G21G27G30C24C25
                                C26C34C35E 2E 3E 8E24E25E36
  22496779.647   118221326.356    22496783.042    92120500.989                  
  24676373.897   129675208.710    24676375.577   101045615.656                  
  20322577.231   106795878.431    20322576.588    83217570.862                  
  21217469.177   111498512.380    21217471.536    86881947.683                  
  22978020.132   120750273.312    22978022.438    94091112.556                  
  23752584.293   124820677.094    23752584.865    97262868.375                  
  23968984.701   125957864.466    23968984.898    98148984.665                  
  21539380.448   113190208.308    21539379.643    88200162.933                  
  23566379.478   123842129.103    23566381.372    96500353.578                  
  22241298.631   116878776.785    22241300.579    91074362.488                  
                 114858552.503                   114858552.503    22057371.992  
                 127077038.803                   127077038.803    24403806.361  
                 122382084.752                   122382084.752    23502192.464  
                 119552446.340                   119552446.340    22958790.973  
                 132744527.577                   132744527.577    25492190.734  
  24665694.065   129619073.228                                                  
  26354980.944   138496337.669                                                  
  24580189.521   129169760.601                                                  
  27863867.047   146425645.204                                                  
  24308876.444   127743995.845                                                  
  24945608.021   131089999.773                                                  
 21  9  2  7 18 49.0000000  0 21G 1G 4G 7G 8G 9G14G17G21G27G30C24C25
                                C26C34C35E 2E 3E 8E24E25E36
  22496159.074   118218065.259    22496162.469    92117959.870                  
  24677033.943   129678677.193    24677035.605   101048318.367                  
  20322356.620   106794719.030    20322355.959    83216667.433                  
  21217913.258   111500846.035    21217915.617    86883766.118                  
  22978571.177   120753169.017    22978573.482    94093368.942                  
  23752166.640   124818482.276    23752167.194    97261158.126                  
  23968387.393   125954725.630    23968387.608    98146538.816                  
  21539153.886   113189017.697    21539153.082    88199235.184                  
  23567037.219   123845585.572    23567039.113    96503046.929                  
  22240773.943   116876019.454    22240775.873    91072213.919                  
                 114858327.189                   114858327.189    22057328.713  
                 127074611.474                   127074611.474    24403340.212  
                 122383975.441                   122383975.441    23502555.545  
                 119550073.520                   119550073.520    22958335.313  
                 132747486.380                   132747486.380    25492758.934  
  24665476.402   129617929.383                                                  
  26355433.745   138498717.178                                                  
  24580299.237   129170337.164                                                  
  27864176.377   146427270.789                                                  
  24308952.888   127744397.477                                                  
  24945156.113   131087624.965                                                  
 21  9  2  7 18 50.0000000  0 21G 1G 4G 7G 8G 9G14G17G21G27G30C24C25
                                C26C34C35E 2E 3E 8E24E25E36
  22495538.554   118214804.403    22495541.931    92115418.946                  
  24677693.936   129682145.582    24677695.615   101051021.008                  
  20322136.081   106793560.114    20322135.420    83215764.384                  
  21218357.392   111503180.025    21218359.751    86885584.809                  
  22979122.240   120756064.903    22979124.545    94095625.480                  
  23751748.988   124816287.508    23751749.542    97259447.919                  
  23967790.139   125951587.032    23967790.336    98144093.155                  
  21538927.396   113187827.628    21538926.628    88198307.860                  
  23567694.978   123849042.126    23567696.872    96505740.347                  
  22240249.273   116873262.366    22240251.221    91070065.544                  
                 114858102.159                   114858102.159    22057285.523  
                 127072184.183                   127072184.183    24402874.081  
                 122385866.388                   122385866.388    23502918.679  
                 119547701.078                   119547701.078    22957879.706  
                 132750445.352                   132750445.352    25493327.186  
  24665258.740   129616785.555                                                  
  26355886.564   138501096.802                                                  
  24580409.042   129170914.153                                                  
  27864485.726   146428896.429                                                  
  24309029.313   127744799.176                                                  
  24944704.259   131085250.445                                                  
 21  9  2  7 18 51.0000000  0 21G 1G 4G 7G 8G 9G14G17G21G27G30C24C25
                                C26C34C35E 2E 3E 8E24E25E36
  22494918.088   118211543.788    22494921.483    92112878.207                  
  24678353.946   129685613.874    24678355.626   101053723.573                  
  20321915.649   106792401.688    20321914.988    83214861.712                  
  21218801.598   111505514.346    21218803.957    86887403.761                  
  22979673.357   120758961.004    22979675.662    94097882.180                  
  23751331.335   124814092.784    23751331.907    97257737.742                  
  23967192.921   125948448.683    23967193.135    98141647.691                  
  21538701.067   113186638.120    21538700.263    88197380.973                  
  23568352.754   123852498.774    23568354.666    96508433.840                  
  22239724.656   116870505.522    22239726.622    91067917.351                  
                 114857877.394                   114857877.394    22057242.334  
                 127069756.964                   127069756.964    24402407.967  
                 122387757.617                   122387757.617    23503281.885  
                 119545329.028                   119545329.028    22957424.171  
                 132753404.521                   132753404.521    25493895.457  
  24665041.077   129615641.740                                                  
  26356339.419   138503476.569                                                  
  24580518.901   129171491.556                                                  
  27864795.074   146430522.125                                                  
  24309105.775   127745200.958                                                  
  24944252.459   131082876.215                                                  
 21  9  2  7 18 52.0000000  0 21G 1G 4G 7G 8G 9G14G17G21G27G30C24C25
                                C26C34C35E 2E 3E 8E24E25E36
  22494297.658   118208283.407    22494301.035    92110337.653                  
  24679013.920   129689082.075    24679015.600   101056426.066                  
  20321695.288   106791243.743    20321694.645    83213959.415                  
  21219245.876   111507849.017    21219248.235    86889222.985                  
  22980224.509   120761857.314    22980226.796    94100139.044                  
  23750913.700   124811898.125    23750914.272    97256027.621                  
  23966595.756   125945310.567    23966595.988    98139202.406                  
  21538474.792   113185449.178    21538474.006    88196454.523                  
  23569010.567   123855955.508    23569012.461    96511127.398                  
  22239200.093   116867748.934    22239202.059    91065769.360                  
                 114857652.949                   114857652.949    22057199.234  
                 127067329.765                   127067329.765    24401941.836  
                 122389649.079                   122389649.079    23503645.109  
                 119542957.345                   119542957.345    22956968.726  
                 132756363.836                   132756363.836    25494463.764  
  24664823.414   129614497.953                                                  
  26356792.292   138505856.462                                                  
  24580628.867   129172069.384                                                  
  27865104.458   146432147.871                                                  
  24309182.237   127745602.816                                                  
  24943800.712   131080502.273                                                  
 21  9  2  7 18 53.0000000  0 21G 1G 4G 7G 8G 9G14G17G21G27G30C24C25
                                C26C34C35E 2E 3E 8E24E25E36
  22493677.263   118205023.264    22493680.658    92107797.282                  
  24679673.877   129692550.179    24679675.557   101059128.484                  
  20321475.016   106790086.290    20321474.373    83213057.504                  
  21219690.207   111510184.010    21219692.584    86891042.460                  
  22980775.697   120764753.840    22980778.002    94102396.073                  
  23750496.083   124809703.516    23750496.637    97254317.535                  
  23965998.644   125942172.702    23965998.859    98136757.321                  
  21538248.659   113184260.800    21538247.855    88195528.511                  
  23569668.361   123859412.341    23569670.255    96513821.034                  
  22238675.584   116864992.589    22238677.532    91063621.559                  
                 114857428.792                   114857428.792    22057156.205  
                 127064902.614                   127064902.614    24401475.722  
                 122391540.794                   122391540.794    23504008.404  
                 119540586.042                   119540586.042    22956513.334  
                 132759323.325                   132759323.325    25495032.106  
  24664605.752   129613354.179                                                  
  26357245.200   138508236.497                                                  
  24580738.904   129172647.631                                                  
  27865413.843   146433773.667                                                  
  24309258.734   127746004.747                                                  
  24943349.019   131078128.630                                                  
 21  9  2  7 18 54.0000000  0 21G 1G 4G 7G 8G 9G14G17G21G27G30C24C25
                                C26C34C35E 2E 3E 8E24E25E36
  22493056.922   118201763.427    22493060.317    92105257.171                  
  24680333.834   129696018.219    24680335.513   101061830.832                  
  20321254.852   106788929.422    20321254.173    83212156.098                  
  21220134.592   111512519.465    21220136.933    86892862.343                  
  22981326.938   120767650.543    22981329.261    94104653.223                  
  23750078.448   124807509.235    23750078.985    97252607.825                  
  23965401.640   125939034.823    23965401.908    98134312.067                  
  21538022.616   113183073.082    21538021.794    88194603.069                  
  23570326.227   123862869.265    23570328.121    96516514.730                  
  22238151.128   116862236.508    22238153.076    91061473.966                  
                 114857204.899                   114857204.899    22057113.212  
                 127062475.523                   127062475.523    24401009.645  
                 122393432.782                   122393432.782    23504371.735  
                 119538215.153                   119538215.153    22956058.013  
                 132762283.047                   132762283.047    25495600.484  
  24664388.107   129612210.513                                                  
  26357698.144   138510616.645                                                  
  24580849.013   129173226.316                                                  
  27865723.281   146435399.355                                                  
  24309335.213   127746406.896                                                  
  24942897.362   131075755.456                                                  
 21  9  2  7 18 55.0000000  0 21G 1G 4G 7G 8G 9G14G17G21G27G30C24C25
                                C26C34C35E 2E 3E 8E24E25E36
  22492436.635   118198503.759    22492440.012    92102717.168                  
  24680993.755   129699486.129    24680995.434   101064533.100                  
  20321034.777   106787772.944    20321034.116    83211254.945                  
  21220579.066   111514855.142    21220581.425    86894682.351                  
  22981878.215   120770547.483    22981880.520    94106910.577                  
  23749660.831   124805314.731    23749661.385    97250897.820                  
  23964804.618   125935897.434    23964804.869    98131867.351                  
  21537796.680   113181885.819    21537795.876    88193677.929                  
  23570984.057   123866326.277    23570985.951    96519208.503                  
  22237626.708   116859480.656    22237628.656    91059326.546                  
                 114856981.321                   114856981.321    22057070.273  
                 127060048.458                   127060048.458    24400543.531  
                 122395325.008                   122395325.008    23504735.119  
                 119535844.601                   119535844.601    22955602.782  
                 132765242.876                   132765242.876    25496168.879  
  24664170.463   129611066.764                                                  
  26358151.106   138512996.935                                                  
  24580959.211   129173805.392                                                  
  27866032.683   146437025.262                                                  
  24309411.728   127746808.977                                                  
  24942445.776   131073382.388                                                  
 21  9  2  7 18 56.0000000  0 21G 1G 4G 7G 8G 9G14G17G21G27G30C24C25
                                C26C34C35E 2E 3E 8E24E25E36
  22491816.383   118195244.324    22491819.778    92100177.351                  
  24681653.658   129702953.937    24681655.337   101067235.288                  
  20320814.792   106786616.948    20320814.148    83210354.173                  
  21221023.594   111517191.159    21221025.934    86896502.624                  
  22982429.528   120773444.632    22982431.833    94109168.093                  
  23749243.268   124803120.274    23749243.786    97249187.856                  
  23964207.632   125932760.280    23964207.882    98129422.817                  
  21537570.852   113180699.113    21537570.065    88192753.224                  
  23571641.923   123869783.374    23571643.817    96521902.347                  
  22237102.341   116856725.047    22237104.271    91057179.321                  
                 114856758.036                   114856758.036    22057027.405  
                 127057621.437                   127057621.437    24400077.453  
                 122397217.488                   122397217.488    23505098.539  
                 119533474.430                   119533474.430    22955147.622  
                 132768202.871                   132768202.871    25496737.329  
  24663952.818   129609923.040                                                  
  26358604.085   138515377.351                                                  
  24581069.499   129174384.884                                                  
  27866342.085   146438651.214                                                  
  24309488.261   127747211.129                                                  
  24941994.261   131071009.599                                                  
 21  9  2  7 18 57.0000000  0 21G 1G 4G 7G 8G 9G14G17G21G27G30C24C25
                                C26C34C35E 2E 3E 8E24E25E36
  22491196.185   118191985.129    22491199.562    92097637.718                  
  24682313.561   129706421.663    24682315.240   101069937.410                  
  20320594.913   106785461.441    20320594.252    83209453.778                  
  21221468.193   111519527.520    21221470.534    86898323.163                  
  22982980.877   120776341.995    22982983.200    94111425.776                  
  23748825.687   124800925.879    23748826.223    97247477.937                  
  23963610.700   125929623.363    23963610.968    98126978.464                  
  21537345.166   113179512.974    21537344.344    88191828.957                  
  23572299.807   123873240.559    23572301.701    96524596.258                  
  22236577.993   116853969.682    22236579.958    91055032.281                  
                 114856535.039                   114856535.039    22056984.573  
                 127055194.466                   127055194.466    24399611.376  
                 122399110.226                   122399110.226    23505462.049  
                 119531104.637                   119531104.637    22954692.534  
                 132771163.044                   132771163.044    25497305.796  
  24663735.173   129608779.333                                                  
  26359057.101   138517757.901                                                  
  24581179.858   129174964.789                                                  
  27866651.505   146440277.212                                                  
  24309564.794   127747613.356                                                  
  24941542.782   131068637.106                                                  
 21  9  2  7 18 58.0000000  0 21G 1G 4G 7G 8G 9G14G17G21G27G30C24C25
                                C26C34C35E 2E 3E 8E24E25E36
  22490576.023   118188726.165    22490579.400    92095098.266                  
  24682973.428   129709889.280    24682975.108   101072639.454                  
  20320375.142   106784306.422    20320374.463    83208553.763                  
  21221912.863   111521864.221    21221915.204    86900143.972                  
  22983532.279   120779239.566    22983534.584    94113683.624                  
  23748408.106   124798731.540    23748408.642    97245768.062                  
  23963013.821   125926486.699    23963014.053    98124534.313                  
  21537119.534   113178327.395    21537118.747    88190905.129                  
  23572957.727   123876697.853    23572959.621    96527290.251                  
  22236053.716   116851214.579    22236055.681    91052885.445                  
                 114856312.339                   114856312.339    22056941.813  
                 127052767.538                   127052767.538    24399145.316  
                 122401003.226                   122401003.226    23505825.558  
                 119528735.227                   119528735.227    22954237.517  
                 132774123.391                   132774123.391    25497874.299  
  24663517.546   129607635.649                                                  
  26359510.116   138520138.599                                                  
  24581290.289   129175545.120                                                  
  27866960.943   146441903.266                                                  
  24309641.363   127748015.669                                                  
  24941091.375   131066264.895                                                  
 21  9  2  7 18 59.0000000  0 21G 1G 4G 7G 8G 9G14G17G21G27G30C24C25
                                C26C34C35E 2E 3E 8E24E25E36
  22489955.914   118185467.446    22489959.291    92092559.007                  
  24683633.277   129713356.809    24683634.957   101075341.422                  
  20320155.443   106783151.890    20320154.764    83207654.125                  
  21222357.588   111524201.266    21222359.946    86901965.048                  
  22984083.699   120782137.351    22984086.022    94115941.641                  
  23747990.560   124796537.241    23747991.079    97244058.220                  
  23962416.978   125923350.267    23962417.228    98122090.335                  
  21536894.044   113177142.371    21536893.240    88189981.734                  
  23573615.646   123880155.235    23573617.540    96529984.317                  
  22235529.492   116848459.710    22235531.458    91050738.796                  
                 114856089.929                   114856089.929    22056899.106  
                 127050340.659                   127050340.659    24398679.256  
                 122402896.485                   122402896.485    23506189.139  
                 119526366.199                   119526366.199    22953782.554  
                 132777083.910                   132777083.910    25498442.838  
  24663299.919   129606491.968                                                  
  26359963.185   138522519.405                                                  
  24581400.809   129176125.868                                                  
  27867270.381   146443529.376                                                  
  24309717.932   127748418.050                                                  
  24940640.022   131063892.978                                                  
 21  9  2  7 19  0.0000000  0 21G 1G 4G 7G 8G 9G14G17G21G27G30C24C25
                                C26C34C35E 2E 3E 8E24E25E36
  22489335.841   118182208.970    22489339.236    92090019.934                  
  24684293.109   129716824.236    24684294.788   101078043.313                  
  20319935.815   106781997.850    20319935.153    83206754.871                  
  21222802.365   111526538.648    21222804.724    86903786.382                  
  22984635.173   120785035.322    22984637.478    94118199.797                  
  23747572.997   124794343.010    23747573.533    97242348.429                  
  23961820.188   125920214.087    23961820.438    98119646.563                  
  21536668.645   113175957.878    21536667.840    88189058.757                  
  23574273.566   123883612.707    23574275.460    96532678.449                  
  22235005.322   116845705.099    22235007.252    91048592.344                  
                 114855867.813                   114855867.813    22056856.453  
                 127047913.827                   127047913.827    24398213.214  
                 122404790.000                   122404790.000    23506552.774  
                 119523997.546                   119523997.546    22953327.698  
                 132780044.603                   132780044.603    25499011.394  
  24663082.275   129605348.320                                                  
  26360416.254   138524900.352                                                  
  24581511.400   129176707.030                                                  
  27867579.818   146445155.536                                                  
  24309794.519   127748820.512                                                  
  24940188.704   131061521.350                                                  
 21  9  2  7 19  1.0000000  0 21G 1G 4G 7G 8G 9G14G17G21G27G30C24C25
                                C26C34C35E 2E 3E 8E24E25E36
  22488715.822   118178950.725    22488719.217    92087481.043                  
  24684952.922   129720291.562    24684954.602   101080745.124                  
  20319716.311   106780844.298    20319715.668    83205855.999                  
  21223247.215   111528876.365    21223249.573    86905607.982                  
  22985186.683   120787933.521    22985189.006    94120458.132                  
  23747155.452   124792148.824    23747156.005    97240638.676                  
  23961223.434   125917078.142    23961223.684    98117202.969                  
  21536443.352   113174773.954    21536442.548    88188136.219                  
  23574931.521   123887070.274    23574933.415    96535372.657                  
  22234481.188   116842950.732    22234483.136    91046446.086                  
                 114855645.988                   114855645.988    22056813.853  
                 127045487.042                   127045487.042    24397747.172  
                 122406683.771                   122406683.771    23506916.462  
                 119521629.276                   119521629.276    22952872.878  
                 132783005.461                   132783005.461    25499580.004  
  24662864.666   129604204.689                                                  
  26360869.377   138527281.434                                                  
  24581622.063   129177288.617                                                  
  27867889.274   146446781.751                                                  
  24309871.123   127749223.051                                                  
  24939737.457   131059150.011                                                  
 21  9  2  7 19  2.0000000  0 21G 1G 4G 7G 8G 9G14G17G21G27G30C24C25
                                C26C34C35E 2E 3E 8E24E25E36
  22488095.856   118175692.731    22488099.233    92084942.348                  
  24685612.700   129723758.789    24685614.398   101083446.859                  
  20319496.898   106779691.236    20319496.237    83204957.507                  
  21223692.136   111531214.433    21223694.494    86907429.851                  
  22985738.246   120790831.952    22985740.569    94122716.652                  
  23746737.942   124789954.695    23746738.478    97238928.965                  
  23960626.734   125913942.446    23960626.984    98114759.565                  
  21536218.167   113173590.585    21536217.362    88187214.113                  
  23575589.494   123890527.923    23575591.406    96538066.929                  
  22233957.072   116840196.617    22233959.037    91044300.022                  
                 114855424.453                   114855424.453    22056771.307  
                 127043060.300                   127043060.300    24397281.148  
                 122408577.797                   122408577.797    23507280.186  
                 119519261.388                   119519261.388    22952418.165  
                 132785966.495                   132785966.495    25500148.632  
  24662647.039   129603061.076                                                  
  26361322.500   138529662.645                                                  
  24581732.815   129177870.618                                                  
  27868198.766   146448408.017                                                  
  24309947.745   127749625.660                                                  
  24939286.264   131056778.956                                                  
 21  9  2  7 19  3.0000000  0 21G 1G 4G 7G 8G 9G14G17G21G27G30C24C25
                                C26C34C35E 2E 3E 8E24E25E36
  22487475.926   118172434.968    22487479.303    92082403.831                  
  24686272.478   129727225.931    24686274.176   101086148.530                  
  20319277.573   106778538.661    20319276.894    83204059.399                  
  21224137.146   111533552.831    21224139.487    86909251.981                  
  22986289.827   120793730.559    22986292.132    94124975.305                  
  23746320.414   124787760.626    23746320.968    97237219.301                  
  23960030.087   125910806.985    23960030.319    98112316.351                  
  21535993.088   113172407.782    21535992.284    88186292.446                  
  23576247.485   123893985.669    23576249.379    96540761.274                  
  22233433.045   116837442.743    22233434.993    91042154.144                  
                 114855203.207                   114855203.207    22056728.814  
                 127040633.604                   127040633.604    24396815.124  
                 122410472.082                   122410472.082    23507643.964  
                 119516893.874                   119516893.874    22951963.505  
                 132788927.700                   132788927.700    25500717.314  
  24662429.412   129601917.468                                                  
  26361775.658   138532043.988                                                  
  24581843.657   129178453.036                                                  
  27868508.239   146450034.323                                                  
  24310024.368   127750028.343                                                  
  24938835.125   131054408.195                                                  
 21  9  2  7 19  4.0000000  0 21G 1G 4G 7G 8G 9G14G17G21G27G30C24C25
                                C26C34C35E 2E 3E 8E24E25E36
  22486856.031   118169177.442    22486859.427    92079865.495                  
  24686932.238   129730692.976    24686933.918   101088850.126                  
  20319058.338   106777386.573    20319057.677    83203161.668                  
  21224582.174   111535891.574    21224584.532    86911074.374                  
  22986841.462   120796629.363    22986843.767    94127234.110                  
  23745902.922   124785566.606    23745903.441    97235509.673                  
  23959433.458   125907671.758    23959433.726    98109873.320                  
  21535768.117   113171225.528    21535767.295    88185371.212                  
  23576905.494   123897443.511    23576907.406    96543455.696                  
  22232909.054   116834689.124    22232911.001    91040008.469                  
                 114854982.257                   114854982.257    22056686.375  
                 127038206.958                   127038206.958    24396349.117  
                 122412366.626                   122412366.626    23508007.777  
                 119514526.742                   119514526.742    22951508.917  
                 132791889.073                   132791889.073    25501286.014  
  24662211.821   129600773.887                                                  
  26362228.835   138534425.460                                                  
  24581954.552   129179035.867                                                  
  27868817.713   146451660.703                                                  
  24310101.026   127750431.102                                                  
  24938384.040   131052037.718                                                  
 21  9  2  7 19  5.0000000  0 21G 1G 4G 7G 8G 9G14G17G21G27G30C24C25
                                C26C34C35E 2E 3E 8E24E25E36
  22486236.209   118165920.163    22486239.586    92077327.356                  
  24687591.981   129734159.918    24687593.660   101091551.628                  
  20318839.193   106776234.969    20318838.531    83202264.308                  
  21225027.291   111538230.664    21225029.632    86912897.035                  
  22987393.114   120799528.401    22987395.437    94129493.097                  
  23745485.413   124783372.634    23745485.967    97233800.079                  
  23958836.901   125904536.793    23958837.133    98107430.485                  
  21535543.236   113170043.844    21535542.432    88184450.409                  
  23577563.521   123900901.439    23577565.415    96546150.179                  
  22232385.098   116831935.757    22232387.064    91037862.984                  
                 114854761.595                   114854761.595    22056644.026  
                 127035780.356                   127035780.356    24395883.111  
                 122414261.420                   122414261.420    23508371.662  
                 119512159.987                   119512159.987    22951054.401  
                 132794850.621                   132794850.621    25501854.749  
  24661994.194   129599630.321                                                  
  26362682.047   138536807.055                                                  
  24582065.554   129179619.112                                                  
  27869127.222   146453287.118                                                  
  24310177.684   127750833.943                                                  
  24937933.025   131049667.532                                                  
 21  9  2  7 19  6.0000000  0 21G 1G 4G 7G 8G 9G14G17G21G27G30C24C25
                                C26C34C35E 2E 3E 8E24E25E36
  22485616.404   118162663.128    22485619.781    92074789.402                  
  24688251.705   129737626.778    24688253.385   101094253.075                  
  20318620.136   106775083.867    20318619.475    83201367.343                  
  21225472.480   111540570.098    21225474.821    86914719.970                  
  22987944.838   120802427.660    22987947.143    94131752.255                  
  23745067.939   124781178.734    23745068.457    97232090.547                  
  23958240.379   125901402.060    23958240.612    98104987.829                  
  21535318.479   113168862.713    21535317.675    88183530.050                  
  23578221.565   123904359.469    23578223.460    96548844.745                  
  22231861.196   116829182.634    22231863.162    91035717.687                  
                 114854541.227                   114854541.227    22056601.694  
                 127033353.798                   127033353.798    24395417.123  
                 122416156.476                   122416156.476    23508735.582  
                 119509793.613                   119509793.613    22950599.974  
                 132797812.341                   132797812.341    25502423.520  
  24661776.585   129598486.755                                                  
  26363135.277   138539188.800                                                  
  24582176.646   129180202.800                                                  
  27869436.732   146454913.577                                                  
  24310254.342   127751236.866                                                  
  24937482.047   131047297.633                                                  
 21  9  2  7 19  7.0000000  0 21G 1G 4G 7G 8G 9G14G17G21G27G30C24C25
                                C26C34C35E 2E 3E 8E24E25E36
  22484996.652   118159406.348    22485000.048    92072251.644                  
  24688911.394   129741093.536    24688913.109   101096954.442                  
  20318401.205   106773933.249    20318400.544    83200470.753                  
  21225917.722   111542909.874    21225920.081    86916543.168                  
  22988496.580   120805327.112    22988498.903    94134011.566                  
  23744650.465   124778984.891    23744651.001    97230381.050                  
  23957643.893   125898267.555    23957644.161    98102545.360                  
  21535093.848   113167682.164    21535093.026    88182610.137                  
  23578879.628   123907817.587    23578881.522    96551539.379                  
  22231337.348   116826429.758    22231339.296    91033572.591                  
                 114854321.143                   114854321.143    22056559.434  
                 127030927.288                   127030927.288    24394951.117  
                 122418051.788                   122418051.788    23509099.557  
                 119507427.621                   119507427.621    22950145.600  
                 132800774.232                   132800774.232    25502992.327  
  24661558.976   129597343.206                                                  
  26363588.542   138541570.683                                                  
  24582287.773   129180786.914                                                  
  27869746.259   146456540.098                                                  
  24310331.036   127751639.868                                                  
  24937031.122   131044928.007                                                  
 21  9  2  7 19  8.0000000  0 21G 1G 4G 7G 8G 9G14G17G21G27G30C24C25
                                C26C34C35E 2E 3E 8E24E25E36
  22484376.955   118156149.771    22484380.332    92069714.051                  
  24689571.082   129744560.173    24689572.780   101099655.711                  
  20318182.327   106772783.104    20318181.666    83199574.531                  
  21226363.018   111545249.991    21226365.377    86918366.633                  
  22989048.375   120808226.808    22989050.698    94136271.062                  
  23744232.973   124776791.074    23744233.527    97228671.582                  
  23957047.479   125895133.324    23957047.747    98100103.093                  
  21534869.288   113166502.173    21534868.483    88181690.656                  
  23579537.673   123911275.794    23579539.602    96554234.082                  
  22230813.535   116823677.151    22230815.501    91031427.695                  
                 114854101.359                   114854101.359    22056517.227  
                 127028500.826                   127028500.826    24394485.164  
                 122419947.358                   122419947.358    23509463.584  
                 119505062.009                   119505062.009    22949691.316  
                 132803736.288                   132803736.288    25503561.133  
  24661341.385   129596199.751                                                  
  26364041.826   138543952.657                                                  
  24582399.008   129181371.386                                                  
  27870055.786   146458166.695                                                  
  24310407.748   127752042.927                                                  
  24936580.269   131042558.722                                                  
 21  9  2  7 19  9.0000000  0 21G 1G 4G 7G 8G 9G14G17G21G27G30C24C25
                                C26C34C35E 2E 3E 8E24E25E36
  22483757.293   118152893.457    22483760.688    92067176.660                  
  24690230.753   129748026.742    24690232.433   101102356.930                  
  20317963.557   106771633.458    20317962.896    83198678.698                  
  21226808.404   111547590.425    21226810.763    86920190.339                  
  22989600.206   120811126.668    22989602.511    94138530.691                  
  23743815.535   124774597.327    23743816.053    97226962.164                  
  23956451.100   125891999.315    23956451.333    98097661.008                  
  21534644.835   113165322.739    21534644.049    88180771.612                  
  23580195.789   123914734.103    23580197.683    96556928.860                  
  22230289.776   116820924.774    22230291.742    91029282.981                  
                 114853881.863                   114853881.863    22056475.074  
                 127026074.406                   127026074.406    24394019.176  
                 122421843.188                   122421843.188    23509827.666  
                 119502696.772                   119502696.772    22949237.103  
                 132806698.520                   132806698.520    25504130.012  
  24661123.776   129595056.252                                                  
  26364495.127   138546334.801                                                  
  24582510.314   129181956.315                                                  
  27870365.313   146459793.322                                                  
  24310484.459   127752446.079                                                  
  24936129.433   131040189.700                                                  
 21  9  2  7 19 10.0000000  0 21G 1G 4G 7G 8G 9G14G17G21G27G30C24C25
                                C26C34C35E 2E 3E 8E24E25E36
  22483137.684   118149637.379    22483141.079    92064639.449                  
  24690890.406   129751493.200    24690892.085   101105058.063                  
  20317744.876   106770484.301    20317744.215    83197783.249                  
  21227253.843   111549931.214    21227256.202    86922014.333                  
  22990152.055   120814026.754    22990154.378    94140790.492                  
  23743398.078   124772403.642    23743398.615    97225252.792                  
  23955854.758   125888865.553    23955855.026    98095219.114                  
  21534420.525   113164143.859    21534419.721    88179853.005                  
  23580853.905   123918192.485    23580855.799    96559623.703                  
  22229766.071   116818172.657    22229768.037    91027138.468                  
                 114853662.661                   114853662.661    22056432.975  
                 127023648.031                   127023648.031    24393553.223  
                 122423739.270                   122423739.270    23510191.783  
                 119500331.919                   119500331.919    22948782.962  
                 132809660.917                   132809660.917    25504698.908  
  24660906.203   129593912.786                                                  
  26364948.464   138548717.063                                                  
  24582621.692   129182541.664                                                  
  27870674.876   146461420.016                                                  
  24310561.171   127752849.307                                                  
  24935678.687   131037820.970                                                  
 21  9  2  7 19 11.0000000  0 21G 1G 4G 7G 8G 9G14G17G21G27G30C24C25
                                C26C34C35E 2E 3E 8E24E25E36
  22482518.112   118146381.538    22482521.507    92062102.430                  
  24691550.023   129754959.561    24691551.720   101107759.122                  
  20317526.302   106769335.638    20317525.641    83196888.187                  
  21227699.335   111552272.364    21227701.694    86923838.598                  
  22990703.976   120816927.054    22990706.299    94143050.466                  
  23742980.640   124770210.001    23742981.176    97223543.462                  
  23955258.486   125885732.026    23955258.718    98092777.402                  
  21534196.304   113162965.552    21534195.482    88178934.839                  
  23581512.021   123921650.965    23581513.915    96562318.622                  
  22229242.402   116815420.781    22229244.367    91024994.151                  
                 114853443.746                   114853443.746    22056390.947  
                 127021221.708                   127021221.708    24393087.288  
                 122425635.608                   122425635.608    23510555.953  
                 119497967.445                   119497967.445    22948328.875  
                 132812623.491                   132812623.491    25505267.839  
  24660688.594   129592769.331                                                  
  26365401.801   138551099.465                                                  
  24582733.177   129183127.427                                                  
  27870984.439   146463046.753                                                  
  24310637.936   127753252.609                                                  
  24935227.995   131035452.532                                                  
 21  9  2  7 19 12.0000000  0 21G 1G 4G 7G 8G 9G14G17G21G27G30C24C25
                                C26C34C35E 2E 3E 8E24E25E36
  22481898.593   118143125.946    22481901.988    92059565.605                  
  24692209.640   129758425.823    24692211.320   101110460.105                  
  20317307.799   106768187.456    20317307.138    83195993.500                  
  21228144.917   111554613.872    21228147.276    86925663.152                  
  22991255.914   120819827.565    22991258.237    94145310.605                  
  23742563.220   124768016.413    23742563.756    97221834.177                  
  23954662.215   125882598.742    23954662.483    98090335.880                  
  21533972.173   113161787.796    21533971.351    88178017.110                  
  23582170.155   123925109.535    23582172.085    96565013.610                  
  22228718.786   116812669.155    22228720.751    91022850.027                  
                 114853225.126                   114853225.126    22056348.954  
                 127018795.425                   127018795.425    24392621.335  
                 122427532.208                   122427532.208    23510920.178  
                 119495603.351                   119495603.351    22947874.876  
                 132815586.234                   132815586.234    25505836.807  
  24660471.021   129591625.900                                                  
  26365855.174   138553481.988                                                  
  24582844.715   129183713.607                                                  
  27871294.002   146464673.550                                                  
  24310714.702   127753655.987                                                  
  24934777.338   131033084.383                                                  
 21  9  2  7 19 13.0000000  0 21G 1G 4G 7G 8G 9G14G17G21G27G30C24C25
                                C26C34C35E 2E 3E 8E24E25E36
  22481279.127   118139870.586    22481282.522    92057028.961                  
  24692869.221   129761891.993    24692870.919   101113161.017                  
  20317089.404   106767039.766    20317088.743    83195099.192                  
  21228590.553   111556955.711    21228592.912    86927487.960                  
  22991807.924   120822728.274    22991810.247    94147570.894                  
  23742145.799   124765822.880    23742146.336    97220124.926                  
  23954066.015   125879465.699    23954066.283    98087894.547                  
  21533748.167   113160610.610    21533747.363    88177099.819                  
  23582828.325   123928568.196    23582830.237    96567708.668                  
  22228195.223   116809917.784    22228197.189    91020706.101                  
                 114853006.795                   114853006.795    22056307.016  
                 127016369.192                   127016369.192    24392155.401  
                 122429429.058                   122429429.058    23511284.438  
                 119493239.638                   119493239.638    22947420.967  
                 132818549.146                   132818549.146    25506405.792  
  24660253.412   129590482.477                                                  
  26366308.601   138555864.640                                                  
  24582956.343   129184300.200                                                  
  27871603.583   146466300.388                                                  
  24310791.485   127754059.444                                                  
  24934326.753   131030716.523                                                  
 21  9  2  7 19 14.0000000  0 21G 1G 4G 7G 8G 9G14G17G21G27G30C24C25
                                C26C34C35E 2E 3E 8E24E25E36
  22480659.698   118136615.467    22480663.075    92054492.507                  
  24693528.803   129765358.055    24693530.482   101115861.844                  
  20316871.098   106765892.570    20316870.437    83194205.273                  
  21229036.260   111559297.879    21229038.619    86929313.028                  
  22992359.934   120825629.199    22992362.257    94149831.356                  
  23741728.397   124763629.398    23741728.933    97218415.723                  
  23953469.886   125876332.894    23953470.119    98085453.407                  
  21533524.268   113159433.984    21533523.464    88176182.973                  
  23583486.494   123932026.954    23583488.424    96570403.804                  
  22227671.697   116807166.659    22227673.662    91018562.368                  
                 114852788.762                   114852788.762    22056265.167  
                 127013943.003                   127013943.003    24391689.484  
                 122431326.172                   122431326.172    23511648.751  
                 119490876.300                   119490876.300    22946967.094  
                 132821512.226                   132821512.226    25506974.814  
  24660035.839   129589339.078                                                  
  26366762.027   138558247.432                                                  
  24583068.042   129184887.219                                                  
  27871913.164   146467927.281                                                  
  24310868.268   127754462.972                                                  
  24933876.221   131028348.958                                                  
 21  9  2  7 19 15.0000000  0 21G 1G 4G 7G 8G 9G14G17G21G27G30C24C25
                                C26C34C35E 2E 3E 8E24E25E36
  22480040.322   118133360.589    22480043.699    92051956.238                  
  24694188.348   129768824.023    24694190.046   101118562.599                  
  20316652.900   106764745.864    20316652.239    83193311.738                  
  21229482.021   111561640.388    21229484.379    86931138.360                  
  22992912.015   120828530.344    22992914.338    94152091.988                  
  23741310.994   124761435.977    23741311.548    97216706.562                  
  23952873.758   125873200.329    23952874.026    98083012.441                  
  21533300.459   113158257.910    21533299.655    88175266.551                  
  23584144.700   123935485.794    23584146.594    96573099.009                  
  22227148.223   116804415.790    22227150.171    91016418.831                  
                 114852571.016                   114852571.016    22056223.335  
                 127011516.863                   127011516.863    24391223.567  
                 122433223.540                   122433223.540    23512013.136  
                 119488513.348                   119488513.348    22946513.328  
                 132824475.481                   132824475.481    25507543.906  
  24659818.265   129588195.700                                                  
  26367215.471   138560630.354                                                  
  24583179.849   129185474.651                                                  
  27872222.762   146469554.233                                                  
  24310945.051   127754866.582                                                  
  24933425.743   131025981.676                                                  
 21  9  2  7 19 16.0000000  0 21G 1G 4G 7G 8G 9G14G17G21G27G30C24C25
                                C26C34C35E 2E 3E 8E24E25E36
  22479420.981   118130105.960    22479424.358    92049420.164                  
  24694847.876   129772289.894    24694849.556   101121263.277                  
  20316434.773   106763599.645    20316434.111    83192418.578                  
  21229927.835   111563983.234    21229930.194    86932963.954                  
  22993464.115   120831431.672    22993466.438    94154352.761                  
  23740893.628   124759242.603    23740894.164    97214997.437                  
  23952277.701   125870068.008    23952277.969    98080571.676                  
  21533076.757   113157082.400    21533075.952    88174350.567                  
  23584802.923   123938944.731    23584804.817    96575794.282                  
  22226624.804   116801665.161    22226626.752    91014275.484                  
                 114852353.559                   114852353.559    22056181.575  
                 127009090.770                   127009090.770    24390757.668  
                 122435121.163                   122435121.163    23512377.557  
                 119486150.772                   119486150.772    22946059.616  
                 132827438.907                   132827438.907    25508112.981  
  24659600.692   129587052.336                                                  
  26367668.951   138563013.399                                                  
  24583291.709   129186062.495                                                  
  27872532.379   146471181.247                                                  
  24311021.888   127755270.268                                                  
  24932975.319   131023614.677                                                  
 21  9  2  7 19 17.0000000  0 21G 1G 4G 7G 8G 9G14G17G21G27G30C24C25
                                C26C34C35E 2E 3E 8E24E25E36
  22478801.677   118126851.507    22478805.072    92046884.194                  
  24695507.404   129775755.695    24695509.084   101123963.910                  
  20316216.735   106762453.922    20316216.091    83191525.809                  
  21230373.738   111566326.429    21230376.097    86934789.827                  
  22994016.267   120834333.128    22994018.572    94156613.586                  
  23740476.243   124757049.308    23740476.779    97213288.388                  
  23951681.697   125866935.936    23951681.948    98078131.103                  
  21532853.179   113155907.382    21532852.375    88173434.934                  
  23585461.147   123942403.727    23585463.058    96578489.578                  
  22226101.420   116798914.738    22226103.386    91012132.274                  
                 114852136.398                   114852136.398    22056139.887  
                 127006664.723                   127006664.723    24390291.769  
                 122437019.046                   122437019.046    23512742.014  
                 119483788.577                   119483788.577    22945605.975  
                 132830402.499                   132830402.499    25508682.127  
  24659383.119   129585908.987                                                  
  26368122.467   138565396.538                                                  
  24583403.640   129186650.890                                                  
  27872841.996   146472808.272                                                  
  24311098.725   127755673.922                                                  
  24932524.966   131021248.068                                                  
 21  9  2  7 19 18.0000000  0 21G 1G 4G 7G 8G 9G14G17G21G27G30C24C25
                                C26C34C35E 2E 3E 8E24E25E36
  22478182.443   118123597.356    22478185.839    92044348.492                  
  24696166.878   129779221.376    24696168.576   101126664.438                  
  20315998.822   106761308.695    20315998.161    83190633.426                  
  21230819.678   111568669.933    21230822.054    86936615.938                  
  22994568.456   120837234.887    22994570.779    94158874.698                  
  23740058.876   124754856.042    23740059.412    97211579.352                  
  23951085.712   125863804.105    23951085.980    98075690.710                  
  21532629.691   113154732.995    21532628.905    88172519.827                  
  23586119.406   123945862.843    23586121.300    96581184.996                  
  22225578.072   116796164.608    22225580.038    91009989.316                  
                 114851919.527                   114851919.527    22056098.216  
                 127004238.722                   127004238.722    24389825.852  
                 122438917.184                   122438917.184    23513106.542  
                 119481426.766                   119481426.766    22945152.423  
                 132833366.263                   132833366.263    25509251.273  
  24659165.564   129584765.650                                                  
  26368575.983   138567779.862                                                  
  24583515.661   129187239.575                                                  
  27873151.612   146474435.368                                                  
  24311175.562   127756077.761                                                  
  24932074.648   131018881.661                                                  
 21  9  2  7 19 19.0000000  0 21G 1G 4G 7G 8G 9G14G17G21G27G30C24C25
                                C26C34C35E 2E 3E 8E24E25E36
  22477563.246   118120343.458    22477566.641    92041812.987                  
  24696826.352   129782686.962    24696828.068   101129364.898                  
  20315780.981   106760163.949    20315780.320    83189741.419                  
  21231265.724   111571013.788    21231268.083    86938442.321                  
  22995120.680   120840136.845    22995123.003    94161135.965                  
  23739641.527   124752662.839    23739642.063    97209870.364                  
  23950489.798   125860672.509    23950490.066    98073250.507                  
  21532406.329   113153559.175    21532405.525    88171605.164                  
  23586777.665   123949322.056    23586779.559    96583880.484                  
  22225054.796   116793414.730    22225056.762    91007846.559                  
                 114851702.948                   114851702.948    22056056.635  
                 127001812.766                   127001812.766    24389360.006  
                 122440815.578                   122440815.578    23513471.124  
                 119479065.333                   119479065.333    22944698.925  
                 132836330.195                   132836330.195    25509820.455  
  24658947.973   129583622.336                                                  
  26369029.535   138570163.300                                                  
  24583627.753   129187828.675                                                  
  27873461.264   146476062.532                                                  
  24311252.416   127756481.679                                                  
  24931624.385   131016515.530                                                  
 21  9  2  7 19 20.0000000  0 21G 1G 4G 7G 8G 9G14G17G21G27G30C24C25
                                C26C34C35E 2E 3E 8E24E25E36
  22476944.084   118117089.788    22476947.480    92039277.667                  
  24697485.826   129786152.440    24697487.524   101132065.277                  
  20315563.247   106759019.699    20315562.586    83188849.797                  
  21231711.807   111573357.999    21231714.165    86940268.981                  
  22995672.940   120843039.014    22995675.263    94163397.398                  
  23739224.178   124750469.679    23739224.715    97208161.411                  
  23949893.919   125857541.144    23949894.188    98070810.488                  
  21532183.055   113152385.909    21532182.251    88170690.938                  
  23587435.942   123952781.351    23587437.836    96586576.048                  
  22224531.555   116790665.102    22224533.521    91005703.991                  
                 114851486.665                   114851486.665    22056015.107  
                 126999386.858                   126999386.858    24388894.125  
                 122442714.230                   122442714.230    23513835.723  
                 119476704.277                   119476704.277    22944245.517  
                 132839294.302                   132839294.302    25510389.673  
  24658730.417   129582479.048                                                  
  26369483.122   138572546.871                                                  
  24583739.935   129188418.197                                                  
  27873770.899   146477689.730                                                  
  24311329.307   127756885.670                                                  
  24931174.175   131014149.705                                                  
 21  9  2  7 19 21.0000000  0 21G 1G 4G 7G 8G 9G14G17G21G27G30C24C25
                                C26C34C35E 2E 3E 8E24E25E36
  22476324.976   118113836.368    22476328.372    92036742.535                  
  24698145.265   129789617.815    24698146.962   101134765.569                  
  20315345.584   106757875.930    20315344.923    83187958.551                  
  21232157.960   111575702.555    21232160.319    86942095.906                  
  22996225.236   120845941.413    22996227.559    94165659.007                  
  23738806.847   124748276.575    23738807.384    97206452.501                  
  23949298.077   125854410.032    23949298.345    98068370.664                  
  21531959.907   113151213.200    21531959.103    88169777.137                  
  23588094.236   123956240.737    23588096.148    96589271.671                  
  22224008.386   116787915.718    22224010.334    91003561.616                  
                 114851270.667                   114851270.667    22055973.616  
                 126996960.997                   126996960.997    24388428.262  
                 122444613.142                   122444613.142    23514200.394  
                 119474343.606                   119474343.606    22943792.162  
                 132842258.569                   132842258.569    25510958.945  
  24658512.880   129581335.778                                                  
  26369936.727   138574930.570                                                  
  24583852.206   129189008.129                                                  
  27874080.551   146479317.008                                                  
  24311406.197   127757289.735                                                  
  24930724.036   131011784.169                                                  
 21  9  2  7 19 22.0000000  0 21G 1G 4G 7G 8G 9G14G17G21G27G30C24C25
                                C26C34C35E 2E 3E 8E24E25E36
  22475705.922   118110583.183    22475709.317    92034207.585                  
  24698804.685   129793083.091    24698806.383   101137465.786                  
  20315128.029   106756732.648    20315127.368    83187067.680                  
  21232604.186   111578047.461    21232606.544    86943923.110                  
  22996777.603   120848843.993    22996779.926    94167920.758                  
  23738389.516   124746083.527    23738390.052    97204743.630                  
  23948702.306   125851279.157    23948702.556    98065931.020                  
  21531736.866   113150041.056    21531736.044    88168863.778                  
  23588752.567   123959700.214    23588754.461    96591967.367                  
  22223485.235   116785166.595    22223487.200    91001419.442                  
                 114851054.965                   114851054.965    22055932.195  
                 126994535.183                   126994535.183    24387962.399  
                 122446512.303                   122446512.303    23514565.101  
                 119471983.312                   119471983.312    22943338.896  
                 132845223.016                   132845223.016    25511528.234  
  24658295.324   129580192.520                                                  
  26370390.368   138577314.398                                                  
  24583964.567   129189598.487                                                  
  27874390.239   146480944.327                                                  
  24311483.106   127757693.879                                                  
  24930273.933   131009418.919                                                  
 21  9  2  7 19 23.0000000  0 21G 1G 4G 7G 8G 9G14G17G21G27G30C24C25
                                C26C34C35E 2E 3E 8E24E25E36
  22475086.903   118107330.247    22475090.298    92031672.832                  
  24699464.088   129796548.272    24699465.786   101140165.925                  
  20314910.563   106755589.868    20314909.902    83186177.202                  
  21233050.465   111580392.714    21233052.823    86945750.575                  
  22997329.988   120851746.782    22997332.293    94170182.671                  
  23737972.221   124743890.528    23737972.757    97203034.800                  
  23948106.553   125848148.526    23948106.821    98063491.569                  
  21531513.896   113148869.462    21531513.092    88167950.848                  
  23589410.880   123963159.773    23589412.792    96594663.128                  
  22222962.137   116782417.718    22222964.102    90999277.460                  
                 114850839.555                   114850839.555    22055890.828  
                 126992109.415                   126992109.415    24387496.553  
                 122448411.730                   122448411.730    23514929.879  
                 119469623.403                   119469623.403    22942885.702  
                 132848187.629                   132848187.629    25512097.559  
  24658077.751   129579049.276                                                  
  26370844.009   138579698.359                                                  
  24584076.981   129190189.256                                                  
  27874699.927   146482571.696                                                  
  24311560.014   127758098.102                                                  
  24929823.902   131007053.965                                                  
 21  9  2  7 19 24.0000000  0 21G 1G 4G 7G 8G 9G14G17G21G27G30C24C25
                                C26C34C35E 2E 3E 8E24E25E36
  22474467.938   118104077.540    22474471.333    92029138.258                  
  24700123.455   129800013.351    24700125.152   101142865.989                  
  20314693.204   106754447.573    20314692.543    83185287.102                  
  21233496.797   111582738.297    21233499.174    86947578.301                  
  22997882.391   120854649.779    22997884.714    94172444.746                  
  23737554.908   124741697.583    23737555.444    97201326.011                  
  23947510.853   125845018.133    23947511.121    98061052.302                  
  21531291.051   113147698.433    21531290.265    88167038.359                  
  23590069.246   123966619.438    23590071.158    96597358.968                  
  22222439.093   116779669.102    22222441.058    90997135.679                  
                 114850624.438                   114850624.438    22055849.515  
                 126989683.694                   126989683.694    24387030.726  
                 122450311.409                   122450311.409    23515294.675  
                 119467263.871                   119467263.871    22942432.579  
                 132851152.410                   132851152.410    25512666.919  
  24657860.214   129577906.054                                                  
  26371297.685   138582082.446                                                  
  24584189.484   129190780.445                                                  
  27875009.597   146484199.117                                                  
  24311636.958   127758502.396                                                  
  24929373.924   131004689.301                                                  
 21  9  2  7 19 25.0000000  0 21G 1G 4G 7G 8G 9G14G17G21G27G30C24C25
                                C26C34C35E 2E 3E 8E24E25E36
  22473849.027   118100825.077    22473852.404    92026603.871                  
  24700782.840   129803478.345    24700784.519   101145565.980                  
  20314475.917   106753305.761    20314475.256    83184397.379                  
  21233943.219   111585084.207    21233945.577    86949406.284                  
  22998434.866   120857552.972    22998437.189    94174706.973                  
  23737137.613   124739504.693    23737138.167    97199617.266                  
  23946915.225   125841887.980    23946915.475    98058613.222                  
  21531068.332   113146527.969    21531067.528    88166126.308                  
  23590727.594   123970079.176    23590729.524    96600054.870                  
  22221916.102   116776920.718    22221918.068    90994994.082                  
                 114850409.615                   114850409.615    22055808.256  
                 126987258.019                   126987258.019    24386564.898  
                 122452211.347                   122452211.347    23515659.561  
                 119464904.723                   119464904.723    22941979.528  
                 132854117.363                   132854117.363    25513236.298  
  24657642.676   129576762.854                                                  
  26371751.380   138584466.670                                                  
  24584302.041   129191372.048                                                  
  27875319.303   146485826.589                                                  
  24311713.902   127758906.766                                                  
  24928924.000   131002324.919                                                  
 21  9  2  7 19 26.0000000  0 21G 1G 4G 7G 8G 9G14G17G21G27G30C24C25
                                C26C34C35E 2E 3E 8E24E25E36
  22473230.133   118097572.872    22473233.546    92024069.683                  
  24701442.189   129806943.227    24701443.886   101148265.890                  
  20314258.719   106752164.455    20314258.058    83183508.046                  
  21234389.694   111587430.454    21234392.053    86951234.526                  
  22998987.358   120860456.371    22998989.681    94176969.364                  
  23736720.335   124737311.856    23736720.871    97197908.562                  
  23946319.615   125838758.083    23946319.883    98056174.341                  
  21530845.702   113145358.069    21530844.898    88165214.700                  
  23591385.996   123973539.011    23591387.908    96602750.848                  
  22221393.147   116774172.590    22221395.095    90992852.687                  
                 114850195.079                   114850195.079    22055767.068  
                 126984832.394                   126984832.394    24386099.088  
                 122454111.538                   122454111.538    23516024.464  
                 119462545.953                   119462545.953    22941526.566  
                 132857082.485                   132857082.485    25513805.712  
  24657425.139   129575619.672                                                  
  26372205.092   138586851.012                                                  
  24584414.705   129191964.064                                                  
  27875629.027   146487454.122                                                  
  24311790.864   127759311.218                                                  
  24928474.112   130999960.848                                                  
 21  9  2  7 19 27.0000000  0 21G 1G 4G 7G 8G 9G14G17G21G27G30C24C25
                                C26C34C35E 2E 3E 8E24E25E36
  22472611.329   118094320.890    22472614.706    92021535.673                  
  24702101.502   129810408.016    24702103.200   101150965.723                  
  20314041.646   106751023.626    20314040.985    83182619.089                  
  21234836.241   111589777.036    21234838.600    86953063.036                  
  22999539.904   120863359.993    22999542.227    94179231.922                  
  23736303.058   124735119.074    23736303.594    97196199.903                  
  23945724.058   125835628.414    23945724.326    98053735.640                  
  21530623.179   113144188.715    21530622.375    88164303.517                  
  23592044.398   123976998.937    23592046.292    96605446.890                  
  22220870.246   116771424.713    22220872.194    90990711.487                  
                 114849980.835                   114849980.835    22055725.915  
                 126982406.812                   126982406.812    24385633.279  
                 122456011.993                   122456011.993    23516389.421  
                 119460187.562                   119460187.562    22941073.640  
                 132860047.775                   132860047.775    25514375.180  
  24657207.601   129574476.505                                                  
  26372658.858   138589235.490                                                  
  24584527.441   129192556.499                                                  
  27875938.715   146489081.696                                                  
  24311867.843   127759715.746                                                  
  24928024.313   130997597.044                                                  
 21  9  2  7 19 28.0000000  0 21G 1G 4G 7G 8G 9G14G17G21G27G30C24C25
                                C26C34C35E 2E 3E 8E24E25E36
  22471992.525   118091069.160    22471995.920    92019001.855                  
  24702760.815   129813872.698    24702762.495   101153665.476                  
  20313824.644   106749883.297    20313823.983    83181730.523                  
  21235282.842   111592123.952    21235285.200    86954891.800                  
  23000092.486   120866263.818    23000094.809    94181494.645                  
  23735885.798   124732926.340    23735886.334    97194491.277                  
  23945128.555   125832498.995    23945128.805    98051297.132                  
  21530400.781   113143019.921    21530399.959    88163392.766                  
  23592702.818   123980458.957    23592704.712    96608143.011                  
  22220347.381   116768677.093    22220349.346    90988570.480                  
                 114849766.887                   114849766.887    22055684.834  
                 126979981.280                   126979981.280    24385167.487  
                 122457912.699                   122457912.699    23516754.432  
                 119457829.554                   119457829.554    22940620.821  
                 132863013.234                   132863013.234    25514944.666  
  24656990.064   129573333.355                                                  
  26373112.642   138591620.104                                                  
  24584640.266   129193149.352                                                  
  27876248.457   146490709.332                                                  
  24311944.841   127760120.348                                                  
  24927574.567   130995233.543                                                  
 21  9  2  7 19 29.0000000  0 21G 1G 4G 7G 8G 9G14G17G21G27G30C24C25
                                C26C34C35E 2E 3E 8E24E25E36
  22471373.774   118087817.671    22471377.187    92016468.229                  
  24703420.093   129817337.284    24703421.809   101156365.153                  
  20313607.732   106748743.457    20313607.071    83180842.341                  
  21235729.514   111594471.214    21235731.872    86956720.835                  
  23000645.103   120869167.860    23000647.426    94183757.532                  
  23735468.539   124730733.667    23735469.075    97192782.703                  
  23944533.105   125829369.820    23944533.338    98048858.813                  
  21530178.455   113141851.697    21530177.668    88162482.461                  
  23593361.256   123983919.059    23593363.168    96610839.195                  
  22219824.587   116765929.718    22219826.534    90986429.673                  
                 114849553.229                   114849553.229    22055643.807  
                 126977555.792                   126977555.792    24384701.695  
                 122459813.663                   122459813.663    23517119.496  
                 119455471.930                   119455471.930    22940168.056  
                 132865978.864                   132865978.864    25515514.187  
  24656772.526   129572190.223                                                  
  26373566.444   138594004.831                                                  
  24584753.162   129193742.630                                                  
  27876558.198   146492337.021                                                  
  24312021.839   127760525.026                                                  
  24927124.840   130992870.332                                                  
 21  9  2  7 19 30.0000000  0 21G 1G 4G 7G 8G 9G14G17G21G27G30C24C25
                                C26C34C35E 2E 3E 8E24E25E36
  22470755.095   118084566.431    22470758.472    92013934.794                  
  24704079.389   129820801.773    24704081.068   101159064.755                  
  20313390.927   106747604.105    20313390.266    83179954.532                  
  21236176.239   111596818.829    21236178.598    86958550.145                  
  23001197.756   120872072.077    23001200.079    94186020.564                  
  23735051.297   124728541.039    23735051.833    97191074.163                  
  23943937.674   125826240.879    23943937.924    98046420.675                  
  21529956.253   113140684.015    21529955.467    88161572.582                  
  23594019.694   123987379.246    23594021.624    96613535.442                  
  22219301.828   116763182.593    22219303.776    90984289.051                  
                 114849339.866                   114849339.866    22055602.815  
                 126975130.355                   126975130.355    24384235.921  
                 122461714.884                   122461714.884    23517484.596  
                 119453114.681                   119453114.681    22939715.380  
                 132868944.660                   132868944.660    25516083.745  
  24656555.007   129571047.109                                                  
  26374020.263   138596389.707                                                  
  24584866.148   129194336.313                                                  
  27876867.940   146493964.762                                                  
  24312098.872   127760929.778                                                  
  24926675.201   130990507.411                                                  
 21  9  2  7 19 31.0000000  0 21G 1G 4G 7G 8G 9G14G17G21G27G30C24C25
                                C26C34C35E 2E 3E 8E24E25E36
  22470136.451   118081315.417    22470139.846    92011401.538                  
  24704738.613   129824266.157    24704740.328   101161764.275                  
  20313174.194   106746465.245    20313173.533    83179067.106                  
  21236623.036   111599166.778    21236625.395    86960379.716                  
  23001750.463   120874976.527    23001752.786    94188283.769                  
  23734634.055   124726348.466    23734634.591    97189365.665                  
  23943342.296   125823112.173    23943342.564    98043982.723                  
  21529734.159   113139516.903    21529733.355    88160663.141                  
  23594678.185   123990839.530    23594680.079    96616231.770                  
  22218779.106   116760435.718    22218781.053    90982148.633                  
                 114849126.793                   114849126.793    22055561.913  
                 126972704.966                   126972704.966    24383770.147  
                 122463616.363                   122463616.363    23517849.767  
                 119450757.815                   119450757.815    22939262.758  
                 132871910.628                   132871910.628    25516653.320  
  24656337.487   129569904.012                                                  
  26374474.119   138598774.692                                                  
  24584979.188   129194930.418                                                  
  27877177.700   146495592.551                                                  
  24312175.905   127761334.608                                                  
  24926225.599   130988144.784                                                  
 21  9  2  7 19 32.0000000  0 21G 1G 4G 7G 8G 9G14G17G21G27G30C24C25
                                C26C34C35E 2E 3E 8E24E25E36
  22469517.861   118078064.662    22469521.239    92008868.484                  
  24705397.854   129827730.446    24705399.534   101164463.723                  
  20312957.586   106745326.870    20312956.925    83178180.063                  
  21237069.905   111601515.049    21237072.263    86962209.538                  
  23002303.188   120877881.164    23002305.493    94190547.120                  
  23734216.832   124724155.949    23734217.385    97187657.208                  
  23942746.971   125819983.690    23942747.222    98041544.948                  
  21529512.172   113138350.369    21529511.386    88159754.151                  
  23595336.659   123994299.899    23595338.553    96618928.161                  
  22218256.437   116757689.097    22218258.402    90980008.405                  
                 114848914.017                   114848914.017    22055521.047  
                 126970279.617                   126970279.617    24383304.373  
                 122465518.098                   122465518.098    23518214.974  
                 119448401.331                   119448401.331    22938810.225  
                 132874876.765                   132874876.765    25517222.913  
  24656119.967   129568760.933                                                  
  26374927.974   138601159.817                                                  
  24585092.316   129195524.935                                                  
  27877487.477   146497220.392                                                  
  24312252.957   127761739.518                                                  
  24925776.068   130985782.453                                                  
 21  9  2  7 19 33.0000000  0 21G 1G 4G 7G 8G 9G14G17G21G27G30C24C25
                                C26C34C35E 2E 3E 8E24E25E36
  22468899.307   118074814.144    22468902.685    92006335.613                  
  24706057.078   129831194.636    24706058.758   101167163.094                  
  20312741.031   106744188.994    20312740.406    83177293.401                  
  21237516.845   111603863.656    21237519.203    86964039.621                  
  23002855.966   120880786.016    23002858.289    94192810.641                  
  23733799.643   124721963.484    23733800.162    97185948.796                  
  23942151.683   125816855.457    23942151.933    98039107.364                  
  21529290.293   113137184.374    21529289.506    88158845.589                  
  23595995.168   123997760.356    23595997.080    96621624.621                  
  22217733.822   116754942.727    22217735.787    90977868.378                  
                 114848701.528                   114848701.528    22055480.234  
                 126967854.320                   126967854.320    24382838.617  
                 122467420.089                   122467420.089    23518580.235  
                 119446045.231                   119446045.231    22938357.763  
                 132877843.070                   132877843.070    25517792.577  
  24655902.448   129567617.880                                                  
  26375381.883   138603545.075                                                  
  24585205.535   129196119.871                                                  
  27877797.236   146498848.277                                                  
  24312330.026   127762144.513                                                  
  24925326.573   130983420.410                                                  
 21  9  2  7 19 34.0000000  0 21G 1G 4G 7G 8G 9G14G17G21G27G30C24C25
                                C26C34C35E 2E 3E 8E24E25E36
  22468280.807   118071563.875    22468284.184    92003802.937                  
  24706716.267   129834658.732    24706717.964   101169862.387                  
  20312524.602   106743051.601    20312523.958    83176407.124                  
  21237963.820   111606212.608    21237966.179    86965869.974                  
  23003408.780   120883691.079    23003411.103    94195074.324                  
  23733382.420   124719771.070    23733382.956    97184240.421                  
  23941556.448   125813727.464    23941556.698    98036669.964                  
  21529068.520   113136018.949    21529067.716    88157937.466                  
  23596653.677   124001220.913    23596655.607    96624321.161                  
  22217211.260   116752196.614    22217213.225    90975728.550                  
                 114848489.331                   114848489.331    22055439.493  
                 126965429.070                   126965429.070    24382372.879  
                 122469322.341                   122469322.341    23518945.531  
                 119443689.508                   119443689.508    22937905.355  
                 132880809.543                   132880809.543    25518362.259  
  24655684.928   129566474.836                                                  
  26375835.828   138605930.462                                                  
  24585318.824   129196715.223                                                  
  27878107.032   146500476.236                                                  
  24312407.095   127762549.575                                                  
  24924877.167   130981058.649                                                  
 21  9  2  7 19 35.0000000  0 21G 1G 4G 7G 8G 9G14G17G21G27G30C24C25
                                C26C34C35E 2E 3E 8E24E25E36
  22467662.342   118068313.847    22467665.719    92001270.445                  
  24707375.437   129838122.722    24707377.135   101172561.598                  
  20312308.261   106741914.702    20312307.600    83175521.231                  
  21238410.886   111608561.890    21238413.244    86967700.582                  
  23003961.612   120886596.335    23003963.952    94197338.165                  
  23732965.232   124717578.720    23732965.785    97182532.095                  
  23940961.266   125810599.714    23940961.499    98034232.762                  
  21528846.855   113134854.082    21528846.069    88157029.777                  
  23597312.222   124004681.555    23597314.134    96627017.761                  
  22216688.734   116749450.742    22216690.699    90973588.910                  
                 114848277.430                   114848277.430    22055398.805  
                 126963003.866                   126963003.866    24381907.141  
                 122471224.844                   122471224.844    23519310.899  
                 119441334.164                   119441334.164    22937453.037  
                 132883776.189                   132883776.189    25518931.978  
  24655467.426   129565331.813                                                  
  26376289.754   138608315.960                                                  
  24585432.203   129197310.995                                                  
  27878416.845   146502104.238                                                  
  24312484.200   127762954.711                                                  
  24924427.779   130978697.192                                                  
 21  9  2  7 19 36.0000000  0 21G 1G 4G 7G 8G 9G14G17G21G27G30C24C25
                                C26C34C35E 2E 3E 8E24E25E36
  22467043.913   118065064.063    22467047.308    91998738.148                  
  24708034.607   129841586.612    24708036.305   101175260.733                  
  20312092.028   106740778.305    20312091.367    83174635.722                  
  21238858.004   111610911.511    21238860.363    86969531.456                  
  23004514.515   120889501.818    23004516.838    94199602.173                  
  23732548.061   124715386.414    23732548.597    97180823.809                  
  23940366.121   125807472.218    23940366.353    98031795.751                  
  21528625.297   113133689.781    21528624.493    88156122.527                  
  23597970.785   124008142.276    23597972.679    96629714.429                  
  22216166.261   116746705.125    22216168.227    90971449.468                  
                 114848065.820                   114848065.820    22055358.153  
                 126960578.715                   126960578.715    24381441.420  
                 122473127.605                   122473127.605    23519676.303  
                 119438979.206                   119438979.206    22937000.807  
                 132886742.997                   132886742.997    25519501.713  
  24655249.925   129564188.813                                                  
  26376743.735   138610701.617                                                  
  24585545.636   129197907.190                                                  
  27878726.640   146503732.294                                                  
  24312561.322   127763359.926                                                  
  24923978.480   130976336.021                                                  
 21  9  2  7 19 37.0000000  0 21G 1G 4G 7G 8G 9G14G17G21G27G30C24C25
                                C26C34C35E 2E 3E 8E24E25E36
  22466425.538   118061814.517    22466428.933    91996206.032                  
  24708693.742   129845050.403    24708695.422   101177959.789                  
  20311875.867   106739642.383    20311875.205    83173750.590                  
  21239305.177   111613261.491    21239307.535    86971362.609                  
  23005067.454   120892407.503    23005069.777    94201866.343                  
  23732130.873   124713194.173    23732131.427    97179115.567                  
  23939771.029   125804344.958    23939771.261    98029358.926                  
  21528403.846   113132526.028    21528403.042    88155215.711                  
  23598629.366   124011603.106    23598631.260    96632411.175                  
  22215643.843   116743959.770    22215645.808    90969310.230                  
                 114847854.503                   114847854.503    22055317.572  
                 126958153.604                   126958153.604    24380975.700  
                 122475030.625                   122475030.625    23520041.760  
                 119436624.629                   119436624.629    22936548.632  
                 132889709.976                   132889709.976    25520071.503  
  24655032.405   129563045.816                                                  
  26377197.715   138613087.388                                                  
  24585659.175   129198503.793                                                  
  27879036.453   146505360.402                                                  
  24312638.445   127763765.224                                                  
  24923529.217   130973975.148                                                  
 21  9  2  7 19 38.0000000  0 21G 1G 4G 7G 8G 9G14G17G21G27G30C24C25
                                C26C34C35E 2E 3E 8E24E25E36
  22465807.216   118058565.211    22465810.629    91993674.105                  
  24709352.859   129848514.085    24709354.539   101180658.766                  
  20311659.794   106738506.962    20311659.133    83172865.847                  
  21239752.438   111615611.808    21239754.797    86973194.023                  
  23005620.429   120895313.378    23005622.734    94204130.664                  
  23731713.721   124711001.976    23731714.257    97177407.363                  
  23939175.954   125801217.943    23939176.222    98026922.290                  
  21528182.503   113131362.837    21528181.699    88154309.323                  
  23599287.946   124015064.012    23599289.840    96635107.985                  
  22215121.460   116741214.652    22215123.425    90967171.180                  
                 114847643.481                   114847643.481    22055277.063  
                 126955728.543                   126955728.543    24380509.998  
                 122476933.902                   122476933.902    23520407.253  
                 119434270.430                   119434270.430    22936096.546  
                 132892677.125                   132892677.125    25520641.293  
  24654814.903   129561902.854                                                  
  26377651.767   138615473.282                                                  
  24585772.787   129199100.815                                                  
  27879346.302   146506988.566                                                  
  24312715.586   127764170.594                                                  
  24923080.008   130971614.558                                                  
 21  9  2  7 19 39.0000000  0 21G 1G 4G 7G 8G 9G14G17G21G27G30C24C25
                                C26C34C35E 2E 3E 8E24E25E36
  22465188.966   118055316.151    22465192.343    91991142.375                  
  24710011.958   129851977.679    24710013.637   101183357.671                  
  20311443.812   106737372.032    20311443.168    83171981.484                  
  21240199.736   111617962.445    21240202.094    86975025.691                  
  23006173.439   120898219.465    23006175.762    94206395.140                  
  23731296.586   124708809.840    23731297.122    97175699.208                  
  23938580.952   125798091.179    23938581.220    98024485.849                  
  21527961.266   113130200.220    21527960.462    88153403.391                  
  23599946.545   124018525.001    23599948.457    96637804.859                  
  22214599.112   116738469.784    22214601.078    90965032.321                  
                 114847432.746                   114847432.746    22055236.572  
                 126953303.531                   126953303.531    24380044.295  
                 122478837.436                   122478837.436    23520772.817  
                 119431916.618                   119431916.618    22935644.495  
                 132895644.442                   132895644.442    25521211.136  
  24654597.419   129560759.901                                                  
  26378105.801   138617859.320                                                  
  24585886.487   129199698.254                                                  
  27879656.133   146508616.777                                                  
  24312792.744   127764576.044                                                  
  24922630.852   130969254.269                                                  
 21  9  2  7 19 40.0000000  0 21G 1G 4G 7G 8G 9G14G17G21G27G30C24C25
                                C26C34C35E 2E 3E 8E24E25E36
  22464570.715   118052067.341    22464574.128    91988610.832                  
  24710671.039   129855441.173    24710672.719   101186056.495                  
  20311227.936   106736237.598    20311227.293    83171097.511                  
  21240647.122   111620313.428    21240649.481    86976857.625                  
  23006726.486   120901125.758    23006728.808    94208659.786                  
  23730879.434   124706617.754    23730879.988    97173991.087                  
  23937986.003   125794964.653    23937986.253    98022049.597                  
  21527740.119   113129038.161    21527739.315    88152497.890                  
  23600605.161   124021986.083    23600607.073    96640501.804                  
  22214076.837   116735725.188    22214078.802    90962893.675                  
                 114847222.307                   114847222.307    22055196.188  
                 126950878.566                   126950878.566    24379578.593  
                 122480741.227                   122480741.227    23521138.418  
                 119429563.184                   119429563.184    22935192.552  
                 132898611.930                   132898611.930    25521781.015  
  24654379.918   129559616.966                                                  
  26378559.853   138620245.461                                                  
  24586000.242   129200296.113                                                  
  27879965.982   146510245.044                                                  
  24312869.903   127764981.567                                                  
  24922181.768   130966894.263                                                  
 21  9  2  7 19 41.0000000  0 21G 1G 4G 7G 8G 9G14G17G21G27G30C24C25
                                C26C34C35E 2E 3E 8E24E25E36
  22463952.536   118048818.775    22463955.914    91986079.479                  
  24711330.102   129858904.556    24711331.782   101188755.235                  
  20311012.167   106735103.657    20311011.506    83170213.918                  
  21241094.563   111622664.743    21241096.921    86978689.817                  
  23007279.585   120904032.250    23007281.908    94210924.587                  
  23730462.300   124704425.712    23730462.836    97172283.000                  
  23937391.107   125791838.368    23937391.339    98019613.526                  
  21527519.097   113127876.656    21527518.293    88151592.824                  
  23601263.796   124025447.247    23601265.726    96643198.819                  
  22213554.597   116732980.822    22213556.562    90960755.208                  
                 114847012.165                   114847012.165    22055155.822  
                 126948453.647                   126948453.647    24379112.926  
                 122482645.274                   122482645.274    23521504.071  
                 119427210.128                   119427210.128    22934740.680  
                 132901579.582                   132901579.582    25522350.911  
  24654162.416   129558474.048                                                  
  26379013.958   138622631.749                                                  
  24586114.103   129200894.383                                                  
  27880275.849   146511873.366                                                  
  24312947.079   127765387.167                                                  
  24921732.719   130964534.555                                                  
 21  9  2  7 19 42.0000000  0 21G 1G 4G 7G 8G 9G14G17G21G27G30C24C25
                                C26C34C35E 2E 3E 8E24E25E36
  22463334.393   118045570.446    22463337.806    91983548.316                  
  24711989.147   129862367.839    24711990.827   101191453.899                  
  20310796.488   106733970.199    20310795.827    83169330.707                  
  21241542.074   111625016.434    21241544.433    86980522.300                  
  23007832.703   120906938.953    23007835.026    94213189.546                  
  23730045.183   124702233.729    23730045.719    97170574.966                  
  23936796.212   125788712.312    23936796.480    98017177.645                  
  21527298.183   113126715.715    21527297.378    88150688.194                  
  23601922.466   124028908.508    23601924.360    96645895.901                  
  22213032.428   116730236.719    22213034.376    90958616.946                  
                 114846802.309                   114846802.309    22055115.527  
                 126946028.778                   126946028.778    24378647.259  
                 122484549.579                   122484549.579    23521869.779  
                 119424857.456                   119424857.456    22934288.862  
                 132904547.402                   132904547.402    25522920.862  
  24653944.932   129557331.157                                                  
  26379468.082   138625018.159                                                  
  24586228.018   129201493.063                                                  
  27880585.715   146513501.733                                                  
  24313024.273   127765792.842                                                  
  24921283.742   130962175.136                                                  
 21  9  2  7 19 43.0000000  0 21G 1G 4G 7G 8G 9G14G17G21G27G30C24C25
                                C26C34C35E 2E 3E 8E24E25E36
  22462716.322   118042322.376    22462719.699    91981017.352                  
  24712648.157   129865831.016    24712649.837   101194152.477                  
  20310580.881   106732837.241    20310580.220    83168447.882                  
  21241989.658   111627368.464    21241992.016    86982355.054                  
  23008385.874   120909845.876    23008388.197    94215454.679                  
  23729628.084   124700041.802    23729628.602    97168866.968                  
  23936201.405   125785586.508    23936201.638    98014741.954                  
  21527077.357   113125555.331    21527076.553    88149783.999                  
  23602581.136   124032369.849    23602583.048    96648593.050                  
  22212510.277   116727492.863    22212512.243    90956478.874                  
                 114846592.751                   114846592.751    22055075.286  
                 126943603.958                   126943603.958    24378181.592  
                 122486454.141                   122486454.141    23522235.522  
                 119422505.168                   119422505.168    22933837.133  
                 132907515.396                   132907515.396    25523490.848  
  24653727.466   129556188.277                                                  
  26379922.223   138627404.696                                                  
  24586342.022   129202092.163                                                  
  27880895.582   146515130.155                                                  
  24313101.503   127766198.594                                                  
  24920834.818   130959816.003                                                  
 21  9  2  7 19 44.0000000  0 21G 1G 4G 7G 8G 9G14G17G21G27G30C24C25
                                C26C34C35E 2E 3E 8E24E25E36
  22462098.286   118039074.540    22462101.663    91978486.574                  
  24713307.166   129869294.106    24713308.864   101196850.988                  
  20310365.380   106731704.770    20310364.719    83167565.433                  
  21242437.295   111629720.836    21242439.653    86984188.070                  
  23008939.082   120912752.984    23008941.405    94217719.960                  
  23729210.986   124697849.922    23729211.504    97167159.012                  
  23935606.617   125782460.957    23935606.885    98012306.457                  
  21526856.657   113124395.511    21526855.853    88148880.243                  
  23603239.824   124035831.286    23603241.736    96651290.278                  
  22211988.198   116724749.257    22211990.164    90954340.999                  
                 114846383.485                   114846383.485    22055035.081  
                 126941179.179                   126941179.179    24377715.944  
                 122488358.958                   122488358.958    23522601.319  
                 119420153.260                   119420153.260    22933385.475  
                 132910483.550                   132910483.550    25524060.834  
  24653509.982   129555045.409                                                  
  26380376.400   138629791.368                                                  
  24586456.098   129202691.679                                                  
  27881205.485   146516758.636                                                  
  24313178.715   127766604.426                                                  
  24920385.949   130957457.168                                                  
 21  9  2  7 19 45.0000000  0 21G 1G 4G 7G 8G 9G14G17G21G27G30C24C25
                                C26C34C35E 2E 3E 8E24E25E36
  22461480.286   118035826.950    22461483.663    91975955.985                  
  24713966.140   129872757.089    24713967.838   101199549.415                  
  20310149.951   106730572.786    20310149.326    83166683.372                  
  21242885.003   111632073.524    21242887.362    86986021.332                  
  23009492.324   120915660.301    23009494.647    94219985.402                  
  23728793.887   124695658.103    23728794.423    97165451.099                  
  23935011.900   125779335.652    23935012.168    98009871.157                  
  21526636.064   113123236.246    21526635.260    88147976.922                  
  23603898.512   124039292.808    23603900.441    96653987.566                  
  22211466.155   116722005.905    22211468.120    90952203.325                  
                 114846174.509                   114846174.509    22054994.965  
                 126938754.452                   126938754.452    24377250.295  
                 122490264.031                   122490264.031    23522967.187  
                 119417801.734                   119417801.734    22932933.871  
                 132913451.879                   132913451.879    25524630.874  
  24653292.498   129553902.568                                                  
  26380830.577   138632178.164                                                  
  24586570.263   129203291.613                                                  
  27881515.387   146518387.167                                                  
  24313255.963   127767010.333                                                  
  24919937.115   130955098.628                                                  
