     2.11           OBSERVATION DATA    M (MIXED)           RINEX VERSION / TYPE
CONVBIN 2.4.3                           20210902 202006 UTC PGM / RUN BY / DATE 
log: logs/21_08_31_19_48_48_scwt_SW.rtcm                    COMMENT             
format: RTCM 3, station ID: 1448                            COMMENT             
1448                                                        MARKER NAME         
                                                            MARKER NUMBER       
                                                            OBSERVER / AGENCY   
                    SWFT                                    REC # / TYPE / VERS 
                    NULL                                    ANT # / TYPE        
   877834.0614 -5342142.3465  3360930.2191                  APPROX POSITION XYZ 
        0.0000        0.0000        0.0000                  ANTENNA: DELTA H/E/N
     1     1                                                WAVELENGTH FACT L1/2
     5    C1    L1    P2    L2    C2                        # / TYPES OF OBSERV 
  2021     8    31    19    48   53.0000000     GPS         TIME OF FIRST OBS   
  2021     8    31    20    18   51.0000000     GPS         TIME OF LAST OBS    
                                                            END OF HEADER       
 21  8 31 19 48 53.0000000  0 16G 5G10G15G18G23G29G32C19C21C22C35E 3
                                E 5E 9E15E36
  23954054.704   125879379.849    23954056.973    98087821.331                  
  23521218.292   123604772.046    23521222.366    96315390.316                  
  21270524.468   111777359.441    21270525.308    87099240.551                  
  20088969.347   105568245.575    20088970.401    82260972.382                  
  21273034.262   111790545.996    21273035.459    87109517.259                  
  24035841.543   126309149.235    24035844.974    98422700.500                  
  24605820.222   129304370.452    24605826.262   100756630.214                  
                 118551220.768                   118551220.768    22766516.944  
                 135227010.532                   135227010.532    25968930.942  
                 118231751.391                   118231751.391    22705161.117  
                 120221731.861                   120221731.861    23087323.481  
  26287941.552   138144014.915                                                  
  23509353.636   123542469.565                                                  
  23404896.081   122993534.597                                                  
  27539527.912   144721131.450                                                  
  23984690.625   126040334.148                                                  
 21  8 31 19 48 54.0000000  0 16G 5G10G15G18G23G29G32C19C21C22C35E 3
                                E 5E 9E15E36
  23954494.925   125881693.169    23954497.176    98089623.918                  
  23520810.342   123602628.202    23520814.399    96313719.794                  
  21270997.926   111779847.481    21270998.766    87101179.286                  
  20088884.809   105567801.335    20088885.863    82260626.223                  
  21272801.768   111789324.238    21272802.965    87108565.238                  
  24036490.385   126312558.852    24036493.798    98425357.343                  
  24605246.394   129301354.948    24605252.434   100754280.473                  
                 118552669.996                   118552669.996    22766795.237  
                 135225050.278                   135225050.278    25968554.496  
                 118231209.551                   118231209.551    22705057.083  
                 120224096.446                   120224096.446    23087777.586  
  26287579.222   138142110.746                                                  
  23509356.299   123542483.548                                                  
  23405270.187   122995500.464                                                  
  27538994.986   144718330.809                                                  
  23985007.926   126042001.610                                                  
 21  8 31 19 48 55.0000000  0 16G 5G10G15G18G23G29G32C19C21C22C35E 3
                                E 5E 9E15E36
  23954935.146   125884006.559    23954937.398    98091426.559                  
  23520402.393   123600484.371    23520406.449    96312049.273                  
  21271471.437   111782335.802    21271472.259    87103118.235                  
  20088800.378   105567357.678    20088801.432    82260280.515                  
  21272569.292   111788102.613    21272570.507    87107613.324                  
  24037139.192   126315968.453    24037142.641    98428014.177                  
  24604672.602   129298339.632    24604678.642   100751930.874                  
                 118554119.282                   118554119.282    22767073.564  
                 135223090.112                   135223090.112    25968178.067  
                 118230667.868                   118230667.868    22704953.032  
                 120226461.380                   120226461.380    23088231.745  
  26287216.892   138140206.805                                                  
  23509359.015   123542497.777                                                  
  23405644.275   122997466.409                                                  
  27538462.060   144715530.263                                                  
  23985325.297   126043669.454                                                  
 21  8 31 19 48 56.0000000  0 16G 5G10G15G18G23G29G32C19C21C22C35E 3
                                E 5E 9E15E36
  23955375.385   125886320.040    23955377.637    98093229.270                  
  23519994.443   123598340.548    23519998.481    96310378.762                  
  21271945.002   111784824.411    21271945.842    87105057.406                  
  20088716.054   105566914.600    20088717.126    82259935.261                  
  21272336.852   111786881.128    21272338.067    87106661.520                  
  24037788.034   126319378.070    24037791.465    98430671.015                  
  24604098.846   129295324.525    24604104.885   100749581.442                  
                 118555568.625                   118555568.625    22767351.892  
                 135221130.047                   135221130.047    25967801.656  
                 118230126.339                   118230126.339    22704849.052  
                 120228826.664                   120228826.664    23088685.958  
  26286854.615   138138303.056                                                  
  23509361.784   123542512.270                                                  
  23406018.399   122999432.419                                                  
  27537929.134   144712729.792                                                  
  23985642.758   126045337.694                                                  
 21  8 31 19 48 57.0000000  0 16G 5G10G15G18G23G29G32C19C21C22C35E 3
                                E 5E 9E15E36
  23955815.642   125888633.606    23955817.894    98095032.046                  
  23519586.475   123596196.722    23519590.514    96308708.250                  
  21272418.620   111787313.293    21272419.460    87106996.797                  
  20088631.855   105566472.106    20088632.927    82259590.458                  
  21272104.447   111785659.781    21272105.644    87105709.817                  
  24038436.858   126322787.691    24038440.307    98433327.864                  
  24603525.125   129292309.593    24603531.165   100747232.149                  
                 118557018.027                   118557018.027    22767630.238  
                 135219170.069                   135219170.069    25967425.263  
                 118229584.965                   118229584.965    22704745.072  
                 120231192.304                   120231192.304    23089140.260  
  26286492.392   138136399.505                                                  
  23509364.572   123542527.007                                                  
  23406392.540   123001398.488                                                  
  27537396.244   144709929.410                                                  
  23985960.309   126047006.321                                                  
 21  8 31 19 48 58.0000000  0 16G 5G10G15G18G23G29G32C19C21C22C35E 3
                                E 5E 9E15E36
  23956255.917   125890947.257    23956258.186    98096834.896                  
  23519178.525   123594052.917    23519182.564    96307037.755                  
  21272892.275   111789802.450    21272893.114    87108936.398                  
  20088547.763   105566030.196    20088548.835    82259246.112                  
  21271872.043   111784438.566    21271873.258    87104758.223                  
  24039085.700   126326197.309    24039089.113    98435984.703                  
  24602951.422   129289294.855    24602957.462   100744883.003                  
                 118558467.488                   118558467.488    22767908.602  
                 135217210.188                   135217210.188    25967048.887  
                 118229043.741                   118229043.741    22704641.164  
                 120233558.294                   120233558.294    23089594.616  
  26286130.205   138134496.169                                                  
  23509367.413   123542542.005                                                  
  23406766.682   123003364.630                                                  
  27536863.354   144707129.101                                                  
  23986277.895   126048675.333                                                  
 21  8 31 19 48 59.0000000  0 16G 5G10G15G18G23G29G32C19C21C22C35E 3
                                E 5E 9E15E36
  23956696.192   125893260.993    23956698.479    98098637.805                  
  23518770.576   123591909.114    23518774.596    96305367.257                  
  21273366.018   111792291.884    21273366.840    87110876.214                  
  20088463.779   105565588.852    20088464.833    82258902.210                  
  21271639.674   111783217.495    21271640.871    87103806.739                  
  24039734.524   126329606.932    24039737.955    98438641.550                  
  24602377.773   129286280.311    24602383.813   100742534.012                  
                 118559917.009                   118559917.009    22768186.965  
                 135215250.399                   135215250.399    25966672.548  
                 118228502.680                   118228502.680    22704537.238  
                 120235924.633                   120235924.633    23090049.061  
  26285768.036   138132593.018                                                  
  23509370.344   123542557.264                                                  
  23407140.841   123005330.842                                                  
  27536330.500   144704328.892                                                  
  23986595.552   126050344.720                                                  
 21  8 31 19 49  0.0000000  0 16G 5G10G15G18G23G29G32C19C21C22C35E 3
                                E 5E 9E15E36
  23957136.503   125895574.812    23957138.772    98100440.778                  
  23518362.626   123589765.321    23518366.664    96303696.773                  
  21273839.797   111794781.593    21273840.619    87112816.250                  
  20088379.920   105565148.095    20088380.974    82258558.761                  
  21271407.341   111781996.562    21271408.556    87102855.363                  
  24040383.367   126333016.565    24040386.797    98441298.406                  
  24601804.159   129283265.958    24601810.199   100740185.165                  
                 118561366.591                   118561366.591    22768465.347  
                 135213290.703                   135213290.703    25966296.208  
                 118227961.771                   118227961.771    22704433.365  
                 120238291.324                   120238291.324    23090503.559  
  26285405.920   138130690.093                                                  
  23509373.274   123542572.770                                                  
  23407515.019   123007297.134                                                  
  27535797.664   144701528.762                                                  
  23986913.317   126052014.509                                                  
 21  8 31 19 49  1.0000000  0 16G 5G10G15G18G23G29G32C19C21C22C35E 3
                                E 5E 9E15E36
  23957576.849   125897888.718    23957579.100    98102243.820                  
  23517954.676   123587621.539    23517958.696    96302026.294                  
  21274313.612   111797271.570    21274314.452    87114756.493                  
  20088296.132   105564707.924    20088297.222    82258215.773                  
  21271175.044   111780775.764    21271176.241    87101904.094                  
  24041032.209   126336426.200    24041035.622    98443955.263                  
  24601230.582   129280251.792    24601236.621   100737836.469                  
                 118562816.226                   118562816.226    22768743.728  
                 135211331.101                   135211331.101    25965919.869  
                 118227421.013                   118227421.013    22704329.528  
                 120240658.366                   120240658.366    23090958.111  
  26285043.858   138128787.367                                                  
  23509376.276   123542588.545                                                  
  23407889.196   123009263.485                                                  
  27535264.827   144698728.714                                                  
  23987231.136   126053684.691                                                  
 21  8 31 19 49  2.0000000  0 16G 5G10G15G18G23G29G32C19C21C22C35E 3
                                E 5E 9E15E36
  23958017.159   125900202.710    23958019.447    98104046.930                  
  23517546.726   123585477.775    23517550.765    96300355.828                  
  21274787.499   111799761.828    21274788.339    87116696.949                  
  20088212.505   105564268.329    20088213.559    82257873.230                  
  21270942.764   111779555.110    21270943.961    87100952.930                  
  24041681.033   126339835.836    24041684.464    98446612.117                  
  24600657.040   129277237.820    24600663.079   100735487.917                  
                 118564265.922                   118564265.922    22769022.128  
                 135209371.588                   135209371.588    25965543.565  
                 118226880.411                   118226880.411    22704225.691  
                 120243025.757                   120243025.757    23091412.753  
  26284681.814   138126884.847                                                  
  23509379.332   123542604.568                                                  
  23408263.391   123011229.911                                                  
  27534732.009   144695928.746                                                  
  23987549.044   126055355.255                                                  
 21  8 31 19 49  3.0000000  0 16G 5G10G15G18G23G29G32C19C21C22C35E 3
                                E 5E 9E15E36
  23958457.524   125902516.778    23958459.793    98105850.097                  
  23517138.776   123583333.999    23517142.815    96298685.361                  
  21275261.439   111802252.367    21275262.261    87118637.630                  
  20088128.967   105563829.315    20088130.021    82257531.141                  
  21270710.503   111778334.591    21270711.700    87100001.878                  
  24042329.857   126343245.477    24042333.306    98449268.980                  
  24600083.533   129274224.048    24600089.573   100733139.528                  
                 118565715.678                   118565715.678    22769300.545  
                 135207412.172                   135207412.172    25965167.279  
                 118226339.961                   118226339.961    22704121.926  
                 120245393.503                   120245393.503    23091867.466  
  26284319.805   138124982.520                                                  
  23509382.441   123542620.845                                                  
  23408637.604   123013196.400                                                  
  27534199.208   144693128.874                                                  
  23987867.023   126057026.204                                                  
 21  8 31 19 49  4.0000000  0 16G 5G10G15G18G23G29G32C19C21C22C35E 3
                                E 5E 9E15E36
  23958897.906   125904830.933    23958900.157    98107653.336                  
  23516730.844   123581190.249    23516734.883    96297014.902                  
  21275735.415   111804743.177    21275736.255    87120578.520                  
  20088045.519   105563390.888    20088046.573    82257189.507                  
  21270478.259   111777114.207    21270479.474    87099050.934                  
  24042978.699   126346655.121    24042982.148    98451925.844                  
  24599510.081   129271210.460    24599516.102   100730791.282                  
                 118567165.493                   118567165.493    22769578.962  
                 135205452.852                   135205452.852    25964790.993  
                 118225799.668                   118225799.668    22704018.160  
                 120247761.598                   120247761.598    23092322.215  
  26283957.868   138123080.423                                                  
  23509385.586   123542637.378                                                  
  23409011.835   123015162.950                                                  
  27533666.425   144690329.090                                                  
  23988185.056   126058697.542                                                  
 21  8 31 19 49  5.0000000  0 16G 5G10G15G18G23G29G32C19C21C22C35E 3
                                E 5E 9E15E36
  23959338.288   125907145.174    23959340.557    98109456.640                  
  23516322.895   123579046.499    23516326.915    96295344.450                  
  21276209.462   111807234.263    21276210.302    87122519.626                  
  20087962.195   105562953.039    20087963.268    82256848.328                  
  21270246.069   111775893.969    21270247.266    87098100.098                  
  24043627.541   126350064.762    24043630.954    98454582.702                  
  24598936.646   129268197.052    24598942.686   100728443.172                  
                 118568615.363                   118568615.363    22769857.397  
                 135203493.621                   135203493.621    25964414.761  
                 118225259.532                   118225259.532    22703914.449  
                 120250130.042                   120250130.042    23092777.053  
  26283595.913   138121178.504                                                  
  23509388.785   123542654.163                                                  
  23409386.066   123017129.582                                                  
  27533133.660   144687529.383                                                  
  23988503.178   126060369.259                                                  
 21  8 31 19 49  6.0000000  0 16G 5G10G15G18G23G29G32C19C21C22C35E 3
                                E 5E 9E15E36
  23959778.688   125909459.504    23959780.957    98111260.011                  
  23515914.963   123576902.762    23515918.983    96293674.007                  
  21276683.545   111809725.624    21276684.385    87124460.944                  
  20087878.997   105562515.777    20087880.052    82256507.607                  
  21270013.879   111774673.866    21270015.076    87097149.368                  
  24044276.383   126353474.407    24044279.796    98457239.566                  
  24598363.247   129265183.860    24598369.286   100726095.230                  
                 118570065.298                   118570065.298    22770135.833  
                 135201534.481                   135201534.481    25964038.529  
                 118224719.547                   118224719.547    22703810.737  
                 120252498.841                   120252498.841    23093231.962  
  26283234.048   138119276.820                                                  
  23509392.019   123542671.212                                                  
  23409760.315   123019096.272                                                  
  27532600.913   144684729.767                                                  
  23988821.372   126062041.390                                                  
 21  8 31 19 49  7.0000000  0 16G 5G10G15G18G23G29G32C19C21C22C35E 3
                                E 5E 9E15E36
  23960219.106   125911773.906    23960221.375    98113063.442                  
  23515507.013   123574759.033    23515511.033    96292003.571                  
  21277157.682   111812217.244    21277158.522    87126402.464                  
  20087795.906   105562079.093    20087796.961    82256167.331                  
  21269781.742   111773453.899    21269782.939    87096198.742                  
  24044925.208   126356884.054    24044928.638    98459896.434                  
  24597789.883   129262170.845    24597795.923   100723747.431                  
                 118571515.284                   118571515.284    22770414.303  
                 135199575.437                   135199575.437    25963662.314  
                 118224179.714                   118224179.714    22703707.061  
                 120254867.989                   120254867.989    23093686.943  
  26282872.200   138117375.344                                                  
  23509395.307   123542688.507                                                  
  23410134.582   123021063.040                                                  
  27532068.184   144681930.235                                                  
  23989139.637   126063713.900                                                  
 21  8 31 19 49  8.0000000  0 16G 5G10G15G18G23G29G32C19C21C22C35E 3
                                E 5E 9E15E36
  23960659.541   125914088.390    23960661.793    98114866.934                  
  23515099.081   123572615.292    23515103.102    96290333.122                  
  21277631.872   111814709.160    21277632.712    87128344.219                  
  20087712.905   105561642.972    20087713.977    82255827.497                  
  21269549.606   111772234.066    21269550.821    87095248.223                  
  24045574.032   126360293.710    24045577.481    98462553.304                  
  24597216.556   129259158.003    24597222.595   100721399.762                  
                 118572965.334                   118572965.334    22770692.756  
                 135197616.486                   135197616.486    25963286.118  
                 118223640.040                   118223640.040    22703603.420  
                 120257237.488                   120257237.488    23094141.978  
  26282510.406   138115474.001                                                  
  23509398.648   123542706.073                                                  
  23410508.866   123023029.868                                                  
  27531535.455   144679130.792                                                  
  23989457.973   126065386.743                                                  
 21  8 31 19 49  9.0000000  0 16G 5G10G15G18G23G29G32C19C21C22C35E 3
                                E 5E 9E15E36
  23961099.977   125916402.969    23961102.264    98116670.499                  
  23514691.131   123570471.583    23514695.187    96288662.699                  
  21278106.134   111817201.348    21278106.956    87130286.184                  
  20087630.046   105561207.453    20087631.100    82255488.133                  
  21269317.505   111771014.374    21269318.720    87094297.816                  
  24046222.874   126363703.374    24046226.323    98465210.183                  
  24596643.282   129256145.360    24596649.304   100719052.250                  
                 118574415.440                   118574415.440    22770971.245  
                 135195657.630                   135195657.630    25962909.939  
                 118223100.520                   118223100.520    22703499.816  
                 120259607.337                   120259607.337    23094597.084  
  26282148.612   138113572.909                                                  
  23509402.043   123542723.882                                                  
  23410883.133   123024996.762                                                  
  27531002.762   144676331.422                                                  
  23989776.382   126067060.013                                                  
 21  8 31 19 49 10.0000000  0 16G 5G10G15G18G23G29G32C19C21C22C35E 3
                                E 5E 9E15E36
  23961540.448   125918717.630    23961542.718    98118474.129                  
  23514283.199   123568327.875    23514287.238    96286992.282                  
  21278580.431   111819693.807    21278581.253    87132228.355                  
  20087547.259   105560772.500    20087548.313    82255149.207                  
  21269085.440   111769794.821    21269086.637    87093347.517                  
  24046871.716   126367113.030    24046875.165    98467867.058                  
  24596070.026   129253132.929    24596076.065   100716704.906                  
                 118575865.610                   118575865.610    22771249.716  
                 135193698.862                   135193698.862    25962533.778  
                 118222561.152                   118222561.152    22703396.247  
                 120261977.534                   120261977.534    23095052.262  
  26281786.907   138111672.021                                                  
  23509405.474   123542741.941                                                  
  23411257.435   123026963.722                                                  
  27530470.086   144673532.137                                                  
  23990094.879   126068733.661                                                  
 21  8 31 19 49 11.0000000  0 16G 5G10G15G18G23G29G32C19C21C22C35E 3
                                E 5E 9E15E36
  23961980.938   125921032.378    23961983.207    98120277.831                  
  23513875.267   123566184.169    23513879.306    96285321.860                  
  21279054.782   111822186.542    21279055.622    87134170.751                  
  20087464.597   105560338.132    20087465.669    82254810.738                  
  21268853.375   111768575.402    21268854.572    87092397.316                  
  24047520.558   126370522.698    24047524.007    98470523.937                  
  24595496.823   129250120.679    24595502.845   100714357.698                  
                 118577315.832                   118577315.832    22771528.223  
                 135191740.190                   135191740.190    25962157.618  
                 118222021.941                   118222021.941    22703292.678  
                 120264348.083                   120264348.083    23095507.493  
  26281425.220   138109771.343                                                  
  23509408.959   123542760.266                                                  
  23411631.756   123028930.756                                                  
  27529937.393   144670732.947                                                  
  23990413.448   126070407.708                                                  
 21  8 31 19 49 12.0000000  0 16G 5G10G15G18G23G29G32C19C21C22C35E 3
                                E 5E 9E15E36
  23962421.445   125923347.224    23962423.696    98122081.603                  
  23513467.335   123564040.476    23513471.356    96283651.453                  
  21279529.205   111824679.561    21279530.027    87136113.359                  
  20087382.060   105559904.356    20087383.114    82254472.730                  
  21268621.364   111767356.124    21268622.561    87091447.233                  
  24048169.400   126373932.375    24048172.849    98473180.823                  
  24594923.638   129247108.620    24594929.660   100712010.644                  
                 118578766.112                   118578766.112    22771806.747  
                 135189781.608                   135189781.608    25961781.493  
                 118221482.884                   118221482.884    22703189.163  
                 120266718.981                   120266718.981    23095962.796  
  26281063.569   138107870.859                                                  
  23509412.497   123542778.844                                                  
  23412006.076   123030897.864                                                  
  27529404.735   144667933.841                                                  
  23990732.053   126072082.148                                                  
 21  8 31 19 49 13.0000000  0 18G 5G10G13G15G18G23G24G29G32C19C21C22
                                C35E 3E 5E 9E15E36
  23962861.934   125925662.137    23962864.221    98123885.431                  
  23513059.404   123561896.793    23513063.442    96281981.052                  
  23729591.846   124699826.821    23729593.204    97168690.965                  
  21280003.645   111827172.845    21280004.485    87138056.177                  
  20087299.612   105559471.152    20087300.684    82254135.169                  
  21268389.352   111766136.990    21268390.585    87090497.259                  
  21131218.065   111045245.202    21131221.907    86528748.675                  
  24048818.242   126377342.051    24048821.673    98475837.712                  
  24594350.507   129244096.747    24594356.511   100709663.727                  
                 118580216.456                   118580216.456    22772085.254  
                 135187823.125                   135187823.125    25961405.403  
                 118220943.977                   118220943.977    22703085.683  
                 120269090.231                   120269090.231    23096418.188  
  26280701.936   138105970.587                                                  
  23509416.088   123542797.681                                                  
  23412380.432   123032865.039                                                  
  27528872.113   144665134.820                                                  
  23991050.782   126073756.958                                                  
 21  8 31 19 49 14.0000000  0 18G 5G10G13G15G18G23G24G29G32C19C21C22
                                C35E 3E 5E 9E15E36
  23963302.477   125927977.144    23963304.764    98125689.332                  
  23512651.472   123559753.126    23512655.528    96280310.659                  
  23730241.296   124703239.720    23730242.654    97171350.364                  
  21280478.157   111829666.407    21280478.997    87139999.210                  
  20087217.307   105559038.535    20087218.362    82253798.063                  
  21268157.394   111764917.985    21268158.592    87089547.382                  
  21130884.701   111043493.415    21130888.543    86527383.649                  
  24049467.084   126380751.722    24049470.515    98478494.598                  
  24593777.376   129241085.075    24593783.416   100707316.972                  
                 118581666.856                   118581666.856    22772363.796  
                 135185864.729                   135185864.729    25961029.296  
                 118220405.226                   118220405.226    22702982.222  
                 120271461.827                   120271461.827    23096873.616  
  26280340.374   138104070.523                                                  
  23509419.716   123542816.757                                                  
  23412754.788   123034832.281                                                  
  27528339.509   144662335.870                                                  
  23991369.566   126075432.162                                                  
 21  8 31 19 49 15.0000000  0 18G 5G10G13G15G18G23G24G29G32C19C21C22
                                C35E 3E 5E 9E15E36
  23963743.020   125930292.230    23963745.307    98127493.293                  
  23512243.540   123557609.450    23512247.578    96278640.265                  
  23730890.781   124706652.700    23730892.139    97174009.828                  
  21280952.723   111832160.242    21280953.563    87141942.458                  
  20087135.074   105558606.496    20087136.146    82253461.409                  
  21267925.455   111763699.120    21267926.652    87088597.620                  
  21130551.462   111041742.204    21130555.303    86526019.071                  
  24050115.926   126384161.398    24050119.357    98481151.489                  
  24593204.317   129238073.583    24593210.339   100704970.360                  
                 118583117.316                   118583117.316    22772642.338  
                 135183906.430                   135183906.430    25960653.242  
                 118219866.634                   118219866.634    22702878.778  
                 120273833.778                   120273833.778    23097329.115  
  26279978.848   138102170.649                                                  
  23509423.397   123542836.098                                                  
  23413129.162   123036799.586                                                  
  27527806.887   144659537.028                                                  
  23991688.403   126077107.743                                                  
 21  8 31 19 49 16.0000000  0 18G 5G10G13G15G18G23G24G29G32C19C21C22
                                C35E 3E 5E 9E15E36
  23964183.581   125932607.442    23964185.868    98129297.371                  
  23511835.626   123555465.806    23511839.664    96276969.900                  
  23731540.266   124710065.772    23731541.624    97176669.364                  
  21281427.342   111834654.403    21281428.164    87143885.981                  
  20087052.984   105558174.976    20087054.038    82253125.126                  
  21267693.532   111762480.368    21267694.748    87087647.922                  
  21130218.311   111039991.509    21130222.153    86524654.859                  
  24050764.786   126387571.113    24050768.217    98483808.414                  
  24592631.275   129235062.211    24592637.315   100702623.790                  
                 118584567.832                   118584567.832    22772920.898  
                 135181948.223                   135181948.223    25960277.189  
                 118219328.193                   118219328.193    22702775.388  
                 120276206.077                   120276206.077    23097784.704  
  26279617.339   138100270.964                                                  
  23509427.114   123542855.701                                                  
  23413503.518   123038766.957                                                  
  27527274.301   144656738.345                                                  
  23992007.347   126078783.836                                                  
 21  8 31 19 49 17.0000000  0 18G 5G10G13G15G18G23G24G29G32C19C21C22
                                C35E 3E 5E 9E15E36
  23964624.159   125934922.698    23964626.446    98131101.464                  
  23511427.694   123553322.159    23511431.732    96275299.528                  
  23732189.752   124713478.917    23732191.128    97179328.957                  
  21281901.997   111837148.790    21281902.837    87145829.661                  
  20086971.001   105557744.106    20086972.055    82252789.382                  
  21267461.664   111761261.788    21267462.861    87086698.382                  
  21129885.304   111038241.460    21129889.146    86523291.188                  
  24051413.629   126390980.792    24051417.059    98486465.305                  
  24592058.305   129232051.109    24592064.327   100700277.484                  
                 118586018.406                   118586018.406    22773199.459  
                 135179990.106                   135179990.106    25959901.135  
                 118218789.903                   118218789.903    22702671.998  
                 120278578.726                   120278578.726    23098240.346  
  26279255.903   138098371.504                                                  
  23509430.902   123542875.558                                                  
  23413877.928   123040734.405                                                  
  27526741.732   144653939.673                                                  
  23992326.345   126080460.198                                                  
 21  8 31 19 49 18.0000000  0 18G 5G10G13G15G18G23G24G29G32C19C21C22
                                C35E 3E 5E 9E15E36
  23965064.756   125937238.043    23965067.043    98132905.624                  
  23511019.780   123551178.530    23511023.818    96273629.167                  
  23732839.273   124716892.153    23732840.649    97181988.617                  
  21282376.723   111839643.449    21282377.563    87147773.547                  
  20086889.107   105557313.824    20086890.179    82252454.098                  
  21267229.796   111760043.346    21267230.993    87085748.945                  
  21129552.387   111036492.000    21129556.228    86521927.969                  
  24052062.453   126394390.472    24052065.901    98489122.195                  
  24591485.335   129229040.212    24591491.357   100697931.328                  
                 118587469.043                   118587469.043    22773478.037  
                 135178032.085                   135178032.085    25959525.117  
                 118218251.771                   118218251.771    22702568.661  
                 120280951.727                   120280951.727    23098696.059  
  26278894.484   138096472.270                                                  
  23509434.726   123542895.671                                                  
  23414252.319   123042701.920                                                  
  27526209.182   144651141.093                                                  
  23992645.414   126082136.945                                                  
 21  8 31 19 49 19.0000000  0 18G 5G10G13G15G18G23G24G29G32C19C21C22
                                C35E 3E 5E 9E15E36
  23965505.388   125939553.475    23965507.657    98134709.860                  
  23510611.866   123549034.904    23510615.904    96271958.814                  
  23733488.812   124720305.474    23733490.188    97184648.343                  
  21282851.485   111842138.382    21282852.325    87149717.653                  
  20086807.338   105556884.118    20086808.393    82252119.262                  
  21266997.963   111758825.043    21266999.160    87084799.622                  
  21129219.576   111034743.104    21129223.418    86520565.195                  
  24052711.295   126397800.163    24052714.744    98491779.098                  
  24590912.418   129226029.491    24590918.440   100695585.317                  
                 118588919.734                   118588919.734    22773756.633  
                 135176074.155                   135176074.155    25959149.117  
                 118217713.789                   118217713.789    22702465.360  
                 120283325.073                   120283325.073    23099151.827  
  26278533.101   138094573.230                                                  
  23509438.603   123542916.042                                                  
  23414626.747   123044669.500                                                  
  27525676.631   144648342.586                                                  
  23992964.555   126083814.079                                                  
 21  8 31 19 49 20.0000000  0 18G 5G10G13G15G18G23G24G29G32C19C21C22
                                C35E 3E 5E 9E15E36
  23965946.002   125941868.984    23965948.272    98136514.152                  
  23510203.934   123546891.280    23510207.972    96270288.458                  
  23734138.369   124723718.883    23734139.727    97187308.145                  
  21283326.301   111844633.593    21283327.141    87151661.969                  
  20086725.677   105556454.994    20086726.731    82251784.879                  
  21266766.148   111757606.874    21266767.345    87083850.399                  
  21128886.873   111032994.789    21128890.715    86519202.871                  
  24053360.137   126401209.857    24053363.586    98494435.995                  
  24590339.519   129223018.967    24590345.559   100693239.456                  
                 118590370.485                   118590370.485    22774035.246  
                 135174116.320                   135174116.320    25958773.135  
                 118217175.965                   118217175.965    22702362.059  
                 120285698.768                   120285698.768    23099607.683  
  26278171.753   138092674.390                                                  
  23509442.517   123542936.665                                                  
  23415001.174   123046637.157                                                  
  27525144.117   144645544.172                                                  
  23993283.785   126085491.612                                                  
 21  8 31 19 49 21.0000000  0 18G 5G10G13G15G18G23G24G29G32C19C21C22
                                C35E 3E 5E 9E15E36
  23966386.635   125944184.575    23966388.922    98138318.504                  
  23509796.020   123544747.674    23509800.058    96268618.118                  
  23734787.925   124727132.380    23734789.301    97189968.013                  
  21283801.188   111847129.069    21283802.028    87153606.500                  
  20086644.123   105556026.450    20086645.195    82251450.949                  
  21266534.351   111756388.849    21266535.566    87082901.284                  
  21128554.294   111031247.047    21128558.136    86517840.996                  
  24054008.979   126404619.539    24054012.428    98497092.890                  
  24589766.674   129220008.640    24589772.696   100690893.751                  
                 118591821.294                   118591821.294    22774313.860  
                 135172158.573                   135172158.573    25958397.189  
                 118216638.292                   118216638.292    22702258.812  
                 120288072.816                   120288072.816    23100063.576  
  26277810.460   138090775.755                                                  
  23509446.501   123542957.538                                                  
  23415375.620   123048604.874                                                  
  27524611.602   144642745.835                                                  
  23993603.086   126087169.527                                                  
 21  8 31 19 49 22.0000000  0 18G 5G10G13G15G18G23G24G29G32C19C21C22
                                C35E 3E 5E 9E15E36
  23966827.303   125946500.233    23966829.572    98140122.918                  
  23509388.106   123542604.063    23509392.144    96266947.773                  
  23735437.518   124730545.960    23735438.876    97192627.949                  
  21284276.093   111849624.820    21284276.933    87155551.243                  
  20086562.676   105555598.484    20086563.766    82251117.476                  
  21266302.608   111755170.953    21266303.805    87081952.281                  
  21128221.823   111029499.888    21128225.665    86516479.583                  
  24054657.821   126408029.230    24054661.288    98499749.797                  
  24589193.865   129216998.503    24589199.905   100688548.192                  
                 118593272.165                   118593272.165    22774592.474  
                 135170200.927                   135170200.927    25958021.225  
                 118216100.779                   118216100.779    22702155.583  
                 120290447.215                   120290447.215    23100519.558  
  26277449.202   138088877.316                                                  
  23509450.522   123542978.674                                                  
  23415750.083   123050572.663                                                  
  27524079.123   144639947.592                                                  
  23993922.459   126088847.841                                                  
 21  8 31 19 49 23.0000000  0 18G 5G10G13G15G18G23G24G29G32C19C21C22
                                C35E 3E 5E 9E15E36
  23967267.988   125948815.977    23967270.240    98141927.395                  
  23508980.191   123540460.466    23508984.212    96265277.440                  
  23736087.129   124733959.621    23736088.487    97195287.945                  
  21284751.087   111852120.844    21284751.927    87157496.199                  
  20086481.354   105555171.102    20086482.426    82250784.454                  
  21266070.864   111753953.198    21266072.079    87081003.386                  
  21127889.460   111027753.298    21127893.301    86515118.606                  
  24055306.681   126411438.918    24055310.112    98502406.699                  
  24588621.073   129213988.555    24588627.113   100686202.784                  
                 118594723.090                   118594723.090    22774871.124  
                 135168243.366                   135168243.366    25957645.296  
                 118215563.414                   118215563.414    22702052.407  
                 120292821.960                   120292821.960    23100975.593  
  26277087.979   138086979.095                                                  
  23509454.578   123543000.055                                                  
  23416124.546   123052540.513                                                  
  27523546.644   144637149.434                                                  
  23994241.904   126090526.518                                                  
 21  8 31 19 49 24.0000000  0 18G 5G10G13G15G18G23G24G29G32C19C21C22
                                C35E 3E 5E 9E15E36
  23967708.656   125951131.814    23967710.944    98143731.946                  
  23508572.277   123538316.872    23508576.316    96263607.114                  
  23736736.721   124737373.368    23736738.097    97197948.007                  
  21285226.117   111854617.133    21285226.957    87159441.364                  
  20086400.139   105554744.298    20086401.193    82250451.884                  
  21265839.157   111752735.578    21265840.354    87080054.598                  
  21127557.203   111026007.290    21127561.045    86513758.082                  
  24055955.523   126414848.607    24055958.954    98505063.597                  
  24588048.335   129210978.788    24588054.375   100683857.518                  
                 118596174.074                   118596174.074    22775149.755  
                 135166285.904                   135166285.904    25957269.386  
                 118215026.203                   118215026.203    22701949.213  
                 120295197.054                   120295197.054    23101431.718  
  26276726.793   138085081.061                                                  
  23509458.706   123543021.691                                                  
  23416499.045   123054508.433                                                  
  27523014.183   144634351.356                                                  
  23994561.420   126092205.583                                                  
 21  8 31 19 49 25.0000000  0 18G 5G10G13G15G18G23G24G29G32C19C21C22
                                C35E 3E 5E 9E15E36
  23968149.360   125953447.733    23968151.647    98145536.563                  
  23508164.363   123536173.290    23508168.402    96261936.793                  
  23737386.367   124740787.199    23737387.725    97200608.141                  
  21285701.201   111857113.700    21285702.041    87161386.738                  
  20086319.032   105554318.087    20086320.104    82250119.769                  
  21265607.485   111751518.102    21265608.682    87079105.915                  
  21127225.054   111024261.847    21127228.895    86512398.000                  
  24056604.365   126418258.286    24056607.796    98507720.488                  
  24587475.633   129207969.217    24587481.655   100681512.403                  
                 118597625.116                   118597625.116    22775428.423  
                 135164328.531                   135164328.531    25956893.493  
                 118214489.149                   118214489.149    22701846.091  
                 120297572.497                   120297572.497    23101887.896  
  26276365.642   138083183.242                                                  
  23509462.852   123543043.582                                                  
  23416873.526   123056476.427                                                  
  27522481.739   144631553.359                                                  
  23994881.007   126093885.038                                                  
 21  8 31 19 49 26.0000000  0 18G 5G10G13G15G18G23G24G29G32C19C21C22
                                C35E 3E 5E 9E15E36
  23968590.082   125955763.726    23968592.369    98147341.231                  
  23507756.467   123534029.716    23507760.488    96260266.476                  
  23738035.996   124744201.116    23738037.372    97203268.331                  
  21286176.321   111859610.534    21286177.160    87163332.323                  
  20086238.031   105553892.442    20086239.103    82249788.098                  
  21265375.849   111750300.757    21265377.046    87078157.335                  
  21126893.011   111022516.995    21126896.853    86511038.379                  
  24057253.207   126421667.983    24057256.638    98510377.395                  
  24586902.985   129204959.852    24586909.006   100679167.446                  
                 118599076.219                   118599076.219    22775707.072  
                 135162371.249                   135162371.249    25956517.618  
                 118213952.249                   118213952.249    22701742.987  
                 120299948.292                   120299948.292    23102344.146  
  26276004.545   138081285.622                                                  
  23509467.087   123543065.722                                                  
  23417248.043   123058444.476                                                  
  27521949.314   144628755.453                                                  
  23995200.666   126095564.872                                                  
 21  8 31 19 49 27.0000000  0 18G 5G10G13G15G18G23G24G29G32C19C21C22
                                C35E 3E 5E 9E15E36
  23969030.821   125958079.816    23969033.108    98149145.976                  
  23507348.535   123531886.140    23507352.574    96258596.163                  
  23738685.678   124747615.118    23738687.036    97205928.590                  
  21286651.512   111862107.644    21286652.351    87165278.126                  
  20086157.156   105553467.393    20086158.228    82249456.895                  
  21265144.195   111749083.554    21265145.428    87077208.867                  
  21126561.094   111020772.724    21126564.936    86509679.202                  
  24057902.032   126425077.677    24057905.498    98513034.297                  
  24586330.336   129201950.664    24586336.376   100676822.626                  
                 118600527.378                   118600527.378    22775985.758  
                 135160414.063                   135160414.063    25956141.761  
                 118213415.501                   118213415.501    22701639.901  
                 120302324.432                   120302324.432    23102800.467  
  26275643.483   138079388.208                                                  
  23509471.339   123543088.121                                                  
  23417622.560   123060412.599                                                  
  27521416.924   144625957.633                                                  
  23995520.397   126097245.105                                                  
 21  8 31 19 49 28.0000000  0 18G 5G10G13G15G18G23G24G29G32C19C21C22
                                C35E 3E 5E 9E15E36
  23969471.578   125960395.997    23969473.866    98150950.785                  
  23506940.639   123529742.587    23506944.677    96256925.860                  
  23739335.360   124751029.202    23739336.718    97208588.917                  
  21287126.756   111864605.033    21287127.578    87167224.136                  
  20086076.388   105553042.923    20086077.442    82249126.137                  
  21264912.594   111747866.498    21264913.827    87076260.507                  
  21126229.284   111019029.019    21126233.126    86508320.476                  
  24058550.892   126428487.368    24058554.340    98515691.194                  
  24585757.759   129198941.674    24585763.781   100674477.961                  
                 118601978.594                   118601978.594    22776264.461  
                 135158456.970                   135158456.970    25955765.922  
                 118212878.907                   118212878.907    22701536.868  
                 120304700.922                   120304700.922    23103256.842  
  26275282.440   138077491.008                                                  
  23509475.664   123543110.775                                                  
  23417997.095   123062380.789                                                  
  27520884.517   144623159.895                                                  
  23995840.199   126098925.708                                                  
 21  8 31 19 49 29.0000000  0 18G 5G10G13G15G18G23G24G29G32C19C21C22
                                C35E 3E 5E 9E15E36
  23969912.354   125962712.242    23969914.623    98152755.656                  
  23506532.743   123527599.034    23506536.763    96255255.564                  
  23739985.041   124754443.368    23739986.417    97211249.304                  
  21287602.036   111867102.683    21287602.876    87169170.359                  
  20085995.727   105552619.024    20085996.782    82248795.824                  
  21264681.047   111746649.567    21264682.245    87075312.250                  
  21125897.582   111017285.895    21125901.424    86506962.195                  
  24059199.734   126431897.059    24059203.182    98518348.097                  
  24585185.200   129195932.879    24585191.222   100672133.445                  
                 118603429.872                   118603429.872    22776543.164  
                 135156499.970                   135156499.970    25955390.100  
                 118212342.469                   118212342.469    22701433.835  
                 120307077.761                   120307077.761    23103713.306  
  26274921.467   138075593.996                                                  
  23509480.024   123543133.681                                                  
  23418371.647   123064349.044                                                  
  27520352.163   144620362.253                                                  
  23996160.108   126100606.706                                                  
 21  8 31 19 49 30.0000000  0 18G 5G10G13G15G18G23G24G29G32C19C21C22
                                C35E 3E 5E 9E15E36
  23970353.147   125965028.587    23970355.416    98154560.598                  
  23506124.847   123525455.501    23506128.867    96253585.276                  
  23740634.759   124757857.625    23740636.117    97213909.762                  
  21288077.388   111869600.620    21288078.228    87171116.804                  
  20085915.156   105552195.718    20085916.228    82248465.979                  
  21264449.483   111745432.777    21264450.680    87074364.106                  
  21125565.986   111015543.352    21125569.828    86505604.371                  
  24059848.576   126435306.745    24059852.024    98521004.992                  
  24584612.676   129192924.271    24584618.698   100669789.075                  
                 118604881.207                   118604881.207    22776821.885  
                 135154543.060                   135154543.060    25955014.297  
                 118211806.183                   118211806.183    22701330.856  
                 120309454.954                   120309454.954    23104169.806  
  26274560.495   138073697.192                                                  
  23509484.420   123543156.837                                                  
  23418746.200   123066317.364                                                  
  27519819.809   144617564.691                                                  
  23996480.053   126102288.090                                                  
 21  8 31 19 49 31.0000000  0 18G 5G10G13G15G18G23G24G29G32C19C21C22
                                C35E 3E 5E 9E15E36
  23970793.940   125967345.005    23970796.227    98156365.593                  
  23505716.933   123523311.960    23505720.953    96251914.989                  
  23741284.477   124761271.956    23741285.853    97216570.277                  
  21288552.776   111872098.816    21288553.615    87173063.450                  
  20085834.727   105551772.993    20085835.782    82248136.581                  
  21264217.954   111744216.138    21264219.187    87073416.071                  
  21125234.498   111013801.390    21125238.340    86504247.001                  
  24060497.418   126438716.442    24060500.884    98523661.899                  
  24584040.206   129189915.860    24584046.228   100667444.863                  
                 118606332.598                   118606332.598    22777100.606  
                 135152586.246                   135152586.246    25954638.494  
                 118211270.051                   118211270.051    22701227.895  
                 120311832.488                   120311832.488    23104626.377  
  26274199.595   138071800.602                                                  
  23509488.887   123543180.253                                                  
  23419120.788   123068285.762                                                  
  27519287.455   144614767.220                                                  
  23996800.087   126103969.863                                                  
 21  8 31 19 49 32.0000000  0 18G 5G10G13G15G18G23G24G29G32C19C21C22
                                C35E 3E 5E 9E15E36
  23971234.769   125969661.503    23971237.038    98158170.660                  
  23505309.036   123521168.448    23505313.057    96250244.718                  
  23741934.248   124764686.392    23741935.606    97219230.872                  
  21289028.217   111874597.296    21289029.057    87175010.315                  
  20085754.406   105551350.855    20085755.460    82247807.645                  
  21263986.479   111742999.624    21263987.676    87072468.140                  
  21124903.117   111012060.003    21124906.959    86502890.074                  
  24061146.278   126442126.133    24061149.727    98526318.796                  
  24583467.736   129186907.636    24583473.758   100665100.793                  
                 118607784.050                   118607784.050    22777379.345  
                 135150629.525                   135150629.525    25954262.744  
                 118210734.073                   118210734.073    22701124.951  
                 120314210.376                   120314210.376    23105083.038  
  26273838.712   138069904.215                                                  
  23509493.372   123543203.934                                                  
  23419495.359   123070254.223                                                  
  27518755.119   144611969.839                                                  
  23997120.175   126105652.024                                                  
 21  8 31 19 49 33.0000000  0 18G 5G10G13G15G18G23G24G29G32C19C21C22
                                C35E 3E 5E 9E15E36
  23971675.579   125971978.086    23971677.867    98159975.790                  
  23504901.140   123519024.930    23504905.161    96248574.442                  
  23742584.002   124768100.896    23742585.360    97221891.524                  
  21289503.711   111877096.044    21289504.551    87176957.391                  
  20085674.174   105550929.292    20085675.246    82247479.152                  
  21263755.003   111741783.254    21263756.200    87071520.320                  
  21124571.861   111010319.188    21124575.703    86501533.597                  
  24061795.120   126445535.824    24061798.569    98528975.696                  
  24582895.338   129183899.601    24582901.360   100662756.874                  
                 118609235.558                   118609235.558    22777658.084  
                 135148672.891                   135148672.891    25953886.976  
                 118210198.249                   118210198.249    22701022.061  
                 120316588.611                   120316588.611    23105539.752  
  26273477.901   138068008.027                                                  
  23509497.946   123543227.850                                                  
  23419869.965   123072222.750                                                  
  27518222.819   144609172.535                                                  
  23997440.352   126107334.566                                                  
 21  8 31 19 49 34.0000000  0 18G 5G10G13G15G18G23G24G29G32C19C21C22
                                C35E 3E 5E 9E15E36
  23972116.444   125974294.762    23972118.713    98161780.988                  
  23504493.244   123516881.419    23504497.265    96246904.175                  
  23743233.755   124771515.484    23743235.149    97224552.243                  
  21289979.260   111879595.067    21289980.100    87178904.680                  
  20085594.067   105550508.307    20085595.122    82247151.114                  
  21263523.564   111740567.019    21263524.761    87070572.606                  
  21124240.694   111008578.958    21124244.536    86500177.571                  
  24062443.962   126448945.518    24062447.393    98531632.601                  
  24582322.957   129180891.762    24582328.979   100660413.106                  
                 118610687.126                   118610687.126    22777936.840  
                 135146716.356                   135146716.356    25953511.262  
                 118209662.577                   118209662.577    22700919.207  
                 120318967.191                   120318967.191    23105996.538  
  26273117.107   138066112.042                                                  
  23509502.539   123543252.042                                                  
  23420244.571   123074191.343                                                  
  27517690.518   144606375.319                                                  
  23997760.618   126109017.505                                                  
 21  8 31 19 49 35.0000000  0 18G 5G10G13G15G18G23G24G29G32C19C21C22
                                C35E 3E 5E 9E15E36
  23972557.309   125976611.524    23972559.578    98163586.259                  
  23504085.348   123514737.918    23504089.386    96245233.918                  
  23743883.562   124774930.173    23743884.938    97227213.034                  
  21290454.862   111882094.360    21290455.701    87180852.183                  
  20085514.068   105550087.918    20085515.122    82246823.536                  
  21263292.142   111739350.931    21263293.357    87069625.005                  
  21123909.653   111006839.305    21123913.495    86498822.000                  
  24063092.804   126452355.206    24063096.253    98534289.496                  
  24581750.613   129177884.122    24581756.634   100658069.488                  
                 118612138.755                   118612138.755    22778215.615  
                 135144759.912                   135144759.912    25953135.548  
                 118209127.061                   118209127.061    22700816.353  
                 120321346.121                   120321346.121    23106453.378  
  26272756.331   138064216.270                                                  
  23509507.185   123543276.477                                                  
  23420619.195   123076160.002                                                  
  27517158.236   144603578.203                                                  
  23998080.938   126110700.825                                                  
 21  8 31 19 49 36.0000000  0 18G 5G10G13G15G18G23G24G29G32C19C21C22
                                C35E 3E 5E 9E15E36
  23972998.173   125978928.362    23973000.460    98165391.585                  
  23503677.434   123512594.427    23503681.472    96243563.665                  
  23744533.351   124778344.917    23744534.745    97229873.879                  
  21290930.517   111884593.926    21290931.357    87182799.895                  
  20085434.175   105549668.101    20085435.248    82246496.406                  
  21263060.756   111738134.969    21263061.953    87068677.504                  
  21123578.719   111005100.228    21123582.560    86497466.875                  
  24063741.664   126455764.903    24063745.095    98536946.398                  
  24581178.321   129174876.665    24581184.343   100655726.019                  
                 118613590.437                   118613590.437    22778494.408  
                 135142803.554                   135142803.554    25952759.834  
                 118208591.700                   118208591.700    22700713.535  
                 120323725.399                   120323725.399    23106910.306  
  26272395.627   138062320.690                                                  
  23509511.884   123543301.162                                                  
  23420993.837   123078128.736                                                  
  27516626.007   144600781.163                                                  
  23998401.348   126112384.526                                                  
 21  8 31 19 49 37.0000000  0 18G 5G10G13G15G18G23G24G29G32C19C21C22
                                C35E 3E 5E 9E15E36
  23973439.073   125981245.294    23973441.361    98167196.984                  
  23503269.556   123510450.951    23503273.576    96241893.425                  
  23745183.194   124781759.767    23745184.552    97232534.796                  
  21291406.226   111887093.759    21291407.066    87184747.817                  
  20085354.408   105549248.872    20085355.462    82246169.731                  
  21262829.406   111736919.156    21262830.603    87067730.118                  
  21123247.892   111003361.731    21123251.733    86496112.202                  
  24064390.506   126459174.586    24064393.937    98539603.294                  
  24580606.066   129171869.410    24580612.088   100653382.706                  
                 118615042.180                   118615042.180    22778773.182  
                 135140847.296                   135140847.296    25952384.155  
                 118208056.489                   118208056.489    22700610.752  
                 120326105.026                   120326105.026    23107367.289  
  26272034.941   138060425.324                                                  
  23509516.620   123543326.110                                                  
  23421368.479   123080097.536                                                  
  27516093.742   144597984.220                                                  
  23998721.829   126114068.609                                                  
 21  8 31 19 49 38.0000000  0 18G 5G10G13G15G18G23G24G29G32C19C21C22
                                C35E 3E 5E 9E15E36
  23973879.991   125983562.314    23973882.279    98169002.450                  
  23502861.659   123508307.480    23502865.698    96240223.191                  
  23745833.037   124785174.699    23745834.395    97235195.782                  
  21291881.971   111889593.874    21291882.829    87186695.958                  
  20085274.748   105548830.223    20085275.802    82245843.515                  
  21262598.055   111735703.482    21262599.253    87066782.837                  
  21122917.172   111001623.813    21122921.014    86494757.985                  
  24065039.348   126462584.286    24065042.779    98542260.200                  
  24580033.846   129168862.337    24580039.832   100651039.534                  
                 118616493.981                   118616493.981    22779051.993  
                 135138891.130                   135138891.130    25952008.495  
                 118207521.433                   118207521.433    22700508.023  
                 120328484.999                   120328484.999    23107824.343  
  26271674.326   138058530.169                                                  
  23509521.426   123543351.308                                                  
  23421743.139   123082066.396                                                  
  27515561.513   144595187.359                                                  
  23999042.363   126115753.091                                                  
 21  8 31 19 49 39.0000000  0 18G 5G10G13G15G18G23G24G29G32C19C21C22
                                C35E 3E 5E 9E15E36
  23974320.927   125985879.410    23974323.197    98170807.981                  
  23502453.781   123506164.012    23502457.802    96238552.956                  
  23746482.879   124788589.707    23746484.255    97237856.825                  
  21292357.787   111892094.259    21292358.627    87188644.308                  
  20085195.177   105548412.160    20085196.232    82245517.750                  
  21262366.759   111734487.942    21262367.956    87065835.663                  
  21122586.577   110999886.476    21122590.401    86493404.215                  
  24065688.172   126465993.980    24065691.639    98544917.102                  
  24579461.644   129165855.469    24579467.666   100648696.523                  
                 118617945.837                   118617945.837    22779330.803  
                 135136935.055                   135136935.055    25951632.852  
                 118206986.531                   118206986.531    22700405.294  
                 120330865.324                   120330865.324    23108281.432  
  26271313.712   138056635.214                                                  
  23509526.269   123543376.759                                                  
  23422117.817   123084035.317                                                  
  27515029.320   144592390.577                                                  
  23999362.987   126117437.946                                                  
 21  8 31 19 49 40.0000000  0 18G 5G10G13G15G18G23G24G29G32C19C21C22
                                C35E 3E 5E 9E15E36
  23974761.864   125988196.574    23974764.133    98172613.563                  
  23502045.903   123504020.550    23502049.923    96236882.726                  
  23747132.758   124792004.792    23747134.134    97240517.930                  
  21292833.640   111894594.911    21292834.479    87190592.868                  
  20085115.732   105547994.665    20085116.804    82245192.429                  
  21262135.462   111733272.535    21262136.677    87064888.593                  
  21122256.071   110998149.711    21122259.913    86492050.894                  
  24066337.015   126469403.665    24066340.481    98547573.996                  
  24578889.478   129162848.780    24578895.500   100646353.653                  
                 118619397.754                   118619397.754    22779609.631  
                 135134979.075                   135134979.075    25951257.228  
                 118206451.780                   118206451.780    22700302.601  
                 120333245.996                   120333245.996    23108738.647  
  26270953.133   138054740.446                                                  
  23509531.165   123543402.462                                                  
  23422492.494   123086004.308                                                  
  27514497.127   144589593.878                                                  
  23999683.665   126119123.188                                                  
 21  8 31 19 49 41.0000000  0 18G 5G10G13G15G18G23G24G29G32C19C21C22
                                C35E 3E 5E 9E15E36
  23975202.817   125990513.831    23975205.105    98174419.219                  
  23501638.006   123501877.103    23501642.045    96235212.512                  
  23747782.636   124795419.968    23747784.012    97243179.102                  
  21293309.563   111897095.838    21293310.403    87192541.640                  
  20085036.393   105547577.765    20085037.465    82244867.570                  
  21261904.219   111732057.274    21261905.416    87063941.636                  
  21121925.709   110996413.530    21121929.515    86490698.028                  
  24066985.874   126472813.356    24066989.323    98550230.898                  
  24578317.366   129159842.288    24578323.388   100644010.934                  
                 118620849.729                   118620849.729    22779888.459  
                 135133023.183                   135133023.183    25950881.621  
                 118205917.187                   118205917.187    22700199.943  
                 120335627.016                   120335627.016    23109195.880  
  26270592.625   138052845.893                                                  
  23509536.097   123543428.417                                                  
  23422867.208   123087973.376                                                  
  27513964.934   144586797.272                                                  
  24000004.432   126120808.829                                                  
 21  8 31 19 49 42.0000000  0 18G 5G10G13G15G18G23G24G29G32C19C21C22
                                C35E 3E 5E 9E15E36
  23975643.807   125992831.177    23975646.076    98176224.938                  
  23501230.128   123499733.655    23501234.149    96233542.293                  
  23748432.568   124798835.231    23748433.927    97245840.344                  
  21293785.522   111899597.051    21293786.362    87194490.637                  
  20084957.180   105547161.449    20084958.234    82244543.168                  
  21261672.976   111730842.151    21261674.173    87062994.790                  
  21121595.418   110994677.933    21121599.260    86489345.613                  
  24067634.717   126476223.056    24067638.183    98552887.800                  
  24577745.271   129156835.999    24577751.293   100641668.371                  
                 118622301.763                   118622301.763    22780167.323  
                 135131067.387                   135131067.387    25950506.014  
                 118205382.747                   118205382.747    22700097.304  
                 120338008.382                   120338008.382    23109653.201  
  26270232.135   138050951.554                                                  
  23509541.082   123543454.642                                                  
  23423241.921   123089942.505                                                  
  27513432.777   144584000.757                                                  
  24000325.288   126122494.842                                                  
 21  8 31 19 49 43.0000000  0 18G 5G10G13G15G18G23G24G29G32C19C21C22
                                C35E 3E 5E 9E15E36
  23976084.797   125995148.599    23976087.084    98178030.719                  
  23500822.232   123497590.226    23500826.253    96231872.090                  
  23749082.483   124802250.577    23749083.841    97248501.652                  
  21294261.535   111902098.515    21294262.375    87196439.832                  
  20084878.056   105546745.699    20084879.128    82244219.211                  
  21261441.787   111729627.163    21261442.984    87062048.046                  
  21121265.252   110992942.917    21121269.094    86487993.652                  
  24068283.559   126479632.735    24068287.025    98555544.695                  
  24577173.248   129153829.891    24577179.252   100639325.950                  
                 118623753.852                   118623753.852    22780446.187  
                 135129111.683                   135129111.683    25950130.461  
                 118204848.461                   118204848.461    22699994.700  
                 120340390.094                   120340390.094    23110110.577  
  26269871.699   138049057.406                                                  
  23509546.121   123543481.102                                                  
  23423616.634   123091911.699                                                  
  27512900.637   144581204.331                                                  
  24000646.180   126124181.249                                                  
 21  8 31 19 49 44.0000000  0 18G 5G10G13G15G18G23G24G29G32C19C21C22
                                C35E 3E 5E 9E15E36
  23976525.804   125997466.109    23976528.073    98179836.573                  
  23500414.354   123495446.805    23500418.374    96230201.890                  
  23749732.397   124805666.008    23749733.773    97251163.025                  
  21294737.602   111904600.271    21294738.442    87198389.245                  
  20084799.057   105546330.551    20084800.129    82243895.719                  
  21261210.597   111728412.325    21261211.795    87061101.419                  
  21120935.193   110991208.473    21120939.035    86486642.137                  
  24068932.401   126483042.418    24068935.867    98558201.591                  
  24576601.243   129150823.977    24576607.265   100636983.684                  
                 118625205.999                   118625205.999    22780725.033  
                 135127156.070                   135127156.070    25949754.907  
                 118204314.324                   118204314.324    22699892.114  
                 120342772.155                   120342772.155    23110568.042  
  26269511.299   138047163.466                                                  
  23509551.196   123543507.823                                                  
  23423991.384   123093880.966                                                  
  27512368.516   144578408.001                                                  
  24000967.179   126125868.044                                                  
 21  8 31 19 49 45.0000000  0 18G 5G10G13G15G18G23G24G29G32C19C21C22
                                C35E 3E 5E 9E15E36
  23976966.847   125999783.716    23976969.117    98181642.501                  
  23500006.475   123493303.390    23500010.496    96228531.699                  
  23750382.365   124809081.515    23750383.741    97253824.461                  
  21295213.722   111907102.284    21295214.562    87200338.870                  
  20084720.183   105545915.981    20084721.237    82243572.675                  
  21260979.444   111727197.613    21260980.659    87060154.890                  
  21120605.260   110989474.610    21120609.101    86485291.075                  
  24069581.243   126486452.100    24069584.692    98560858.481                  
  24576029.255   129147818.257    24576035.277   100634641.566                  
                 118626658.207                   118626658.207    22781003.915  
                 135125200.550                   135125200.550    25949379.354  
                 118203780.344                   118203780.344    22699789.581  
                 120345154.568                   120345154.568    23111025.560  
  26269150.917   138045269.731                                                  
  23509556.342   123543534.799                                                  
  23424366.133   123095850.298                                                  
  27511836.394   144575611.747                                                  
  24001288.232   126127555.219                                                  
 21  8 31 19 49 46.0000000  0 18G 5G10G13G15G18G23G24G29G32C19C21C22
                                C35E 3E 5E 9E15E36
  23977407.855   126002101.387    23977410.160    98183448.472                  
  23499598.597   123491159.980    23499602.618    96226861.512                  
  23751032.315   124812497.122    23751033.709    97256485.964                  
  21295689.878   111909604.582    21295690.718    87202288.711                  
  20084641.398   105545501.989    20084642.453    82243250.086                  
  21260748.326   111725983.051    21260749.523    87059208.478                  
  21120275.415   110987741.325    21120279.257    86483940.464                  
  24070230.103   126489861.806    24070233.534    98563515.390                  
  24575457.339   129144812.733    24575463.343   100632299.602                  
                 118628110.473                   118628110.473    22781282.815  
                 135123245.126                   135123245.126    25949003.837  
                 118203246.515                   118203246.515    22699687.067  
                 120347537.324                   120347537.324    23111483.132  
  26268790.606   138043376.211                                                  
  23509561.524   123543562.034                                                  
  23424740.900   123097819.694                                                  
  27511304.326   144572815.579                                                  
  24001609.356   126129242.786                                                  
 21  8 31 19 49 47.0000000  0 18G 5G10G13G15G18G23G24G29G32C19C21C22
                                C35E 3E 5E 9E15E36
  23977848.916   126004419.152    23977851.221    98185254.527                  
  23499190.719   123489016.583    23499194.757    96225191.332                  
  23751682.318   124815912.797    23751683.676    97259147.531                  
  21296166.123   111912107.147    21296166.963    87204238.762                  
  20084562.721   105545088.590    20084563.775    82242927.953                  
  21260517.226   111724768.621    21260518.423    87058262.168                  
  21119945.696   110986008.621    21119949.538    86482590.310                  
  24070878.945   126493271.488    24070882.394    98566172.286                  
  24574885.441   129141807.403    24574891.445   100629957.786                  
                 118629562.797                   118629562.797    22781561.715  
                 135121289.792                   135121289.792    25948628.337  
                 118202712.843                   118202712.843    22699584.588  
                 120349920.426                   120349920.426    23111940.776  
  26268430.313   138041482.881                                                  
  23509566.760   123543589.518                                                  
  23425115.685   123099789.164                                                  
  27510772.240   144570019.507                                                  
  24001930.587   126130930.733                                                  
 21  8 31 19 49 48.0000000  0 18G 5G10G13G15G18G23G24G29G32C19C21C22
                                C35E 3E 5E 9E15E36
  23978289.995   126006737.012    23978292.282    98187060.649                  
  23498782.858   123486873.203    23498786.879    96223521.168                  
  23752332.304   124819328.553    23752333.680    97261809.157                  
  21296642.386   111914609.979    21296643.226    87206189.020                  
  20084484.169   105544675.765    20084485.223    82242606.274                  
  21260286.161   111723554.328    21260287.359    87057315.969                  
  21119616.102   110984276.504    21119619.926    86481240.606                  
  24071527.787   126496681.165    24071531.236    98568829.172                  
  24574313.579   129138802.270    24574319.583   100627616.124                  
                 118631015.177                   118631015.177    22781840.632  
                 135119334.551                   135119334.551    25948252.855  
                 118202179.325                   118202179.325    22699482.127  
                 120352303.880                   120352303.880    23112398.509  
  26268070.055   138039589.757                                                  
  23509572.031   123543617.260                                                  
  23425490.487   123101758.704                                                  
  27510240.172   144567223.515                                                  
  24002251.854   126132619.071                                                  
 21  8 31 19 49 49.0000000  0 18G 5G10G13G15G18G23G24G29G32C19C21C22
                                C35E 3E 5E 9E15E36
  23978731.092   126009054.897    23978733.379    98188866.766                  
  23498374.980   123484729.782    23498379.018    96221850.957                  
  23752982.325   124822744.433    23752983.684    97264470.907                  
  21297118.703   111917113.081    21297119.543    87208139.492                  
  20084405.724   105544263.531    20084406.778    82242285.055                  
  21260055.097   111722340.171    21260056.294    87056369.872                  
  21119286.579   110982544.960    21119290.421    86479891.355                  
  24072176.665   126500090.618    24072180.131    98571485.775                  
  24573741.717   129135797.532    24573747.703   100625274.880                  
                 118632467.626                   118632467.626    22782119.568  
                 135117379.433                   135117379.433    25947877.373  
                 118201645.952                   118201645.952    22699379.684  
                 120354687.682                   120354687.682    23112856.277  
  26267709.851   138037696.827                                                  
  23509577.356   123543645.249                                                  
  23425865.272   123103728.300                                                  
  27509708.122   144564427.675                                                  
  24002573.193   126134307.793                                                  
 21  8 31 19 49 50.0000000  0 18G 5G10G13G15G18G23G24G29G32C19C21C22
                                C35E 3E 5E 9E15E36
  23979172.206   126011372.909    23979174.494    98190673.011                  
  23497967.120   123482586.414    23497971.140    96220180.800                  
  23753632.347   124826160.360    23753633.723    97267132.663                  
  21297595.073   111919616.456    21297595.913    87210090.176                  
  20084327.386   105543851.875    20084328.440    82241964.286                  
  21259824.086   111721126.157    21259825.283    87055423.887                  
  21118957.200   110980813.987    21118961.024    86478542.547                  
  24072825.507   126503500.304    24072828.991    98574142.668                  
  24573169.926   129132792.775    24573175.912   100622933.508                  
                 118633920.125                   118633920.125    22782398.503  
                 135115424.378                   135115424.378    25947501.927  
                 118201112.742                   118201112.742    22699277.294  
                 120357071.828                   120357071.828    23113314.135  
  26267349.683   138035804.125                                                  
  23509582.735   123543673.496                                                  
  23426240.075   123105697.964                                                  
  27509176.107   144561631.862                                                  
  24002894.639   126135996.900                                                  
 21  8 31 19 49 51.0000000  0 18G 5G10G13G15G18G23G24G29G32C19C21C22
                                C35E 3E 5E 9E15E36
  23979613.321   126013691.020    23979615.626    98192479.327                  
  23497559.241   123480443.052    23497563.280    96218510.647                  
  23754282.386   124829576.360    23754283.762    97269794.479                  
  21298071.515   111922120.101    21298072.355    87212041.066                  
  20084249.155   105543440.800    20084250.228    82241643.970                  
  21259593.093   111719912.290    21259594.308    87054478.015                  
  21118627.927   110979083.605    21118631.733    86477194.195                  
  24073474.331   126506909.983    24073477.833    98576799.563                  
  24572598.188   129129788.213    24572604.157   100620592.296                  
                 118635372.676                   118635372.676    22782677.439  
                 135113469.399                   135113469.399    25947126.499  
                 118200579.698                   118200579.698    22699174.922  
                 120359456.329                   120359456.329    23113772.065  
  26266989.533   138033911.614                                                  
  23509588.167   123543702.004                                                  
  23426614.914   123107667.695                                                  
  27508644.075   144558836.134                                                  
  24003216.138   126137686.400                                                  
 21  8 31 19 49 52.0000000  0 18G 5G10G13G15G18G23G24G29G32C19C21C22
                                C35E 3E 5E 9E15E36
  23980054.454   126016009.208    23980056.759    98194285.707                  
  23497151.381   123478299.696    23497155.401    96216840.504                  
  23754932.443   124832992.457    23754933.819    97272456.371                  
  21298547.992   111924624.005    21298548.832    87213992.159                  
  20084171.032   105543030.320    20084172.104    82241324.113                  
  21259362.118   111718698.550    21259363.333    87053532.245                  
  21118298.744   110977353.800    21118302.586    86475846.298                  
  24074123.173   126510319.656    24074126.676    98579456.445                  
  24572026.451   129126783.849    24572032.437   100618251.235                  
                 118636825.286                   118636825.286    22782956.392  
                 135111514.527                   135111514.527    25946751.071  
                 118200046.794                   118200046.794    22699072.587  
                 120361841.167                   120361841.167    23114230.048  
  26266629.455   138032019.312                                                  
  23509593.635   123543730.753                                                  
  23426989.752   123109637.496                                                  
  27508112.096   144556040.499                                                  
  24003537.691   126139376.266                                                  
 21  8 31 19 49 53.0000000  0 18G 5G10G13G15G18G23G24G29G32C19C21C22
                                C35E 3E 5E 9E15E36
  23980495.622   126018327.487    23980497.891    98196092.156                  
  23496743.502   123476156.342    23496747.541    96215170.359                  
  23755582.518   124836408.634    23755583.894    97275118.329                  
  21299024.523   111927128.187    21299025.363    87215943.468                  
  20084093.034   105542620.413    20084094.106    82241004.703                  
  21259131.179   111717484.953    21259132.394    87052586.585                  
  21117969.686   110975624.577    21117973.528    86474498.851                  
  24074772.015   126513729.324    24074775.518    98582113.328                  
  24571454.785   129123779.663    24571460.754   100615910.313                  
                 118638277.956                   118638277.956    22783235.381  
                 135109559.746                   135109559.746    25946375.679  
                 118199514.038                   118199514.038    22698970.286  
                 120364226.351                   120364226.351    23114688.102  
  26266269.394   138030127.215                                                  
  23509599.157   123543759.763                                                  
  23427364.608   123111607.356                                                  
  27507580.118   144553244.956                                                  
  24003859.352   126141066.526                                                  
 21  8 31 19 49 54.0000000  0 18G 5G10G13G15G18G23G24G29G32C19C21C22
                                C35E 3E 5E 9E15E36
  23980936.772   126020645.848    23980939.078    98197898.671                  
  23496335.642   123474013.001    23496339.680    96213500.222                  
  23756232.611   124839824.895    23756234.005    97277780.344                  
  21299501.108   111929632.636    21299501.948    87217894.989                  
  20084015.161   105542211.093    20084016.215    82240685.754                  
  21258900.276   111716271.500    21258901.473    87051641.040                  
  21117640.735   110973895.937    21117644.559    86473151.859                  
  24075420.875   126517139.004    24075424.360    98584770.219                  
  24570883.137   129120775.683    24570889.124   100613569.552                  
                 118639730.687                   118639730.687    22783514.352  
                 135107605.057                   135107605.057    25946000.304  
                 118198981.439                   118198981.439    22698868.004  
                 120366611.887                   120366611.887    23115146.193  
  26265909.386   138028235.320                                                  
  23509604.714   123543789.022                                                  
  23427739.483   123113577.286                                                  
  27507048.157   144550449.483                                                  
  24004181.083   126142757.176                                                  
 21  8 31 19 49 55.0000000  0 18G 5G10G13G15G18G23G24G29G32C19C21C22
                                C35E 3E 5E 9E15E36
  23981377.976   126022964.294    23981380.264    98199705.250                  
  23495927.782   123471869.671    23495931.802    96211830.097                  
  23756882.740   124843241.230    23756884.098    97280442.425                  
  21299977.746   111932137.361    21299978.586    87219846.718                  
  20083937.377   105541802.357    20083938.449    82240367.254                  
  21258669.372   111715058.185    21258670.605    87050695.597                  
  21117311.891   110972167.867    21117315.715    86471805.313                  
  24076069.700   126520548.660    24076073.202    98587427.089                  
  24570311.543   129117771.900    24570317.511   100611228.941                  
                 118641183.474                   118641183.474    22783793.359  
                 135105650.465                   135105650.465    25945624.947  
                 118198448.991                   118198448.991    22698765.740  
                 120368997.766                   120368997.766    23115604.408  
  26265549.397   138026343.636                                                  
  23509610.343   123543818.540                                                  
  23428114.357   123115547.284                                                  
  27506516.214   144547654.125                                                  
  24004502.869   126144448.214                                                  
 21  8 31 19 49 56.0000000  0 18G 5G10G13G15G18G23G24G29G32C19C21C22
                                C35E 3E 5E 9E15E36
  23981819.181   126025282.831    23981821.486    98201511.903                  
  23495519.921   123469726.341    23495523.942    96210159.972                  
  23757532.869   124846657.656    23757534.227    97283104.575                  
  21300454.420   111934642.352    21300455.260    87221798.659                  
  20083859.700   105541394.204    20083860.754    82240049.215                  
  21258438.522   111713845.001    21258439.719    87049750.257                  
  21116983.155   110970440.386    21116986.997    86470459.222                  
  24076718.542   126523958.321    24076722.044    98590083.969                  
  24569739.985   129114768.304    24569745.953   100608888.479                  
                 118642636.316                   118642636.316    22784072.366  
                 135103695.960                   135103695.960    25945249.609  
                 118197916.700                   118197916.700    22698663.529  
                 120371383.991                   120371383.991    23116062.641  
  26265189.461   138024452.150                                                  
  23509616.007   123543848.301                                                  
  23428489.231   123117517.344                                                  
  27505984.307   144544858.825                                                  
  24004824.743   126146139.630                                                  
 21  8 31 19 49 57.0000000  0 18G 5G10G13G15G18G23G24G29G32C19C21C22
                                C35E 3E 5E 9E15E36
  23982260.402   126027601.450    23982262.708    98203318.617                  
  23495112.061   123467583.031    23495116.081    96208489.859                  
  23758182.997   124850074.169    23758184.355    97285766.789                  
  21300931.166   111937147.626    21300932.006    87223750.821                  
  20083782.149   105540986.630    20083783.203    82239731.625                  
  21258207.708   111712631.962    21258208.905    87048805.034                  
  21116654.544   110968713.484    21116658.386    86469113.586                  
  24077367.384   126527367.980    24077370.886    98592740.839                  
  24569168.444   129111764.902    24569174.412   100606548.173                  
                 118644089.219                   118644089.219    22784351.373  
                 135101741.550                   135101741.550    25944874.288  
                 118197384.558                   118197384.558    22698561.336  
                 120373770.562                   120373770.562    23116520.964  
  26264829.561   138022560.871                                                  
  23509621.725   123543878.324                                                  
  23428864.141   123119487.474                                                  
  27505452.382   144542063.634                                                  
  24005146.672   126147831.442                                                  
 21  8 31 19 49 58.0000000  0 18G 5G10G13G15G18G23G24G29G32C19C21C22
                                C35E 3E 5E 9E15E36
  23982701.642   126029920.152    23982703.912    98205125.399                  
  23494704.200   123465439.722    23494708.221    96206819.755                  
  23758833.162   124853490.753    23758834.520    97288429.062                  
  21301407.947   111939653.161    21301408.787    87225703.183                  
  20083704.704   105540579.639    20083705.758    82239414.487                  
  21257976.876   111711419.055    21257978.073    87047859.914                  
  21116326.040   110966987.169    21116329.864    86467768.403                  
  24078016.226   126530777.636    24078019.728    98595397.716                  
  24568596.939   129108761.684    24568602.943   100604207.999                  
                 118645542.180                   118645542.180    22784630.398  
                 135099787.234                   135099787.234    25944498.984  
                 118196852.569                   118196852.569    22698459.161  
                 120376157.482                   120376157.482    23116979.340  
  26264469.697   138020669.798                                                  
  23509627.479   123543908.601                                                  
  23429239.051   123121457.668                                                  
  27504920.492   144539268.513                                                  
  24005468.672   126149523.636                                                  
 21  8 31 19 49 59.0000000  0 18G 5G10G13G15G18G23G24G29G32C19C21C22
                                C35E 3E 5E 9E15E36
  23983142.882   126032238.932    23983145.187    98206932.239                  
  23494296.340   123463296.430    23494300.378    96205149.652                  
  23759483.326   124856907.417    23759484.702    97291091.397                  
  21301884.782   111942158.966    21301885.622    87227655.763                  
  20083627.367   105540173.239    20083628.421    82239097.811                  
  21257746.098   111710206.288    21257747.295    87046914.903                  
  21115997.643   110965261.422    21116001.467    86466423.668                  
  24078665.068   126534187.298    24078668.552    98598054.591                  
  24568025.505   129105758.679    24568031.474   100601867.999                  
                 118646995.199                   118646995.199    22784909.440  
                 135097833.008                   135097833.008    25944123.681  
                 118196320.738                   118196320.738    22698357.039  
                 120378544.745                   120378544.745    23117437.806  
  26264109.887   138018778.925                                                  
  23509633.286   123543939.134                                                  
  23429613.979   123123427.930                                                  
  27504388.621   144536473.495                                                  
  24005790.779   126151216.202                                                  
 21  8 31 19 50  0.0000000  0 18G 5G10G13G15G18G23G24G29G32C19C21C22
                                C35E 3E 5E 9E15E36
  23983584.158   126034557.813    23983586.445    98208739.156                  
  23493888.479   123461153.136    23493892.518    96203479.560                  
  23760133.508   124860324.159    23760134.884    97293753.792                  
  21302361.689   111944665.052    21302362.528    87229608.551                  
  20083550.137   105539767.413    20083551.191    82238781.586                  
  21257515.337   111708993.669    21257516.552    87045970.005                  
  21115669.335   110963536.263    21115673.177    86465079.386                  
  24079313.892   126537596.954    24079317.394    98600711.461                  
  24567454.072   129102755.863    24567460.058   100599528.145                  
                 118648448.274                   118648448.274    22785188.483  
                 135095878.875                   135095878.875    25943748.396  
                 118195789.057                   118195789.057    22698254.936  
                 120380932.360                   120380932.360    23117896.325  
  26263750.094   138016888.257                                                  
  23509639.147   123543969.914                                                  
  23429988.942   123125398.254                                                  
  27503856.767   144533678.568                                                  
  24006112.939   126152909.177                                                  
 21  8 31 19 50  1.0000000  0 18G 5G10G13G15G18G23G24G29G32C19C21C22
                                C35E 3E 5E 9E15E36
  23984025.433   126036876.761    23984027.720    98210546.129                  
  23493480.637   123459009.858    23493484.657    96201809.469                  
  23760783.726   124863740.984    23760785.085    97296416.250                  
  21302838.613   111947171.405    21302839.453    87231561.556                  
  20083473.014   105539362.181    20083474.087    82238465.820                  
  21257284.612   111707781.181    21257285.827    87045025.207                  
  21115341.188   110961811.691    21115344.994    86463735.565                  
  24079962.734   126541006.589    24079966.219    98603368.320                  
  24566882.692   129099753.233    24566888.678   100597188.438                  
                 118649901.407                   118649901.407    22785467.544  
                 135093924.835                   135093924.835    25943373.165  
                 118195257.531                   118195257.531    22698152.868  
                 120383320.318                   120383320.318    23118354.897  
  26263390.355   138014997.797                                                  
  23509645.044   123544000.948                                                  
  23430363.888   123127368.660                                                  
  27503324.914   144530883.723                                                  
  24006435.153   126154602.521                                                  
 21  8 31 19 50  2.0000000  0 18G 5G10G13G15G18G23G24G29G32C19C21C22
                                C35E 3E 5E 9E15E36
  23984466.744   126039195.808    23984469.014    98212353.176                  
  23493072.776   123456866.578    23493076.797    96200139.383                  
  23761433.927   124867157.897    23761435.303    97299078.782                  
  21303315.626   111949678.049    21303316.466    87233514.785                  
  20083396.017   105538957.535    20083397.071    82238150.512                  
  21257053.923   111706568.837    21257055.120    87044080.523                  
  21115013.095   110960087.691    21115016.937    86462392.191                  
  24080611.576   126544416.251    24080615.061    98606025.194                  
  24566311.348   129096750.802    24566317.316   100594848.879                  
                 118651354.597                   118651354.597    22785746.622  
                 135091970.888                   135091970.888    25942997.915  
                 118194726.156                   118194726.156    22698050.818  
                 120385708.622                   120385708.622    23118813.542  
  26263030.651   138013107.543                                                  
  23509650.995   123544032.235                                                  
  23430738.852   123129339.121                                                  
  27502793.096   144528088.969                                                  
  24006757.475   126156296.258                                                  
 21  8 31 19 50  3.0000000  0 18G 5G10G13G15G18G23G24G29G32C19C21C22
                                C35E 3E 5E 9E15E36
  23984908.038   126041514.918    23984910.343    98214160.272                  
  23492664.934   123454723.316    23492668.954    96198469.308                  
  23762084.162   124870574.883    23762085.538    97301741.364                  
  21303792.676   111952184.958    21303793.515    87235468.220                  
  20083319.126   105538553.458    20083320.199    82237835.645                  
  21256823.234   111705356.625    21256824.431    87043135.940                  
  21114685.163   110958364.277    21114688.987    86461049.269                  
  24081260.401   126547825.875    24081263.903    98608682.044                  
  24565740.040   129093748.559    24565746.026   100592509.474                  
                 118652807.846                   118652807.846    22786025.700  
                 135090017.031                   135090017.031    25942622.701  
                 118194194.933                   118194194.933    22697948.804  
                 120388097.269                   120388097.269    23119272.257  
  26262671.001   138011217.491                                                  
  23509656.999   123544063.781                                                  
  23431113.833   123131309.645                                                  
  27502261.278   144525294.300                                                  
  24007079.868   126157990.371                                                  
 21  8 31 19 50  4.0000000  0 18G 5G10G13G15G18G23G24G29G32C19C21C22
                                C35E 3E 5E 9E15E36
  23985349.385   126043834.129    23985351.672    98215967.448                  
  23492257.073   123452580.059    23492261.094    96196799.243                  
  23762734.398   124873991.949    23762735.774    97304404.008                  
  21304269.779   111954692.136    21304270.618    87237421.863                  
  20083242.343   105538149.972    20083243.415    82237521.242                  
  21256592.599   111704144.560    21256593.796    87042191.476                  
  21114357.302   110956641.433    21114361.144    86459706.798                  
  24081909.243   126551235.516    24081912.745    98611338.907                  
  24565168.767   129090746.507    24565174.735   100590170.210                  
                 118654261.156                   118654261.156    22786304.779  
                 135088063.270                   135088063.270    25942247.505  
                 118193663.866                   118193663.866    22697846.825  
                 120390486.265                   120390486.265    23119731.044  
  26262311.351   138009327.636                                                  
  23509663.056   123544095.575                                                  
  23431488.815   123133280.238                                                  
  27501729.496   144522499.722                                                  
  24007402.314   126159684.885                                                  
 21  8 31 19 50  5.0000000  0 18G 5G10G13G15G18G23G24G29G32C19C21C22
                                C35E 3E 5E 9E15E36
  23985790.714   126046153.429    23985793.019    98217774.695                  
  23491849.249   123450436.812    23491853.251    96195129.180                  
  23763384.652   124877409.090    23763386.046    97307066.716                  
  21304746.917   111957199.589    21304747.757    87239375.723                  
  20083165.685   105537747.069    20083166.739    82237207.292                  
  21256361.981   111702932.630    21256363.178    87041247.113                  
  21114029.584   110954919.185    21114033.408    86458364.786                  
  24082558.085   126554645.148    24082561.551    98613995.757                  
  24564597.512   129087744.651    24564603.498   100587831.108                  
                 118655714.519                   118655714.519    22786583.893  
                 135086109.597                   135086109.597    25941872.327  
                 118193132.954                   118193132.954    22697744.865  
                 120392875.604                   120392875.604    23120189.885  
  26261951.773   138007437.992                                                  
  23509669.167   123544127.625                                                  
  23431863.814   123135250.894                                                  
  27501197.714   144519705.235                                                  
  24007724.832   126161379.773                                                  
 21  8 31 19 50  6.0000000  0 18G 5G10G13G15G18G23G24G29G32C19C21C22
                                C35E 3E 5E 9E15E36
  23986232.097   126048472.806    23986234.384    98219581.999                  
  23491441.406   123448293.581    23491445.426    96193459.132                  
  23764034.942   124880826.317    23764036.318    97309729.488                  
  21305224.127   111959707.307    21305224.985    87241329.789                  
  20083089.116   105537344.759    20083090.188    82236893.801                  
  21256131.381   111701720.832    21256132.578    87040302.859                  
  21113701.938   110953197.500    21113705.780    86457023.216                  
  24083206.891   126558054.781    24083210.393    98616652.613                  
  24564026.347   129084743.007    24564032.315   100585492.167                  
                 118657167.942                   118657167.942    22786863.007  
                 135084156.016                   135084156.016    25941497.167  
                 118192602.186                   118192602.186    22697642.922  
                 120395265.292                   120395265.292    23120648.797  
  26261592.213   138005548.574                                                  
  23509675.296   123544159.937                                                  
  23432238.831   123137221.625                                                  
  27500665.967   144516910.821                                                  
  24008047.440   126163075.054                                                  
 21  8 31 19 50  7.0000000  0 18G 5G10G13G15G18G23G24G29G32C19C21C22
                                C35E 3E 5E 9E15E36
  23986673.479   126050792.282    23986675.767    98221389.383                  
  23491033.545   123446150.354    23491037.584    96191789.085                  
  23764685.231   124884243.632    23764686.625    97312392.333                  
  21305701.373   111962215.281    21305702.213    87243284.051                  
  20083012.673   105536943.018    20083013.745    82236580.757                  
  21255900.799   111700509.160    21255901.997    87039358.699                  
  21113374.417   110951476.390    21113378.258    86455682.089                  
  24083855.733   126561464.387    24083859.236    98619309.445                  
  24563455.181   129081741.550    24563461.167   100583153.372                  
                 118658621.421                   118658621.421    22787142.139  
                 135082202.532                   135082202.532    25941122.007  
                 118192071.582                   118192071.582    22697541.015  
                 120397655.329                   120397655.329    23121107.781  
  26261232.724   138003659.391                                                  
  23509681.497   123544192.503                                                  
  23432613.884   123139192.427                                                  
  27500134.221   144514116.496                                                  
  24008370.118   126164770.728                                                  
 21  8 31 19 50  8.0000000  0 18G 5G10G13G15G18G23G24G29G32C19C21C22
                                C35E 3E 5E 9E15E36
  23987114.862   126053111.805    23987117.167    98223196.806                  
  23490625.703   123444007.121    23490629.723    96190119.036                  
  23765335.556   124887661.020    23765336.914    97315055.230                  
  21306178.673   111964723.548    21306179.548    87245238.543                  
  20082936.336   105536541.871    20082937.408    82236268.176                  
  21255670.253   111699297.688    21255671.468    87038414.695                  
  21113047.020   110949755.900    21113050.862    86454341.449                  
  24084504.557   126564874.016    24084508.060    98621966.297                  
  24562884.034   129078740.258    24562890.020   100580814.703                  
                 118660074.961                   118660074.961    22787421.253  
                 135080249.137                   135080249.137    25940746.883  
                 118191541.126                   118191541.126    22697439.161  
                 120400045.707                   120400045.707    23121566.836  
  26260873.235   138001770.278                                                  
  23509687.733   123544225.281                                                  
  23432988.919   123141163.261                                                  
  27499602.492   144511322.293                                                  
  24008692.869   126166466.733                                                  
 21  8 31 19 50  9.0000000  0 18G 5G10G13G15G18G23G24G29G32C19C21C22
                                C35E 3E 5E 9E15E36
  23987556.281   126055431.434    23987558.586    98225004.304                  
  23490217.860   123441863.906    23490221.881    96188448.995                  
  23765985.882   124891078.496    23765987.257    97317718.194                  
  21306656.044   111967232.067    21306656.883    87247193.230                  
  20082860.125   105536141.310    20082861.179    82235956.051                  
  21255439.743   111698086.309    21255440.940    87037470.761                  
  21112719.731   110948035.964    21112723.555    86453001.242                  
  24085153.399   126568283.646    24085156.902    98624623.148                  
  24562312.957   129075739.183    24562318.944   100578476.203                  
                 118661528.556                   118661528.556    22787700.421  
                 135078295.833                   135078295.833    25940371.758  
                 118191010.821                   118191010.821    22697337.326  
                 120402436.430                   120402436.430    23122025.945  
  26260513.799   137999881.464                                                  
  23509694.023   123544258.346                                                  
  23433363.954   123143134.181                                                  
  27499070.800   144508528.155                                                  
  24009015.673   126168163.173                                                  
 21  8 31 19 50 10.0000000  0 18G 5G10G13G15G18G23G24G29G32C19C21C22
                                C35E 3E 5E 9E15E36
  23987997.699   126057751.156    23988000.004    98226811.880                  
  23489810.018   123439720.699    23489814.038    96186778.964                  
  23766636.225   124894496.055    23766637.601    97320381.227                  
  21307133.468   111969740.853    21307134.308    87249148.129                  
  20082784.003   105535741.330    20082785.057    82235644.376                  
  21255209.268   111696875.074    21255210.465    87036526.942                  
  21112392.567   110946316.618    21112396.373    86451661.489                  
  24085802.224   126571693.243    24085805.726    98627279.973                  
  24561741.899   129072738.293    24561747.885   100576137.851                  
                 118662982.206                   118662982.206    22787979.589  
                 135076342.622                   135076342.622    25939996.652  
                 118190480.673                   118190480.673    22697235.526  
                 120404827.499                   120404827.499    23122485.126  
  26260154.417   137997992.833                                                  
  23509700.367   123544291.667                                                  
  23433739.043   123145105.173                                                  
  27498539.107   144505734.115                                                  
  24009338.584   126169859.989                                                  
 21  8 31 19 50 11.0000000  0 18G 5G10G13G15G18G23G24G29G32C19C21C22
                                C35E 3E 5E 9E15E36
  23988439.153   126060070.952    23988441.440    98228619.511                  
  23489402.175   123437577.495    23489406.196    96185108.942                  
  23767286.586   124897913.695    23767287.944    97323044.323                  
  21307610.893   111972249.915    21307611.768    87251103.247                  
  20082708.006   105535341.931    20082709.060    82235333.156                  
  21254978.793   111695663.981    21254980.009    87035583.235                  
  21112065.475   110944597.852    21112069.317    86450322.192                  
  24086451.066   126575102.855    24086454.568    98629936.813                  
  24561170.895   129069737.605    24561176.863   100573799.653                  
                 118664435.918                   118664435.918    22788258.739  
                 135074389.504                   135074389.504    25939621.599  
                 118189950.677                   118189950.677    22697133.744  
                 120407218.915                   120407218.915    23122944.377  
  26259795.054   137996104.415                                                  
  23509706.764   123544325.237                                                  
  23434114.114   123147076.231                                                  
  27498007.432   144502940.159                                                  
  24009661.548   126171557.183                                                  
 21  8 31 19 50 12.0000000  0 18G 5G10G13G15G18G23G24G29G32C19C21C22
                                C35E 3E 5E 9E15E36
  23988880.625   126062390.845    23988882.895    98230427.219                  
  23488994.333   123435434.309    23488998.389    96183438.922                  
  23767936.947   124901331.406    23767938.322    97325707.468                  
  21308088.424   111974759.250    21308089.264    87253058.570                  
  20082632.098   105534943.121    20082633.152    82235022.395                  
  21254748.355   111694453.025    21254749.552    87034639.633                  
  21111738.525   110942879.668    21111742.367    86448983.347                  
  24087099.872   126578512.464    24087103.374    98632593.651                  
  24560599.926   129066737.114    24560605.894   100571461.613                  
                 118665889.687                   118665889.687    22788537.924  
                 135072436.475                   135072436.475    25939246.546  
                 118189420.831                   118189420.831    22697031.980  
                 120409610.673                   120409610.673    23123403.683  
  26259435.743   137994216.212                                                  
  23509713.197   123544359.054                                                  
  23434489.202   123149047.347                                                  
  27497475.775   144500146.288                                                  
  24009984.585   126173254.767                                                  
 21  8 31 19 50 13.0000000  0 18G 5G10G13G15G18G23G24G29G32C19C21C22
                                C35E 3E 5E 9E15E36
  23989322.079   126064710.805    23989324.385    98232234.976                  
  23488586.526   123433291.132    23488590.546    96181768.919                  
  23768587.325   124904749.203    23768588.701    97328370.688                  
  21308565.974   111977268.840    21308566.814    87255014.093                  
  20082556.316   105534544.879    20082557.388    82234712.079                  
  21254517.933   111693242.207    21254519.149    87033696.136                  
  21111411.683   110941162.062    21111415.507    86447644.957                  
  24087748.714   126581922.061    24087752.217    98635250.476                  
  24560028.975   129063736.805    24560034.961   100569123.712                  
                 118667343.512                   118667343.512    22788817.128  
                 135070483.543                   135070483.543    25938871.475  
                 118188891.140                   118188891.140    22696930.252  
                 120412002.778                   120412002.778    23123863.059  
  26259076.469   137992328.203                                                  
  23509719.683   123544393.131                                                  
  23434864.327   123151018.530                                                  
  27496944.136   144497352.520                                                  
  24010307.692   126174952.738                                                  
 21  8 31 19 50 14.0000000  0 18G 5G10G13G15G18G23G24G29G32C19C21C22
                                C35E 3E 5E 9E15E36
  23989763.587   126067030.930    23989765.875    98234042.907                  
  23488178.683   123431147.981    23488182.704    96180098.942                  
  23769237.740   124908167.046    23769239.098    97331033.926                  
  21309043.595   111979778.700    21309044.435    87256969.823                  
  20082480.658   105534147.235    20082481.713    82234402.224                  
  21254287.566   111692031.559    21254288.763    87032752.797                  
  21111084.948   110939445.040    21111088.754    86446307.020                  
  24088397.538   126585331.653    24088401.041    98637907.294                  
  24559458.077   129060736.672    24559464.046   100566785.946                  
                 118668797.395                   118668797.395    22789096.313  
                 135068530.704                   135068530.704    25938496.458  
                 118188361.603                   118188361.603    22696828.559  
                 120414395.225                   120414395.225    23124322.526  
  26258717.212   137990440.384                                                  
  23509726.205   123544427.464                                                  
  23435239.415   123152989.790                                                  
  27496412.515   144494558.687                                                  
  24010630.872   126176651.050                                                  
 21  8 31 19 50 15.0000000  0 18G 5G10G13G15G18G23G24G29G32C19C21C22
                                C35E 3E 5E 9E15E36
  23990205.077   126069351.060    23990207.382    98235850.800                  
  23487770.858   123429004.812    23487774.879    96178428.939                  
  23769888.155   124911585.009    23769889.513    97333697.274                  
  21309521.252   111982288.833    21309522.092    87258925.769                  
  20082405.108   105533750.171    20082406.162    82234092.828                  
  21254057.199   111690821.029    21254058.396    87031809.524                  
  21110758.302   110937728.602    21110762.144    86444969.536                  
  24089046.363   126588741.238    24089049.865    98640564.113                  
  24558887.198   129057736.750    24558893.184   100564448.344                  
                 118670251.336                   118670251.336    22789375.535  
                 135066577.952                   135066577.952    25938121.459  
                 118187832.214                   118187832.214    22696726.902  
                 120416788.025                   120416788.025    23124782.028  
  26258358.045   137988552.797                                                  
  23509732.781   123544462.038                                                  
  23435614.558   123154961.096                                                  
  27495880.911   144491765.081                                                  
  24010954.140   126178349.788                                                  
 21  8 31 19 50 16.0000000  0 18G 5G10G13G15G18G23G24G29G32C19C21C22
                                C35E 3E 5E 9E15E36
  23990646.621   126071671.273    23990648.908    98237658.754                  
  23487363.016   123426861.644    23487367.036    96176758.942                  
  23770538.587   124915003.052    23770539.963    97336360.680                  
  21309998.980   111984799.221    21309999.820    87260881.913                  
  20082329.647   105533353.686    20082330.719    82233783.874                  
  21253826.885   111689610.621    21253828.082    87030866.352                  
  21110431.782   110936012.730    21110435.623    86443632.495                  
  24089695.205   126592150.818    24089698.707    98643220.922                  
  24558316.372   129054737.031    24558322.340   100562110.903                  
                 118671705.335                   118671705.335    22789654.756  
                 135064625.297                   135064625.297    25937746.477  
                 118187302.985                   118187302.985    22696625.263  
                 120419181.164                   120419181.164    23125241.601  
  26257998.859   137986665.395                                                  
  23509739.428   123544496.864                                                  
  23435989.700   123156932.468                                                  
  27495349.326   144488971.577                                                  
  24011277.480   126180048.910                                                  
 21  8 31 19 50 17.0000000  0 18G 5G10G13G15G18G23G24G29G32C19C21C22
                                C35E 3E 5E 9E15E36
  23991088.147   126073991.570    23991090.434    98239466.778                  
  23486955.191   123424718.507    23486959.212    96175088.956                  
  23771189.037   124918421.176    23771190.413    97339024.149                  
  21310476.744   111987309.897    21310477.584    87262838.282                  
  20082254.311   105532957.806    20082255.383    82233475.392                  
  21253596.553   111688400.367    21253597.768    87029923.290                  
  21110105.386   110934297.448    21110109.192    86442295.910                  
  24090344.011   126595560.395    24090347.513    98645877.730                  
  24557745.582   129051737.505    24557751.568   100559773.605                  
                 118673159.389                   118673159.389    22789933.995  
                 135062672.731                   135062672.731    25937371.496  
                 118186773.901                   118186773.901    22696523.660  
                 120421574.647                   120421574.647    23125701.246  
  26257639.746   137984778.199                                                  
  23509746.094   123544531.943                                                  
  23436364.860   123158903.909                                                  
  27494817.758   144486178.152                                                  
  24011600.874   126181748.425                                                  
 21  8 31 19 50 18.0000000  0 18G 5G10G13G15G18G23G24G29G32C19C21C22
                                C35E 3E 5E 9E15E36
  23991529.708   126076311.965    23991531.995    98241274.871                  
  23486547.366   123422575.374    23486551.405    96173418.985                  
  23771839.505   124921839.374    23771840.881    97341687.675                  
  21310954.562   111989820.837    21310955.402    87264794.852                  
  20082179.083   105532562.491    20082180.155    82233167.352                  
  21253366.275   111687190.247    21253367.472    87028980.335                  
  21109779.080   110932582.753    21109782.922    86440959.781                  
  24090992.835   126598969.968    24090996.338    98648534.534                  
  24557174.827   129048738.161    24557180.795   100557436.457                  
                 118674613.508                   118674613.508    22790213.234  
                 135060720.258                   135060720.258    25936996.532  
                 118186244.978                   118186244.978    22696422.074  
                 120423968.476                   120423968.476    23126160.962  
  26257280.668   137982891.219                                                  
  23509752.812   123544567.282                                                  
  23436740.020   123160875.424                                                  
  27494286.208   144483384.821                                                  
  24011924.356   126183448.310                                                  
 21  8 31 19 50 19.0000000  0 18G 5G10G13G15G18G23G24G29G32C19C21C22
                                C35E 3E 5E 9E15E36
  23991971.287   126078632.442    23991973.574    98243083.032                  
  23486139.542   123420432.247    23486143.562    96171749.013                  
  23772489.974   124925257.661    23772491.367    97344351.270                  
  21311432.416   111992332.050    21311433.255    87266751.641                  
  20082103.979   105532167.770    20082105.034    82232859.772                  
  21253136.033   111685980.274    21253137.248    87028037.499                  
  21109452.899   110930868.645    21109456.723    86439624.110                  
  24091641.660   126602379.539    24091645.162    98651191.340                  
  24556604.108   129045739.023    24556610.077   100555099.468                  
                 118676067.676                   118676067.676    22790492.492  
                 135058767.876                   135058767.876    25936621.622  
                 118185716.202                   118185716.202    22696320.543  
                 120426362.654                   120426362.654    23126620.732  
  26256921.625   137981004.425                                                  
  23509759.603   123544602.868                                                  
  23437115.198   123162846.992                                                  
  27493754.658   144480591.570                                                  
  24012247.929   126185148.585                                                  
 21  8 31 19 50 20.0000000  0 18G 5G10G13G15G18G23G24G29G32C19C21C22
                                C35E 3E 5E 9E15E36
  23992412.867   126080952.989    23992415.154    98244891.251                  
  23485731.717   123418289.122    23485735.738    96170079.048                  
  23773140.478   124928676.035    23773141.853    97347014.938                  
  21311910.340   111994843.530    21311911.180    87268708.641                  
  20082028.983   105531773.630    20082030.037    82232552.652                  
  21252905.826   111684770.434    21252907.023    87027094.770                  
  21109126.825   110929155.118    21109130.667    86438288.894                  
  24092290.484   126605789.092    24092293.986    98653848.133                  
  24556033.425   129042740.087    24556039.394   100552762.633                  
                 118677521.908                   118677521.908    22790771.784  
                 135056815.586                   135056815.586    25936246.694  
                 118185187.581                   118185187.581    22696219.029  
                 120428757.172                   120428757.172    23127080.574  
  26256562.619   137979117.859                                                  
  23509766.428   123544638.710                                                  
  23437490.394   123164818.633                                                  
  27493223.144   144477798.427                                                  
  24012571.537   126186849.245                                                  
 21  8 31 19 50 21.0000000  0 18G 5G10G13G15G18G23G24G29G32C19C21C22
                                C35E 3E 5E 9E15E36
  23992854.464   126083273.621    23992856.769    98246699.536                  
  23485323.892   123416146.012    23485327.913    96168409.094                  
  23773790.981   124932094.485    23773792.357    97349678.664                  
  21312388.319   111997355.280    21312389.159    87270665.848                  
  20081954.076   105531380.079    20081955.148    82232245.987                  
  21252675.619   111683560.734    21252676.817    87026152.145                  
  21108800.858   110927442.175    21108804.682    86436954.134                  
  24092939.308   126609198.649    24092942.793    98656504.925                  
  24555462.778   129039741.333    24555468.764   100550425.946                  
                 118678976.192                   118678976.192    22791051.059  
                 135054863.390                   135054863.390    25935871.802  
                 118184659.114                   118184659.114    22696117.533  
                 120431152.035                   120431152.035    23127540.487  
  26256203.666   137977231.475                                                  
  23509773.272   123544674.803                                                  
  23437865.608   123166790.348                                                  
  27492691.648   144475005.363                                                  
  24012895.234   126188550.298                                                  
 21  8 31 19 50 22.0000000  0 18G 5G10G13G15G18G23G24G29G32C19C21C22
                                C35E 3E 5E 9E15E36
  23993296.079   126085594.335    23993298.384    98248507.882                  
  23484916.085   123414002.911    23484920.106    96166739.146                  
  23774441.503   124935513.012    23774442.879    97352342.449                  
  21312866.333   111999867.297    21312867.173    87272623.262                  
  20081879.294   105530987.101    20081880.366    82231939.773                  
  21252445.448   111682351.169    21252446.646    87025209.629                  
  21108474.998   110925729.810    21108478.840    86435619.825                  
  24093588.114   126612608.202    24093591.617    98659161.720                  
  24554892.185   129036742.770    24554898.135   100548089.403                  
                 118680430.534                   118680430.534    22791330.334  
                 135052911.286                   135052911.286    25935496.928  
                 118184130.798                   118184130.798    22696016.072  
                 120433547.243                   120433547.243    23128000.453  
  26255844.713   137975345.317                                                  
  23509780.206   123544711.161                                                  
  23438240.822   123168762.124                                                  
  27492160.152   144472212.399                                                  
  24013219.021   126190251.738                                                  
 21  8 31 19 50 23.0000000  0 18G 5G10G13G15G18G23G24G29G32C19C21C22
                                C35E 3E 5E 9E15E36
  23993737.712   126087915.141    23993740.017    98250316.302                  
  23484508.261   123411859.807    23484512.281    96165069.194                  
  23775092.043   124938931.618    23775093.419    97355006.297                  
  21313344.401   112002379.578    21313345.241    87274580.879                  
  20081804.637   105530594.727    20081805.692    82231634.027                  
  21252215.295   111681141.747    21252216.493    87024267.218                  
  21108149.264   110924018.032    21108153.106    86434285.972                  
  24094236.921   126616017.749    24094240.441    98661818.508                  
  24554321.609   129033744.427    24554327.577   100545753.034                  
                 118681884.937                   118681884.937    22791609.663  
                 135050959.270                   135050959.270    25935122.036  
                 118183602.633                   118183602.633    22695914.666  
                 120435942.793                   120435942.793    23128460.509  
  26255485.831   137973459.347                                                  
  23509787.157   123544747.762                                                  
  23438616.035   123170733.956                                                  
  27491628.691   144469419.514                                                  
  24013542.861   126191953.559                                                  
 21  8 31 19 50 24.0000000  0 18G 5G10G13G15G18G23G24G29G32C19C21C22
                                C35E 3E 5E 9E15E36
  23994179.380   126090236.031    23994181.685    98252124.786                  
  23484100.436   123409716.718    23484104.457    96163399.257                  
  23775742.600   124942350.306    23775743.976    97357670.208                  
  21313822.522   112004892.126    21313823.380    87276538.711                  
  20081730.088   105530202.925    20081731.142    82231328.727                  
  21251985.178   111679932.464    21251986.375    87023324.922                  
  21107823.637   110922306.840    21107827.461    86432952.579                  
  24094885.745   126619427.285    24094889.247    98664475.284                  
  24553751.087   129030746.263    24553757.037   100543416.805                  
                 118683339.393                   118683339.393    22791888.956  
                 135049007.347                   135049007.347    25934747.198  
                 118183074.623                   118183074.623    22695813.259  
                 120438338.692                   120438338.692    23128920.618  
  26255126.986   137971573.583                                                  
  23509794.179   123544784.622                                                  
  23438991.285   123172705.864                                                  
  27491097.249   144466626.723                                                  
  24013866.773   126193655.765                                                  
 21  8 31 19 50 25.0000000  0 18G 5G10G13G15G18G23G24G29G32C19C21C22
                                C35E 3E 5E 9E15E36
  23994621.049   126092557.004    23994623.336    98253933.331                  
  23483692.611   123407573.640    23483696.632    96161729.329                  
  23776393.176   124945769.071    23776394.552    97360334.180                  
  21314300.698   112007404.941    21314301.537    87278496.746                  
  20081655.645   105529811.707    20081656.700    82231023.884                  
  21251755.079   111678723.325    21251756.276    87022382.735                  
  21107498.117   110920596.230    21107501.941    86431619.633                  
  24095534.551   126622836.820    24095538.054    98667132.063                  
  24553180.582   129027748.269    24553186.533   100541080.708                  
                 118684793.910                   118684793.910    22792168.302  
                 135047055.520                   135047055.520    25934372.377  
                 118182546.766                   118182546.766    22695711.888  
                 120440734.934                   120440734.934    23129380.781  
  26254768.176   137969688.044                                                  
  23509801.237   123544821.722                                                  
  23439366.534   123174677.829                                                  
  27490565.806   144463834.024                                                  
  24014190.756   126195358.347                                                  
 21  8 31 19 50 26.0000000  0 18G 5G10G13G15G18G23G24G29G32C19C21C22
                                C35E 3E 5E 9E15E36
  23995062.718   126094878.059    23995065.023    98255741.950                  
  23483284.822   123405430.566    23483288.843    96160059.403                  
  23777043.751   124949187.923    23777045.145    97362998.214                  
  21314778.926   112009918.024    21314779.766    87280454.992                  
  20081581.292   105529421.073    20081582.365    82230719.492                  
  21251525.015   111677514.317    21251526.212    87021440.652                  
  21107172.722   110918886.195    21107176.546    86430287.141                  
  24096183.376   126626246.350    24096186.878    98669788.839                  
  24552610.114   129024750.495    24552616.082   100538744.785                  
                 118686248.485                   118686248.485    22792447.613  
                 135045103.780                   135045103.780    25933997.556  
                 118182019.058                   118182019.058    22695610.535  
                 120443131.517                   120443131.517    23129841.016  
  26254409.402   137967802.685                                                  
  23509808.331   123544859.078                                                  
  23439741.802   123176649.863                                                  
  27490034.399   144461041.409                                                  
  24014514.847   126197061.319                                                  
 21  8 31 19 50 27.0000000  0 18G 5G10G13G15G18G23G24G29G32C19C21C22
                                C35E 3E 5E 9E15E36
  23995504.422   126097199.199    23995506.727    98257550.628                  
  23482876.998   123403287.503    23482881.018    96158389.484                  
  23777694.362   124952606.852    23777695.738    97365662.317                  
  21315257.208   112012431.382    21315258.048    87282413.453                  
  20081507.082   105529031.032    20081508.137    82230415.561                  
  21251294.987   111676305.454    21251296.184    87020498.684                  
  21106847.416   110917176.755    21106851.240    86428955.110                  
  24096832.182   126629655.883    24096835.702    98672445.618                  
  24552039.681   129021752.909    24552045.667   100536409.008                  
                 118687703.118                   118687703.118    22792726.977  
                 135043152.136                   135043152.136    25933622.754  
                 118181491.504                   118181491.504    22695509.235  
                 120445528.445                   120445528.445    23130301.340  
  26254050.681   137965917.542                                                  
  23509815.497   123544896.692                                                  
  23440117.087   123178621.965                                                  
  27489502.992   144458248.894                                                  
  24014838.973   126198764.681                                                  
 21  8 31 19 50 28.0000000  0 18G 5G10G13G15G18G23G24G29G32C19C21C22
                                C35E 3E 5E 9E15E36
  23995946.144   126099520.415    23995948.431    98259359.368                  
  23482469.209   123401144.449    23482473.193    96156719.571                  
  23778344.973   124956025.860    23778346.367    97368326.477                  
  21315735.526   112014944.992    21315736.384    87284372.110                  
  20081432.962   105528641.570    20081434.016    82230112.086                  
  21251064.959   111675096.731    21251066.156    87019556.820                  
  21106522.218   110915467.879    21106526.060    86427623.520                  
  24097481.006   126633065.410    24097484.508    98675102.388                  
  24551469.302   129018755.511    24551475.252   100534073.375                  
                 118689157.803                   118689157.803    22793006.341  
                 135041200.585                   135041200.585    25933247.986  
                 118180964.107                   118180964.107    22695407.954  
                 120447925.720                   120447925.720    23130761.700  
  26253691.978   137964032.596                                                  
  23509822.716   123544934.555                                                  
  23440492.372   123180594.123                                                  
  27488971.603   144455456.458                                                  
  24015163.188   126200468.425                                                  
 21  8 31 19 50 29.0000000  0 18G 5G10G13G15G18G23G24G29G32C19C21C22
                                C35E 3E 5E 9E15E36
  23996387.866   126101841.722    23996390.154    98261168.176                  
  23482061.384   123399001.409    23482065.404    96155049.673                  
  23778995.620   124959444.950    23778996.996    97370990.703                  
  21316213.898   112017458.884    21316214.756    87286330.985                  
  20081358.966   105528252.696    20081360.020    82229809.066                  
  21250834.985   111673888.149    21250836.182    87018615.066                  
  21106197.145   110913759.593    21106200.987    86426292.386                  
  24098129.795   126636474.919    24098133.315    98677759.143                  
  24550898.958   129015758.324    24550904.926   100531737.907                  
                 118690612.550                   118690612.550    22793285.706  
                 135039249.124                   135039249.124    25932873.237  
                 118180436.855                   118180436.855    22695306.708  
                 120450323.337                   120450323.337    23131222.149  
  26253333.311   137962147.865                                                  
  23509829.953   123544972.676                                                  
  23440867.675   123182566.351                                                  
  27488440.232   144452664.125                                                  
  24015487.458   126202172.556                                                  
 21  8 31 19 50 30.0000000  0 18G 5G10G13G15G18G23G24G29G32C19C21C22
                                C35E 3E 5E 9E15E36
  23996829.624   126104163.108    23996831.912    98262977.047                  
  23481653.577   123396858.364    23481657.598    96153379.770                  
  23779646.267   124962864.128    23779647.643    97373654.995                  
  21316692.341   112019973.034    21316693.181    87288290.063                  
  20081285.078   105527864.407    20081286.132    82229506.503                  
  21250605.028   111672679.708    21250606.226    87017673.426                  
  21105872.179   110912051.891    21105876.003    86424961.711                  
  24098778.619   126639884.425    24098782.121    98680415.902                  
  24550328.633   129012761.328    24550334.601   100529402.586                  
                 118692067.352                   118692067.352    22793565.088  
                 135037297.754                   135037297.754    25932498.506  
                 118179909.760                   118179909.760    22695205.480  
                 120452721.298                   120452721.298    23131682.633  
  26252974.716   137960263.332                                                  
  23509837.261   123545011.044                                                  
  23441242.978   123184538.640                                                  
  27487908.897   144449871.868                                                  
  24015811.816   126203877.065                                                  
 21  8 31 19 50 31.0000000  0 18G 5G10G13G15G18G23G24G29G32C19C21C22
                                C35E 3E 5E 9E15E36
  23997271.382   126106484.589    23997273.687    98264785.992                  
  23481245.752   123394715.336    23481249.773    96151709.878                  
  23780296.914   124966283.383    23780298.308    97376319.347                  
  21317170.802   112022487.449    21317171.660    87290249.347                  
  20081211.296   105527476.699    20081212.369    82229204.395                  
  21250375.072   111671471.399    21250376.287    87016731.886                  
  21105547.320   110910344.773    21105551.162    86423631.489                  
  24099427.425   126643293.926    24099430.945    98683072.653                  
  24549758.361   129009764.516    24549764.347   100527067.406                  
                 118693522.215                   118693522.215    22793844.488  
                 135035346.476                   135035346.476    25932123.757  
                 118179382.820                   118179382.820    22695104.288  
                 120455119.602                   120455119.602    23132143.225  
  26252616.138   137958379.003                                                  
  23509844.623   123545049.667                                                  
  23441618.317   123186511.001                                                  
  27487377.561   144447079.714                                                  
  24016136.264   126205581.965                                                  
 21  8 31 19 50 32.0000000  0 18G 5G10G13G15G18G23G24G29G32C19C21C22
                                C35E 3E 5E 9E15E36
  23997713.158   126108806.163    23997715.463    98266595.009                  
  23480837.963   123392572.318    23480841.984    96150039.993                  
  23780947.597   124969702.719    23780948.973    97378983.765                  
  21317649.335   112025002.142    21317650.174    87292208.848                  
  20081137.622   105527089.578    20081138.695    82228902.742                  
  21250145.187   111670263.231    21250146.384    87015790.457                  
  21105222.586   110908638.238    21105226.428    86422301.722                  
  24100076.232   126646703.429    24100079.734    98685729.406                  
  24549188.142   129006767.919    24549194.093   100524732.397                  
                 118694977.130                   118694977.130    22794123.888  
                 135033395.289                   135033395.289    25931749.061  
                 118178856.027                   118178856.027    22695003.113  
                 120457518.246                   120457518.246    23132603.853  
  26252257.596   137956494.879                                                  
  23509852.021   123545088.543                                                  
  23441993.656   123188483.425                                                  
  27486846.262   144444287.642                                                  
  24016460.765   126207287.252                                                  
 21  8 31 19 50 33.0000000  0 18G 5G10G13G15G18G23G24G29G32C19C21C22
                                C35E 3E 5E 9E15E36
  23998154.952   126111127.813    23998157.257    98268404.085                  
  23480430.157   123390429.313    23480434.177    96148370.122                  
  23781598.297   124973122.144    23781599.673    97381648.250                  
  21318127.921   112027517.093    21318128.760    87294168.546                  
  20081064.074   105526703.044    20081065.146    82228601.546                  
  21249915.302   111669055.206    21249916.499    87014849.141                  
  21104897.960   110906932.294    21104901.784    86420972.415                  
  24100725.038   126650112.918    24100728.558    98688386.149                  
  24548617.942   129003771.495    24548623.892   100522397.528                  
                 118696432.106                   118696432.106    22794403.288  
                 135031444.194                   135031444.194    25931374.384  
                 118178329.389                   118178329.389    22694901.975  
                 120459917.239                   120459917.239    23133064.552  
  26251899.108   137954610.960                                                  
  23509859.455   123545127.680                                                  
  23442369.013   123190455.920                                                  
  27486314.962   144441495.661                                                  
  24016785.338   126208992.927                                                  
 21  8 31 19 50 34.0000000  0 18G 5G10G13G15G18G23G24G29G32C19C21C22
                                C35E 3E 5E 9E15E36
  23998596.764   126113449.555    23998599.087    98270213.234                  
  23480022.368   123388286.303    23480026.388    96146700.246                  
  23782248.998   124976541.636    23782250.391    97384312.789                  
  21318606.560   112030032.312    21318607.400    87296128.461                  
  20080990.632   105526317.099    20080991.704    82228300.808                  
  21249685.435   111667847.320    21249686.632    87013907.929                  
  21104573.440   110905226.921    21104577.264    86419643.558                  
  24101373.844   126653522.392    24101377.364    98691042.879                  
  24548047.759   129000775.271    24548053.727   100520062.806                  
                 118697887.137                   118697887.137    22794682.724  
                 135029493.196                   135029493.196    25930999.706  
                 118177802.905                   118177802.905    22694800.872  
                 120462316.575                   120462316.575    23133525.323  
  26251540.637   137952727.246                                                  
  23509866.960   123545167.060                                                  
  23442744.387   123192428.480                                                  
  27485783.680   144438703.780                                                  
  24017110.001   126210698.977                                                  
 21  8 31 19 50 35.0000000  0 18G 5G10G13G15G18G23G24G29G32C19C21C22
                                C35E 3E 5E 9E15E36
  23999038.593   126115771.373    23999040.898    98272022.440                  
  23479614.561   123386143.314    23479618.581    96145030.382                  
  23782899.734   124979961.211    23782901.128    97386977.386                  
  21319085.236   112032547.800    21319086.075    87298088.578                  
  20080917.297   105525931.730    20080918.352    82228000.523                  
  21249455.621   111666639.571    21249456.819    87012966.828                  
  21104249.028   110903522.142    21104252.834    86418315.156                  
  24102022.633   126656931.860    24102026.153    98693699.601                  
  24547477.648   128997779.243    24547483.598   100517728.243                  
                 118699342.227                   118699342.227    22794962.142  
                 135027542.284                   135027542.284    25930625.064  
                 118177276.575                   118177276.575    22694699.804  
                 120464716.251                   120464716.251    23133986.165  
  26251182.220   137950843.735                                                  
  23509874.500   123545206.687                                                  
  23443119.762   123194401.099                                                  
  27485252.416   144435911.984                                                  
  24017434.716   126212405.403                                                  
 21  8 31 19 50 36.0000000  0 18G 5G10G13G15G18G23G24G29G32C19C21C22
                                C35E 3E 5E 9E15E36
  23999480.440   126118093.284    23999482.745    98273831.722                  
  23479206.754   123384000.324    23479210.774    96143360.522                  
  23783550.452   124983380.853    23783551.864    97389642.042                  
  21319563.965   112035063.561    21319564.822    87300048.911                  
  20080844.088   105525546.956    20080845.142    82227700.699                  
  21249225.826   111665431.964    21249227.023    87012025.835                  
  21103924.723   110901817.940    21103928.547    86416987.211                  
  24102671.439   126660341.319    24102674.959    98696356.325                  
  24546907.537   128994783.397    24546913.523   100515393.820                  
                 118700797.375                   118700797.375    22795241.595  
                 135025591.463                   135025591.463    25930250.422  
                 118176750.391                   118176750.391    22694598.755  
                 120467116.274                   120467116.274    23134447.060  
  26250823.839   137948960.430                                                  
  23509882.077   123545246.575                                                  
  23443495.136   123196373.793                                                  
  27484721.188   144433120.285                                                  
  24017759.522   126214112.228                                                  
 21  8 31 19 50 37.0000000  0 18G 5G10G13G15G18G23G24G29G32C19C21C22
                                C35E 3E 5E 9E15E36
  23999922.306   126120415.266    23999924.593    98275641.059                  
  23478798.983   123381857.346    23478802.985    96141690.672                  
  23784201.224   124986800.583    23784202.600    97392306.766                  
  21320042.747   112037579.575    21320043.605    87302009.441                  
  20080770.968   105525162.760    20080772.040    82227401.323                  
  21248996.048   111664224.497    21248997.245    87011084.954                  
  21103600.543   110900114.332    21103604.367    86415659.722                  
  24103320.245   126663750.778    24103323.766    98699013.044                  
  24546337.497   128991787.777    24546343.465   100513059.575                  
                 118702252.578                   118702252.578    22795521.031  
                 135023640.741                   135023640.741    25929875.798  
                 118176224.363                   118176224.363    22694497.741  
                 120469516.636                   120469516.636    23134908.028  
  26250465.494   137947077.324                                                  
  23509889.725   123545286.712                                                  
  23443870.547   123198346.526                                                  
  27484189.942   144430328.656                                                  
  24018084.380   126215819.428                                                  
 21  8 31 19 50 38.0000000  0 18G 5G10G13G15G18G23G24G29G32C19C21C22
                                C35E 3E 5E 9E15E36
  24000364.189   126122737.333    24000366.476    98277450.462                  
  23478391.176   123379714.380    23478395.197    96140020.824                  
  23784851.996   124990220.392    23784853.372    97394971.551                  
  21320521.583   112040095.871    21320522.441    87303970.189                  
  20080697.955   105524779.149    20080699.045    82227102.405                  
  21248766.306   111663017.168    21248767.503    87010144.176                  
  21103276.453   110898411.310    21103280.277    86414332.692                  
  24103969.034   126667160.220    24103972.554    98701669.747                  
  24545767.475   128988792.327    24545773.443   100510725.456                  
                 118703707.839                   118703707.839    22795800.521  
                 135021690.106                   135021690.106    25929501.192  
                 118175698.487                   118175698.487    22694396.746  
                 120471917.345                   120471917.345    23135369.066  
  26250107.184   137945194.429                                                  
  23509897.408   123545327.099                                                  
  23444245.957   123200319.341                                                  
  27483658.732   144427537.136                                                  
  24018409.347   126217527.019                                                  
 21  8 31 19 50 39.0000000  0 18G 5G10G13G15G18G23G24G29G32C19C21C22
                                C35E 3E 5E 9E15E36
  24000806.072   126125059.492    24000808.377    98279259.934                  
  23477983.387   123377571.414    23477987.408    96138350.984                  
  23785502.786   124993640.280    23785504.162    97397636.403                  
  21321000.455   112042612.427    21321001.313    87305931.142                  
  20080625.085   105524396.121    20080626.140    82226803.944                  
  21248536.582   111661809.980    21248537.779    87009203.512                  
  21102952.505   110896708.860    21102956.312    86413006.110                  
  24104617.840   126670569.671    24104621.360    98704326.462                  
  24545197.507   128985797.077    24545203.457   100508391.500                  
                 118705163.155                   118705163.155    22796079.992  
                 135019739.561                   135019739.561    25929126.621  
                 118175172.765                   118175172.765    22694295.786  
                 120474318.394                   120474318.394    23135830.141  
  26249748.928   137943311.746                                                  
  23509905.146   123545367.747                                                  
  23444621.385   123202292.218                                                  
  27483127.539   144424745.700                                                  
  24018734.348   126219234.991                                                  
 21  8 31 19 50 40.0000000  0 18G 5G10G13G15G18G23G24G29G32C19C21C22
                                C35E 3E 5E 9E15E36
  24001247.973   126127381.738    24001250.278    98281069.474                  
  23477575.598   123375428.460    23477579.601    96136681.152                  
  23786153.576   124997060.253    23786154.952    97400301.308                  
  21321479.399   112045129.251    21321480.257    87307892.305                  
  20080552.305   105524013.686    20080553.377    82226505.941                  
  21248306.876   111660602.930    21248308.073    87008262.954                  
  21102628.647   110895007.003    21102632.453    86411679.988                  
  24105266.647   126673979.098    24105270.167    98706983.151                  
  24544627.557   128982802.024    24544633.525   100506057.692                  
                 118706618.530                   118706618.530    22796359.481  
                 135017789.113                   135017789.113    25928752.069  
                 118174647.191                   118174647.191    22694194.862  
                 120476719.788                   120476719.788    23136291.322  
  26249390.708   137941429.241                                                  
  23509912.919   123545408.633                                                  
  23444996.813   123204265.159                                                  
  27482596.365   144421954.356                                                  
  24019059.439   126220943.345                                                  
 21  8 31 19 50 41.0000000  0 18G 5G10G13G15G18G23G24G29G32C19C21C22
                                C35E 3E 5E 9E15E36
  24001689.891   126129704.066    24001692.197    98282879.078                  
  23477167.791   123373285.514    23477171.812    96135011.329                  
  23786804.401   125000480.294    23786805.777    97402966.278                  
  21321958.396   112047646.341    21321959.236    87309853.672                  
  20080479.631   105523631.835    20080480.704    82226208.399                  
  21248077.223   111659396.020    21248078.420    87007322.505                  
  21102304.896   110893305.728    21102308.720    86410354.316                  
  24105915.435   126677388.528    24105918.937    98709639.852                  
  24544057.660   128979807.164    24544063.628   100503724.035                  
                 118708073.966                   118708073.966    22796638.989  
                 135015838.754                   135015838.754    25928377.498  
                 118174121.774                   118174121.774    22694093.955  
                 120479121.524                   120479121.524    23136752.540  
  26249032.523   137939546.969                                                  
  23509920.763   123545449.782                                                  
  23445372.277   123206238.165                                                  
  27482065.226   144419163.109                                                  
  24019384.602   126222652.095                                                  
 21  8 31 19 50 42.0000000  0 18G 5G10G13G15G18G23G24G29G32C19C21C22
                                C35E 3E 5E 9E15E36
  24002131.846   126132026.488    24002134.151    98284688.758                  
  23476760.020   123371142.578    23476764.023    96133341.508                  
  23787455.227   125003900.415    23787456.603    97405631.304                  
  21322437.446   112050163.702    21322438.286    87311815.250                  
  20080407.101   105523250.565    20080408.155    82225911.301                  
  21247847.588   111658189.255    21247848.785    87006382.168                  
  21101981.288   110891605.030    21101985.094    86409029.101                  
  24106564.224   126680797.931    24106567.744    98712296.524                  
  24543487.799   128976812.509    24543493.767   100501390.542                  
                 118709529.457                   118709529.457    22796918.496  
                 135013888.485                   135013888.485    25928002.982  
                 118173596.508                   118173596.508    22693993.085  
                 120481523.605                   120481523.605    23137213.846  
  26248674.356   137937664.887                                                  
  23509928.643   123545491.184                                                  
  23445747.741   123208211.229                                                  
  27481534.051   144416371.947                                                  
  24019709.836   126224361.214                                                  
 21  8 31 19 50 43.0000000  0 18G 5G10G13G15G18G23G24G29G32C19C21C22
                                C35E 3E 5E 9E15E36
  24002573.801   126134348.987    24002576.124    98286498.497                  
  23476352.213   123368999.644    23476356.234    96131671.692                  
  23788106.052   125007320.614    23788107.464    97408296.395                  
  21322916.515   112052681.318    21322917.355    87313777.028                  
  20080334.642   105522869.882    20080335.714    82225614.665                  
  21247617.953   111656982.621    21247619.168    87005441.934                  
  21101657.734   110889904.913    21101661.576    86407704.335                  
  24107213.012   126684207.355    24107216.532    98714953.218                  
  24542917.956   128973818.040    24542923.924   100499057.192                  
                 118710985.003                   118710985.003    22797198.021  
                 135011938.310                   135011938.310    25927628.465  
                 118173071.391                   118173071.391    22693892.232  
                 120483926.029                   120483926.029    23137675.207  
  26248316.261   137935783.019                                                  
  23509936.559   123545532.824                                                  
  23446123.223   123210184.358                                                  
  27481002.948   144413580.875                                                  
  24020035.142   126226070.721                                                  
 21  8 31 19 50 44.0000000  0 18G 5G10G13G15G18G23G24G29G32C19C21C22
                                C35E 3E 5E 9E15E36
  24003015.773   126136671.574    24003018.078    98288308.305                  
  23475944.442   123366856.728    23475948.463    96130001.883                  
  23788756.914   125010740.887    23788758.307    97410961.540                  
  21323395.655   112055199.215    21323396.495    87315739.024                  
  20080262.326   105522489.789    20080263.381    82225318.488                  
  21247388.372   111655776.129    21247389.587    87004501.808                  
  21101334.340   110888205.398    21101338.164    86406380.040                  
  24107861.801   126687616.759    24107865.321    98717609.894                  
  24542348.166   128970823.769    24542354.117   100496723.996                  
                 118712440.604                   118712440.604    22797477.564  
                 135009988.227                   135009988.227    25927253.966  
                 118172546.431                   118172546.431    22693791.415  
                 120486328.790                   120486328.790    23138136.621  
  26247958.184   137933901.339                                                  
  23509944.547   123545574.731                                                  
  23446498.705   123212157.563                                                  
  27480471.845   144410789.898                                                  
  24020360.519   126227780.619                                                  
 21  8 31 19 50 45.0000000  0 18G 5G10G13G15G18G23G24G29G32C19C21C22
                                C35E 3E 5E 9E15E36
  24003457.853   126138993.911    24003460.193    98290117.714                  
  23475536.653   123364713.853    23475540.674    96128332.110                  
  23789407.793   125014161.248    23789409.204    97413626.731                  
  21323874.849   112057717.418    21323875.706    87317701.269                  
  20080190.100   105522110.294    20080191.154    82225022.778                  
  21247158.827   111654569.827    21247160.006    87003561.851                  
  21101011.036   110886506.511    21101014.860    86405056.243                  
  24108510.714   126691025.578    24108514.324    98720265.801                  
  24541778.323   128967830.339    24541784.202   100494391.746                  
                 118713896.293                   118713896.293    22797757.107  
                 135008038.278                   135008038.278    25926879.502  
                 118172021.642                   118172021.642    22693690.633  
                 120488731.825                   120488731.825    23138598.142  
  26247600.160   137932019.874                                                  
  23509952.552   123545616.890                                                  
  23446874.169   123214131.124                                                  
  27479940.742   144407999.202                                                  
  24020686.003   126229490.880                                                  
 21  8 31 19 50 46.0000000  0 18G 5G10G13G15G18G23G24G29G32C19C21C22
                                C35E 3E 5E 9E15E36
  24003899.861   126141316.676    24003902.219    98291927.664                  
  23475128.882   123362570.945    23475132.903    96126662.316                  
  23790058.708   125017581.688    23790060.101    97416292.009                  
  21324354.078   112060235.844    21324354.936    87319663.679                  
  20080117.998   105521731.375    20080119.052    82224727.512                  
  21246929.281   111653363.622    21246930.478    87002621.948                  
  21100687.857   110884808.164    21100691.681    86403732.856                  
  24109159.503   126694434.973    24109163.094    98722922.468                  
  24541208.605   128964836.462    24541214.484   100492058.855                  
                 118715352.016                   118715352.016    22798036.668  
                 135006088.382                   135006088.382    25926505.039  
                 118171496.990                   118171496.990    22693589.888  
                 120491135.281                   120491135.281    23139059.699  
  26247242.154   137930138.614                                                  
  23509960.611   123545659.284                                                  
  23447249.668   123216104.435                                                  
  27479409.657   144405208.395                                                  
  24021011.523   126231201.540                                                  
 21  8 31 19 50 47.0000000  0 18G 5G10G13G15G18G23G24G29G32C19C21C22
                                C35E 3E 5E 9E15E36
  24004341.887   126143639.524    24004344.245    98293737.675                  
  23474721.093   123360428.056    23474725.114    96124992.532                  
  23790709.605   125021002.207    23790710.998    97418957.349                  
  21324833.379   112062754.543    21324834.219    87321626.301                  
  20080046.004   105521353.042    20080047.058    82224432.712                  
  21246699.753   111652157.558    21246700.969    87001682.161                  
  21100364.785   110883110.394    21100368.591    86402409.919                  
  24109808.273   126697844.350    24109811.883    98725579.125                  
  24540638.923   128961842.773    24540644.802   100489726.114                  
                 118716807.798                   118716807.798    22798316.229  
                 135004138.579                   135004138.579    25926130.594  
                 118170972.489                   118170972.489    22693489.160  
                 120493539.078                   120493539.078    23139521.327  
  26246884.220   137928257.559                                                  
  23509968.742   123545701.937                                                  
  23447625.186   123218077.825                                                  
  27478878.625   144402417.688                                                  
  24021337.114   126232912.582                                                  
 21  8 31 19 50 48.0000000  0 18G 5G10G13G15G18G23G24G29G32C19C21C22
                                C35E 3E 5E 9E15E36
  24004783.913   126145962.454    24004786.271    98295547.746                  
  23474313.322   123358285.183    23474317.343    96123322.762                  
  23791360.520   125024422.788    23791361.895    97421622.734                  
  21325312.715   112065273.511    21325313.555    87323589.136                  
  20079974.117   105520975.300    20079975.189    82224138.367                  
  21246470.279   111650951.632    21246471.477    87000742.475                  
  21100041.820   110881413.224    21100045.644    86401087.448                  
  24110457.062   126701253.728    24110460.653    98728235.781                  
  24540069.258   128958849.298    24540075.155   100487393.534                  
                 118718263.638                   118718263.638    22798595.808  
                 135002188.868                   135002188.868    25925756.184  
                 118170448.142                   118170448.142    22693388.468  
                 120495943.215                   120495943.215    23139983.009  
  26246526.303   137926376.701                                                  
  23509976.908   123545744.841                                                  
  23448000.721   123220051.274                                                  
  27478347.576   144399627.065                                                  
  24021662.795   126234624.008                                                  
 21  8 31 19 50 49.0000000  0 18G 5G10G13G15G18G23G24G29G32C19C21C22
                                C35E 3E 5E 9E15E36
  24005225.975   126148285.472    24005228.315    98297357.890                  
  23473905.533   123356142.308    23473909.554    96121652.991                  
  23792011.434   125027843.471    23792012.846    97424288.199                  
  21325792.123   112067792.747    21325792.963    87325552.173                  
  20079902.337   105520598.144    20079903.391    82223844.477                  
  21246240.823   111649745.852    21246242.021    86999802.907                  
  21099718.963   110879716.620    21099722.787    86399765.421                  
  24111105.832   126704663.087    24111109.442    98730892.422                  
  24539499.665   128955855.987    24539505.544   100485061.089                  
                 118719719.530                   118719719.530    22798875.386  
                 135000239.245                   135000239.245    25925381.775  
                 118169923.946                   118169923.946    22693287.794  
                 120498347.698                   120498347.698    23140444.762  
  26246168.423   137924496.051                                                  
  23509985.127   123545788.004                                                  
  23448376.274   123222024.784                                                  
  27477816.562   144396836.540                                                  
  24021988.565   126236335.821                                                  
 21  8 31 19 50 50.0000000  0 18G 5G10G13G15G18G23G24G29G32C19C21C22
                                C35E 3E 5E 9E15E36
  24005668.036   126150608.566    24005670.395    98299168.093                  
  23473497.762   123353999.445    23473501.782    96119983.230                  
  23792662.403   125031264.222    23792663.779    97426953.715                  
  21326271.567   112070312.247    21326272.407    87327515.417                  
  20079830.682   105520221.569    20079831.736    82223551.042                  
  21246011.403   111648540.205    21246012.600    86998863.446                  
  21099396.212   110878020.617    21099400.036    86398443.859                  
  24111754.621   126708072.429    24111758.213    98733549.050                  
  24538930.108   128952862.912    24538935.987   100482728.825                  
                 118721175.480                   118721175.480    22799154.983  
                 134998289.718                   134998289.718    25925007.383  
                 118169399.899                   118169399.899    22693187.156  
                 120500752.521                   120500752.521    23140906.587  
  26245810.595   137922615.612                                                  
  23509993.383   123545831.410                                                  
  23448751.845   123223998.368                                                  
  27477285.566   144394046.108                                                  
  24022314.371   126238048.013                                                  
 21  8 31 19 50 51.0000000  0 18G 5G10G13G15G18G23G24G29G32C19C21C22
                                C35E 3E 5E 9E15E36
  24006110.116   126152931.745    24006112.475    98300978.363                  
  23473090.009   123351856.590    23473093.993    96118313.473                  
  23793313.354   125034685.047    23793314.747    97429619.293                  
  21326751.046   112072832.005    21326751.904    87329478.867                  
  20079759.135   105519845.587    20079760.207    82223258.071                  
  21245782.000   111647334.695    21245783.198    86997924.086                  
  21099073.587   110876325.196    21099077.393    86397122.753                  
  24112403.391   126711481.783    24112407.001    98736205.685                  
  24538360.569   128949870.012    24538366.447   100480396.695                  
                 118722631.465                   118722631.465    22799434.597  
                 134996340.281                   134996340.281    25924633.009  
                 118168876.023                   118168876.023    22693086.535  
                 120503157.707                   120503157.707    23141368.466  
  26245452.804   137920735.370                                                  
  23510001.692   123545875.063                                                  
  23449127.417   123225972.007                                                  
  27476754.588   144391255.765                                                  
  24022640.267   126239760.592                                                  
 21  8 31 19 50 52.0000000  0 18G 5G10G13G15G18G23G24G29G32C19C21C22
                                C35E 3E 5E 9E15E36
  24006552.231   126155255.025    24006554.572    98302788.708                  
  23472682.220   123349713.745    23472686.240    96116643.725                  
  23793964.322   125038105.951    23793965.716    97432284.930                  
  21327230.597   112075352.030    21327231.437    87331442.523                  
  20079687.694   105519470.183    20079688.766    82222965.546                  
  21245552.616   111646129.335    21245553.813    86996984.844                  
  21098751.051   110874630.349    21098754.875    86395802.094                  
  24113052.180   126714891.101    24113055.772    98738862.296                  
  24537791.065   128946877.300    24537796.944   100478064.714                  
                 118724087.523                   118724087.523    22799714.212  
                 134994390.929                   134994390.929    25924258.653  
                 118168352.278                   118168352.278    22692985.969  
                 120505563.211                   120505563.211    23141830.416  
  26245095.048   137918855.331                                                  
  23510010.055   123545918.965                                                  
  23449503.006   123227945.715                                                  
  27476223.628   144388465.518                                                  
  24022966.233   126241473.550                                                  
 21  8 31 19 50 53.0000000  0 18G 5G10G13G15G18G23G24G29G32C19C21C22
                                C35E 3E 5E 9E15E36
  24006994.347   126157578.359    24006996.705    98304599.098                  
  23472274.449   123347570.914    23472278.451    96114973.989                  
  23794615.326   125041526.933    23794616.720    97434950.628                  
  21327710.184   112077872.319    21327711.042    87333406.382                  
  20079616.361   105519095.372    20079617.433    82222673.483                  
  21245323.285   111644924.110    21245324.464    86996045.708                  
  21098428.658   110872936.098    21098432.482    86394481.898                  
  24113700.933   126718300.434    24113704.542    98741518.915                  
  24537221.597   128943884.782    24537227.476   100475732.884                  
                 118725543.639                   118725543.639    22799993.844  
                 134992441.672                   134992441.672    25923884.315  
                 118167828.685                   118167828.685    22692885.420  
                 120507969.055                   120507969.055    23142292.437  
  26244737.328   137916975.491                                                  
  23510018.453   123545963.126                                                  
  23449878.595   123229919.480                                                  
  27475692.668   144385675.351                                                  
  24023292.272   126243186.907                                                  
 21  8 31 19 50 54.0000000  0 18G 5G10G13G15G18G23G24G29G32C19C21C22
                                C35E 3E 5E 9E15E36
  24007436.480   126159901.806    24007438.839    98306409.574                  
  23471866.678   123345428.085    23471870.698    96113304.251                  
  23795266.313   125044947.993    23795267.724    97437616.391                  
  21328189.842   112080392.875    21328190.682    87335370.452                  
  20079545.153   105518721.144    20079546.225    82222381.880                  
  21245093.954   111643719.032    21245095.133    86995106.684                  
  21098106.355   110871242.435    21098110.179    86393162.165                  
  24114349.721   126721709.747    24114353.313    98744175.520                  
  24536652.183   128940892.478    24536658.062   100473401.218                  
                 118726999.817                   118726999.817    22800273.477  
                 134990492.505                   134990492.505    25923509.994  
                 118167305.242                   118167305.242    22692784.906  
                 120510375.239                   120510375.239    23142754.512  
  26244379.644   137915095.874                                                  
  23510026.905   123546007.542                                                  
  23450254.201   123231893.325                                                  
  27475161.743   144382885.292                                                  
  24023618.399   126244900.646                                                  
 21  8 31 19 50 55.0000000  0 18G 5G10G13G15G18G23G24G29G32C19C21C22
                                C35E 3E 5E 9E15E36
  24007878.649   126162225.326    24007881.008    98308220.106                  
  23471458.924   123343285.266    23471462.927    96111634.519                  
  23795917.335   125048369.125    23795918.746    97440282.206                  
  21328669.518   112082913.699    21328670.376    87337334.730                  
  20079474.034   105518347.504    20079475.124    82222090.729                  
  21244864.658   111642514.083    21244865.856    86994167.767                  
  21097784.176   110869549.340    21097788.000    86391842.868                  
  24114998.474   126725119.030    24115002.083    98746832.107                  
  24536082.804   128937900.359    24536088.683   100471069.704                  
                 118728456.046                   118728456.046    22800553.145  
                 134988543.429                   134988543.429    25923135.692  
                 118166781.954                   118166781.954    22692684.393  
                 120512781.766                   120512781.766    23143216.659  
  26244021.996   137913216.454                                                  
  23510035.429   123546052.216                                                  
  23450629.826   123233867.223                                                  
  27474630.819   144380095.321                                                  
  24023944.580   126246614.762                                                  
 21  8 31 19 50 56.0000000  0 18G 5G10G13G15G18G23G24G29G32C19C21C22
                                C35E 3E 5E 9E15E36
  24008320.800   126164548.936    24008323.159    98310030.710                  
  23471051.135   123341142.450    23471055.156    96109964.797                  
  23796568.375   125051790.331    23796569.786    97442948.081                  
  21329149.284   112085434.792    21329150.124    87339299.218                  
  20079403.059   105517974.450    20079404.113    82221800.038                  
  21244635.381   111641309.278    21244636.578    86993228.953                  
  21097462.105   110867856.835    21097465.911    86390524.035                  
  24115647.262   126728528.331    24115650.854    98749488.700                  
  24535513.444   128934908.430    24535519.322   100468738.329                  
                 118729912.337                   118729912.337    22800832.795  
                 134986594.446                   134986594.446    25922761.425  
                 118166258.816                   118166258.816    22692583.933  
                 120515188.636                   120515188.636    23143678.877  
  26243664.401   137911337.239                                                  
  23510043.952   123546097.133                                                  
  23451005.469   123235841.191                                                  
  27474099.912   144377305.444                                                  
  24024270.833   126248329.267                                                  
 21  8 31 19 50 57.0000000  0 18G 5G10G13G15G18G23G24G29G32C19C21C22
                                C35E 3E 5E 9E15E36
  24008762.987   126166872.632    24008765.346    98311841.382                  
  23470643.382   123338999.645    23470647.385    96108295.079                  
  23797219.415   125055211.622    23797220.826    97445614.015                  
  21329629.067   112087956.140    21329629.925    87341263.905                  
  20079332.172   105517601.972    20079333.244    82221509.798                  
  21244406.139   111640104.613    21244407.337    86992290.258                  
  21097140.141   110866164.941    21097143.965    86389205.676                  
  24116296.015   126731937.617    24116299.625    98752145.282                  
  24534944.136   128931916.698    24534950.015   100466407.114                  
                 118731368.682                   118731368.682    22801112.481  
                 134984645.549                   134984645.549    25922387.159  
                 118165735.833                   118165735.833    22692483.492  
                 120517595.849                   120517595.849    23144141.166  
  26243306.824   137909458.235                                                  
  23510052.565   123546142.312                                                  
  23451381.111   123237815.230                                                  
  27473569.041   144374515.667                                                  
  24024597.175   126250044.156                                                  
 21  8 31 19 50 58.0000000  0 18G 5G10G13G15G18G23G24G29G32C19C21C22
                                C35E 3E 5E 9E15E36
  24009205.174   126169196.413    24009207.532    98313652.120                  
  23470235.629   123336856.852    23470239.614    96106625.372                  
  23797870.473   125058632.978    23797871.884    97448280.009                  
  21330108.922   112090477.765    21330109.762    87343228.805                  
  20079261.393   105517230.087    20079262.483    82221220.014                  
  21244176.915   111638900.087    21244178.113    86991351.664                  
  21096818.284   110864473.610    21096822.108    86387887.758                  
  24116944.786   126735346.880    24116948.377    98754801.848                  
  24534374.865   128928925.169    24534380.744   100464076.054                  
                 118732825.086                   118732825.086    22801392.185  
                 134982696.749                   134982696.749    25922012.892  
                 118165212.996                   118165212.996    22692383.103  
                 120520003.400                   120520003.400    23144603.527  
  26242949.300   137907579.425                                                  
  23510061.196   123546187.734                                                  
  23451756.754   123239789.324                                                  
  27473038.189   144371725.969                                                  
  24024923.588   126251759.429                                                  
 21  8 31 19 50 59.0000000  0 18G 5G10G13G15G18G23G24G29G32C19C21C22
                                C35E 3E 5E 9E15E36
  24009647.396   126171520.273    24009649.755    98315462.918                  
  23469827.858   123334714.074    23469831.860    96104955.675                  
  23798521.566   125062054.415    23798522.960    97450946.062                  
  21330588.812   112092999.653    21330589.652    87345193.911                  
  20079190.739   105516858.794    20079191.829    82220930.695                  
  21243947.745   111637695.707    21243948.942    86990413.188                  
  21096496.535   110862782.877    21096500.359    86386570.304                  
  24117593.539   126738756.149    24117597.148    98757458.421                  
  24533805.612   128925933.833    24533811.508   100461745.141                  
                 118734281.543                   118734281.543    22801671.853  
                 134980748.039                   134980748.039    25921638.679  
                 118164690.315                   118164690.315    22692282.715  
                 120522411.293                   120522411.293    23145065.924  
  26242591.813   137905700.832                                                  
  23510069.898   123546233.415                                                  
  23452132.432   123241763.480                                                  
  27472507.336   144368936.368                                                  
  24025250.055   126253475.086                                                  
 21  8 31 19 51  0.0000000  0 18G 5G10G13G15G18G23G24G29G32C19C21C22
                                C35E 3E 5E 9E15E36
  24010089.637   126173844.230    24010091.995    98317273.794                  
  23469420.104   123332571.293    23469424.107    96103285.977                  
  23799172.660   125065475.921    23799174.054    97453612.168                  
  21331068.756   112095521.809    21331069.614    87347159.227                  
  20079120.192   105516488.082    20079121.264    82220641.831                  
  21243718.575   111636491.456    21243719.772    86989474.813                  
  21096174.928   110861092.723    21096178.734    86385253.301                  
  24118242.291   126742165.402    24118245.901    98760114.976                  
  24533236.412   128922942.692    24533242.309   100459414.383                  
                 118735738.060                   118735738.060    22801951.574  
                 134978799.422                   134978799.422    25921264.466  
                 118164167.786                   118164167.786    22692182.381  
                 120524819.527                   120524819.527    23145528.392  
  26242234.361   137903822.436                                                  
  23510078.636   123546279.339                                                  
  23452508.129   123243737.704                                                  
  27471976.518   144366146.861                                                  
  24025576.612   126255191.128                                                  
 21  8 31 19 51  1.0000000  0 18G 5G10G13G15G18G23G24G29G32C19C21C22
                                C35E 3E 5E 9E15E36
  24010531.877   126176168.269    24010534.236    98319084.731                  
  23469012.333   123330428.526    23469016.336    96101616.289                  
  23799823.753   125068897.523    23799825.165    97456278.351                  
  21331548.754   112098044.219    21331549.594    87349124.742                  
  20079049.752   105516117.957    20079050.842    82220353.422                  
  21243489.441   111635287.352    21243490.638    86988536.550                  
  21095853.393   110859403.153    21095857.217    86383936.755                  
  24118891.062   126745574.642    24118894.654    98762771.528                  
  24532667.266   128919951.749    24532673.144   100457083.786                  
                 118737194.633                   118737194.633    22802231.296  
                 134976850.895                   134976850.895    25920890.253  
                 118163645.407                   118163645.407    22692082.064  
                 120527228.104                   120527228.104    23145990.932  
  26241876.962   137901944.251                                                  
  23510087.428   123546325.519                                                  
  23452883.825   123245711.992                                                  
  27471445.701   144363357.441                                                  
  24025903.240   126256907.555                                                  
 21  8 31 19 51  2.0000000  0 18G 5G10G13G15G18G23G24G29G32C19C21C22
                                C35E 3E 5E 9E15E36
  24010974.135   126178492.390    24010976.494    98320895.735                  
  23468604.580   123328285.757    23468608.583    96099946.601                  
  23800474.883   125072319.192    23800476.277    97458944.587                  
  21332028.805   112100566.894    21332029.663    87351090.460                  
  20078979.438   105515748.422    20078980.528    82220065.468                  
  21243260.342   111634083.386    21243261.521    86987598.395                  
  21095532.001   110857714.184    21095535.824    86382620.671                  
  24119539.815   126748983.884    24119543.424    98765428.074                  
  24532098.137   128916960.992    24532104.016   100454753.328                  
                 118738651.260                   118738651.260    22802511.018  
                 134974902.462                   134974902.462    25920516.093  
                 118163123.180                   118163123.180    22691981.783  
                 120529637.019                   120529637.019    23146453.543  
  26241519.582   137900066.254                                                  
  23510096.255   123546371.950                                                  
  23453259.521   123247686.336                                                  
  27470914.920   144360568.122                                                  
  24026229.939   126258624.362                                                  
 21  8 31 19 51  3.0000000  0 18G 5G10G13G15G18G23G24G29G32C19C21C22
                                C35E 3E 5E 9E15E36
  24011416.412   126180816.585    24011418.788    98322706.798                  
  23468196.827   123326143.008    23468200.847    96098276.933                  
  23801126.012   125075740.941    23801127.424    97461610.883                  
  21332508.892   112103089.836    21332509.768    87353056.391                  
  20078909.248   105515379.468    20078910.302    82219777.976                  
  21243031.261   111632879.564    21243032.440    86986660.352                  
  21095210.698   110856025.788    21095214.522    86381305.046                  
  24120188.567   126752393.103    24120192.177    98768084.610                  
  24531529.062   128913970.445    24531534.941   100452423.034                  
                 118740107.949                   118740107.949    22802790.775  
                 134972954.118                   134972954.118    25920141.934  
                 118162601.104                   118162601.104    22691881.520  
                 120532046.282                   120532046.282    23146916.226  
  26241162.255   137898188.477                                                  
  23510105.136   123546418.629                                                  
  23453635.235   123249660.750                                                  
  27470384.138   144357778.891                                                  
  24026556.692   126260341.558                                                  
 21  8 31 19 51  4.0000000  0 18G 5G10G13G15G18G23G24G29G32C19C21C22
                                C35E 3E 5E 9E15E36
  24011858.724   126183140.871    24011861.082    98324517.929                  
  23467789.074   123324000.262    23467793.076    96096607.261                  
  23801777.177   125079162.754    23801778.589    97464277.235                  
  21332989.069   112105613.042    21332989.909    87355022.532                  
  20078839.148   105515011.095    20078840.202    82219490.937                  
  21242802.198   111631675.874    21242803.395    86985722.418                  
  21094889.520   110854337.972    21094893.344    86379989.868                  
  24120837.320   126755802.327    24120840.912    98770741.153                  
  24530960.006   128910980.078    24530965.884   100450092.882                  
                 118741564.696                   118741564.696    22803070.515  
                 134971005.864                   134971005.864    25919767.774  
                 118162079.183                   118162079.183    22691781.275  
                 120534455.879                   120534455.879    23147378.962  
  26240804.964   137896310.911                                                  
  23510114.052   123546465.565                                                  
  23454010.985   123251635.223                                                  
  27469853.375   144354989.759                                                  
  24026883.552   126262059.137                                                  
 21  8 31 19 51  5.0000000  0 18G 5G10G13G15G18G23G24G29G32C19C21C22
                                C35E 3E 5E 9E15E36
  24012301.035   126185465.241    24012303.394    98326329.132                  
  23467381.320   123321857.519    23467385.323    96094937.598                  
  23802428.342   125082584.653    23802429.736    97466943.652                  
  21333469.263   112108136.515    21333470.103    87356988.875                  
  20078769.155   105514643.306    20078770.227    82219204.353                  
  21242573.189   111630472.327    21242574.368    86984784.594                  
  21094568.467   110852650.749    21094572.273    86378675.153                  
  24121486.073   126759211.528    24121489.682    98773397.671                  
  24530391.002   128907989.907    24530396.881   100447762.886                  
                 118743021.493                   118743021.493    22803350.272  
                 134969057.704                   134969057.704    25919393.668  
                 118161557.415                   118161557.415    22691681.083  
                 120536865.820                   120536865.820    23147841.752  
  26240447.726   137894433.536                                                  
  23510123.041   123546512.751                                                  
  23454386.717   123253609.767                                                  
  27469322.647   144352200.707                                                  
  24027210.466   126263777.089                                                  
 21  8 31 19 51  6.0000000  0 18G 5G10G13G15G18G23G24G29G32C19C21C22
                                C35E 3E 5E 9E15E36
  24012743.365   126187789.703    24012745.724    98328140.405                  
  23466973.585   123319714.790    23466977.588    96093267.942                  
  23803079.525   125086006.616    23803080.919    97469610.121                  
  21333949.529   112110660.249    21333950.369    87358955.426                  
  20078699.287   105514276.109    20078700.341    82218918.230                  
  21242344.161   111629268.907    21242345.358    86983846.867                  
  21094247.504   110850964.099    21094251.328    86377360.887                  
  24122134.826   126762620.723    24122138.417    98776054.187                  
  24529822.017   128904999.936    24529827.896   100445433.048                  
                 118744478.350                   118744478.350    22803630.065  
                 134967109.637                   134967109.637    25919019.563  
                 118161035.793                   118161035.793    22691580.892  
                 120539276.101                   120539276.101    23148304.649  
  26240090.507   137892556.402                                                  
  23510132.082   123546560.192                                                  
  23454762.484   123255584.377                                                  
  27468791.919   144349411.751                                                  
  24027537.469   126265495.453                                                  
 21  8 31 19 51  7.0000000  0 18G 5G10G13G15G18G23G24G29G32C19C21C22
                                C35E 3E 5E 9E15E36
  24013185.713   126190114.265    24013188.072    98329951.754                  
  23466565.814   123317572.071    23466569.834    96091598.302                  
  23803730.726   125089428.679    23803732.120    97472276.664                  
  21334429.812   112113184.254    21334430.652    87360922.187                  
  20078629.526   105513909.491    20078630.581    82218632.558                  
  21242115.188   111628065.622    21242116.385    86982909.246                  
  21093926.665   110849278.024    21093930.454    86376047.067                  
  24122783.578   126766029.910    24122787.188    98778710.698                  
  24529253.085   128902010.159    24529258.964   100443103.355                  
                 118745935.266                   118745935.266    22803909.841  
                 134965161.656                   134965161.656    25918645.457  
                 118160514.325                   118160514.325    22691480.754  
                 120541686.722                   120541686.722    23148767.581  
  26239733.341   137890679.497                                                  
  23510141.142   123546607.868                                                  
  23455138.234   123257559.070                                                  
  27468261.227   144346622.898                                                  
  24027864.543   126267214.215                                                  
 21  8 31 19 51  8.0000000  0 18G 5G10G13G15G18G23G24G29G32C19C21C22
                                C35E 3E 5E 9E15E36
  24013628.078   126192438.858    24013630.437    98331763.128                  
  23466158.079   123315429.342    23466162.081    96089928.643                  
  23804381.927   125092850.777    23804383.321    97474943.238                  
  21334910.167   112115708.525    21334911.025    87362889.151                  
  20078559.855   105513543.477    20078560.927    82218347.355                  
  21241886.232   111626862.524    21241887.447    86981971.772                  
  21093605.916   110847592.603    21093609.740    86374733.754                  
  24123432.313   126769439.079    24123435.923    98781367.196                  
  24528684.189   128899020.590    24528690.068   100440773.823                  
                 118747392.234                   118747392.234    22804189.634  
                 134963213.769                   134963213.769    25918271.404  
                 118159993.011                   118159993.011    22691380.651  
                 120544097.684                   120544097.684    23149230.586  
  26239376.175   137888802.629                                                  
  23510150.255   123546655.808                                                  
  23455514.020   123259533.761                                                  
  27467730.535   144343834.122                                                  
  24028191.654   126268933.259                                                  
 21  8 31 19 51  9.0000000  0 18G 5G10G13G15G18G23G24G29G32C19C21C22
                                C35E 3E 5E 9E15E36
  24014070.462   126194763.569    24014072.803    98333574.598                  
  23465750.343   123313286.641    23465754.346    96088259.015                  
  23805033.145   125096272.980    23805034.539    97477609.890                  
  21335390.558   112118233.054    21335391.416    87364856.324                  
  20078490.327   105513178.039    20078491.381    82218062.602                  
  21241657.312   111625659.536    21241658.527    86981034.383                  
  21093285.293   110845907.716    21093289.099    86373420.860                  
  24124081.066   126772848.242    24124084.658    98784023.688                  
  24528115.329   128896031.208    24528121.207   100438444.442                  
                 118748849.266                   118748849.266    22804469.463  
                 134961265.975                   134961265.975    25917897.334  
                 118159471.848                   118159471.848    22691280.567  
                 120546508.988                   120546508.988    23149693.643  
  26239019.098   137886926.090                                                  
  23510159.440   123546704.001                                                  
  23455889.805   123261508.571                                                  
  27467199.878   144341045.454                                                  
  24028518.854   126270652.766                                                  
 21  8 31 19 51 10.0000000  0 18G 5G10G13G15G18G23G24G29G32C19C21C22
                                C35E 3E 5E 9E15E36
  24014512.845   126197088.369    24014515.204    98335386.130                  
  23465342.608   123311143.944    23465346.593    96086589.386                  
  23805684.382   125099695.260    23805685.776    97480276.606                  
  21335871.021   112120757.860    21335871.860    87366823.707                  
  20078420.906   105512813.196    20078421.942    82217778.314                  
  21241428.445   111624456.685    21241429.625    86980097.101                  
  21092964.794   110844223.421    21092968.600    86372108.429                  
  24124729.801   126776257.396    24124733.393    98786680.177                  
  24527546.504   128893042.021    24527552.365   100436115.214                  
                 118750306.348                   118750306.348    22804749.256  
                 134959318.274                   134959318.274    25917523.300  
                 118158950.833                   118158950.833    22691180.518  
                 120548920.630                   120548920.630    23150156.773  
  26238662.039   137885049.754                                                  
  23510168.660   123546752.446                                                  
  23456265.627   123263483.434                                                  
  27466669.222   144338256.862                                                  
  24028846.160   126272372.652                                                  
 21  8 31 19 51 11.0000000  0 18G 5G10G13G15G18G23G24G29G32C19C21C22
                                C35E 3E 5E 9E15E36
  24014955.264   126199413.250    24014957.623    98337197.726                  
  23464934.855   123309001.257    23464938.857    96084919.762                  
  23806335.636   125103117.599    23806337.012    97482943.364                  
  21336351.519   112123282.923    21336352.358    87368791.289                  
  20078351.574   105512448.931    20078352.646    82217494.473                  
  21241199.561   111623253.980    21241200.740    86979159.934                  
  21092644.402   110842539.726    21092648.208    86370796.461                  
  24125378.536   126779666.535    24125382.145    98789336.649                  
  24526977.715   128890053.047    24526983.576   100433786.149                  
                 118751763.487                   118751763.487    22805029.103  
                 134957370.660                   134957370.660    25917149.283  
                 118158429.973                   118158429.973    22691080.487  
                 120551332.612                   120551332.612    23150619.956  
  26238305.016   137883173.606                                                  
  23510177.916   123546801.134                                                  
  23456641.412   123265458.350                                                  
  27466138.601   144335468.376                                                  
  24029173.503   126274092.905                                                  
 21  8 31 19 51 12.0000000  0 18G 5G10G13G15G18G23G24G29G32C19C21C22
                                C35E 3E 5E 9E15E36
  24015397.684   126201738.225    24015400.042    98339009.399                  
  23464527.119   123306858.573    23464531.122    96083250.144                  
  23806986.909   125106540.020    23806988.302    97485610.192                  
  21336832.088   112125808.251    21336832.928    87370759.081                  
  20078282.385   105512085.253    20078283.421    82217211.095                  
  21240970.712   111622051.414    21240971.892    86978222.871                  
  21092324.100   110840856.608    21092327.924    86369484.950                  
  24126027.289   126783075.663    24126030.880    98791993.112                  
  24526408.962   128887064.253    24526414.841   100431457.227                  
                 118753220.688                   118753220.688    22805308.931  
                 134955423.140                   134955423.140    25916775.285  
                 118157909.261                   118157909.261    22690980.492  
                 120553744.937                   120553744.937    23151083.228  
  26237948.047   137881297.663                                                  
  23510187.244   123546850.072                                                  
  23457017.251   123267433.340                                                  
  27465607.981   144332679.981                                                  
  24029500.935   126275813.557                                                  
 21  8 31 19 51 13.0000000  0 18G 5G10G13G15G18G23G24G29G32C19C21C22
                                C35E 3E 5E 9E15E36
  24015840.138   126204063.285    24015842.479    98340821.137                  
  23464119.384   123304715.906    23464123.387    96081580.539                  
  23807638.181   125109962.528    23807639.575    97488277.077                  
  21337312.675   112128333.831    21337313.515    87372727.070                  
  20078213.285   105511722.177    20078214.340    82216928.180                  
  21240741.900   111620848.989    21240743.097    86977285.921                  
  21092003.941   110839174.078    21092007.747    86368173.890                  
  24126676.023   126786484.788    24126679.615    98794649.578                  
  24525840.262   128884075.652    24525846.123   100429128.450                  
                 118754677.941                   118754677.941    22805588.778  
                 134953475.712                   134953475.712    25916401.304  
                 118157388.706                   118157388.706    22690880.515  
                 120556157.603                   120556157.603    23151546.554  
  26237591.095   137879421.928                                                  
  23510196.607   123546899.265                                                  
  23457393.108   123269408.382                                                  
  27465077.378   144329891.683                                                  
  24029828.438   126277534.582                                                  
 21  8 31 19 51 14.0000000  0 18G 5G10G13G15G18G23G24G29G32C19C21C22
                                C35E 3E 5E 9E15E36
  24016282.593   126206388.434    24016284.934    98342632.941                  
  23463711.649   123302573.242    23463715.633    96079910.937                  
  23808289.471   125113385.099    23808290.883    97490944.020                  
  21337793.334   112130859.684    21337794.174    87374695.274                  
  20078144.293   105511359.676    20078145.347    82216645.714                  
  21240513.122   111619646.698    21240514.302    86976349.078                  
  21091683.853   110837492.128    21091687.659    86366863.284                  
  24127324.758   126789893.898    24127328.368    98797306.027                  
  24525271.581   128881087.269    24525277.442   100426799.848                  
                 118756135.255                   118756135.255    22805868.661  
                 134951528.371                   134951528.371    25916027.341  
                 118156868.302                   118156868.302    22690780.574  
                 120558570.605                   120558570.605    23152009.951  
  26237234.197   137877546.399                                                  
  23510206.006   123546948.710                                                  
  23457768.948   123271383.501                                                  
  27464546.793   144327103.473                                                  
  24030155.996   126279256.000                                                  
 21  8 31 19 51 15.0000000  0 18G 5G10G13G15G18G23G24G29G32C19C21C22
                                C35E 3E 5E 9E15E36
  24016725.084   126208713.638    24016727.425    98344444.772                  
  23463303.895   123300430.511    23463307.898    96078241.238                  
  23808940.779   125116807.781    23808942.173    97493611.059                  
  21338274.047   112133385.798    21338274.887    87376663.668                  
  20078075.426   105510997.796    20078076.480    82216363.751                  
  21240284.363   111618444.557    21240285.543    86975412.347                  
  21091363.926   110835810.824    21091367.714    86365553.200                  
  24127973.475   126793303.052    24127977.085    98799962.531                  
  24524702.935   128878099.058    24524708.796   100424471.368                  
                 118757592.621                   118757592.621    22806148.525  
                 134949581.124                   134949581.124    25915653.378  
                 118156348.043                   118156348.043    22690680.686  
                 120560983.948                   120560983.948    23152473.402  
  26236877.335   137875671.078                                                  
  23510215.459   123546998.388                                                  
  23458144.822   123273358.813                                                  
  27464016.244   144324315.380                                                  
  24030483.660   126280977.790                                                  
 21  8 31 19 51 16.0000000  0 18G 5G10G13G15G18G23G24G29G32C19C21C22
                                C35E 3E 5E 9E15E36
  24017167.557   126211038.957    24017169.915    98346256.711                  
  23462896.178   123298287.871    23462900.163    96076571.648                  
  23809592.123   125120230.516    23809593.499    97496278.125                  
  21338754.795   112135912.185    21338755.635    87378632.281                  
  20078006.684   105510636.484    20078007.720    82216082.206                  
  21240055.622   111617242.557    21240056.801    86974475.722                  
  21091044.088   110834130.063    21091047.876    86364243.518                  
  24128622.228   126796712.136    24128625.820    98802618.960                  
  24524134.343   128875111.044    24524140.204   100422143.048                  
                 118759050.046                   118759050.046    22806428.408  
                 134947633.970                   134947633.970    25915279.433  
                 118155827.942                   118155827.942    22690580.798  
                 120563397.634                   120563397.634    23152936.943  
  26236520.508   137873795.936                                                  
  23510224.965   123547048.311                                                  
  23458520.679   123275334.055                                                  
  27463485.695   144321527.366                                                  
  24030811.378   126282699.965                                                  
 21  8 31 19 51 17.0000000  0 18G 5G10G13G15G18G23G24G29G32C19C21C22
                                C35E 3E 5E 9E15E36
  24017610.083   126213364.348    24017612.424    98348068.703                  
  23462488.442   123296145.251    23462492.445    96074902.074                  
  23810243.467   125123653.321    23810244.843    97498945.243                  
  21339235.597   112138438.833    21339236.437    87380601.093                  
  20077938.013   105510275.743    20077939.085    82215801.110                  
  21239826.916   111616040.698    21239828.096    86973539.210                  
  21090724.340   110832449.883    21090728.146    86362934.289                  
  24129270.945   126800121.219    24129274.537    98805275.382                  
  24523565.786   128872123.239    24523571.647   100419814.890                  
                 118760507.529                   118760507.529    22806708.308  
                 134945686.903                   134945686.903    25914905.542  
                 118155307.989                   118155307.989    22690480.946  
                 120565811.657                   120565811.657    23153400.519  
  26236163.717   137871921.026                                                  
  23510234.525   123547098.508                                                  
  23458896.572   123277309.352                                                  
  27462955.181   144318739.441                                                  
  24031139.185   126284422.530                                                  
 21  8 31 19 51 18.0000000  0 18G 5G10G13G15G18G23G24G29G32C19C21C22
                                C35E 3E 5E 9E15E36
  24018052.592   126215689.828    24018054.968    98349880.765                  
  23462080.725   123294002.613    23462084.692    96073232.493                  
  23810894.793   125127076.208    23810896.204    97501612.426                  
  21339716.452   112140965.742    21339717.292    87382570.118                  
  20077869.485   105509915.601    20077870.540    82215520.480                  
  21239598.246   111614838.977    21239599.426    86972602.804                  
  21090404.717   110830770.293    21090408.541    86361625.520                  
  24129919.662   126803530.286    24129923.254    98807931.800                  
  24522997.265   128869135.642    24523003.126   100417486.894                  
                 118761965.064                   118761965.064    22806988.209  
                 134943739.928                   134943739.928    25914531.632  
                 118154788.192                   118154788.192    22690381.112  
                 120568226.024                   120568226.024    23153864.184  
  26235806.980   137870046.316                                                  
  23510244.121   123547148.957                                                  
  23459272.483   123279284.714                                                  
  27462424.668   144315951.606                                                  
  24031467.046   126286145.468                                                  
 21  8 31 19 51 19.0000000  0 18G 5G10G13G15G18G23G24G29G32C19C21C22
                                C35E 3E 5E 9E15E36
  24018495.136   126218015.393    24018497.494    98351692.898                  
  23461672.972   123291859.997    23461676.974    96071562.926                  
  23811546.172   125130499.169    23811547.566    97504279.673                  
  21340197.361   112143492.910    21340198.201    87384539.344                  
  20077801.065   105509556.043    20077802.119    82215240.314                  
  21239369.576   111613637.400    21239370.756    86971666.512                  
  21090085.219   110829091.290    21090089.025    86360317.210                  
  24130568.379   126806939.328    24130572.006    98810588.199                  
  24522428.762   128866148.206    24522434.623   100415159.032                  
                 118763422.657                   118763422.657    22807268.127  
                 134941793.047                   134941793.047    25914157.759  
                 118154268.539                   118154268.539    22690281.313  
                 120570640.727                   120570640.727    23154327.903  
  26235450.261   137868171.808                                                  
  23510253.752   123547199.656                                                  
  23459648.376   123281260.138                                                  
  27461894.172   144313163.857                                                  
  24031794.978   126287868.805                                                  
 21  8 31 19 51 20.0000000  0 18G 5G10G13G15G18G23G24G29G32C19C21C22
                                C35E 3E 5E 9E15E36
  24018937.698   126220341.044    24018940.039    98353505.093                  
  23461265.254   123289717.383    23461269.257    96069893.359                  
  23812197.551   125133922.191    23812198.963    97506946.965                  
  21340678.324   112146020.344    21340679.164    87386508.774                  
  20077732.752   105509197.066    20077733.824    82214960.594                  
  21239140.960   111612435.954    21239142.140    86970730.323                  
  21089765.846   110827412.876    21089769.634    86359009.356                  
  24131217.096   126810348.371    24131220.723    98813244.598                  
  24521860.313   128863160.993    24521866.174   100412831.336                  
                 118764880.308                   118764880.308    22807548.045  
                 134939846.257                   134939846.257    25913783.903  
                 118153749.042                   118153749.042    22690181.568  
                 120573055.768                   120573055.768    23154791.676  
  26235093.595   137866297.508                                                  
  23510263.455   123547250.609                                                  
  23460024.304   123283235.638                                                  
  27461363.695   144310376.207                                                  
  24032122.982   126289592.524                                                  
 21  8 31 19 51 21.0000000  0 18G 5G10G13G15G18G23G24G29G32C19C21C22
                                C35E 3E 5E 9E15E36
  24019380.278   126222666.779    24019382.619    98355317.356                  
  23460857.537   123287574.775    23460861.522    96068223.797                  
  23812848.967   125137345.308    23812850.361    97509614.324                  
  21341159.322   112148548.034    21341160.162    87388478.402                  
  20077664.563   105508838.679    20077665.618    82214681.329                  
  21238912.362   111611234.644    21238913.541    86969794.242                  
  21089446.544   110825735.026    21089450.332    86357701.945                  
  24131865.813   126813757.390    24131869.423    98815900.972                  
  24521291.899   128860173.971    24521297.760   100410503.788                  
                 118766338.015                   118766338.015    22807827.981  
                 134937899.559                   134937899.559    25913410.065  
                 118153229.700                   118153229.700    22690081.823  
                 120575471.152                   120575471.152    23155255.520  
  26234736.965   137864423.405                                                  
  23510273.194   123547301.801                                                  
  23460400.233   123285211.176                                                  
  27460833.235   144307588.645                                                  
  24032451.075   126291316.621                                                  
 21  8 31 19 51 22.0000000  0 18G 5G10G13G15G18G23G24G29G32C19C21C22
                                C35E 3E 5E 9E15E36
  24019822.858   126224992.590    24019825.216    98357129.673                  
  23460449.819   123285432.184    23460453.804    96066554.246                  
  23813500.364   125140768.503    23813501.758    97512281.751                  
  21341640.374   112151076.000    21341641.214    87390448.246                  
  20077596.482   105508480.879    20077597.519    82214402.523                  
  21238683.781   111610033.483    21238684.961    86968858.273                  
  21089127.385   110824057.798    21089131.174    86356395.011                  
  24132514.548   126817166.406    24132518.140    98818557.348                  
  24520723.521   128857187.140    24520729.382   100408176.390                  
                 118767795.783                   118767795.783    22808107.935  
                 134935952.948                   134935952.948    25913036.227  
                 118152710.505                   118152710.505    22689982.114  
                 120577886.874                   120577886.874    23155719.435  
  26234380.389   137862549.516                                                  
  23510283.004   123547353.253                                                  
  23460776.197   123287186.794                                                  
  27460302.793   144304801.183                                                  
  24032779.240   126293041.096                                                  
 21  8 31 19 51 23.0000000  0 18G 5G10G13G15G18G23G24G29G32C19C21C22
                                C35E 3E 5E 9E15E36
  24020265.456   126227318.484    24020267.814    98358942.055                  
  23460042.084   123283289.602    23460046.087    96064884.704                  
  23814151.797   125144191.766    23814153.209    97514949.226                  
  21342121.480   112153604.224    21342122.320    87392418.290                  
  20077528.509   105508123.663    20077529.545    82214124.175                  
  21238455.236   111608832.466    21238456.416    86967922.413                  
  21088808.316   110822381.136    21088812.122    86355088.524                  
  24133163.265   126820575.414    24133166.857    98821213.715                  
  24520155.179   128854200.508    24520161.040   100405849.144                  
                 118769253.603                   118769253.603    22808387.907  
                 134934006.433                   134934006.433    25912662.425  
                 118152191.462                   118152191.462    22689882.441  
                 120580302.933                   120580302.933    23156183.422  
  26234023.813   137860675.832                                                  
  23510292.832   123547404.958                                                  
  23461152.143   123289162.470                                                  
  27459772.405   144302013.815                                                  
  24033107.458   126294765.965                                                  
 21  8 31 19 51 24.0000000  0 18G 5G10G13G15G18G23G24G29G32C19C21C22
                                C35E 3E 5E 9E15E36
  24020708.071   126229644.466    24020710.448    98360754.508                  
  23459634.366   123281147.024    23459638.351    96063215.160                  
  23814803.248   125147615.102    23814804.642    97517616.757                  
  21342602.639   112156132.706    21342603.479    87394388.536                  
  20077460.642   105507767.039    20077461.679    82213846.282                  
  21238226.727   111607631.581    21238227.907    86966986.661                  
  21088489.372   110820705.079    21088493.178    86353782.503                  
  24133811.964   126823984.403    24133815.574    98823870.067                  
  24519586.873   128851214.079    24519592.734   100403522.059                  
                 118770711.478                   118770711.478    22808667.861  
                 134932060.009                   134932060.009    25912288.623  
                 118151672.568                   118151672.568    22689782.803  
                 120582719.337                   120582719.337    23156647.463  
  26233667.326   137858802.351                                                  
  23510302.714   123547456.901                                                  
  23461528.125   123291138.207                                                  
  27459241.980   144299226.535                                                  
  24033435.765   126296491.207                                                  
 21  8 31 19 51 25.0000000  0 18G 5G10G13G15G18G23G24G29G32C19C21C22
                                C35E 3E 5E 9E15E36
  24021150.723   126231970.527    24021153.081    98362567.023                  
  23459226.667   123279004.454    23459230.634    96061545.625                  
  23815454.681   125151038.512    23815456.075    97520284.349                  
  21343083.834   112158661.452    21343084.674    87396358.988                  
  20077392.883   105507410.997    20077393.937    82213568.849                  
  21237998.218   111606430.840    21237999.398    86966051.018                  
  21088170.535   110819029.594    21088174.341    86352476.933                  
  24134460.681   126827393.379    24134464.273    98826526.411                  
  24519018.620   128848227.846    24519024.481   100401195.129                  
                 118772169.411                   118772169.411    22808947.833  
                 134930113.672                   134930113.672    25911914.857  
                 118151153.827                   118151153.827    22689683.183  
                 120585136.074                   120585136.074    23157111.575  
  26233310.839   137856929.061                                                  
  23510312.667   123547509.102                                                  
  23461904.108   123293114.013                                                  
  27458711.592   144296439.358                                                  
  24033764.144   126298216.827                                                  
 21  8 31 19 51 26.0000000  0 18G 5G10G13G15G18G23G24G29G32C19C21C22
                                C35E 3E 5E 9E15E36
  24021593.374   126234296.676    24021595.715    98364379.605                  
  23458818.931   123276861.884    23458822.916    96059876.094                  
  23816106.168   125154462.013    23816107.562    97522952.012                  
  21343565.100   112161190.468    21343565.940    87398329.647                  
  20077325.249   105507055.547    20077326.303    82213291.875                  
  21237769.763   111605230.243    21237770.942    86965115.488                  
  21087851.823   110817354.699    21087855.611    86351171.820                  
  24135109.380   126830802.351    24135112.972    98829182.746                  
  24518450.403   128845241.804    24518456.264   100398868.343                  
                 118773627.403                   118773627.403    22809227.840  
                 134928167.430                   134928167.430    25911541.108  
                 118150635.237                   118150635.237    22689583.581  
                 120587553.156                   120587553.156    23157575.759  
  26232954.405   137855055.991                                                  
  23510322.638   123547561.552                                                  
  23462280.108   123295089.868                                                  
  27458181.240   144293652.266                                                  
  24034092.595   126299942.840                                                  
 21  8 31 19 51 27.0000000  0 18G 5G10G13G15G18G23G24G29G32C19C21C22
                                C35E 3E 5E 9E15E36
  24022036.043   126236622.907    24022038.402    98366192.250                  
  23458411.214   123274719.332    23458415.199    96058206.575                  
  23816757.637   125157885.569    23816759.048    97525619.718                  
  21344046.402   112163719.749    21344047.242    87400300.515                  
  20077257.722   105506700.684    20077258.758    82213015.358                  
  21237541.325   111604029.781    21237542.505    86964180.063                  
  21087533.218   110815680.391    21087537.024    86349867.164                  
  24135758.079   126834211.300    24135761.707    98831839.070                  
  24517882.204   128842255.956    24517888.065   100396541.710                  
                 118775085.450                   118775085.450    22809507.848  
                 134926221.276                   134926221.276    25911167.360  
                 118150116.802                   118150116.802    22689484.015  
                 120589970.575                   120589970.575    23158039.996  
  26232598.007   137853183.120                                                  
  23510332.662   123547614.258                                                  
  23462656.107   123297065.793                                                  
  27457650.905   144290865.271                                                  
  24034421.117   126301669.232                                                  
 21  8 31 19 51 28.0000000  0 18G 5G10G13G15G18G23G24G29G32C19C21C22
                                C35E 3E 5E 9E15E36
  24022478.713   126238949.226    24022481.071    98368004.964                  
  23458003.496   123272576.788    23458007.499    96056537.063                  
  23817409.141   125161309.214    23817410.535    97528287.488                  
  21344527.758   112166249.284    21344528.598    87402271.582                  
  20077190.302   105506346.411    20077191.338    82212739.302                  
  21237312.906   111602829.465    21237314.085    86963244.750                  
  21087214.721   110814006.684    21087218.527    86348562.982                  
  24136406.779   126837620.231    24136410.406    98834495.375                  
  24517314.058   128839270.313    24517319.919   100394215.237                  
                 118776543.552                   118776543.552    22809787.856  
                 134924275.215                   134924275.215    25910793.647  
                 118149598.512                   118149598.512    22689384.503  
                 120592388.332                   120592388.332    23158504.305  
  26232241.646   137851310.458                                                  
  23510342.740   123547667.216                                                  
  23463032.125   123299041.780                                                  
  27457120.552   144288078.375                                                  
  24034749.692   126303396.005                                                  
 21  8 31 19 51 29.0000000  0 18G 5G10G13G15G18G23G24G29G32C19C21C22
                                C35E 3E 5E 9E15E36
  24022921.418   126241275.633    24022923.777    98369817.749                  
  23457595.797   123270434.256    23457599.782    96054867.558                  
  23818060.664   125164732.928    23818062.058    97530955.316                  
  21345009.167   112168779.090    21345010.007    87404242.854                  
  20077123.007   105505992.719    20077124.043    82212463.695                  
  21237084.522   111601629.279    21237085.701    86962309.544                  
  21086896.313   110812333.538    21086900.119    86347259.231                  
  24137055.478   126841029.156    24137059.105    98837151.680                  
  24516745.948   128836284.858    24516751.791   100391888.911                  
                 118778001.712                   118778001.712    22810067.881  
                 134922329.247                   134922329.247    25910419.934  
                 118149080.379                   118149080.379    22689285.008  
                 120594806.426                   120594806.426    23158968.685  
  26231885.319   137849437.995                                                  
  23510352.854   123547720.406                                                  
  23463408.161   123301017.832                                                  
  27456590.235   144285291.562                                                  
  24035078.375   126305123.160                                                  
 21  8 31 19 51 30.0000000  0 18G 5G10G13G15G18G23G24G29G32C19C21C22
                                C35E 3E 5E 9E15E36
  24023364.141   126243602.117    24023366.499    98371630.593                  
  23457188.079   123268291.728    23457192.082    96053198.055                  
  23818712.186   125168156.702    23818713.580    97533623.191                  
  21345490.613   112171309.177    21345491.488    87406214.351                  
  20077055.802   105505639.617    20077056.856    82212188.551                  
  21236856.155   111600429.239    21236857.335    86961374.448                  
  21086578.065   110810661.008    21086581.854    86345955.961                  
  24137704.177   126844438.069    24137707.804    98839807.972                  
  24516177.856   128833299.603    24516183.717   100389562.738                  
                 118779459.925                   118779459.925    22810347.924  
                 134920383.366                   134920383.366    25910046.240  
                 118148562.395                   118148562.395    22689185.513  
                 120597224.864                   120597224.864    23159433.101  
  26231529.047   137847565.729                                                  
  23510363.039   123547773.860                                                  
  23463784.197   123302993.942                                                  
  27456059.954   144282504.842                                                  
  24035407.112   126306850.708                                                  
 21  8 31 19 51 31.0000000  0 18G 5G10G13G15G18G23G24G29G32C19C21C22
                                C35E 3E 5E 9E15E36
  24023806.881   126245928.700    24023809.240    98373443.511                  
  23456780.380   123266149.199    23456784.364    96051528.554                  
  23819363.727   125171580.578    23819365.120    97536291.144                  
  21345972.147   112173839.528    21345972.987    87408186.051                  
  20076988.721   105505287.104    20076989.758    82211913.868                  
  21236627.825   111599229.340    21236629.004    86960439.462                  
  21086259.907   110808989.065    21086263.696    86344653.148                  
  24138352.876   126847846.965    24138356.486    98842464.255                  
  24515609.818   128830314.544    24515615.679   100387236.723                  
                 118780918.198                   118780918.198    22810627.968  
                 134918437.579                   134918437.579    25909672.580  
                 118148044.558                   118148044.558    22689086.072  
                 120599643.635                   120599643.635    23159897.606  
  26231172.792   137845693.683                                                  
  23510373.261   123547827.560                                                  
  23464160.232   123304970.120                                                  
  27455529.673   144279718.223                                                  
  24035735.937   126308578.637                                                  
 21  8 31 19 51 32.0000000  0 18G 5G10G13G15G18G23G24G29G32C19C21C22
                                C35E 3E 5E 9E15E36
  24024249.622   126248255.360    24024251.981    98375256.492                  
  23456372.662   123264006.690    23456376.665    96049859.070                  
  23820015.285   125175004.496    23820016.679    97538959.132                  
  21346453.699   112176370.141    21346454.539    87410157.957                  
  20076921.748   105504935.185    20076922.802    82211639.645                  
  21236399.513   111598029.585    21236400.692    86959504.586                  
  21085941.839   110807317.703    21085945.645    86343350.788                  
  24139001.557   126851255.864    24139005.185    98845120.535                  
  24515041.815   128827329.685    24515047.676   100384910.858                  
                 118782376.527                   118782376.527    22810908.011  
                 134916491.884                   134916491.884    25909298.921  
                 118147526.879                   118147526.879    22688986.667  
                 120602062.747                   120602062.747    23160362.183  
  26230816.609   137843821.825                                                  
  23510383.517   123547881.516                                                  
  23464536.322   123306946.357                                                  
  27454999.428   144276931.700                                                  
  24036064.817   126310306.945                                                  
 21  8 31 19 51 33.0000000  0 18G 5G10G13G15G18G23G24G29G32C19C21C22
                                C35E 3E 5E 9E15E36
  24024692.399   126250582.110    24024694.740    98377069.542                  
  23455964.962   123261864.191    23455968.965    96048189.585                  
  23820666.843   125178428.516    23820668.237    97541627.195                  
  21346935.305   112178901.015    21346936.163    87412130.071                  
  20076854.900   105504583.846    20076855.937    82211365.874                  
  21236171.236   111596829.965    21236172.415    86958569.821                  
  21085623.895   110805646.937    21085627.701    86342048.895                  
  24139650.256   126854664.731    24139653.866    98847776.792                  
  24514473.866   128824345.010    24514479.727   100382585.140                  
                 118783834.914                   118783834.914    22811188.072  
                 134914546.277                   134914546.277    25908925.280  
                 118147009.348                   118147009.348    22688887.279  
                 120604482.199                   120604482.199    23160826.795  
  26230460.443   137841950.184                                                  
  23510393.846   123547935.718                                                  
  23464912.393   123308922.661                                                  
  27454469.182   144274145.274                                                  
  24036393.786   126312035.640                                                  
 21  8 31 19 51 34.0000000  0 18G 5G10G13G15G18G23G24G29G32C19C21C22
                                C35E 3E 5E 9E15E36
  24025135.175   126252908.934    24025137.516    98378882.656                  
  23455557.263   123259721.700    23455561.248    96046520.114                  
  23821318.419   125181852.600    23821319.813    97544295.313                  
  21347416.965   112181432.144    21347417.805    87414102.375                  
  20076788.141   105504233.098    20076789.196    82211092.561                  
  21235942.977   111595630.491    21235944.156    86957635.164                  
  21085306.077   110803976.757    21085309.883    86340747.456                  
  24140298.938   126858073.586    24140302.565    98850433.043                  
  24513905.935   128821360.556    24513911.778   100380259.594                  
                 118785293.356                   118785293.356    22811468.151  
                 134912600.762                   134912600.762    25908551.674  
                 118146491.968                   118146491.968    22688787.927  
                 120606901.989                   120606901.989    23161291.497  
  26230104.314   137840078.754                                                  
  23510404.192   123547990.175                                                  
  23465288.483   123310899.024                                                  
  27453938.955   144271358.930                                                  
  24036722.826   126313764.714                                                  
 21  8 31 19 51 35.0000000  0 18G 5G10G13G15G18G23G24G29G32C19C21C22
                                C35E 3E 5E 9E15E36
  24025577.988   126255235.858    24025580.328    98380695.844                  
  23455149.563   123257579.215    23455153.548    96044850.648                  
  23821970.013   125185276.770    23821971.425    97546963.497                  
  21347898.678   112183963.534    21347899.518    87416074.887                  
  20076721.526   105503882.942    20076722.562    82210819.710                  
  21235714.754   111594431.156    21235715.933    86956700.617                  
  21084988.366   110802307.162    21084992.154    86339446.473                  
  24140947.619   126861482.440    24140951.246    98853089.293                  
  24513338.040   128818376.287    24513343.901   100377934.191                  
                 118786751.851                   118786751.851    22811748.266  
                 134910655.335                   134910655.335    25908178.087  
                 118145974.740                   118145974.740    22688688.576  
                 120609322.112                   120609322.112    23161756.253  
  26229748.238   137838207.515                                                  
  23510414.592   123548044.882                                                  
  23465664.572   123312875.448                                                  
  27453408.763   144268572.695                                                  
  24037051.920   126315494.172                                                  
 21  8 31 19 51 36.0000000  0 18G 5G10G13G15G18G23G24G29G32C19C21C22
                                C35E 3E 5E 9E15E36
  24026020.800   126257562.870    24026023.141    98382509.097                  
  23454741.864   123255436.734    23454745.848    96043181.183                  
  23822621.643   125188701.004    23822623.036    97549631.732                  
  21348380.445   112186495.191    21348381.284    87418047.606                  
  20076654.999   105503533.367    20076656.036    82210547.321                  
  21235486.566   111593231.961    21235487.746    86955766.180                  
  21084670.762   110800638.147    21084674.568    86338145.944                  
  24141596.300   126864891.275    24141599.928    98855745.519                  
  24512770.198   128815392.214    24512776.041   100375608.942                  
                 118788210.407                   118788210.407    22812028.363  
                 134908710.004                   134908710.004    25907804.499  
                 118145457.659                   118145457.659    22688589.278  
                 120611742.582                   120611742.582    23162221.079  
  26229392.198   137836336.496                                                  
  23510425.063   123548099.839                                                  
  23466040.697   123314851.937                                                  
  27452878.553   144265786.556                                                  
  24037381.103   126317224.015                                                  
 21  8 31 19 51 37.0000000  0 18G 5G10G13G15G18G23G24G29G32C19C21C22
                                C35E 3E 5E 9E15E36
  24026463.612   126259889.972    24026465.989    98384322.422                  
  23454334.164   123253294.278    23454338.149    96041511.738                  
  23823273.254   125192125.329    23823274.666    97552300.032                  
  21348862.247   112189027.098    21348863.087    87420020.518                  
  20076588.580   105503184.381    20076589.634    82210275.382                  
  21235258.379   111592032.913    21235259.558    86954831.855                  
  21084353.283   110798969.734    21084357.089    86336845.882                  
  24142244.981   126868300.083    24142248.609    98858401.730                  
  24512202.374   128812408.343    24512208.235   100373283.848                  
                 118789669.015                   118789669.015    22812308.460  
                 134906764.763                   134906764.763    25907430.911  
                 118144940.733                   118144940.733    22688490.015  
                 120614163.384                   120614163.384    23162685.978  
  26229036.175   137834465.668                                                  
  23510435.588   123548155.039                                                  
  23466416.822   123316828.487                                                  
  27452348.397   144263000.500                                                  
  24037710.339   126318954.239                                                  
 21  8 31 19 51 38.0000000  0 18G 5G10G13G15G18G23G24G29G32C19C21C22
                                C35E 3E 5E 9E15E36
  24026906.478   126262217.146    24026908.819    98386135.801                  
  23453926.464   123251151.814    23453930.431    96039842.285                  
  23823924.902   125195549.719    23823926.296    97554968.386                  
  21349344.103   112191559.266    21349344.943    87421993.636                  
  20076522.286   105502835.980    20076523.340    82210003.899                  
  21235030.245   111590833.992    21235031.424    86953897.632                  
  21084035.893   110797301.902    21084039.699    86335546.273                  
  24142893.663   126871708.876    24142897.272    98861057.933                  
  24511634.604   128809424.664    24511640.465   100370958.905                  
                 118791127.684                   118791127.684    22812588.575  
                 134904819.612                   134904819.612    25907057.377  
                 118144423.961                   118144423.961    22688390.788  
                 120616584.528                   120616584.528    23163150.948  
  26228680.224   137832595.048                                                  
  23510446.113   123548210.497                                                  
  23466792.965   123318805.097                                                  
  27451818.241   144260214.540                                                  
  24038039.666   126320684.833                                                  
 21  8 31 19 51 39.0000000  0 18G 5G10G13G15G18G23G24G29G32C19C21C22
                                C35E 3E 5E 9E15E36
  24027349.344   126264544.407    24027351.703    98387949.249                  
  23453518.765   123249009.364    23453522.767    96038172.848                  
  23824576.567   125198974.191    23824577.961    97557636.805                  
  21349825.995   112194091.706    21349826.835    87423966.964                  
  20076456.099   105502488.175    20076457.154    82209732.884                  
  21234802.111   111589635.223    21234803.308    86952963.526                  
  21083718.646   110795634.663    21083722.417    86334247.128                  
  24143542.326   126875117.663    24143545.936    98863714.128                  
  24511066.851   128806441.186    24511072.712   100368634.120                  
                 118792586.405                   118792586.405    22812868.725  
                 134902874.554                   134902874.554    25906683.861  
                 118143907.337                   118143907.337    22688291.562  
                 120619006.007                   120619006.007    23163615.953  
  26228324.273   137830724.628                                                  
  23510456.727   123548266.195                                                  
  23467169.108   123320781.765                                                  
  27451288.121   144257428.675                                                  
  24038369.063   126322415.823                                                  
 21  8 31 19 51 40.0000000  0 18G 5G10G13G15G18G23G24G29G32C19C21C22
                                C35E 3E 5E 9E15E36
  24027792.228   126266871.753    24027794.586    98389762.766                  
  23453111.083   123246866.921    23453115.068    96036503.414                  
  23825228.233   125202398.728    23825229.644    97560305.273                  
  21350307.958   112196624.399    21350308.798    87425940.491                  
  20076390.020   105502140.953    20076391.074    82209462.321                  
  21234574.013   111588436.585    21234575.193    86952029.528                  
  21083401.471   110793968.011    21083405.277    86332948.438                  
  24144191.007   126878526.427    24144194.617    98866370.306                  
  24510499.152   128803457.906    24510505.013   100366309.488                  
                 118794045.188                   118794045.188    22813148.858  
                 134900929.586                   134900929.586    25906310.345  
                 118143390.865                   118143390.865    22688192.389  
                 120621427.823                   120621427.823    23164081.048  
  26227968.394   137828854.421                                                  
  23510467.377   123548322.152                                                  
  23467545.269   123322758.497                                                  
  27450758.001   144254642.909                                                  
  24038698.532   126324147.195                                                  
 21  8 31 19 51 41.0000000  0 18G 5G10G13G15G18G23G24G29G32C19C21C22
                                C35E 3E 5E 9E15E36
  24028235.111   126269199.120    24028237.488    98391576.266                  
  23452703.383   123244724.456    23452707.386    96034833.945                  
  23825879.898   125205823.379    23825881.292    97562973.855                  
  21350789.957   112199157.368    21350790.797    87427914.238                  
  20076324.065   105501794.327    20076325.119    82209192.226                  
  21234345.969   111587238.095    21234347.148    86951095.637                  
  21083084.439   110792301.954    21083088.245    86331650.214                  
  24144839.724   126881934.938    24144843.352    98869026.161                  
  24509931.453   128800474.969    24509937.297   100363985.206                  
                 118795504.034                   118795504.034    22813429.026  
                 134898984.744                   134898984.744    25905936.847  
                 118142874.540                   118142874.540    22688093.216  
                 120623849.991                   120623849.991    23164546.179  
  26227612.532   137826984.397                                                  
  23510478.062   123548378.353                                                  
  23467921.447   123324735.309                                                  
  27450227.898   144251857.302                                                  
  24039028.073   126325878.953                                                  
 21  8 31 19 51 42.0000000  0 18G 5G10G13G15G18G23G24G29G32C19C21C22
                                C35E 3E 5E 9E15E36
  24028678.049   126271526.645    24028680.407    98393389.918                  
  23452295.702   123242582.030    23452299.686    96033164.525                  
  23826531.599   125209248.059    23826532.993    97565642.433                  
  21351272.028   112201690.587    21351272.868    87429888.177                  
  20076258.218   105501448.285    20076259.254    82208922.583                  
  21234117.924   111586039.746    21234119.104    86950161.858                  
  21082767.496   110790636.482    21082771.302    86330352.441                  
  24145488.388   126885343.676    24145492.015    98871682.318                  
  24509363.844   128797492.090    24509369.687   100361660.887                  
                 118796962.924                   118796962.924    22813709.177  
                 134897039.953                   134897039.953    25905563.366  
                 118142358.367                   118142358.367    22687994.096  
                 120626272.484                   120626272.484    23165011.399  
  26227256.742   137825114.593                                                  
  23510488.802   123548434.806                                                  
  23468297.626   123326712.170                                                  
  27449697.814   144249071.715                                                  
  24039357.703   126327611.094                                                  
 21  8 31 19 51 43.0000000  0 18G 5G10G13G15G18G23G24G29G32C19C21C22
                                C35E 3E 5E 9E15E36
  24029120.968   126273854.247    24029123.345    98395203.638                  
  23451888.002   123240439.616    23451892.005    96031495.108                  
  23827183.318   125212672.824    23827184.712    97568311.081                  
  21351754.116   112204224.066    21351754.956    87431862.312                  
  20076192.478   105501102.828    20076193.514    82208653.399                  
  21233889.898   111584841.540    21233891.077    86949228.191                  
  21082450.696   110788971.611    21082454.485    86329055.141                  
  24146137.033   126888752.410    24146140.679    98874338.472                  
  24508796.252   128794509.393    24508802.078   100359336.706                  
                 118798421.876                   118798421.876    22813989.363  
                 134895095.259                   134895095.259    25905189.904  
                 118141842.343                   118141842.343    22687894.995  
                 120628695.315                   120628695.315    23165476.672  
  26226900.952   137823245.003                                                  
  23510499.594   123548491.508                                                  
  23468673.823   123328689.097                                                  
  27449167.765   144246286.234                                                  
  24039687.386   126329343.610                                                  
 21  8 31 19 51 44.0000000  0 18G 5G10G13G15G18G23G24G29G32C19C21C22
                                C35E 3E 5E 9E15E36
  24029563.923   126276181.933    24029566.282    98397017.415                  
  23451480.320   123238297.207    23451484.305    96029825.704                  
  23827835.037   125216097.646    23827836.449    97570979.771                  
  21352236.276   112206757.804    21352237.116    87433836.655                  
  20076126.845   105500757.956    20076127.899    82208384.664                  
  21233661.925   111583643.466    21233663.104    86948294.630                  
  21082133.986   110787307.321    21082137.774    86327758.294                  
  24146785.697   126892161.130    24146789.342    98876994.613                  
  24508228.696   128791526.899    24508234.539   100357012.691                  
                 118799880.879                   118799880.879    22814269.532  
                 134893150.652                   134893150.652    25904816.459  
                 118141326.478                   118141326.478    22687795.947  
                 120631118.484                   120631118.484    23165942.018  
  26226545.215   137821375.604                                                  
  23510510.441   123548548.460                                                  
  23469050.019   123330666.079                                                  
  27448637.716   144243500.844                                                  
  24040017.141   126331076.501                                                  
 21  8 31 19 51 45.0000000  0 18G 5G10G13G15G18G23G24G29G32C19C21C22
                                C35E 3E 5E 9E15E36
  24030006.879   126278509.699    24030009.237    98398831.259                  
  23451072.621   123236154.808    23451076.623    96028156.304                  
  23828486.774   125219522.540    23828488.186    97573648.520                  
  21352718.471   112209291.800    21352719.311    87435811.200                  
  20076061.337   105500413.681    20076062.373    82208116.397                  
  21233433.952   111582445.539    21233435.149    86947361.180                  
  21081817.400   110785643.626    21081821.206    86326461.907                  
  24147434.360   126895569.827    24147438.005    98879650.742                  
  24507661.194   128788544.605    24507667.019   100354688.828                  
                 118801339.941                   118801339.941    22814549.736  
                 134891206.140                   134891206.140    25904443.032  
                 118140810.758                   118140810.758    22687696.899  
                 120633541.992                   120633541.992    23166407.434  
  26226189.515   137819506.419                                                  
  23510521.323   123548605.664                                                  
  23469426.234   123332643.125                                                  
  27448107.685   144240715.550                                                  
  24040346.985   126332809.786                                                  
 21  8 31 19 51 46.0000000  0 18G 5G10G13G15G18G23G24G29G32C19C21C22
                                C35E 3E 5E 9E15E36
  24030449.852   126280837.571    24030452.228    98400645.184                  
  23450664.939   123234012.411    23450668.941    96026486.901                  
  23829138.529   125222947.523    23829139.923    97576317.335                  
  21353200.739   112211826.069    21353201.578    87437785.953                  
  20075995.936   105500069.990    20075996.973    82207848.586                  
  21233206.032   111581247.750    21233207.212    86946427.836                  
  21081500.922   110783980.519    21081504.728    86325165.981                  
  24148083.006   126898978.523    24148086.669    98882306.862                  
  24507093.727   128785562.513    24507099.535   100352365.117                  
                 118802799.058                   118802799.058    22814829.958  
                 134889261.719                   134889261.719    25904069.623  
                 118140295.187                   118140295.187    22687597.886  
                 120635965.835                   120635965.835    23166872.922  
  26225833.885   137817637.442                                                  
  23510532.259   123548663.121                                                  
  23469802.484   123334620.233                                                  
  27447577.672   144237930.360                                                  
  24040676.883   126334543.452                                                  
 21  8 31 19 51 47.0000000  0 18G 5G10G13G15G18G23G24G29G32C19C21C22
                                C35E 3E 5E 9E15E36
  24030892.843   126283165.515    24030895.219    98402459.165                  
  23450257.257   123231870.029    23450261.260    96024817.513                  
  23829790.301   125226372.570    23829791.695    97578986.203                  
  21353683.041   112214360.599    21353683.881    87439760.907                  
  20075930.643   105499726.882    20075931.697    82207581.229                  
  21232978.113   111580050.105    21232979.292    86945494.606                  
  21081184.533   110782317.995    21081188.339    86323870.513                  
  24148731.651   126902387.196    24148735.297    98884962.969                  
  24506526.279   128782580.605    24506532.104   100350041.556                  
                 118804258.230                   118804258.230    22815110.180  
                 134887317.383                   134887317.383    25903696.232  
                 118139779.773                   118139779.773    22687498.892  
                 120638390.015                   120638390.015    23167338.464  
  26225478.256   137815768.665                                                  
  23510543.249   123548720.821                                                  
  23470178.716   123336597.397                                                  
  27447047.695   144235145.251                                                  
  24041006.853   126336277.503                                                  
 21  8 31 19 51 48.0000000  0 18G 5G10G13G15G18G23G24G29G32C19C21C22
                                C35E 3E 5E 9E15E36
  24031335.851   126285493.545    24031338.228    98404273.214                  
  23449849.575   123229727.667    23449853.578    96023148.145                  
  23830442.074   125229797.684    23830443.486    97581655.121                  
  21354165.398   112216895.376    21354166.238    87441736.059                  
  20075865.457   105499384.376    20075866.529    82207314.339                  
  21232750.265   111578852.601    21232751.444    86944561.488                  
  21080868.305   110780656.079    21080872.093    86322575.509                  
  24149380.297   126905795.866    24149383.960    98887619.075                  
  24505958.884   128779598.906    24505964.691   100347718.156                  
                 118805717.460                   118805717.460    22815390.402  
                 134885373.145                   134885373.145    25903322.859  
                 118139264.504                   118139264.504    22687399.951  
                 120640814.535                   120640814.535    23167804.059  
  26225122.680   137813900.094                                                  
  23510554.256   123548778.776                                                  
  23470554.984   123338574.634                                                  
  27446517.717   144232360.251                                                  
  24041336.893   126338011.941                                                  
 21  8 31 19 51 49.0000000  0 18G 5G10G13G15G18G23G24G29G32C19C21C22
                                C35E 3E 5E 9E15E36
  24031778.878   126287821.658    24031781.237    98406087.323                  
  23449441.894   123227585.294    23449445.896    96021478.763                  
  23831093.865   125233222.884    23831095.258    97584324.105                  
  21354647.808   112219430.410    21354648.648    87443711.411                  
  20075800.395   105499042.454    20075801.432    82207047.907                  
  21232522.399   111577655.243    21232523.579    86943628.480                  
  21080552.166   110778994.735    21080555.937    86321280.953                  
  24150028.960   126909204.506    24150032.605    98890275.156                  
  24505391.524   128776617.398    24505397.332   100345394.905                  
                 118807176.746                   118807176.746    22815670.642  
                 134883428.991                   134883428.991    25902949.521  
                 118138749.389                   118138749.389    22687301.046  
                 120643239.390                   120643239.390    23168269.726  
  26224767.140   137812031.727                                                  
  23510565.335   123548836.984                                                  
  23470931.234   123340551.918                                                  
  27445987.776   144229575.328                                                  
  24041667.041   126339746.749                                                  
 21  8 31 19 51 50.0000000  0 18G 5G10G13G15G18G23G24G29G32C19C21C22
                                C35E 3E 5E 9E15E36
  24032221.923   126290149.861    24032224.299    98407901.503                  
  23449034.212   123225442.941    23449038.214    96019809.399                  
  23831745.673   125236648.134    23831747.085    97586993.129                  
  21355130.254   112221965.718    21355131.093    87445686.973                  
  20075735.442   105498701.116    20075736.496    82206781.934                  
  21232294.587   111576458.020    21232295.766    86942695.581                  
  21080236.117   110777333.981    21080239.923    86319986.863                  
  24150677.606   126912613.132    24150681.233    98892931.222                  
  24504824.183   128773636.098    24504830.026   100343071.817                  
                 118808636.086                   118808636.086    22815950.900  
                 134881484.934                   134881484.934    25902576.184  
                 118138234.426                   118138234.426    22687202.141  
                 120645664.585                   120645664.585    23168735.464  
  26224411.636   137810163.558                                                  
  23510576.467   123548895.438                                                  
  23471307.520   123342529.273                                                  
  27445457.834   144226790.518                                                  
  24041997.243   126341481.953                                                  
 21  8 31 19 51 51.0000000  0 18G 5G10G13G15G18G23G24G29G32C19C21C22
                                C35E 3E 5E 9E15E36
  24032664.985   126292478.146    24032667.362    98409715.754                  
  23448626.548   123223300.597    23448630.533    96018140.038                  
  23832397.499   125240073.471    23832398.893    97589662.223                  
  21355612.753   112224501.278    21355613.593    87447662.734                  
  20075670.595   105498360.374    20075671.667    82206516.418                  
  21232066.775   111575260.938    21232067.954    86941762.792                  
  21079920.193   110775673.817    21079923.999    86318693.226                  
  24151326.233   126916021.750    24151329.879    98895587.289                  
  24504256.895   128770654.983    24504262.720   100340748.870                  
                 118810095.503                   118810095.503    22816231.157  
                 134879540.972                   134879540.972    25902202.864  
                 118137719.622                   118137719.622    22687103.272  
                 120648090.120                   120648090.120    23169201.256  
  26224056.186   137808295.605                                                  
  23510587.635   123548954.142                                                  
  23471683.824   123344506.692                                                  
  27444927.928   144224005.797                                                  
  24042327.498   126343217.532                                                  
 21  8 31 19 51 52.0000000  0 18G 5G10G13G15G18G23G24G29G32C19C21C22
                                C35E 3E 5E 9E15E36
  24033108.065   126294806.519    24033110.424    98411530.070                  
  23448218.884   123221158.262    23448222.869    96016470.688                  
  23833049.325   125243498.879    23833050.719    97592331.368                  
  21356095.306   112227037.105    21356096.164    87449638.699                  
  20075605.873   105498020.222    20075606.928    82206251.366                  
  21231838.998   111574064.000    21231840.178    86940830.113                  
  21079604.393   110774014.257    21079608.199    86317400.065                  
  24151974.879   126919430.337    24151978.524    98898243.327                  
  24503689.661   128767674.074    24503695.486   100338426.086                  
                 118811554.960                   118811554.960    22816511.433  
                 134877597.095                   134877597.095    25901829.562  
                 118137204.956                   118137204.956    22687004.438  
                 120650515.990                   120650515.990    23169667.119  
  26223700.753   137806427.852                                                  
  23510598.857   123549013.095                                                  
  23472060.128   123346484.167                                                  
  27444398.022   144221221.176                                                  
  24042657.843   126344953.496                                                  
 21  8 31 19 51 53.0000000  0 18G 5G10G13G15G18G23G24G29G32C19C21C22
                                C35E 3E 5E 9E15E36
  24033551.146   126297134.969    24033553.522    98413344.444                  
  23447811.202   123219015.927    23447815.187    96014801.341                  
  23833701.187   125246924.355    23833702.581    97595000.569                  
  21356577.895   112229573.187    21356578.752    87451614.867                  
  20075541.259   105497680.653    20075542.295    82205986.765                  
  21231611.258   111572867.203    21231612.437    86939897.542                  
  21079288.701   110772355.276    21079292.507    86316107.355                  
  24152623.507   126922838.899    24152627.152    98900899.345                  
  24503122.444   128764693.364    24503128.252   100336103.457                  
                 118813014.469                   118813014.469    22816791.726  
                 134875653.305                   134875653.305    25901456.261  
                 118136690.446                   118136690.446    22686905.640  
                 120652942.191                   120652942.191    23170133.036  
  26223345.356   137804560.302                                                  
  23510610.114   123549072.297                                                  
  23472436.413   123348461.704                                                  
  27443868.134   144218436.646                                                  
  24042988.259   126346689.839                                                  
 21  8 31 19 51 54.0000000  0 18G 5G10G13G15G18G23G24G29G32C19C21C22
                                C35E 3E 5E 9E15E36
  24033994.262   126299463.512    24033996.620    98415158.892                  
  23447403.538   123216873.612    23447407.523    96013132.005                  
  23834353.031   125250349.907    23834354.443    97597669.828                  
  21357060.555   112232109.540    21357061.395    87453591.246                  
  20075476.752   105497341.680    20075477.806    82205722.628                  
  21231383.553   111571670.550    21231384.732    86938965.087                  
  21078973.116   110770696.899    21078976.923    86314815.113                  
  24153272.116   126926247.443    24153275.780    98903555.353                  
  24502555.264   128761712.856    24502561.071   100333780.983                  
                 118814474.034                   118814474.034    22817072.020  
                 134873709.610                   134873709.610    25901082.995  
                 118136176.081                   118136176.081    22686806.860  
                 120655368.735                   120655368.735    23170599.042  
  26222990.013   137802692.966                                                  
  23510621.443   123549131.755                                                  
  23472812.753   123350439.308                                                  
  27443338.282   144215652.212                                                  
  24043318.747   126348426.571                                                  
 21  8 31 19 51 55.0000000  0 18G 5G10G13G15G18G23G24G29G32C19C21C22
                                C35E 3E 5E 9E15E36
  24034437.378   126301792.126    24034439.736    98416973.398                  
  23446995.857   123214731.298    23446999.841    96011462.669                  
  23835004.893   125253775.520    23835006.323    97600339.140                  
  21357543.269   112234646.142    21357544.108    87455567.821                  
  20075412.352   105497003.280    20075413.406    82205458.946                  
  21231155.866   111570474.029    21231157.045    86938032.730                  
  21078657.657   110769039.097    21078661.463    86313523.321                  
  24153920.744   126929655.972    24153924.407    98906211.347                  
  24501988.119   128758732.542    24501993.962   100331458.663                  
                 118815933.657                   118815933.657    22817352.313  
                 134871766.004                   134871766.004    25900709.764  
                 118135661.871                   118135661.871    22686708.098  
                 120657795.610                   120657795.610    23171065.102  
  26222634.723   137800825.820                                                  
  23510632.808   123549191.445                                                  
  23473189.075   123352416.961                                                  
  27442808.448   144212867.872                                                  
  24043649.306   126350163.677                                                  
 21  8 31 19 51 56.0000000  0 18G 5G10G13G15G18G23G24G29G32C19C21C22
                                C35E 3E 5E 9E15E36
  24034880.512   126304120.837    24034882.888    98418787.976                  
  23446588.193   123212588.992    23446592.177    96009793.340                  
  23835656.791   125257201.219    23835658.203    97603008.511                  
  21358026.018   112237183.010    21358026.858    87457544.602                  
  20075348.077   105496665.484    20075349.113    82205195.722                  
  21230928.196   111569277.648    21230929.376    86937100.488                  
  21078342.304   110767381.888    21078346.092    86312231.987                  
  24154569.354   126933064.480    24154573.017    98908867.323                  
  24501421.027   128755752.411    24501426.853   100329136.489                  
                 118817393.335                   118817393.335    22817632.643  
                 134869822.490                   134869822.490    25900336.516  
                 118135147.809                   118135147.809    22686609.372  
                 120660222.823                   120660222.823    23171531.216  
  26222279.469   137798958.874                                                  
  23510644.208   123549251.398                                                  
  23473565.432   123354394.683                                                  
  27442278.613   144210083.621                                                  
  24043979.936   126351901.167                                                  
 21  8 31 19 51 57.0000000  0 18G 5G10G13G15G18G23G24G29G32C19C21C22
                                C35E 3E 5E 9E15E36
  24035323.681   126306449.633    24035326.040    98420602.622                  
  23446180.529   123210446.701    23446184.514    96008124.024                  
  23836308.707   125260626.988    23836310.100    97605677.941                  
  21358508.821   112239720.137    21358509.661    87459521.579                  
  20075283.891   105496328.275    20075284.964    82204932.961                  
  21230700.563   111568081.417    21230701.742    86936168.360                  
  21078027.059   110765725.268    21078030.847    86310941.122                  
  24155217.981   126936472.968    24155221.645    98911523.290                  
  24500853.954   128752772.505    24500859.797   100326814.485                  
                 118818853.071                   118818853.071    22817912.954  
                 134867879.066                   134867879.066    25899963.304  
                 118134633.898                   118134633.898    22686510.699  
                 120662650.376                   120662650.376    23171997.401  
  26221924.215   137797092.148                                                  
  23510655.663   123549311.599                                                  
  23473941.807   123356372.469                                                  
  27441748.815   144207299.481                                                  
  24044310.656   126353639.044                                                  
 21  8 31 19 51 58.0000000  0 18G 5G10G13G15G18G23G24G29G32C19C21C22
                                C35E 3E 5E 9E15E36
  24035766.833   126308778.508    24035769.227    98422417.328                  
  23445772.865   123208304.415    23445776.868    96006454.711                  
  23836960.622   125264052.827    23836962.016    97608347.426                  
  21358991.660   112242257.523    21358992.500    87461498.762                  
  20075219.849   105495991.652    20075220.903    82204670.661                  
  21230472.965   111566885.333    21230474.145    86935236.344                  
  21077711.921   110764069.262    21077715.727    86309650.723                  
  24155866.591   126939881.445    24155870.254    98914179.239                  
  24500286.934   128749792.781    24500292.759   100324492.622                  
                 118820312.860                   118820312.860    22818193.301  
                 134865935.730                   134865935.730    25899590.091  
                 118134120.141                   118134120.141    22686412.044  
                 120665078.261                   120665078.261    23172463.657  
  26221569.032   137795225.622                                                  
  23510667.152   123549372.051                                                  
  23474318.182   123358350.319                                                  
  27441219.016   144204515.426                                                  
  24044641.448   126355377.300                                                  
 21  8 31 19 51 59.0000000  0 18G 5G10G13G15G18G23G24G29G32C19C21C22
                                C35E 3E 5E 9E15E36
  24036210.038   126311107.465    24036212.397    98424232.097                  
  23445365.201   123206162.133    23445369.186    96004785.402                  
  23837612.556   125267478.737    23837613.967    97611016.964                  
  21359474.553   112244795.169    21359475.392    87463476.149                  
  20075155.896   105495655.608    20075156.968    82204408.808                  
  21230245.385   111565689.375    21230246.547    86934304.434                  
  21077396.908   110762413.819    21077400.696    86308360.770                  
  24156515.201   126943289.897    24156518.864    98916835.176                  
  24499719.968   128746813.250    24499725.775   100322170.914                  
                 118821772.706                   118821772.706    22818473.648  
                 134863992.489                   134863992.489    25899216.915  
                 118133606.530                   118133606.530    22686313.407  
                 120667506.489                   120667506.489    23172929.985  
  26221213.885   137793359.304                                                  
  23510678.696   123549432.747                                                  
  23474694.558   123360328.226                                                  
  27440689.253   144201731.467                                                  
  24044972.275   126357115.943                                                  
 21  8 31 19 52  0.0000000  0 18G 5G10G13G15G18G23G24G29G32C19C21C22
                                C35E 3E 5E 9E15E36
  24036653.244   126313436.517    24036655.602    98426046.942                  
  23444957.537   123204019.868    23444961.522    96003116.105                  
  23838264.507   125270904.711    23838265.901    97613686.550                  
  21359957.499   112247333.083    21359958.356    87465453.742                  
  20075092.085   105495320.171    20075093.122    82204147.426                  
  21230017.823   111564493.570    21230019.003    86933372.637                  
  21077082.002   110760758.981    21077085.808    86307071.286                  
  24157163.829   126946698.344    24157167.474    98919491.107                  
  24499153.002   128743833.925    24499158.845   100319849.363                  
                 118823232.608                   118823232.608    22818753.995  
                 134862049.336                   134862049.336    25898843.756  
                 118133093.073                   118133093.073    22686214.806  
                 120669935.048                   120669935.048    23173396.366  
  26220858.774   137791493.188                                                  
  23510690.293   123549493.696                                                  
  23475070.969   123362306.199                                                  
  27440159.508   144198947.612                                                  
  24045303.209   126358854.964                                                  
 21  8 31 19 52  1.0000000  0 18G 5G10G13G15G18G23G24G29G32C19C21C22
                                C35E 3E 5E 9E15E36
  24037096.467   126315765.653    24037098.826    98427861.851                  
  23444549.873   123201877.607    23444553.858    96001446.808                  
  23838916.440   125274330.762    23838917.852    97616356.200                  
  21360440.498   112249871.251    21360441.356    87467431.536                  
  20075028.364   105494985.315    20075029.401    82203886.500                  
  21229790.279   111563297.899    21229791.459    86932440.946                  
  21076767.203   110759104.733    21076770.992    86305782.261                  
  24157812.421   126950106.765    24157816.084    98922147.016                  
  24498586.107   128740854.797    24498591.914   100317527.964                  
                 118824692.566                   118824692.566    22819034.378  
                 134860106.273                   134860106.273    25898470.615  
                 118132579.767                   118132579.767    22686116.223  
                 120672363.942                   120672363.942    23173862.801  
  26220503.699   137789627.272                                                  
  23510701.961   123549554.888                                                  
  23475447.362   123364284.226                                                  
  27439629.781   144196163.847                                                  
  24045634.197   126360594.367                                                  
 21  8 31 19 52  2.0000000  0 18G 5G10G13G15G18G23G24G29G32C19C21C22
                                C35E 3E 5E 9E15E36
  24037539.708   126318094.871    24037542.067    98429676.824                  
  23444142.227   123199735.356    23444146.194    95999777.524                  
  23839568.427   125277756.892    23839569.821    97619025.909                  
  21360923.552   112252409.673    21360924.391    87469409.528                  
  20074964.733   105494651.055    20074965.805    82203626.040                  
  21229562.789   111562102.376    21229563.968    86931509.367                  
  21076452.512   110757451.074    21076456.318    86304493.696                  
  24158461.013   126953515.188    24158464.676    98924802.926                  
  24498019.212   128737875.874    24498025.037   100315206.730                  
                 118826152.581                   118826152.581    22819314.761  
                 134858163.305                   134858163.305    25898097.474  
                 118132066.609                   118132066.609    22686017.675  
                 120674793.175                   120674793.175    23174329.308  
  26220148.659   137787761.574                                                  
  23510713.648   123549616.341                                                  
  23475823.773   123366262.320                                                  
  27439100.054   144193380.183                                                  
  24045965.274   126362334.155                                                  
 21  8 31 19 52  3.0000000  0 18G 5G10G13G15G18G23G24G29G32C19C21C22
                                C35E 3E 5E 9E15E36
  24037982.931   126320424.184    24037985.326    98431491.875                  
  23443734.563   123197593.109    23443738.566    95998108.245                  
  23840220.397   125281183.081    23840221.808    97621695.669                  
  21361406.641   112254948.361    21361407.498    87471387.722                  
  20074901.244   105494317.379    20074902.298    82203366.032                  
  21229335.316   111560906.987    21229336.477    86930577.898                  
  21076137.964   110755798.000    21076141.734    86303205.586                  
  24159109.622   126956923.585    24159113.286    98927458.815                  
  24497452.407   128734897.145    24497458.214   100312885.644                  
                 118827612.652                   118827612.652    22819595.144  
                 134856220.426                   134856220.426    25897724.387  
                 118131553.603                   118131553.603    22685919.163  
                 120677222.744                   120677222.744    23174795.886  
  26219793.673   137785896.071                                                  
  23510725.387   123549678.032                                                  
  23476200.201   123368240.470                                                  
  27438570.362   144190596.612                                                  
  24046296.423   126364074.315                                                  
