     2.11           OBSERVATION DATA    M (MIXED)           RINEX VERSION / TYPE
CONVBIN 2.4.3                           20210901 190801 UTC PGM / RUN BY / DATE 
log: logs/21_09_01_08_42_11_pamm_SW.rtcm                    COMMENT             
format: RTCM 3, station ID: 2238                            COMMENT             
2238                                                        MARKER NAME         
                                                            MARKER NUMBER       
                                                            OBSERVER / AGENCY   
                    SWFT                                    REC # / TYPE / VERS 
                    NULL                                    ANT # / TYPE        
   824987.9304 -4798612.5637  4106112.1974                  APPROX POSITION XYZ 
        0.0000        0.0000        0.0000                  ANTENNA: DELTA H/E/N
     1     1                                                WAVELENGTH FACT L1/2
     5    C1    L1    P2    L2    C2                        # / TYPES OF OBSERV 
  2021     9     1     8    42   16.0000000     GPS         TIME OF FIRST OBS   
  2021     9     1     9    12   14.0000000     GPS         TIME OF LAST OBS    
                                                            END OF HEADER       
 21  9  1  8 42 16.0000000  0 11G 1G 7G 8G13G14G17G19G21G30E13E21
  20684222.776   108696285.988    20684225.528    84698394.164                  
  21019359.375   110457491.220    21019358.857    86070775.121                  
  23209915.592   121968891.988    23209917.772    95040685.747                  
  23753944.197   124827836.285    23753943.286    97268447.860                  
  21473807.280   112845635.142    21473807.173    87931669.896                  
  22075817.952   116009217.676    22075817.505    90396795.237                  
  24631006.217   129436819.995    24631004.680   100859862.354                  
  21539551.579   113191115.845    21539550.275    88200872.165                  
  20625949.766   108390063.513    20625951.535    84459781.281                  
  24662153.782   129600451.430                                                  
  25124536.445   132030312.298                                                  
 21  9  1  8 42 17.0000000  0 11G 1G 7G 8G13G14G17G19G21G30E13E21
  20683933.066   108694763.564    20683935.818    84697207.859                  
  21019789.054   110459749.210    21019788.536    86072534.621                  
  23210500.606   121971966.105    23210502.786    95043081.128                  
  23753967.445   124827958.552    23753966.533    97268543.165                  
  21473427.653   112843640.222    21473427.563    87930115.410                  
  22075407.054   116007058.386    22075406.571    90395112.683                  
  24630369.526   129433474.102    24630368.007   100857255.156                  
  21539752.766   113192172.956    21539751.462    88201695.863                  
  20625966.438   108390151.226    20625968.225    84459849.668                  
  24661681.218   129597967.839                                                  
  25124182.906   132028454.422                                                  
 21  9  1  8 42 18.0000000  0 11G 1G 7G 8G13G14G17G19G21G30E13E21
  20683643.480   108693241.820    20683646.232    84696022.083                  
  21020218.840   110462007.676    21020218.304    86074294.465                  
  23211085.602   121975040.347    23211087.782    95045476.639                  
  23753990.817   124828081.368    23753989.906    97268638.868                  
  21473048.079   112841645.504    21473047.972    87928561.082                  
  22074996.227   116004899.406    22074995.744    90393430.363                  
  24629732.853   129430128.355    24629731.316   100854648.083                  
  21539954.043   113193230.708    21539952.739    88202520.087                  
  20625983.235   108390239.524    20625985.022    84459918.469                  
  24661208.726   129595484.832                                                  
  25123829.385   132026596.629                                                  
 21  9  1  8 42 19.0000000  0 11G 1G 7G 8G13G14G17G19G21G30E13E21
  20683354.038   108691720.784    20683356.808    84694836.860                  
  21020648.697   110464266.679    21020648.179    86076054.727                  
  23211670.634   121978114.692    23211672.814    95047872.231                  
  23754014.297   124828204.808    23754013.404    97268735.050                  
  21472668.541   112839650.992    21472668.434    87927006.914                  
  22074585.436   116002740.770    22074584.971    90391748.305                  
  24629096.215   129426782.767    24629094.678   100852041.124                  
  21540155.445   113194289.052    21540154.140    88203344.766                  
  20626000.157   108390328.464    20626001.944    84459987.773                  
  24660736.286   129593002.133                                                  
  25123475.865   132024738.903                                                  
 21  9  1  8 42 20.0000000  0 11G 1G 7G 8G13G14G17G19G21G30E13E21
  20683064.739   108690200.446    20683067.472    84693652.176                  
  21021078.679   110466526.222    21021078.161    86077815.403                  
  23212255.684   121981189.108    23212257.864    95050267.875                  
  23754037.920   124828328.874    23754037.009    97268831.723                  
  21472289.039   112837656.679    21472288.931    87925452.902                  
  22074174.716   116000582.454    22074174.252    90390066.495                  
  24628459.595   129423437.317    24628458.059   100849434.277                  
  21540356.936   113195347.986    21540355.632    88204169.907                  
  20626017.204   108390418.058    20626019.008    84460057.582                  
  24660263.883   129590519.733                                                  
  25123122.380   132022881.286                                                  
 21  9  1  8 42 21.0000000  0 15G 1G 7G 8G13G14G17G19G21G30C23C25C28
                                C34E13E21
  20682775.564   108688680.792    20682778.298    84692468.030                  
  21021508.769   110468786.284    21021508.233    86079576.493                  
  23212840.734   121984263.624    23212842.914    95052663.601                  
  23754061.632   124828453.570    23754060.739    97268928.886                  
  21471909.572   112835662.572    21471909.465    87923899.050                  
  22073764.086   115998424.484    22073763.622    90388384.965                  
  24627822.994   129420092.007    24627821.457   100846827.547                  
  21540558.552   113196407.512    21540557.266    88204995.512                  
  20626034.376   108390508.305    20626036.163    84460127.901                  
                 114353108.773                   114353108.773    21960302.420  
                 120621357.594                   120621357.594    23164060.517  
                 125557615.184                   125557615.184    24112019.779  
                 122959101.981                   122959101.981    23613001.778  
  24659791.551   129588037.648                                                  
  25122768.895   132021023.753                                                  
 21  9  1  8 42 22.0000000  0 15G 1G 7G 8G13G14G17G19G21G30C23C25C28
                                C34E13E21
  20682486.497   108687161.840    20682489.267    84691284.433                  
  21021938.948   110471046.884    21021938.412    86081337.992                  
  23213425.819   121987338.215    23213427.999    95055059.387                  
  23754085.505   124828578.880    23754084.576    97269026.530                  
  21471530.141   112833668.667    21471530.034    87922345.360                  
  22073353.492   115996266.843    22073353.027    90386703.684                  
  24627186.445   129416746.848    24627184.909   100844220.925                  
  21540760.293   113197467.617    21540759.007    88205821.566                  
  20626051.673   108390599.199    20626053.460    84460198.731                  
                 114352524.573                   114352524.573    21960190.220  
                 120623596.942                   120623596.942    23164490.553  
                 125554800.406                   125554800.406    24111479.223  
                 122961515.178                   122961515.178    23613465.193  
  24659319.309   129585555.879                                                  
  25122415.445   132019166.315                                                  
 21  9  1  8 42 23.0000000  0 15G 1G 7G 8G13G14G17G19G21G30C23C25C28
                                C34E13E21
  20682197.573   108685643.565    20682200.342    84690101.364                  
  21022369.216   110473308.002    21022368.680    86083099.907                  
  23214010.904   121990412.878    23214013.084    95057455.230                  
  23754109.468   124828704.797    23754108.539    97269124.648                  
  21471150.764   112831674.961    21471150.639    87920791.821                  
  22072942.987   115994109.530    22072942.504    90385022.663                  
  24626549.897   129413401.823    24626548.360   100841614.419                  
  21540962.142   113198528.320    21540960.838    88206648.090                  
  20626069.095   108390690.751    20626070.882    84460270.067                  
                 114351940.809                   114351940.809    21960078.128  
                 120625836.633                   120625836.633    23164920.678  
                 125551985.883                   125551985.883    24110938.721  
                 122963928.629                   122963928.629    23613928.680  
  24658847.084   129583074.398                                                  
  25122061.996   132017308.965                                                  
 21  9  1  8 42 24.0000000  0 15G 1G 7G 8G13G14G17G19G21G30C23C25C28
                                C34E13E21
  20681908.791   108684125.986    20681911.543    84688918.833                  
  21022799.573   110475569.649    21022799.055    86084862.227                  
  23214596.026   121993487.628    23214598.188    95059851.137                  
  23754133.537   124828831.336    23754132.626    97269223.250                  
  21470771.405   112829681.458    21470771.297    87919238.442                  
  22072532.517   115991952.549    22072532.035    90383341.899                  
  24625913.403   129410056.942    24625911.866   100839008.016                  
  21541164.098   113199589.605    21541162.793    88207475.067                  
  20626086.643   108390782.948    20626088.447    84460341.910                  
                 114351357.484                   114351357.484    21959966.107  
                 120628076.672                   120628076.672    23165350.857  
                 125549171.617                   125549171.617    24110398.273  
                 122966342.321                   122966342.321    23614392.203  
  24658374.949   129580593.231                                                  
  25121708.565   132015451.696                                                  
 21  9  1  8 42 25.0000000  0 15G 1G 7G 8G13G14G17G19G21G30C23C25C28
                                C34E13E21
  20681620.135   108682609.093    20681622.905    84687736.836                  
  21023230.056   110477831.822    21023229.538    86086624.956                  
  23215181.129   121996562.446    23215183.309    95062247.097                  
  23754157.732   124828958.503    23754156.821    97269322.343                  
  21470392.099   112827688.149    21470391.974    87917685.215                  
  22072122.120   115989795.906    22072121.637    90381661.397                  
  24625276.908   129406712.190    24625275.353   100836401.716                  
  21541366.161   113200651.496    21541364.856    88208302.513                  
  20626104.315   108390875.806    20626106.102    84460414.266                  
                 114350774.595                   114350774.595    21959854.158  
                 120630317.058                   120630317.058    23165781.107  
                 125546357.606                   125546357.606    24109857.878  
                 122968756.254                   122968756.254    23614855.779  
  24657902.831   129578112.372                                                  
  25121355.169   132013594.522                                                  
 21  9  1  8 42 26.0000000  0 15G 1G 7G 8G13G14G17G19G21G30C23C25C28
                                C34E13E21
  20681331.622   108681092.896    20681334.374    84686555.386                  
  21023660.646   110480094.525    21023660.128    86088388.106                  
  23215766.268   121999637.328    23215768.448    95064643.109                  
  23754182.052   124829086.293    23754181.140    97269421.917                  
  21470012.829   112825695.043    21470012.704    87916132.144                  
  22071711.775   115987639.591    22071711.329    90379981.152                  
  24624640.467   129403367.591    24624638.912   100833795.535                  
  21541568.349   113201713.957    21541567.044    88209130.402                  
  20626122.095   108390969.303    20626123.900    84460487.121                  
                 114350192.145                   114350192.145    21959742.297  
                 120632557.793                   120632557.793    23166211.393  
                 125543543.855                   125543543.855    24109317.518  
                 122971170.437                   122971170.437    23615319.408  
  24657430.803   129575631.818                                                  
  25121001.755   132011737.439                                                  
 21  9  1  8 42 27.0000000  0 15G 1G 7G 8G13G14G17G19G21G30C23C25C28
                                C34E13E21
  20681043.216   108679577.370    20681045.986    84685374.457                  
  21024091.325   110482357.762    21024090.807    86090151.663                  
  23216351.425   122002712.319    23216353.587    95067039.208                  
  23754206.479   124829214.707    23754205.585    97269521.980                  
  21469633.577   112823702.132    21469633.487    87914579.230                  
  22071301.521   115985483.614    22071301.038    90378301.172                  
  24624004.026   129400023.144    24624002.471   100831189.472                  
  21541770.644   113202777.017    21541769.339    88209958.763                  
  20626140.017   108391063.452    20626141.822    84460560.484                  
                 114349610.128                   114349610.128    21959630.545  
                 120634798.879                   120634798.879    23166641.786  
                 125540730.359                   125540730.359    24108777.213  
                 122973584.864                   122973584.864    23615783.056  
  24656958.829   129573151.563                                                  
  25120648.378   132009880.447                                                  
 21  9  1  8 42 28.0000000  0 15G 1G 7G 8G13G14G17G19G21G30C23C25C28
                                C34E13E21
  20680754.953   108678062.555    20680757.723    84684194.082                  
  21024522.094   110484621.519    21024521.575    86091915.632                  
  23216936.582   122005787.369    23216938.744    95069435.348                  
  23754231.049   124829343.726    23754230.119    97269622.515                  
  21469254.378   112821709.422    21469254.289    87913026.468                  
  22070891.301   115983327.962    22070890.837    90376621.441                  
  24623367.621   129396678.836    24623366.084   100828583.515                  
  21541973.046   113203840.667    21541971.742    88210787.578                  
  20626158.065   108391158.253    20626159.852    84460634.354                  
                 114349028.553                   114349028.553    21959518.863  
                 120637040.309                   120637040.309    23167072.215  
                 125537917.122                   125537917.122    24108236.961  
                 122975999.530                   122975999.530    23616246.757  
  24656486.908   129570671.614                                                  
  25120295.018   132008023.536                                                  
 21  9  1  8 42 29.0000000  0 15G 1G 7G 8G13G14G17G19G21G30C23C25C28
                                C34E13E21
  20680466.833   108676548.430    20680469.585    84683014.241                  
  21024952.987   110486885.813    21024952.451    86093680.017                  
  23217521.756   122008862.497    23217523.919    95071831.555                  
  23754255.726   124829473.382    23754254.796    97269723.547                  
  21468875.215   112819716.917    21468875.108    87911473.867                  
  22070481.154   115981172.645    22070480.707    90374941.973                  
  24622731.233   129393334.659    24622729.697   100825977.663                  
  21542175.556   113204904.894    21542174.251    88211616.851                  
  20626176.220   108391253.707    20626178.025    84460708.735                  
                 114348447.418                   114348447.418    21959407.235  
                 120639282.081                   120639282.081    23167502.734  
                 125535104.141                   125535104.141    24107696.762  
                 122978414.449                   122978414.449    23616710.512  
  24656015.040   129568191.982                                                  
  25119941.676   132006166.714                                                  
 21  9  1  8 42 30.0000000  0 15G 1G 7G 8G13G14G17G19G21G30C23C25C28
                                C34E13E21
  20680178.838   108675035.003    20680181.607    84681834.952                  
  21025383.952   110489150.632    21025383.434    86095444.813                  
  23218106.931   122011937.697    23218109.111    95074227.812                  
  23754280.492   124829603.648    23754279.581    97269825.056                  
  21468496.106   112817724.617    21468495.981    87909921.425                  
  22070071.077   115979017.659    22070070.613    90373262.766                  
  24622094.900   129389990.626    24622093.363   100823371.926                  
  21542378.173   113205969.718    21542376.886    88212446.581                  
  20626194.518   108391349.813    20626196.305    84460783.620                  
                 114347866.718                   114347866.718    21959295.733  
                 120641524.206                   120641524.206    23167933.324  
                 125532291.415                   125532291.415    24107156.600  
                 122980829.607                   122980829.607    23617174.338  
  24655543.245   129565712.660                                                  
  25119588.351   132004309.971                                                  
 21  9  1  8 42 31.0000000  0 15G 1G 7G 8G13G14G17G19G21G30C23C25C28
                                C34E13E21
  20679890.986   108673522.265    20679893.720    84680656.196                  
  21025815.060   110491416.008    21025814.524    86097210.039                  
  23218692.142   122015012.969    23218694.322    95076624.128                  
  23754305.402   124829734.539    23754304.508    97269927.046                  
  21468116.997   112815732.511    21468116.908    87908369.137                  
  22069661.055   115976863.005    22069660.608    90371583.813                  
  24621458.584   129386646.737    24621457.047   100820766.298                  
  21542580.932   113207035.134    21542579.628    88213276.773                  
  20626212.923   108391446.565    20626214.728    84460859.016                  
                 114347286.458                   114347286.458    21959184.302  
                 120643766.679                   120643766.679    23168363.967  
                 125529478.946                   125529478.946    24106616.508  
                 122983245.011                   122983245.011    23617638.182  
  24655071.502   129563233.641                                                  
  25119235.063   132002453.337                                                  
 21  9  1  8 42 32.0000000  0 15G 1G 7G 8G13G14G17G19G21G30C23C25C28
                                C34E13E21
  20679603.241   108672010.214    20679605.993    84679477.972                  
  21026246.240   110493681.890    21026245.722    86098975.661                  
  23219277.352   122018088.315    23219279.532    95079020.499                  
  23754330.436   124829866.052    23754329.525    97270029.524                  
  21467737.959   112813740.601    21467737.852    87906816.995                  
  22069251.104   115974708.683    22069250.639    90369905.124                  
  24620822.286   129383302.983    24620820.749   100818160.778                  
  21542783.782   113208101.128    21542782.477    88214107.423                  
  20626231.453   108391543.974    20626233.258    84460934.914                  
                 114346706.634                   114346706.634    21959072.960  
                 120646009.499                   120646009.499    23168794.664  
                 125526666.738                   125526666.738    24106076.435  
                 122985660.660                   122985660.660    23618102.080  
  24654599.814   129560754.930                                                  
  25118881.757   132000596.782                                                  
 21  9  1  8 42 33.0000000  0 15G 1G 7G 8G13G14G17G19G21G30C23C25C28
                                C34E13E21
  20679315.639   108670498.862    20679318.409    84678300.297                  
  21026677.527   110495948.296    21026677.008    86100741.692                  
  23219862.598   122021163.755    23219864.778    95081416.946                  
  23754355.578   124829998.187    23754354.666    97270132.484                  
  21467358.957   112811748.897    21467358.832    87905265.023                  
  22068841.224   115972554.698    22068840.742    90368226.692                  
  24620186.023   129379959.390    24620184.487   100815555.378                  
  21542986.738   113209167.723    21542985.434    88214938.532                  
  20626250.126   108391642.032    20626251.913    84461011.325                  
                 114346127.246                   114346127.246    21958961.671  
                 120648252.664                   120648252.664    23169225.433  
                 125523854.786                   125523854.786    24105536.433  
                 122988076.556                   122988076.556    23618566.031  
  24654128.197   129558276.516                                                  
  25118528.486   131998740.321                                                  
 21  9  1  8 42 34.0000000  0 15G 1G 7G 8G13G14G17G19G21G30C23C25C28
                                C34E13E21
  20679028.180   108668988.187    20679030.914    84677123.143                  
  21027108.903   110498215.228    21027108.385    86102508.128                  
  23220447.863   122024239.265    23220450.043    95083813.450                  
  23754380.845   124830130.945    23754379.915    97270235.929                  
  21466979.973   112809757.390    21466979.884    87903713.194                  
  22068431.398   115970401.036    22068430.916    90366548.516                  
  24619549.779   129376615.918    24619548.242   100812950.077                  
  21543189.819   113210234.897    21543188.515    88215770.098                  
  20626268.907   108391740.726    20626270.694    84461088.230                  
                 114345548.300                   114345548.300    21958850.508  
                 120650496.179                   120650496.179    23169656.273  
                 125521043.090                   125521043.090    24104996.485  
                 122990492.693                   122990492.693    23619030.018  
  24653656.615   129555798.418                                                  
  25118175.215   131996883.945                                                  
 21  9  1  8 42 35.0000000  0 15G 1G 7G 8G13G14G17G19G21G30C23C25C28
                                C34E13E21
  20678740.846   108667478.211    20678743.580    84675946.543                  
  21027540.386   110500482.682    21027539.868    86104274.980                  
  23221033.127   122027314.840    23221035.307    95086209.999                  
  23754406.219   124830264.321    23754405.307    97270339.859                  
  21466601.061   112807766.094    21466600.936    87902161.540                  
  22068021.626   115968247.711    22068021.161    90364870.601                  
  24618913.552   129373272.601    24618912.016   100810344.895                  
  21543393.026   113211302.673    21543391.722    88216602.133                  
  20626287.812   108391840.089    20626289.599    84461165.656                  
                 114344969.790                   114344969.790    21958739.399  
                 120652740.039                   120652740.039    23170087.202  
                 125518231.648                   125518231.648    24104456.572  
                 122992909.071                   122992909.071    23619494.059  
  24653185.123   129553320.625                                                  
  25117821.981   131995027.660                                                  
 21  9  1  8 42 36.0000000  0 15G 1G 7G 8G13G14G17G19G21G30C23C25C28
                                C34E13E21
  20678453.619   108665968.919    20678456.371    84674770.469                  
  21027971.959   110502750.673    21027971.440    86106042.243                  
  23221618.409   122030390.503    23221620.589    95088606.622                  
  23754431.718   124830398.308    23754430.806    97270444.269                  
  21466222.166   112805774.988    21466222.041    87900610.027                  
  22067611.925   115966094.715    22067611.460    90363192.942                  
  24618277.379   129369929.413    24618275.843   100807739.816                  
  21543596.322   113212371.032    21543595.017    88217434.616                  
  20626306.843   108391940.089    20626308.647    84461243.578                  
                 114344391.719                   114344391.719    21958628.396  
                 120654984.246                   120654984.246    23170518.185  
                 125515420.469                   125515420.469    24103916.713  
                 122995325.700                   122995325.700    23619958.153  
  24652713.667   129550843.141                                                  
  25117468.764   131993171.465                                                  
 21  9  1  8 42 37.0000000  0 15G 1G 7G 8G13G14G17G19G21G30C23C25C28
                                C34E13E21
  20678166.536   108664460.325    20678169.305    84673594.941                  
  21028403.656   110505019.175    21028403.120    86107809.909                  
  23222203.708   122033466.242    23222205.853    95091003.302                  
  23754457.342   124830532.929    23754456.413    97270549.168                  
  21465843.307   112803784.085    21465843.200    87899058.676                  
  22067202.277   115963942.054    22067201.813    90361515.543                  
  24617641.224   129366586.378    24617639.688   100805134.852                  
  21543799.743   113213439.975    21543798.438    88218267.564                  
  20626325.998   108392040.747    20626327.785    84461322.012                  
                 114343814.087                   114343814.087    21958517.465  
                 120657228.801                   120657228.801    23170949.222  
                 125512609.544                   125512609.544    24103376.926  
                 122997742.567                   122997742.567    23620422.301  
  24652242.282   129548365.968                                                  
  25117115.565   131991315.356                                                  
 21  9  1  8 42 38.0000000  0 15G 1G 7G 8G13G14G17G19G21G30C23C25C28
                                C34E13E21
  20677879.595   108662952.429    20677882.364    84672419.957                  
  21028835.443   110507288.214    21028834.925    86109577.991                  
  23222789.008   122036542.031    23222791.153    95093400.021                  
  23754483.073   124830668.160    23754482.162    97270654.543                  
  21465464.484   112801793.391    21465464.376    87897507.485                  
  22066792.719   115961789.727    22066792.237    90359838.405                  
  24617005.087   129363243.484    24617003.532   100802529.999                  
  21544003.253   113214509.517    21544001.967    88219100.968                  
  20626345.279   108392142.067    20626347.066    84461400.961                  
                 114343236.892                   114343236.892    21958406.624  
                 120659473.703                   120659473.703    23171380.312  
                 125509798.874                   125509798.874    24102837.156  
                 123000159.678                   123000159.678    23620886.485  
  24651770.933   129545889.097                                                  
  25116762.365   131989459.335                                                  
 21  9  1  8 42 39.0000000  0 15G 1G 7G 8G13G14G17G19G21G30C23C25C28
                                C34E13E21
  20677592.797   108661445.223    20677595.549    84671245.511                  
  21029267.320   110509557.778    21029266.802    86111346.481                  
  23223374.326   122039617.891    23223376.488    95095796.792                  
  23754508.912   124830804.016    23754508.018    97270760.403                  
  21465085.696   112799802.887    21465085.607    87895956.441                  
  22066383.197   115959637.734    22066382.732    90358161.530                  
  24616368.986   129359900.739    24616367.449   100799925.261                  
  21544206.906   113215579.637    21544205.602    88219934.833                  
  20626364.685   108392244.019    20626366.454    84461480.406                  
                 114342660.132                   114342660.132    21958295.854  
                 120661718.953                   120661718.953    23171811.491  
                 125506988.469                   125506988.469    24102297.440  
                 123002577.040                   123002577.040    23621350.704  
  24651299.655   129543412.531                                                  
  25116409.202   131987603.399                                                  
 21  9  1  8 42 40.0000000  0 15G 1G 7G 8G13G14G17G19G21G30C23C25C28
                                C34E13E21
  20677306.124   108659938.701    20677308.858    84670071.602                  
  21029699.303   110511827.870    21029698.785    86113115.384                  
  23223959.644   122042693.821    23223961.824    95098193.620                  
  23754534.893   124830940.492    23754533.982    97270866.750                  
  21464706.962   112797812.589    21464706.855    87894405.561                  
  22065973.764   115957486.082    22065973.282    90356484.918                  
  24615732.902   129356558.141    24615731.365   100797320.641                  
  21544410.631   113216650.356    21544409.345    88220769.156                  
  20626384.198   108392346.625    20626386.002    84461560.357                  
                 114342083.812                   114342083.812    21958185.173  
                 120663964.547                   120663964.547    23172242.742  
                 125504178.318                   125504178.318    24101757.778  
                 123004994.640                   123004994.640    23621814.977  
  24650828.431   129540936.270                                                  
  25116056.039   131985747.566                                                  
 21  9  1  8 42 41.0000000  0 15G 1G 7G 8G13G14G17G19G21G30C23C25C28
                                C34E13E21
  20677019.559   108658432.874    20677022.293    84668898.226                  
  21030131.376   110514098.488    21030130.858    86114884.696                  
  23224544.979   122045769.836    23224547.159    95100590.515                  
  23754560.982   124831077.586    23754560.053    97270973.574                  
  21464328.264   112795822.493    21464328.157    87892854.835                  
  22065564.385   115955334.759    22065563.902    90354808.563                  
  24615096.854   129353215.678    24615095.317   100794716.129                  
  21544614.499   113217721.655    21544613.194    88221603.938                  
  20626403.854   108392449.888    20626405.641    84461640.821                  
                 114341507.934                   114341507.934    21958074.599  
                 120666210.492                   120666210.492    23172674.065  
                 125501368.421                   125501368.421    24101218.151  
                 123007412.484                   123007412.484    23622279.303  
  24650357.279   129538460.329                                                  
  25115702.893   131983891.809                                                  
 21  9  1  8 42 42.0000000  0 15G 1G 7G 8G13G14G17G19G21G30C23C25C28
                                C34E13E21
  20676733.136   108656927.728    20676735.888    84667725.387                  
  21030563.575   110516369.636    21030563.056    86116654.418                  
  23225130.333   122048845.930    23225132.513    95102987.470                  
  23754587.178   124831215.294    23754586.285    97271080.879                  
  21463949.601   112793832.602    21463949.476    87891304.269                  
  22065155.059   115953183.773    22065154.577    90353132.472                  
  24614460.842   129349873.356    24614459.305   100792111.718                  
  21544818.474   113218793.536    21544817.187    88222439.167                  
  20626423.617   108392553.794    20626425.422    84461721.789                  
                 114340932.491                   114340932.491    21957964.080  
                 120668456.780                   120668456.780    23173105.423  
                 125498558.784                   125498558.784    24100678.596  
                 123009830.575                   123009830.575    23622743.666  
  24649886.180   129535984.685                                                  
  25115349.783   131982036.149                                                  
 21  9  1  8 42 43.0000000  0 15G 1G 7G 8G13G14G17G19G21G30C23C25C28
                                C34E13E21
  20676446.857   108655423.292    20676449.608    84666553.102                  
  21030995.862   110518641.301    21030995.344    86118424.546                  
  23225715.722   122051922.106    23225717.902    95105384.492                  
  23754613.517   124831353.624    23754612.606    97271188.671                  
  21463570.957   112791842.905    21463570.867    87889753.860                  
  22064745.805   115951033.116    22064745.322    90351456.633                  
  24613824.848   129346531.184    24613823.293   100789507.430                  
  21545022.556   113219866.009    21545021.251    88223274.858                  
  20626443.523   108392658.354    20626445.328    84461803.265                  
                 114340357.488                   114340357.488    21957853.667  
                 120670703.418                   120670703.418    23173536.888  
                 125495749.406                   125495749.406    24100139.095  
                 123012248.908                   123012248.908    23623208.082  
  24649415.135   129533509.354                                                  
  25114996.674   131980180.574                                                  
 21  9  1  8 42 44.0000000  0 15G 1G 7G 8G13G14G17G19G21G30C23C25C28
                                C34E13E21
  20676160.702   108653919.542    20676163.454    84665381.347                  
  21031428.239   110520913.503    21031427.720    86120195.098                  
  23226301.111   122054998.344    23226303.291    95107781.559                  
  23754639.963   124831492.579    23754639.034    97271296.945                  
  21463192.384   112789853.411    21463192.276    87888203.602                  
  22064336.604   115948882.790    22064336.140    90349781.054                  
  24613188.853   129343189.143    24613187.335   100786903.243                  
  21545226.763   113220939.067    21545225.459    88224111.007                  
  20626463.536   108392763.566    20626465.341    84461885.246                  
                 114339782.921                   114339782.921    21957743.326  
                 120672950.398                   120672950.398    23173968.372  
                 125492940.280                   125492940.280    24099599.647  
                 123014667.482                   123014667.482    23623672.533  
  24648944.161   129531034.332                                                  
  25114643.582   131978325.090                                                  
 21  9  1  8 42 45.0000000  0 15G 1G 7G 8G13G14G17G19G21G30C23C25C28
                                C34E13E21
  20675874.673   108652416.480    20675877.424    84664210.129                  
  21031860.723   110523186.234    21031860.204    86121966.054                  
  23226886.518   122058074.659    23226888.698    95110178.687                  
  23754666.517   124831632.144    23754665.605    97271405.700                  
  21462813.846   112787864.116    21462813.721    87886653.505                  
  22063927.475   115946732.802    22063926.993    90348105.739                  
  24612552.948   129339847.262    24612551.394   100784299.176                  
  21545431.060   113222012.720    21545429.755    88224947.624                  
  20626483.692   108392869.423    20626485.479    84461967.730                  
                 114339208.796                   114339208.796    21957633.074  
                 120675197.731                   120675197.731    23174399.962  
                 125490131.417                   125490131.417    24099060.217  
                 123017086.300                   123017086.300    23624137.056  
  24648473.241   129528559.615                                                  
  25114290.526   131976469.694                                                  
 21  9  1  8 42 46.0000000  0 15G 1G 7G 8G13G14G17G19G21G30C23C25C28
                                C34E13E21
  20675588.786   108650914.113    20675591.538    84663039.453                  
  21032293.314   110525459.472    21032292.778    86123737.411                  
  23227471.943   122061151.038    23227474.105    95112575.867                  
  23754693.177   124831772.337    23754692.284    97271514.937                  
  21462435.327   112785875.024    21462435.220    87885103.563                  
  22063518.400   115944583.134    22063517.935    90346430.675                  
  24611917.026   129336505.515    24611915.471   100781695.222                  
  21545635.481   113223086.942    21545634.177    88225784.681                  
  20626503.956   108392975.941    20626505.743    84462050.730                  
                 114338635.110                   114338635.110    21957522.893  
                 120677445.406                   120677445.406    23174831.606  
                 125487322.812                   125487322.812    24098520.858  
                 123019505.362                   123019505.362    23624601.597  
  24648002.374   129526085.203                                                  
  25113937.452   131974614.383                                                  
 21  9  1  8 42 47.0000000  0 15G 1G 7G 8G13G14G17G19G21G30C23C25C28
                                C34E13E21
  20675303.042   108649412.450    20675305.776    84661869.329                  
  21032725.994   110527733.253    21032725.476    86125509.188                  
  23228057.368   122064227.481    23228059.548    95114973.094                  
  23754719.981   124831913.144    23754719.087    97271624.656                  
  21462056.843   112783886.128    21462056.736    87883553.774                  
  22063109.395   115942433.809    22063108.913    90344755.874                  
  24611281.139   129333163.917    24611279.602   100779091.378                  
  21545840.028   113224161.763    21545838.723    88226622.203                  
  20626524.362   108393083.104    20626526.131    84462134.239                  
                 114338061.861                   114338061.861    21957412.820  
                 120679693.434                   120679693.434    23175263.322  
                 125484514.465                   125484514.465    24097981.535  
                 123021924.669                   123021924.669    23625066.228  
  24647531.561   129523611.099                                                  
  25113584.413   131972759.161                                                  
 21  9  1  8 42 48.0000000  0 15G 1G 7G 8G13G14G17G19G21G30C23C25C28
                                C34E13E21
  20675017.406   108647911.473    20675020.158    84660699.735                  
  21033158.782   110530007.567    21033158.264    86127281.375                  
  23228642.793   122067303.995    23228644.973    95117370.380                  
  23754746.892   124832054.575    23754745.980    97271734.862                  
  21461678.395   112781897.446    21461678.306    87882004.149                  
  22062700.463   115940284.809    22062699.980    90343081.331                  
  24610645.287   129329822.452    24610643.733   100776487.641                  
  21546044.664   113225237.168    21546043.359    88227460.179                  
  20626544.876   108393190.930    20626546.663    84462218.255                  
                 114337489.047                   114337489.047    21957302.818  
                 120681941.801                   120681941.801    23175695.073  
                 125481706.372                   125481706.372    24097442.284  
                 123024344.220                   123024344.220    23625530.858  
  24647060.819   129521137.300                                                  
  25113231.393   131970904.043                                                  
 21  9  1  8 42 49.0000000  0 15G 1G 7G 8G13G14G17G19G21G30C23C25C28
                                C34E13E21
  20674731.913   108646411.187    20674734.665    84659530.685                  
  21033591.677   110532282.399    21033591.141    86129053.973                  
  23229228.254   122070380.594    23229230.434    95119767.727                  
  23754773.927   124832196.617    23754773.016    97271845.547                  
  21461300.018   112779908.952    21461299.893    87880454.676                  
  22062291.584   115938136.148    22062291.119    90341407.052                  
  24610009.436   129326481.134    24610007.899   100773884.016                  
  21546249.425   113226313.160    21546248.121    88228298.616                  
  20626565.515   108393299.393    20626567.302    84462302.774                  
                 114336916.676                   114336916.676    21957192.906  
                 120684190.520                   120684190.520    23176126.932  
                 125478898.538                   125478898.538    24096903.068  
                 123026764.012                   123026764.012    23625995.560  
  24646590.114   129518663.815                                                  
  25112878.408   131969048.999                                                  
 21  9  1  8 42 50.0000000  0 15G 1G 7G 8G13G14G17G19G21G30C23C25C28
                                C34E13E21
  20674446.544   108644911.590    20674449.296    84658362.165                  
  21034024.661   110534557.758    21034024.143    86130826.980                  
  23229813.732   122073457.260    23229815.894    95122165.130                  
  23754801.088   124832339.290    23754800.159    97271956.718                  
  21460921.660   112777920.664    21460921.535    87878905.361                  
  22061882.776   115935987.832    22061882.294    90339733.040                  
  24609373.638   129323139.956    24609372.102   100771280.499                  
  21546454.276   113227389.753    21546452.971    88229137.520                  
  20626586.278   108393408.517    20626588.065    84462387.805                  
                 114336344.743                   114336344.743    21957083.065  
                 120686439.583                   120686439.583    23176558.844  
                 125476090.965                   125476090.965    24096363.906  
                 123029184.046                   123029184.046    23626460.297  
  24646119.497   129516190.642                                                  
  25112525.424   131967194.047                                                  
 21  9  1  8 42 51.0000000  0 15G 1G 7G 8G13G14G17G19G21G30C23C25C28
                                C34E13E21
  20674161.319   108643412.691    20674164.053    84657194.192                  
  21034457.735   110536833.637    21034457.217    86132600.395                  
  23230399.229   122076534.012    23230401.409    95124562.598                  
  23754828.339   124832482.579    23754827.445    97272068.374                  
  21460543.337   112775932.578    21460543.212    87877356.198                  
  22061474.022   115933839.836    22061473.540    90338059.274                  
  24608737.858   129319798.919    24608736.322   100768677.094                  
  21546659.251   113228466.919    21546657.965    88229976.868                  
  20626607.167   108393518.286    20626608.954    84462473.339                  
                 114335773.247                   114335773.247    21956973.314  
                 120688689.000                   120688689.000    23176990.828  
                 125473283.640                   125473283.640    24095824.780  
                 123031604.344                   123031604.344    23626925.106  
  24645648.916   129513717.764                                                  
  25112172.439   131965339.191                                                  
 21  9  1  8 42 52.0000000  0 15G 1G 7G 8G13G14G17G19G21G30C23C25C28
                                C34E13E21
  20673876.219   108641914.479    20673878.953    84656026.754                  
  21034890.934   110539110.047    21034890.398    86134374.219                  
  23230984.725   122079610.831    23230986.905    95126960.122                  
  23754855.714   124832626.485    23754854.820    97272180.504                  
  21460165.067   112773944.692    21460164.942    87875807.200                  
  22061065.340   115931692.163    22061064.858    90336385.765                  
  24608102.097   129316458.026    24608100.560   100766073.801                  
  21546864.352   113229544.677    21546863.065    88230816.680                  
  20626628.181   108393628.700    20626629.968    84462559.374                  
                 114335202.192                   114335202.192    21956863.634  
                 120690938.758                   120690938.758    23177422.865  
                 125470476.581                   125470476.581    24095285.725  
                 123034024.866                   123034024.866    23627389.915  
  24645178.425   129511245.207                                                  
  25111819.508   131963484.423                                                  
 21  9  1  8 42 53.0000000  0 15G 1G 7G 8G13G14G17G19G21G30C23C25C28
                                C34E13E21
  20673591.244   108640416.966    20673593.996    84654859.861                  
  21035324.222   110541386.992    21035323.704    86136148.461                  
  23231570.239   122082687.726    23231572.401    95129357.698                  
  23754883.232   124832771.015    23754882.321    97272293.129                  
  21459786.798   112771957.017    21459786.709    87874258.360                  
  22060656.693   115929544.843    22060656.247    90334712.528                  
  24607466.388   129313117.280    24607464.834   100763470.624                  
  21547069.560   113230623.028    21547068.255    88231656.958                  
  20626649.320   108393739.778    20626651.107    84462645.926                  
                 114334631.574                   114334631.574    21956754.061  
                 120693188.864                   120693188.864    23177854.956  
                 125467669.782                   125467669.782    24094746.706  
                 123036445.633                   123036445.633    23627854.796  
  24644707.952   129508772.958                                                  
  25111466.559   131961629.740                                                  
 21  9  1  8 42 54.0000000  0 15G 1G 7G 8G13G14G17G19G21G30C23C25C28
                                C34E13E21
  20673306.411   108638920.147    20673309.163    84653693.511                  
  21035757.599   110543664.446    21035757.081    86137923.101                  
  23232155.754   122085764.680    23232157.934    95131755.327                  
  23754910.858   124832916.168    23754909.946    97272406.235                  
  21459408.600   112769969.535    21459408.493    87872709.671                  
  22060248.154   115927397.850    22060247.671    90333039.548                  
  24606830.680   129309776.674    24606829.143   100760867.555                  
  21547274.875   113231701.960    21547273.552    88232497.684                  
  20626670.585   108393851.501    20626672.354    84462732.985                  
                 114334061.395                   114334061.395    21956644.559  
                 120695439.313                   120695439.313    23178287.136  
                 125464863.239                   125464863.239    24094207.723  
                 123038866.640                   123038866.640    23628319.748  
  24644237.567   129506301.008                                                  
  25111113.646   131959775.148                                                  
 21  9  1  8 42 55.0000000  0 15G 1G 7G 8G13G14G17G19G21G30C23C25C28
                                C34E13E21
  20673021.704   108637424.016    20673024.456    84652527.692                  
  21036191.102   110545942.444    21036190.583    86139698.164                  
  23232741.304   122088841.722    23232743.484    95134153.020                  
  23754938.608   124833061.942    23754937.679    97272519.824                  
  21459030.438   112767982.254    21459030.313    87871161.145                  
  22059839.668   115925251.196    22059839.186    90331366.832                  
  24606195.025   129306436.222    24606193.488   100758264.604                  
  21547480.297   113232781.476    21547478.993    88233338.863                  
  20626691.956   108393963.867    20626693.743    84462820.543                  
                 114333491.655                   114333491.655    21956535.165  
                 120697690.109                   120697690.109    23178719.387  
                 125462056.954                   125462056.954    24093668.829  
                 123041287.889                   123041287.889    23628784.718  
  24643767.219   129503829.366                                                  
  25110760.732   131957920.641                                                  
 21  9  1  8 42 56.0000000  0 15G 1G 7G 8G13G14G17G19G21G30C23C25C28
                                C34E13E21
  20672737.140   108635928.583    20672739.874    84651362.422                  
  21036624.676   110548220.964    21036624.157    86141473.632                  
  23233326.854   122091918.832    23233329.016    95136550.765                  
  23754966.466   124833208.336    23754965.537    97272633.899                  
  21458652.294   112765995.177    21458652.204    87869612.769                  
  22059431.218   115923104.870    22059430.753    90329694.370                  
  24605559.388   129303095.904    24605557.834   100755661.757                  
  21547685.844   113233861.585    21547684.540    88234180.509                  
  20626713.452   108394076.887    20626715.257    84462908.613                  
                 114332922.354                   114332922.354    21956425.825  
                 120699941.253                   120699941.253    23179151.693  
                 125459250.926                   125459250.926    24093129.935  
                 123043709.383                   123043709.383    23629249.741  
  24643296.942   129501358.035                                                  
  25110407.855   131956066.231                                                  
 21  9  1  8 42 57.0000000  0 15G 1G 7G 8G13G14G17G19G21G30C23C25C28
                                C34E13E21
  20672452.701   108634433.839    20672455.435    84650197.684                  
  21037058.357   110550500.012    21037057.839    86143249.516                  
  23233912.422   122094996.021    23233914.602    95138948.575                  
  23754994.413   124833355.337    23754993.520    97272748.445                  
  21458274.221   112764008.297    21458274.096    87868064.555                  
  22059022.857   115920958.887    22059022.375    90328022.176                  
  24604923.751   129299755.730    24604922.215   100753059.026                  
  21547891.481   113234942.281    21547890.177    88235022.609                  
  20626735.092   108394190.571    20626736.879    84462997.191                  
                 114332353.495                   114332353.495    21956316.573  
                 120702192.747                   120702192.747    23179584.052  
                 125456445.156                   125456445.156    24092591.112  
                 123046131.117                   123046131.117    23629714.800  
  24642826.719   129498887.006                                                  
  25110054.977   131954211.906                                                  
 21  9  1  8 42 58.0000000  0 15G 1G 7G 8G13G14G17G19G21G30C23C25C28
                                C34E13E21
  20672168.387   108632939.789    20672171.139    84649033.489                  
  21037492.163   110552779.571    21037491.645    86145025.798                  
  23234498.007   122098073.286    23234500.187    95141346.446                  
  23755022.521   124833502.961    23755021.592    97272863.476                  
  21457896.166   112762021.617    21457896.059    87866516.493                  
  22058614.532   115918813.230    22058614.085    90326350.235                  
  24604288.186   129296415.688    24604286.631   100750456.398                  
  21548097.243   113236023.564    21548095.938    88235865.165                  
  20626756.856   108394304.888    20626758.643    84463086.274                  
                 114331785.075                   114331785.075    21956207.412  
                 120704444.583                   120704444.583    23180016.518  
                 125453639.648                   125453639.648    24092052.361  
                 123048553.096                   123048553.096    23630179.913  
  24642356.567   129496416.292                                                  
  25109702.136   131952357.660                                                  
 21  9  1  8 42 59.0000000  0 15G 1G 7G 8G13G14G17G19G21G30C23C25C28
                                C34E13E21
  20671884.216   108631446.430    20671886.968    84647869.835                  
  21037926.041   110555059.667    21037925.523    86146802.493                  
  23235083.593   122101150.630    23235085.773    95143744.374                  
  23755050.718   124833651.206    23755049.825    97272978.992                  
  21457518.165   112760035.139    21457518.040    87864968.590                  
  22058206.296   115916667.902    22058205.832    90324678.551                  
  24603652.620   129293075.792    24603651.084   100747853.883                  
  21548303.112   113237105.433    21548301.825    88236708.180                  
  20626778.746   108394419.869    20626780.515    84463175.866                  
                 114331217.088                   114331217.088    21956098.339  
                 120706696.763                   120706696.763    23180449.020  
                 125450834.395                   125450834.395    24091513.646  
                 123050975.317                   123050975.317    23630645.080  
  24641886.469   129493945.879                                                  
  25109349.294   131950503.514                                                  
 21  9  1  8 43  0.0000000  0 15G 1G 7G 8G13G14G17G19G21G30C23C25C28
                                C34E13E21
  20671600.152   108629953.770    20671602.922    84646706.723                  
  21038360.044   110557340.288    21038359.525    86148579.598                  
  23235669.215   122104228.042    23235671.395    95146142.360                  
  23755079.059   124833800.062    23755078.147    97273094.984                  
  21457140.181   112758048.870    21457140.056    87863420.843                  
  22057798.114   115914522.911    22057797.668    90323007.129                  
  24603017.073   129289736.044    24603015.536   100745251.481                  
  21548509.106   113238187.884    21548507.802    88237551.648                  
  20626800.742   108394535.498    20626802.512    84463265.969                  
                 114330649.547                   114330649.547    21955989.356  
                 120708949.294                   120708949.294    23180881.593  
                 125448029.402                   125448029.402    24090974.966  
                 123053397.781                   123053397.781    23631110.300  
  24641416.424   129491475.778                                                  
  25108996.488   131948649.456                                                  
 21  9  1  8 43  1.0000000  0 15G 1G 7G 8G13G14G17G19G21G30C23C25C28
                                C34E13E21
  20671316.267   108628461.800    20671319.001    84645544.149                  
  21038794.118   110559621.425    21038793.600    86150357.110                  
  23236254.836   122107305.542    23236257.016    95148540.409                  
  23755107.506   124833949.554    23755106.577    97273211.469                  
  21456762.234   112756062.797    21456762.144    87861873.254                  
  22057390.022   115912378.246    22057389.539    90321335.964                  
  24602381.579   129286396.433    24602380.042   100742649.187                  
  21548715.207   113239270.939    21548713.903    88238395.587                  
  20626822.864   108394651.778    20626824.651    84463356.577                  
                 114330082.441                   114330082.441    21955880.462  
                 120711202.169                   120711202.169    23181314.238  
                 125445224.664                   125445224.664    24090436.340  
                 123055820.487                   123055820.487    23631575.538  
  24640946.415   129489005.991                                                  
  25108643.700   131946795.493                                                  
 21  9  1  8 43  2.0000000  0 15G 1G 7G 8G13G14G17G19G21G30C23C25C28
                                C34E13E21
  20671032.471   108626970.525    20671035.223    84644382.114                  
  21039228.300   110561903.103    21039227.781    86152135.036                  
  23236840.475   122110383.109    23236842.655    95150938.516                  
  23755136.061   124834099.657    23755135.168    97273328.433                  
  21456384.340   112754076.927    21456384.232    87860325.825                  
  22056981.965   115910233.918    22056981.482    90319665.059                  
  24601746.103   129283056.972    24601744.566   100740047.012                  
  21548921.398   113240354.575    21548920.093    88239239.981                  
  20626845.111   108394768.707    20626846.898    84463447.689                  
                 114329515.777                   114329515.777    21955771.622  
                 120713455.390                   120713455.390    23181746.936  
                 125442420.188                   125442420.188    24089897.786  
                 123058243.434                   123058243.434    23632040.847  
  24640476.495   129486536.503                                                  
  25108290.894   131944941.611                                                  
 21  9  1  8 43  3.0000000  0 15G 1G 7G 8G13G14G17G19G21G30C23C25C28
                                C34E13E21
  20670748.818   108625479.945    20670751.588    84643220.624                  
  21039662.606   110564185.299    21039662.088    86153913.376                  
  23237426.133   122113460.741    23237428.313    95153336.671                  
  23755164.741   124834250.379    23755163.847    97273445.878                  
  21456006.481   112752091.259    21456006.374    87858778.547                  
  22056573.961   115908089.919    22056573.497    90317994.411                  
  24601110.645   129279717.652    24601109.108   100737444.942                  
  21549127.714   113241438.789    21549126.427    88240084.823                  
  20626867.501   108394886.284    20626869.288    84463539.310                  
                 114328949.550                   114328949.550    21955662.907  
                 120715708.956                   120715708.956    23182179.724  
                 125439615.968                   125439615.968    24089359.267  
                 123060666.626                   123060666.626    23632506.192  
  24640006.612   129484067.323                                                  
  25107938.142   131943087.820                                                  
 21  9  1  8 43  4.0000000  0 15G 1G 7G 8G13G14G17G19G21G30C23C25C28
                                C34E13E21
  20670465.308   108623990.047    20670468.060    84642059.668                  
  21040096.984   110566468.025    21040096.466    86155692.121                  
  23238011.826   122116538.452    23238013.988    95155734.887                  
  23755193.546   124834401.726    23755192.634    97273563.813                  
  21455628.659   112750105.793    21455628.551    87857231.433                  
  22056166.047   115905946.255    22056165.582    90316324.023                  
  24600475.222   129276378.473    24600473.686   100734842.984                  
  21549334.154   113242523.593    21549332.868    88240930.125                  
  20626889.980   108395004.519    20626891.785    84463631.441                  
                 114328383.762                   114328383.762    21955554.245  
                 120717962.872                   120717962.872    23182612.565  
                 125436812.007                   125436812.007    24088820.784  
                 123063090.059                   123063090.059    23632971.609  
  24639536.817   129481598.448                                                  
  25107585.407   131941234.114                                                  
 21  9  1  8 43  5.0000000  0 15G 1G 7G 8G13G14G17G19G21G30C23C25C28
                                C34E13E21
  20670181.923   108622500.852    20670184.657    84640899.255                  
  21040531.487   110568751.275    21040530.951    86157471.274                  
  23238597.501   122119616.234    23238599.681    95158133.156                  
  23755222.458   124834553.698    23755221.564    97273682.233                  
  21455250.872   112748120.528    21455250.764    87855684.473                  
  22055758.187   115903802.922    22055757.704    90314653.894                  
  24599839.818   129273039.437    24599838.281   100732241.141                  
  21549540.703   113243608.989    21549539.398    88241775.886                  
  20626912.620   108395123.394    20626914.407    84463724.070                  
                 114327818.415                   114327818.415    21955445.655  
                 120720217.133                   120720217.133    23183045.460  
                 125434008.304                   125434008.304    24088282.355  
                 123065513.736                   123065513.736    23633437.043  
  24639067.058   129479129.890                                                  
  25107232.655   131939380.511                                                  
 21  9  1  8 43  6.0000000  0 15G 1G 7G 8G13G14G17G19G21G30C23C25C28
                                C34E13E21
  20669898.682   108621012.350    20669901.416    84639739.386                  
  21040966.062   110571035.050    21040965.544    86159250.840                  
  23239183.194   122122694.100    23239185.374    95160531.492                  
  23755251.495   124834706.281    23755250.584    97273801.124                  
  21454873.138   112746135.461    21454873.013    87854137.672                  
  22055350.380   115901659.921    22055349.897    90312984.022                  
  24599204.449   129269700.534    24599202.894   100729639.398                  
  21549747.358   113244694.973    21549746.053    88242622.110                  
  20626935.368   108395242.928    20626937.137    84463817.214                  
                 114327253.508                   114327253.508    21955337.172  
                 120722471.738                   120722471.738    23183478.444  
                 125431204.864                   125431204.864    24087743.979  
                 123067937.648                   123067937.648    23633902.513  
  24638597.371   129476661.685                                                  
  25106879.956   131937526.993                                                  
 21  9  1  8 43  7.0000000  0 15G 1G 7G 8G13G14G17G19G21G30C23C25C28
                                C34E13E21
  20669615.565   108619524.547    20669618.299    84638580.058                  
  21041400.744   110573319.342    21041400.226    86161030.807                  
  23239768.904   122125772.035    23239771.084    95162929.882                  
  23755280.657   124834859.480    23755279.746    97273920.504                  
  21454495.423   112744150.589    21454495.316    87852591.021                  
  22054942.644   115899517.245    22054942.180    90311314.405                  
  24598569.098   129266361.768    24598567.561   100727037.762                  
  21549954.120   113245781.532    21549952.816    88243468.777                  
  20626958.222   108395363.115    20626960.027    84463910.863                  
                 114326689.040                   114326689.040    21955228.779  
                 120724726.692                   120724726.692    23183911.482  
                 125428401.679                   125428401.679    24087205.657  
                 123070361.808                   123070361.808    23634368.055  
  24638127.755   129474193.796                                                  
  25106527.257   131935673.546                                                  
 21  9  1  8 43  8.0000000  0 15G 1G 7G 8G13G14G17G19G21G30C23C25C28
                                C34E13E21
  20669332.555   108618037.442    20669335.307    84637421.273                  
  21041835.533   110575604.174    21041835.015    86162811.198                  
  23240354.615   122128850.016    23240356.795    95165328.313                  
  23755309.927   124835013.301    23755309.015    97274040.362                  
  21454117.761   112742165.951    21454117.636    87851044.543                  
  22054534.981   115897374.931    22054534.498    90309645.071                  
  24597933.800   129263023.199    24597932.264   100724436.278                  
  21550161.008   113246868.692    21550159.703    88244315.914                  
  20626981.220   108395483.952    20626983.024    84464005.023                  
                 114326125.008                   114326125.008    21955120.457  
                 120726981.991                   120726981.991    23184344.574  
                 125425598.753                   125425598.753    24086667.406  
                 123072786.206                   123072786.206    23634833.632  
  24637658.157   129471726.072                                                  
  25106174.576   131933820.227                                                  
 21  9  1  8 43  9.0000000  0 15G 1G 7G 8G13G14G17G19G21G30C23C25C28
                                C34E13E21
  20669049.706   108616551.020    20669052.458    84636263.022                  
  21042270.411   110577889.532    21042269.893    86164591.996                  
  23240940.362   122131928.082    23240942.542    95167726.802                  
  23755339.321   124835167.735    23755338.392    97274160.699                  
  21453740.117   112740181.483    21453740.028    87849498.206                  
  22054127.352   115895232.933    22054126.906    90307975.985                  
  24597298.503   129259684.739    24597296.966   100721834.878                  
  21550368.003   113247956.425    21550366.680    88245163.503                  
  20627004.342   108395605.438    20627006.111    84464099.687                  
                 114325561.417                   114325561.417    21955012.242  
                 120729237.637                   120729237.637    23184777.755  
                 125422796.085                   125422796.085    24086129.173  
                 123075210.852                   123075210.852    23635299.263  
  24637188.667   129469258.758                                                  
  25105821.913   131931966.973                                                  
 21  9  1  8 43 10.0000000  0 15G 1G 7G 8G13G14G17G19G21G30C23C25C28
                                C34E13E21
  20668766.983   108615065.288    20668769.717    84635105.309                  
  21042705.415   110580175.417    21042704.897    86166373.203                  
  23241526.126   122135006.216    23241528.288    95170125.348                  
  23755368.823   124835322.797    23755367.894    97274281.528                  
  21453362.545   112738197.227    21453362.420    87847952.030                  
  22053719.814   115893091.270    22053719.331    90306307.152                  
  24596663.241   129256346.417    24596661.705   100719233.594                  
  21550575.105   113249044.747    21550573.782    88246011.544                  
  20627027.572   108395727.579    20627029.377    84464194.859                  
                 114324998.266                   114324998.266    21954904.099  
                 120731493.629                   120731493.629    23185211.007  
                 125419993.677                   125419993.677    24085590.994  
                 123077635.735                   123077635.735    23635764.948  
  24636719.194   129466791.750                                                  
  25105469.286   131930113.808                                                  
 21  9  1  8 43 11.0000000  0 15G 1G 7G 8G13G14G17G19G21G30C23C25C28
                                C34E13E21
  20668484.384   108613580.255    20668487.136    84633948.140                  
  21043140.508   110582461.825    21043139.972    86168154.820                  
  23242111.873   122138084.402    23242114.035    95172523.934                  
  23755398.432   124835478.472    23755397.538    97274402.836                  
  21452984.972   112736213.176    21452984.883    87846406.019                  
  22053312.346   115890949.938    22053311.864    90304638.586                  
  24596028.016   129253008.253    24596026.461   100716632.425                  
  21550782.296   113250133.656    21550780.991    88246860.042                  
  20627050.945   108395850.359    20627052.731    84464290.535                  
                 114324435.557                   114324435.557    21954796.027  
                 120733749.963                   120733749.963    23185644.295  
                 125417191.527                   125417191.527    24085052.886  
                 123080060.860                   123080060.860    23636230.668  
  24636249.792   129464325.046                                                  
  25105116.641   131928260.739                                                  
 21  9  1  8 43 12.0000000  0 15G 1G 7G 8G13G14G17G19G21G30C23C25C28
                                C34E13E21
  20668201.929   108612095.911    20668204.680    84632791.509                  
  21043575.708   110584748.758    21043575.172    86169936.848                  
  23242697.637   122141162.700    23242699.817    95174922.617                  
  23755428.184   124835634.738    23755427.272    97274524.595                  
  21452607.453   112734229.321    21452607.364    87844860.156                  
  22052904.915   115888808.921    22052904.468    90302970.249                  
  24595392.808   129249670.265    24595391.235   100714031.419                  
  21550989.612   113251223.144    21550988.326    88247708.996                  
  20627074.442   108395973.817    20627076.211    84464386.738                  
                 114323873.290                   114323873.290    21954688.044  
                 120736006.644                   120736006.644    23186077.672  
                 125414389.645                   125414389.645    24084514.796  
                 123082486.236                   123082486.236    23636696.424  
  24635780.463   129461858.651                                                  
  25104764.031   131926407.746                                                  
 21  9  1  8 43 13.0000000  0 15G 1G 7G 8G13G14G17G19G21G30C23C25C28
                                C34E13E21
  20667919.598   108610612.266    20667922.332    84631635.417                  
  21044010.979   110587036.210    21044010.461    86171719.278                  
  23243283.438   122144241.048    23243285.618    95177321.328                  
  23755458.043   124835791.648    23755457.132    97274646.860                  
  21452230.006   112732245.681    21452229.881    87843314.460                  
  22052497.555   115886668.258    22052497.108    90301302.203                  
  24594757.617   129246332.391    24594756.081   100711430.476                  
  21551197.054   113252313.224    21551195.767    88248558.407                  
  20627098.065   108396097.909    20627099.834    84464483.438                  
                 114323311.462                   114323311.462    21954580.151  
                 120738263.677                   120738263.677    23186511.121  
                 125411588.013                   125411588.013    24083976.778  
                 123084911.844                   123084911.844    23637162.234  
  24635311.186   129459392.567                                                  
  25104411.440   131924554.856                                                  
 21  9  1  8 43 14.0000000  0 15G 1G 7G 8G13G14G17G19G21G30C23C25C28
                                C34E13E21
  20667637.392   108609129.316    20667640.162    84630479.876                  
  21044446.358   110589324.188    21044445.840    86173502.118                  
  23243869.238   122147319.481    23243871.418    95179720.109                  
  23755488.027   124835949.178    23755487.116    97274769.609                  
  21451852.559   112730262.231    21451852.434    87841768.917                  
  22052090.284   115884527.927    22052089.801    90299634.415                  
  24594122.463   129242994.653    24594120.926   100708829.641                  
  21551404.620   113253403.900    21551403.298    88249408.286                  
  20627121.795   108396222.656    20627123.582    84464580.640                  
                 114322750.068                   114322750.068    21954472.347  
                 120740521.050                   120740521.050    23186944.624  
                 125408786.639                   125408786.639    24083438.795  
                 123087337.693                   123087337.693    23637628.097  
  24634841.964   129456926.797                                                  
  25104058.866   131922702.060                                                  
 21  9  1  8 43 15.0000000  0 15G 1G 7G 8G13G14G17G19G21G30C23C25C28
                                C34E13E21
  20667355.348   108607647.056    20667358.082    84629324.868                  
  21044881.862   110591612.694    21044881.344    86175285.367                  
  23244455.056   122150397.961    23244457.236    95182118.922                  
  23755518.119   124836107.325    23755517.207    97274892.840                  
  21451475.165   112728278.987    21451475.040    87840223.532                  
  22051683.049   115882387.931    22051682.584    90297966.883                  
  24593487.344   129239657.055    24593485.808   100706228.918                  
  21551612.258   113254495.148    21551610.954    88250258.609                  
  20627145.668   108396348.051    20627147.437    84464678.348                  
                 114322189.118                   114322189.118    21954364.615  
                 120742778.769                   120742778.769    23187378.198  
                 125405985.528                   125405985.528    24082900.884  
                 123089763.786                   123089763.786    23638093.996  
  24634372.795   129454461.332                                                  
  25103706.292   131920849.352                                                  
 21  9  1  8 43 16.0000000  0 15G 1G 7G 8G13G14G17G19G21G30C23C25C28
                                C34E13E21
  20667073.392   108606165.476    20667076.162    84628170.391                  
  21045317.437   110593901.704    21045316.919    86177069.005                  
  23245040.874   122153476.473    23245043.054    95184517.754                  
  23755548.335   124836266.181    23755547.424    97275016.667                  
  21451097.807   112726295.952    21451097.700    87838678.317                  
  22051275.885   115880248.251    22051275.403    90296299.593                  
  24592852.261   129236319.581    24592850.707   100703628.277                  
  21551820.039   113255587.044    21551818.735    88251109.465                  
  20627169.648   108396474.106    20627171.417    84464776.582                  
                 114321628.601                   114321628.601    21954256.972  
                 120745036.837                   120745036.837    23187811.843  
                 125403184.672                   125403184.672    24082363.009  
                 123092190.118                   123092190.118    23638559.967  
  24633903.679   129451996.179                                                  
  25103353.754   131918996.738                                                  
 21  9  1  8 43 17.0000000  0 15G 1G 7G 8G13G14G17G19G21G30C23C25C28
                                C34E13E21
  20666791.598   108604684.613    20666794.368    84627016.473                  
  21045753.137   110596191.261    21045752.619    86178853.070                  
  23245626.728   122156555.071    23245628.908    95186916.661                  
  23755578.659   124836425.563    23755577.765    97275140.858                  
  21450720.485   112724313.098    21450720.360    87837133.231                  
  22050868.775   115878108.909    22050868.293    90294632.578                  
  24592217.178   129232982.271    24592215.642   100701027.773                  
  21552027.928   113256679.460    21552026.623    88251960.696                  
  20627193.736   108396600.789    20627195.541    84464875.296                  
                 114321068.532                   114321068.532    21954149.418  
                 120747295.251                   120747295.251    23188245.542  
                 125400384.075                   125400384.075    24081825.187  
                 123094616.691                   123094616.691    23639025.937  
  24633434.635   129449531.336                                                  
  25103001.234   131917144.203                                                  
 21  9  1  8 43 18.0000000  0 15G 1G 7G 8G13G14G17G19G21G30C23C25C28
                                C34E13E21
  20666509.946   108603204.442    20666512.680    84625863.086                  
  21046188.927   110598481.340    21046188.391    86180637.547                  
  23246212.581   122159633.747    23246214.761    95189315.625                  
  23755609.108   124836585.563    23755608.196    97275265.532                  
  21450343.198   112722330.461    21450343.073    87835588.313                  
  22050461.737   115875969.911    22050461.254    90292965.821                  
  24591582.131   129229645.105    24591580.594   100698427.382                  
  21552235.923   113257772.469    21552234.619    88252812.387                  
  20627217.984   108396728.144    20627219.753    84464974.527                  
                 114320508.900                   114320508.900    21954041.954  
                 120749554.007                   120749554.007    23188679.295  
                 125397583.740                   125397583.740    24081287.401  
                 123097043.509                   123097043.509    23639491.997  
  24632965.663   129447066.801                                                  
  25102648.732   131915291.762                                                  
 21  9  1  8 43 19.0000000  0 15G 1G 7G 8G13G14G17G19G21G30C23C25C28
                                C34E13E21
  20666228.402   108601724.960    20666231.136    84624710.246                  
  21046624.824   110600771.950    21046624.306    86182422.433                  
  23246798.435   122162712.512    23246800.615    95191714.665                  
  23755639.681   124836746.192    23755638.752    97275390.695                  
  21449965.947   112720348.030    21449965.840    87834043.563                  
  22050054.752   115873831.235    22050054.305    90291299.321                  
  24590947.120   129226308.091    24590945.583   100695827.109                  
  21552444.026   113258866.061    21552442.721    88253664.534                  
  20627242.340   108396856.144    20627244.127    84465074.266                  
                 114319949.706                   114319949.706    21953934.561  
                 120751813.113                   120751813.113    23189113.137  
                 125394783.660                   125394783.660    24080749.686  
                 123099470.562                   123099470.562    23639958.075  
  24632496.726   129444602.583                                                  
  25102296.248   131913439.421                                                  
 21  9  1  8 43 20.0000000  0 15G 1G 7G 8G13G14G17G19G21G30C23C25C28
                                C34E13E21
  20665947.001   108600246.180    20665949.735    84623557.945                  
  21047060.793   110603063.082    21047060.274    86184207.731                  
  23247384.343   122165791.364    23247386.505    95194113.766                  
  23755670.363   124836907.449    23755669.451    97275516.352                  
  21449588.732   112718365.796    21449588.643    87832498.960                  
  22049647.856   115871692.893    22049647.374    90289633.078                  
  24590312.144   129222971.218    24590310.607   100693226.948                  
  21552652.235   113259960.250    21552650.949    88254517.149                  
  20627266.820   108396984.788    20627268.607    84465174.507                  
                 114319390.954                   114319390.954    21953827.258  
                 120754072.562                   120754072.562    23189547.033  
                 125391983.840                   125391983.840    24080212.007  
                 123101897.859                   123101897.859    23640424.224  
  24632027.861   129442138.677                                                  
  25101943.763   131911587.156                                                  
 21  9  1  8 43 21.0000000  0 15G 1G 7G 8G13G14G17G19G21G30C23C25C28
                                C34E13E21
  20665665.742   108598768.093    20665668.476    84622406.191                  
  21047496.886   110605354.733    21047496.368    86185993.438                  
  23247970.232   122168870.305    23247972.412    95196512.941                  
  23755701.169   124837069.319    23755700.257    97275642.484                  
  21449211.589   112716383.766    21449211.464    87830954.524                  
  22049240.997   115869554.884    22049240.514    90287967.097                  
  24589677.186   129219634.495    24589675.632   100690626.907                  
  21552860.553   113261055.016    21552859.266    88255370.216                  
  20627291.426   108397114.091    20627293.213    84465275.265                  
                 114318832.642                   114318832.642    21953720.044  
                 120756332.355                   120756332.355    23189981.018  
                 125389184.281                   125389184.281    24079674.382  
                 123104325.398                   123104325.398    23640890.391  
  24631559.067   129439675.063                                                  
  25101591.315   131909734.999                                                  
 21  9  1  8 43 22.0000000  0 15G 1G 7G 8G13G14G17G19G21G30C23C25C28
                                C34E13E21
  20665384.591   108597290.703    20665387.343    84621254.976                  
  21047933.087   110607646.910    21047932.569    86187779.548                  
  23248556.139   122171949.304    23248558.319    95198912.163                  
  23755732.082   124837231.817    23755731.189    97275769.106                  
  21448834.445   112714401.934    21448834.338    87829410.239                  
  22048834.226   115867417.202    22048833.744    90286301.376                  
  24589042.264   129216297.910    24589040.692   100688026.973                  
  21553068.995   113262150.355    21553067.708    88256223.726                  
  20627316.157   108397244.043    20627317.943    84465376.524                  
                 114318274.769                   114318274.769    21953612.919  
                 120758592.499                   120758592.499    23190415.056  
                 125386384.981                   125386384.981    24079136.792  
                 123106753.180                   123106753.180    23641356.648  
  24631090.309   129437211.770                                                  
  25101238.884   131907882.922                                                  
 21  9  1  8 43 23.0000000  0 15G 1G 7G 8G13G14G17G19G21G30C23C25C28
                                C34E13E21
  20665103.583   108595814.004    20665106.335    84620104.301                  
  21048369.359   110609939.612    21048368.841    86189566.067                  
  23249142.083   122175028.362    23249144.263    95201311.429                  
  23755763.121   124837394.922    23755762.227    97275896.199                  
  21448457.355   112712420.316    21448457.248    87827866.121                  
  22048427.491   115865279.859    22048427.027    90284635.911                  
  24588407.342   129212961.465    24588405.805   100685427.143                  
  21553277.544   113263246.289    21553276.240    88257077.699                  
  20627340.995   108397374.650    20627342.799    84465478.293                  
                 114317717.337                   114317717.337    21953505.866  
                 120760852.986                   120760852.986    23190849.166  
                 125383585.936                   125383585.936    24078599.256  
                 123109181.199                   123109181.199    23641822.904  
  24630621.604   129434748.785                                                  
  25100886.453   131906030.945                                                  
 21  9  1  8 43 24.0000000  0 15G 1G 7G 8G13G14G17G19G21G30C23C25C28
                                C34E13E21
  20664822.718   108594338.009    20664825.452    84618954.175                  
  21048805.738   110612232.840    21048805.220    86191352.995                  
  23249728.026   122178107.488    23249730.188    95203710.745                  
  23755794.284   124837558.644    23755793.355    97276023.774                  
  21448080.301   112710438.891    21448080.194    87826322.156                  
  22048020.846   115863142.853    22048020.364    90282970.711                  
  24587772.473   129209625.168    24587770.919   100682827.433                  
  21553486.201   113264342.801    21553484.896    88257932.124                  
  20627365.975   108397505.902    20627367.780    84465580.570                  
                 114317160.345                   114317160.345    21953398.902  
                 120763113.816                   120763113.816    23191283.312  
                 125380787.157                   125380787.157    24078061.792  
                 123111609.461                   123111609.461    23642289.232  
  24630152.971   129432286.111                                                  
  25100534.058   131904179.059                                                  
 21  9  1  8 43 25.0000000  0 15G 1G 7G 8G13G14G17G19G21G30C23C25C28
                                C34E13E21
  20664541.977   108592862.694    20664544.711    84617804.586                  
  21049242.243   110614526.590    21049241.725    86193140.335                  
  23250313.969   122181186.675    23250316.149    95206110.114                  
  23755825.555   124837722.985    23755824.644    97276151.832                  
  21447703.282   112708457.675    21447703.175    87824778.351                  
  22047614.236   115861006.175    22047613.754    90281305.770                  
  24587137.623   129206289.028    24587136.086   100680227.844                  
  21553694.982   113265439.909    21553693.678    88258787.016                  
  20627391.081   108397637.805    20627392.886    84465683.352                  
                 114316603.794                   114316603.794    21953292.027  
                 120765374.995                   120765374.995    23191717.565  
                 125377988.633                   125377988.633    24077524.363  
                 123114037.960                   123114037.960    23642755.596  
  24629684.392   129429823.736                                                  
  25100181.663   131902327.254                                                  
 21  9  1  8 43 26.0000000  0 15G 1G 7G 8G13G14G17G19G21G30C23C25C28
                                C34E13E21
  20664261.362   108591388.081    20664264.096    84616655.530                  
  21049678.819   110616820.859    21049678.301    86194928.075                  
  23250899.912   122184265.927    23250902.092    95208509.531                  
  23755856.933   124837887.945    23755856.040    97276280.370                  
  21447326.317   112706476.655    21447326.192    87823234.699                  
  22047207.698   115858869.832    22047207.216    90279641.089                  
  24586502.808   129202953.024    24586501.253   100677628.360                  
  21553903.853   113266537.599    21553902.567    88259642.360                  
  20627416.312   108397770.363    20627418.099    84465786.644                  
                 114316047.680                   114316047.680    21953185.224  
                 120767636.520                   120767636.520    23192151.854  
                 125375190.371                   125375190.371    24076986.988  
                 123116466.702                   123116466.702    23643222.013  
  24629215.884   129427361.681                                                  
  25099829.304   131900475.544                                                  
 21  9  1  8 43 27.0000000  0 15G 1G 7G 8G13G14G17G19G21G30C23C25C28
                                C34E13E21
  20663980.872   108589914.169    20663983.624    84615507.028                  
  21050115.502   110619115.656    21050114.984    86196716.226                  
  23251485.909   122187345.261    23251488.089    95210909.012                  
  23755888.454   124838053.524    23755887.543    97276409.395                  
  21446949.388   112704495.843    21446949.263    87821691.208                  
  22046801.232   115856733.821    22046800.767    90277976.665                  
  24585868.029   129199617.176    24585866.456   100675028.996                  
  21554112.867   113267635.883    21554111.563    88260498.164                  
  20627441.669   108397903.569    20627443.438    84465890.441                  
                 114315492.008                   114315492.008    21953078.528  
                 120769898.386                   120769898.386    23192586.232  
                 125372392.368                   125372392.368    24076449.666  
                 123118895.689                   123118895.689    23643688.484  
  24628747.447   129424899.934                                                  
  25099476.945   131898623.922                                                  
 21  9  1  8 43 28.0000000  0 15G 1G 7G 8G13G14G17G19G21G30C23C25C28
                                C34E13E21
  20663700.543   108588440.938    20663703.277    84614359.058                  
  21050552.275   110621410.982    21050551.756    86198504.794                  
  23252071.905   122190424.665    23252074.085    95213308.543                  
  23755920.082   124838219.722    23755919.153    97276538.903                  
  21446572.477   112702515.235    21446572.388    87820147.878                  
  22046394.819   115854598.150    22046394.354    90276312.503                  
  24585233.232   129196281.462    24585231.695   100672429.738                  
  21554321.953   113268734.737    21554320.666    88261354.414                  
  20627467.132   108398037.430    20627468.919    84465994.746                  
                 114314936.778                   114314936.778    21952971.886  
                 120772160.603                   120772160.603    23193020.663  
                 125369594.621                   125369594.621    24075912.381  
                 123121324.911                   123121324.911    23644154.972  
  24628279.047   129422438.495                                                  
  25099124.603   131896772.399                                                  
 21  9  1  8 43 29.0000000  0 15G 1G 7G 8G13G14G17G19G21G30C23C25C28
                                C34E13E21
  20663420.321   108586968.406    20663423.055    84613211.632                  
  21050989.172   110623706.833    21050988.654    86200293.769                  
  23252657.902   122193504.151    23252660.082    95215708.146                  
  23755951.818   124838386.540    23755950.924    97276668.886                  
  21446195.619   112700534.819    21446195.512    87818604.700                  
  22045988.477   115852462.804    22045988.012    90274648.598                  
  24584598.524   129192945.898    24584596.951   100669830.597                  
  21554531.181   113269834.190    21554529.877    88262211.133                  
  20627492.720   108398171.942    20627494.525    84466099.563                  
                 114314381.983                   114314381.983    21952865.333  
                 120774423.160                   120774423.160    23193455.167  
                 125366797.138                   125366797.138    24075375.166  
                 123123754.374                   123123754.374    23644621.532  
  24627810.700   129419977.364                                                  
  25098772.280   131894920.953                                                  
 21  9  1  8 43 30.0000000  0 15G 1G 7G 8G13G14G17G19G21G30C23C25C28
                                C34E13E21
  20663140.242   108585496.577    20663142.976    84612064.755                  
  21051426.159   110626003.206    21051425.641    86202083.152                  
  23253243.917   122196583.711    23253246.097    95218107.800                  
  23755983.678   124838553.974    23755982.785    97276799.356                  
  21445818.797   112698554.621    21445818.708    87817061.684                  
  22045582.207   115850327.796    22045581.742    90272984.958                  
  24583963.798   129189610.466    24583962.244   100667231.559                  
  21554740.517   113270934.224    21554739.212    88263068.297                  
  20627518.434   108398307.106    20627520.239    84466204.883                  
                 114313827.637                   114313827.637    21952758.887  
                 120776686.067                   120776686.067    23193889.741  
                 125363999.914                   125363999.914    24074837.988  
                 123126184.079                   123126184.079    23645088.146  
  24627342.424   129417516.550                                                  
  25098419.974   131893069.601                                                  
 21  9  1  8 43 31.0000000  0 15G 1G 7G 8G13G14G17G19G21G30C23C25C28
                                C34E13E21
  20662860.306   108584025.438    20662863.040    84610918.406                  
  21051863.235   110628300.110    21051862.717    86203872.946                  
  23253829.967   122199663.339    23253832.147    95220507.512                  
  23756015.664   124838722.024    23756014.752    97276930.304                  
  21445442.029   112696574.620    21445441.922    87815518.828                  
  22045175.973   115848193.120    22045175.526    90271321.574                  
  24583329.126   129186275.186    24583327.554   100664632.645                  
  21554949.960   113272034.845    21554948.655    88263925.926                  
  20627544.308   108398442.918    20627546.077    84466310.710                  
                 114313273.727                   114313273.727    21952652.512  
                 120778949.316                   120778949.316    23194324.352  
                 125361202.949                   125361202.949    24074300.845  
                 123128614.023                   123128614.023    23645554.778  
  24626874.202   129415056.042                                                  
  25098067.704   131891218.331                                                  
 21  9  1  8 43 32.0000000  0 15G 1G 7G 8G13G14G17G19G21G30C23C25C28
                                C34E13E21
  20662580.477   108582554.992    20662583.229    84609772.609                  
  21052300.437   110630597.540    21052299.919    86205663.148                  
  23254416.000   122202743.028    23254418.180    95222907.270                  
  23756047.756   124838890.696    23756046.863    97277061.735                  
  21445065.278   112694594.821    21445065.153    87813976.125                  
  22044769.845   115846058.781    22044769.363    90269658.452                  
  24582694.454   129182940.060    24582692.918   100662033.845                  
  21555159.492   113273136.058    21555158.205    88264784.015                  
  20627570.254   108398579.388    20627572.059    84466417.050                  
                 114312720.253                   114312720.253    21952546.228  
                 120781212.915                   120781212.915    23194759.051  
                 125358406.242                   125358406.242    24073763.756  
                 123131044.207                   123131044.207    23646021.481  
  24626406.034   129412595.838                                                  
  25097715.434   131889367.163                                                  
 21  9  1  8 43 33.0000000  0 15G 1G 7G 8G13G14G17G19G21G30C23C25C28
                                C34E13E21
  20662300.809   108581085.241    20662303.543    84608627.348                  
  21052737.728   110632895.486    21052737.192    86207453.753                  
  23255002.068   122205822.793    23255004.248    95225307.087                  
  23756079.974   124839059.984    23756079.063    97277193.652                  
  21444688.582   112692615.227    21444688.456    87812433.582                  
  22044363.736   115843924.765    22044363.271    90267995.585                  
  24582059.836   129179605.074    24582058.281   100659435.152                  
  21555369.185   113274237.858    21555367.880    88265642.563                  
  20627596.361   108398716.497    20627598.148    84466523.891                  
                 114312167.227                   114312167.227    21952440.014  
                 120783476.856                   120783476.856    23195193.840  
                 125355609.798                   125355609.798    24073226.738  
                 123133474.633                   123133474.633    23646488.202  
  24625937.937   129410135.949                                                  
  25097363.182   131887516.081                                                  
 21  9  1  8 43 34.0000000  0 15G 1G 7G 8G13G14G17G19G21G30C23C25C28
                                C34E13E21
  20662021.248   108579616.198    20662023.982    84607482.641                  
  21053175.108   110635193.954    21053174.572    86209244.770                  
  23255588.136   122208902.631    23255590.316    95227706.961                  
  23756112.299   124839229.895    23756111.406    97277326.048                  
  21444311.903   112690635.833    21444311.795    87810891.200                  
  22043957.716   115841791.090    22043957.234    90266332.981                  
  24581425.236   129176270.231    24581423.681   100656836.574                  
  21555578.931   113275340.240    21555577.645    88266501.559                  
  20627622.575   108398854.263    20627624.361    84466631.239                  
                 114311614.637                   114311614.637    21952333.908  
                 120785741.141                   120785741.141    23195628.665  
                 125352813.609                   125352813.609    24072689.756  
                 123135905.298                   123135905.298    23646954.995  
  24625469.893   129407676.374                                                  
  25097010.966   131885665.086                                                  
 21  9  1  8 43 35.0000000  0 15G 1G 7G 8G13G14G17G19G21G30C23C25C28
                                C34E13E21
  20661741.812   108578147.832    20661744.564    84606338.460                  
  21053612.577   110637492.945    21053612.059    86211036.191                  
  23256174.222   122211982.576    23256176.402    95230106.913                  
  23756144.767   124839400.418    23756143.838    97277458.921                  
  21443935.277   112688656.642    21443935.152    87809348.973                  
  22043551.768   115839657.743    22043551.285    90264670.633                  
  24580790.653   129172935.530    24580789.116   100654238.105                  
  21555788.839   113276443.208    21555787.534    88267361.017                  
  20627648.914   108398992.681    20627650.700    84466739.095                  
                 114311062.489                   114311062.489    21952227.873  
                 120788005.775                   120788005.775    23196063.562  
                 125350017.685                   125350017.685    24072152.845  
                 123138336.203                   123138336.203    23647421.823  
  24625001.904   129405217.109                                                  
  25096658.732   131883814.192                                                  
 21  9  1  8 43 36.0000000  0 15G 1G 7G 8G13G14G17G19G21G30C23C25C28
                                C34E13E21
  20661462.537   108576680.171    20661465.271    84605194.828                  
  21054050.172   110639792.461    21054049.653    86212828.024                  
  23256760.344   122215062.567    23256762.524    95232506.911                  
  23756177.325   124839571.550    23756176.413    97277592.275                  
  21443558.687   112686677.650    21443558.580    87807806.903                  
  22043145.855   115837524.730    22043145.372    90263008.543                  
  24580156.124   129169600.973    24580154.551   100651639.751                  
  21555998.835   113277546.763    21555997.549    88268220.925                  
  20627675.378   108399131.739    20627677.164    84466847.454                  
                 114310510.780                   114310510.780    21952121.928  
                 120790270.751                   120790270.751    23196498.547  
                 125347222.016                   125347222.016    24071615.953  
                 123140767.348                   123140767.348    23647888.705  
  24624533.985   129402758.141                                                  
  25096306.533   131881963.374                                                  
 21  9  1  8 43 37.0000000  0 15G 1G 7G 8G13G14G17G19G21G30C23C25C28
                                C34E13E21
  20661183.387   108575213.211    20661186.121    84604051.737                  
  21054487.855   110642092.499    21054487.337    86214620.257                  
  23257346.448   122218142.628    23257348.628    95234906.957                  
  23756210.025   124839743.317    23756209.096    97277726.117                  
  21443182.134   112684698.863    21443182.026    87806264.992                  
  22042740.014   115835392.056    22042739.567    90261346.718                  
  24579521.595   129166266.562    24579520.058   100649041.509                  
  21556208.939   113278650.899    21556207.635    88269081.293                  
  20627701.967   108399271.457    20627703.736    84466956.327                  
                 114309959.516                   114309959.516    21952016.054  
                 120792536.071                   120792536.071    23196933.569  
                 125344426.610                   125344426.610    24071079.114  
                 123143198.730                   123143198.730    23648355.622  
  24624066.121   129400299.481                                                  
  25095954.353   131880112.661                                                  
 21  9  1  8 43 38.0000000  0 15G 1G 7G 8G13G14G17G19G21G30C23C25C28
                                C34E13E21
  20660904.362   108573746.946    20660907.096    84602909.196                  
  21054925.646   110644393.059    21054925.128    86216412.906                  
  23257932.588   122221222.766    23257934.768    95237307.062                  
  23756242.815   124839915.696    23756241.903    97277860.438                  
  21442805.615   112682720.282    21442805.526    87804723.238                  
  22042334.262   115833259.718    22042333.779    90259685.161                  
  24578887.120   129162932.312    24578885.565   100646443.395                  
  21556419.168   113279755.622    21556417.864    88269942.116                  
  20627728.681   108399411.832    20627730.468    84467065.708                  
                 114309408.688                   114309408.688    21951910.287  
                 120794801.737                   120794801.737    23197368.661  
                 125341631.465                   125341631.465    24070542.346  
                 123145630.354                   123145630.354    23648822.576  
  24623598.328   129397841.147                                                  
  25095602.208   131878262.031                                                  
 21  9  1  8 43 39.0000000  0 15G 1G 7G 8G13G14G17G19G21G30C23C25C28
                                C34E13E21
  20660625.481   108572281.371    20660628.215    84601767.192                  
  21055363.527   110646694.157    21055363.009    86218205.965                  
  23258518.727   122224302.969    23258520.907    95239707.220                  
  23756275.747   124840088.696    23756274.818    97277995.241                  
  21442429.169   112680741.903    21442429.044    87803181.644                  
  22041928.546   115831127.712    22041928.081    90258023.855                  
  24578252.662   129159598.186    24578251.107   100643845.372                  
  21556629.505   113280860.935    21556628.200    88270803.399                  
  20627755.502   108399552.853    20627757.307    84467175.594                  
                 114308858.305                   114308858.305    21951804.574  
                 120797067.749                   120797067.749    23197803.826  
                 125338836.579                   125338836.579    24070005.614  
                 123148062.223                   123148062.223    23649289.600  
  24623130.552   129395383.130                                                  
  25095250.063   131876411.497                                                  
 21  9  1  8 43 40.0000000  0 19G 1G 7G 8G13G14G17G19G21G30C23C25C28
                                C34E13E15E19E21E27E30
  20660346.724   108570816.500    20660349.458    84600625.732                  
  21055801.497   110648995.768    21055800.978    86219999.430                  
  23259104.885   122227383.227    23259107.065    95242107.423                  
  23756308.787   124840262.316    23756307.858    97278130.532                  
  21442052.722   112678763.724    21442052.597    87801640.208                  
  22041522.901   115828996.035    22041522.418    90256362.813                  
  24577618.222   129156264.219    24577616.668   100641247.477                  
  21556839.948   113281966.826    21556838.644    88271665.132                  
  20627782.467   108399694.528    20627784.253    84467285.988                  
                 114308308.358                   114308308.358    21951698.968  
                 120799334.110                   120799334.110    23198239.061  
                 125336041.949                   125336041.949    24069468.936  
                 123150494.324                   123150494.324    23649756.661  
  24622662.884   129392925.406                                                  
  23647226.318   124266987.328                                                  
  27634298.241   145219201.765                                                  
  25094897.918   131874561.043                                                  
  23493360.896   123458435.646                                                  
  25883602.426   136019217.509                                                  
 21  9  1  8 43 41.0000000  0 19G 1G 7G 8G13G14G17G19G21G30C23C25C28
                                C34E13E15E19E21E27E30
  20660068.092   108569352.316    20660070.844    84599484.809                  
  21056239.574   110651297.908    21056239.055    86221793.301                  
  23259691.042   122230463.567    23259693.222    95244507.688                  
  23756341.916   124840436.554    23756341.023    97278266.300                  
  21441676.329   112676785.753    21441676.222    87800098.930                  
  22041117.328   115826864.698    22041116.845    90254702.028                  
  24576983.818   129152930.386    24576982.264   100638649.683                  
  21557050.499   113283073.301    21557049.194    88272527.320                  
  20627809.556   108399836.851    20627811.343    84467396.894                  
                 114307758.856                   114307758.856    21951593.433  
                 120801600.814                   120801600.814    23198674.369  
                 125333247.583                   125333247.583    24068932.311  
                 123152926.669                   123152926.669    23650223.757  
  24622195.234   129390467.999                                                  
  23647275.476   124267245.682                                                  
  27634645.900   145221028.747                                                  
  25094545.827   131872710.694                                                  
  23493413.181   123458710.448                                                  
  25884008.696   136021352.441                                                  
 21  9  1  8 43 42.0000000  0 19G 1G 7G 8G13G14G17G19G21G30C23C25C28
                                C34E13E15E19E21E27E30
  20659789.603   108567888.833    20659792.337    84598344.433                  
  21056677.758   110653600.557    21056677.240    86223587.578                  
  23260277.236   122233543.981    23260279.398    95246908.008                  
  23756375.206   124840611.404    23756374.295    97278402.544                  
  21441299.954   112674807.985    21441299.864    87798557.811                  
  22040711.808   115824733.696    22040711.344    90253041.505                  
  24576349.432   129149596.694    24576347.878   100636052.004                  
  21557261.157   113284180.359    21557259.852    88273389.964                  
  20627836.753   108399979.830    20627838.540    84467508.301                  
                 114307209.793                   114307209.793    21951488.006  
                 120803867.861                   120803867.861    23199109.712  
                 125330453.476                   125330453.476    24068395.740  
                 123155359.249                   123155359.249    23650690.925  
  24621727.673   129388010.903                                                  
  23647324.740   124267504.524                                                  
  27634993.614   145222855.996                                                  
  25094193.718   131870860.430                                                  
  23493465.519   123458985.500                                                  
  25884414.984   136023487.504                                                  
 21  9  1  8 43 43.0000000  0 19G 1G 7G 8G13G14G17G19G21G30C23C25C28
                                C34E13E15E19E21E27E30
  20659511.240   108566426.034    20659513.974    84597204.594                  
  21057116.031   110655903.739    21057115.513    86225382.262                  
  23260863.411   122236624.471    23260865.591    95249308.395                  
  23756408.603   124840786.875    23756407.674    97278539.277                  
  21440923.632   112672830.413    21440923.543    87797016.849                  
  22040306.342   115822603.010    22040305.878    90251381.235                  
  24575715.082   129146263.158    24575713.527   100633454.441                  
  21557471.940   113285288.011    21557470.635    88274253.071                  
  20627864.092   108400123.456    20627865.879    84467620.218                  
                 114306661.172                   114306661.172    21951382.632  
                 120806135.251                   120806135.251    23199545.144  
                 125327659.628                   125327659.628    24067859.205  
                 123157792.074                   123157792.074    23651158.128  
  24621260.166   129385554.110                                                  
  23647374.077   124267763.844                                                  
  27635341.381   145224683.497                                                  
  25093841.645   131869010.255                                                  
  23493517.911   123459260.786                                                  
  25884821.308   136025622.729                                                  
 21  9  1  8 43 44.0000000  0 19G 1G 7G 8G13G14G17G19G21G30C23C25C28
                                C34E13E15E19E21E27E30
  20659233.019   108564963.945    20659235.753    84596065.301                  
  21057554.412   110658207.436    21057553.894    86227177.351                  
  23261449.640   122239705.029    23261451.820    95251708.820                  
  23756442.108   124840962.968    23756441.197    97278676.492                  
  21440547.364   112670853.056    21440547.257    87795476.046                  
  22039900.965   115820472.671    22039900.483    90249721.226                  
  24575080.767   129142929.759    24575079.195   100630856.987                  
  21557682.848   113286396.246    21557681.543    88275116.629                  
  20627891.539   108400267.737    20627893.344    84467732.649                  
                 114306112.988                   114306112.988    21951277.384  
                 120808402.987                   120808402.987    23199980.648  
                 125324866.042                   125324866.042    24067322.723  
                 123160225.138                   123160225.138    23651625.368  
  24620792.712   129383097.636                                                  
  23647423.520   124268023.637                                                  
  27635689.201   145226511.268                                                  
  25093489.571   131867160.173                                                  
  23493570.339   123459536.307                                                  
  25885227.632   136027758.098                                                  
 21  9  1  8 43 45.0000000  0 19G 1G 7G 8G13G14G17G19G21G30C23C25C28
                                C34E13E15E19E21E27E30
  20658954.924   108563502.543    20658957.658    84594926.546                  
  21057992.900   110660511.665    21057992.382    86228972.856                  
  23262035.851   122242785.654    23262038.031    95254109.309                  
  23756475.719   124841139.681    23756474.826    97278814.188                  
  21440171.114   112668875.895    21440171.024    87793935.406                  
  22039495.642   115818342.664    22039495.160    90248061.484                  
  24574446.453   129139596.505    24574444.898   100628259.648                  
  21557893.845   113287505.066    21557892.541    88275980.644                  
  20627919.129   108400412.664    20627920.916    84467845.579                  
                 114305565.251                   114305565.251    21951172.171  
                 120810671.069                   120810671.069    23200416.205  
                 125322072.720                   125322072.720    24066786.295  
                 123162658.437                   123162658.437    23652092.660  
  24620325.312   129380641.468                                                  
  23647473.035   124268283.905                                                  
  27636037.057   145228339.312                                                  
  25093137.534   131865310.176                                                  
  23493622.821   123459812.063                                                  
  25885634.027   136029893.605                                                  
 21  9  1  8 43 46.0000000  0 19G 1G 7G 8G13G14G17G19G21G30C23C25C28
                                C34E13E15E19E21E27E30
  20658676.953   108562041.839    20658679.705    84593788.340                  
  21058431.477   110662816.413    21058430.959    86230768.762                  
  23262622.098   122245866.376    23262624.278    95256509.874                  
  23756509.474   124841317.003    23756508.563    97278952.364                  
  21439794.917   112666898.933    21439794.828    87792394.914                  
  22039090.355   115816212.985    22039089.908    90246401.992                  
  24573812.174   129136263.405    24573810.637   100625662.431                  
  21558104.968   113288614.469    21558103.646    88276845.117                  
  20627946.844   108400558.247    20627948.613    84467959.019                  
                 114305017.953                   114305017.953    21951067.083  
                 120812939.500                   120812939.500    23200851.816  
                 125319279.651                   125319279.651    24066249.921  
                 123165091.977                   123165091.977    23652559.989  
  24619857.984   129378185.610                                                  
  23647522.658   124268544.663                                                  
  27636384.985   145230167.614                                                  
  25092785.514   131863460.274                                                  
  23493675.338   123460088.063                                                  
  25886040.422   136032029.270                                                  
 21  9  1  8 43 47.0000000  0 19G 1G 7G 8G13G14G17G19G21G30C23C25C28
                                C34E13E15E19E21E27E30
  20658399.125   108560581.842    20658401.859    84592650.676                  
  21058870.162   110665121.695    21058869.644    86232565.085                  
  23263208.363   122248947.142    23263210.543    95258910.469                  
  23756543.336   124841494.954    23756542.425    97279091.027                  
  21439418.756   112664922.180    21439418.667    87790854.589                  
  22038685.157   115814083.640    22038684.693    90244742.765                  
  24573177.949   129132930.450    24573176.394   100623065.320                  
  21558316.180   113289724.466    21558314.875    88277710.046                  
  20627974.666   108400704.480    20627976.435    84468072.964                  
                 114304471.094                   114304471.094    21950962.067  
                 120815208.269                   120815208.269    23201287.517  
                 125316486.847                   125316486.847    24065713.582  
                 123167525.758                   123167525.758    23653027.353  
  24619390.727   129375730.070                                                  
  23647572.387   124268805.882                                                  
  27636732.949   145231996.181                                                  
  25092433.494   131861610.465                                                  
  23493727.908   123460364.294                                                  
  25886446.853   136034165.049                                                  
 21  9  1  8 43 48.0000000  0 19G 1G 7G 8G13G14G17G19G21G30C23C25C28
                                C34E13E15E19E21E27E30
  20658121.423   108559122.532    20658124.175    84591513.551                  
  21059308.936   110667427.494    21059308.417    86234361.811                  
  23263794.628   122252027.981    23263796.808    95261311.120                  
  23756577.323   124841673.504    23756576.394    97279230.156                  
  21439042.631   112662945.636    21439042.524    87789314.427                  
  22038280.013   115811954.634    22038279.566    90243083.796                  
  24572543.741   129129597.633    24572542.187   100620468.320                  
  21558527.517   113290835.034    21558526.194    88278575.427                  
  20628002.595   108400851.367    20628004.400    84468187.421                  
                 114303924.677                   114303924.677    21950857.140  
                 120817477.386                   120817477.386    23201723.289  
                 125313694.302                   125313694.302    24065177.297  
                 123169959.773                   123169959.773    23653494.807  
  24618923.505   129373274.843                                                  
  23647622.188   124269067.596                                                  
  27637080.966   145233825.011                                                  
  25092081.528   131859760.750                                                  
  23493780.515   123460640.766                                                  
  25886853.320   136036301.023                                                  
 21  9  1  8 43 49.0000000  0 19G 1G 7G 8G13G14G17G19G21G30C23C25C28
                                C34E13E15E19E21E27E30
  20657843.863   108557663.927    20657846.597    84590376.978                  
  21059747.817   110669733.812    21059747.299    86236158.945                  
  23264380.893   122255108.870    23264383.073    95263711.816                  
  23756611.399   124841852.681    23756610.506    97279369.777                  
  21438666.542   112660969.290    21438666.435    87787774.413                  
  22037874.958   115809825.952    22037874.475    90241425.086                  
  24571909.534   129126264.962    24571907.997   100617871.433                  
  21558738.961   113291946.198    21558737.656    88279441.269                  
  20628030.685   108400998.905    20628032.472    84468302.386                  
                 114303378.702                   114303378.702    21950752.285  
                 120819746.847                   120819746.847    23202159.096  
                 125310902.015                   125310902.015    24064641.083  
                 123172394.031                   123172394.031    23653962.278  
  24618456.338   129370819.919                                                  
  23647672.061   124269329.781                                                  
  27637429.018   145235654.103                                                  
  25091729.544   131857911.126                                                  
  23493833.175   123460917.473                                                  
  25887259.804   136038437.113                                                  
 21  9  1  8 43 50.0000000  0 19G 1G 7G 8G13G14G17G19G21G30C23C25C28
                                C34E13E15E19E21E27E30
  20657566.447   108556206.008    20657569.181    84589240.937                  
  21060186.805   110672040.655    21060186.287    86237956.485                  
  23264967.175   122258189.818    23264969.355    95266112.552                  
  23756645.618   124842032.478    23756644.725    97279509.874                  
  21438290.506   112658993.148    21438290.399    87786234.566                  
  22037469.939   115807697.615    22037469.456    90239766.641                  
  24571275.398   129122932.444    24571273.844   100615274.668                  
  21558950.512   113293057.937    21558949.226    88280307.559                  
  20628058.883   108401147.097    20628060.687    84468417.863                  
                 114302833.167                   114302833.167    21950647.519  
                 120822016.656                   120822016.656    23202594.993  
                 125308109.993                   125308109.993    24064104.906  
                 123174828.528                   123174828.528    23654429.786  
  24617989.241   129368365.317                                                  
  23647722.058   124269592.440                                                  
  27637777.125   145237483.447                                                  
  25091377.596   131856061.593                                                  
  23493885.888   123461194.414                                                  
  25887666.325   136040573.359                                                  
 21  9  1  8 43 51.0000000  0 19G 1G 7G 8G13G14G17G19G21G30C23C25C28
                                C34E13E15E19E21E27E30
  20657289.137   108554748.784    20657291.871    84588105.442                  
  21060625.883   110674348.023    21060625.364    86239754.430                  
  23265553.476   122261270.860    23265555.656    95268513.368                  
  23756679.962   124842212.899    23756679.033    97279650.465                  
  21437914.506   112657017.208    21437914.381    87784694.870                  
  22037065.009   115805569.603    22037064.526    90238108.450                  
  24570641.262   129119600.070    24570639.708   100612678.015                  
  21559162.189   113294170.261    21559160.884    88281174.305                  
  20628087.205   108401295.941    20628088.992    84468533.843                  
                 114302288.070                   114302288.070    21950542.842  
                 120824286.806                   120824286.806    23203030.962  
                 125305318.233                   125305318.233    24063568.781  
                 123177263.257                   123177263.257    23654897.364  
  24617522.199   129365911.021                                                  
  23647772.127   124269855.578                                                  
  27638125.303   145239313.063                                                  
  25091025.665   131854212.151                                                  
  23493938.620   123461471.594                                                  
  25888072.863   136042709.747                                                  
 21  9  1  8 43 52.0000000  0 19G 1G 7G 8G13G14G17G19G21G30C23C25C28
                                C34E13E15E19E21E27E30
  20657011.953   108553292.265    20657014.705    84586970.488                  
  21061065.068   110676655.914    21061064.531    86241552.784                  
  23266139.794   122264351.972    23266141.974    95270914.235                  
  23756714.396   124842393.925    23756713.503    97279791.524                  
  21437538.524   112655041.476    21437538.417    87783155.339                  
  22036660.114   115803441.925    22036659.632    90236450.519                  
  24570007.162   129116267.848    24570005.608   100610081.477                  
  21559373.954   113295283.177    21559372.668    88282041.512                  
  20628115.652   108401445.437    20628117.439    84468650.333                  
                 114301743.418                   114301743.418    21950438.237  
                 120826557.301                   120826557.301    23203466.984  
                 125302526.732                   125302526.732    24063032.693  
                 123179698.231                   123179698.231    23655364.961  
  24617055.228   129363457.024                                                  
  23647822.285   124270119.194                                                  
  27638473.499   145241142.944                                                  
  25090673.735   131852362.797                                                  
  23493991.405   123461749.005                                                  
  25888479.419   136044846.266                                                  
 21  9  1  8 43 53.0000000  0 19G 1G 7G 8G13G14G17G19G21G30C23C25C28
                                C34E13E15E19E21E27E30
  20656734.912   108551836.429    20656737.682    84585836.070                  
  21061504.342   110678964.333    21061503.824    86243351.554                  
  23266726.148   122267433.169    23266728.293    95273315.163                  
  23756748.973   124842575.580    23756748.061    97279933.070                  
  21437162.596   112653065.946    21437162.489    87781615.965                  
  22036255.292   115801314.585    22036254.827    90234792.852                  
  24569373.080   129112935.761    24569371.543   100607485.048                  
  21559585.863   113296396.671    21559584.559    88282909.172                  
  20628144.225   108401595.578    20628146.012    84468767.324                  
                 114301199.208                   114301199.208    21950333.739  
                 120828828.140                   120828828.140    23203903.077  
                 125299735.489                   125299735.489    24062496.658  
                 123182133.446                   123182133.446    23655832.611  
  24616588.292   129361003.352                                                  
  23647872.533   124270383.289                                                  
  27638821.784   145242973.081                                                  
  25090321.840   131850513.534                                                  
  23494044.244   123462026.656                                                  
  25888886.028   136046982.940                                                  
 21  9  1  8 43 54.0000000  0 19G 1G 7G 8G13G14G17G19G21G30C23C25C28
                                C34E13E15E19E21E27E30
  20656458.013   108550381.304    20656460.765    84584702.206                  
  21061943.705   110681273.266    21061943.205    86245150.723                  
  23267312.484   122270514.431    23267314.665    95275716.144                  
  23756783.656   124842757.844    23756782.745    97280075.097                  
  21436786.703   112651090.625    21436786.596    87780076.754                  
  22035850.540   115799187.579    22035850.058    90233135.445                  
  24568739.033   129109603.815    24568737.479   100604888.726                  
  21559797.861   113297510.754    21559796.557    88283777.289                  
  20628172.923   108401746.382    20628174.727    84468884.836                  
                 114300655.438                   114300655.438    21950229.294  
                 120831099.328                   120831099.328    23204339.242  
                 125296944.505                   125296944.505    24061960.676  
                 123184568.894                   123184568.894    23656300.315  
  24616121.446   129358549.989                                                  
  23647922.888   124270647.856                                                  
  27639170.087   145244803.496                                                  
  25089969.945   131848664.359                                                  
  23494097.118   123462304.551                                                  
  25889292.638   136049119.759                                                  
 21  9  1  8 43 55.0000000  0 19G 1G 7G 8G13G14G17G19G21G30C23C25C28
                                C34E13E15E19E21E27E30
  20656181.258   108548926.879    20656183.992    84583568.887                  
  21062383.176   110683582.724    21062382.658    86246950.300                  
  23267898.839   122273595.745    23267901.001    95278117.175                  
  23756818.465   124842940.734    23756817.554    97280217.610                  
  21436410.846   112649115.495    21436410.739    87778537.692                  
  22035445.843   115797060.905    22035445.360    90231478.301                  
  24568105.023   129106272.034    24568103.468   100602292.531                  
  21560009.984   113298625.425    21560008.662    88284645.859                  
  20628201.745   108401897.823    20628203.532    84469002.844                  
                 114300112.109                   114300112.109    21950124.957  
                 120833370.856                   120833370.856    23204775.461  
                 125294153.786                   125294153.786    24061424.767  
                 123187004.586                   123187004.586    23656768.072  
  24615654.636   129356096.934                                                  
  23647973.314   124270912.907                                                  
  27639518.461   145246634.163                                                  
  25089618.087   131846815.281                                                  
  23494150.046   123462582.676                                                  
  25889699.283   136051256.718                                                  
 21  9  1  8 43 56.0000000  0 19G 1G 7G 8G13G14G17G19G21G30C23C25C28
                                C34E13E15E19E21E27E30
  20655904.628   108547473.148    20655907.362    84582436.113                  
  21062822.754   110685892.704    21062822.236    86248750.285                  
  23268485.193   122276677.145    23268487.373    95280518.261                  
  23756853.381   124843124.242    23756852.488    97280360.602                  
  21436035.043   112647140.579    21436034.917    87776998.796                  
  22035041.217   115794934.563    22035040.734    90229821.410                  
  24567471.012   129102940.378    24567469.475   100599696.438                  
  21560222.197   113299740.668    21560220.892    88285514.880                  
  20628230.675   108402049.922    20628232.480    84469121.360                  
                 114299569.228                   114299569.228    21950020.727  
                 120835642.730                   120835642.730    23205211.733  
                 125291363.325                   125291363.325    24060888.875  
                 123189440.516                   123189440.516    23657235.865  
  24615187.897   129353644.190                                                  
  23648023.866   124271178.430                                                  
  27639866.854   145248465.095                                                  
  25089266.228   131844966.297                                                  
  23494203.028   123462861.040                                                  
  25890105.964   136053393.827                                                  
 21  9  1  8 43 57.0000000  0 19G 1G 7G 8G13G14G17G19G21G30C23C25C28
                                C34E13E15E19E21E27E30
  20655628.122   108546020.115    20655630.856    84581303.880                  
  21063262.439   110688203.212    21063261.921    86250550.679                  
  23269071.583   122279758.601    23269073.763    95282919.398                  
  23756888.422   124843308.367    23756887.493    97280504.074                  
  21435659.257   112645165.862    21435659.132    87775460.058                  
  22034636.662   115792808.564    22034636.179    90228164.785                  
  24566837.055   129099608.879    24566835.500   100597100.462                  
  21560434.534   113300856.504    21560433.212    88286384.367                  
  20628259.766   108402202.671    20628261.535    84469240.384                  
                 114299026.780                   114299026.780    21949916.533  
                 120837914.950                   120837914.950    23205648.094  
                 125288573.121                   125288573.121    24060353.036  
                 123191876.682                   123191876.682    23657703.694  
  24614721.211   129351191.763                                                  
  23648074.489   124271444.429                                                  
  27640215.335   145250296.278                                                  
  25088914.404   131843117.404                                                  
  23494256.045   123463139.640                                                  
  25890512.681   136055531.085                                                  
 21  9  1  8 43 58.0000000  0 19G 1G 7G 8G13G14G17G19G21G30C23C25C28
                                C34E13E15E19E21E27E30
  20655351.742   108544567.774    20655354.494    84580172.183                  
  21063702.196   110690514.234    21063701.678    86252351.477                  
  23269657.972   122282840.118    23269660.152    95285320.578                  
  23756923.589   124843493.108    23756922.659    97280648.032                  
  21435283.525   112643191.360    21435283.418    87773921.485                  
  22034232.143   115790682.890    22034231.678    90226508.419                  
  24566203.115   129096277.523    24566201.579   100594504.602                  
  21560646.979   113301972.927    21560645.675    88287254.302                  
  20628288.946   108402356.075    20628290.733    84469359.922                  
                 114298484.777                   114298484.777    21949812.464  
                 120840187.513                   120840187.513    23206084.527  
                 125285783.184                   125285783.184    24059817.251  
                 123194313.090                   123194313.090    23658171.595  
  24614254.598   129348739.653                                                  
  23648125.183   124271710.915                                                  
  27640563.835   145252127.729                                                  
  25088562.581   131841268.601                                                  
  23494309.098   123463418.480                                                  
  25890919.398   136057668.482                                                  
 21  9  1  8 43 59.0000000  0 19G 1G 7G 8G13G14G17G19G21G30C23C25C28
                                C34E13E15E19E21E27E30
  20655075.505   108543116.140    20655078.257    84579041.038                  
  21064142.078   110692825.784    21064141.559    86254152.683                  
  23270244.380   122285921.723    23270246.560    95287721.828                  
  23756958.844   124843678.469    23756957.933    97280792.464                  
  21434907.829   112641217.051    21434907.722    87772383.063                  
  22033827.713   115788557.557    22033827.249    90224852.315                  
  24565569.212   129092946.307    24565567.657   100591908.852                  
  21560859.531   113303089.933    21560858.245    88288124.699                  
  20628318.251   108402510.125    20628320.056    84469479.958                  
                 114297943.214                   114297943.214    21949708.466  
                 120842460.422                   120842460.422    23206521.014  
                 125282993.505                   125282993.505    24059281.538  
                 123196749.730                   123196749.730    23658639.513  
  24613788.037   129346287.839                                                  
  23648175.985   124271977.871                                                  
  27640912.406   145253959.441                                                  
  25088210.776   131839419.881                                                  
  23494362.205   123463697.558                                                  
  25891326.169   136059806.019                                                  
 21  9  1  8 44  0.0000000  0 19G 1G 7G 8G13G14G17G19G21G30C23C25C28
                                C34E13E15E19E21E27E30
  20654799.393   108541665.199    20654802.145    84577910.437                  
  21064582.067   110695137.857    21064581.548    86255954.298                  
  23270830.824   122289003.407    23270833.004    95290123.141                  
  23756994.243   124843864.436    23756993.314    97280937.374                  
  21434532.168   112639242.954    21434532.061    87770844.800                  
  22033423.337   115786432.550    22033422.855    90223196.468                  
  24564935.344   129089615.230    24564933.771   100589313.203                  
  21561072.208   113304207.515    21561070.904    88288995.542                  
  20628347.700   108402664.829    20628349.504    84469600.507                  
                 114297402.098                   114297402.098    21949604.540  
                 120844733.671                   120844733.671    23206957.554  
                 125280204.086                   125280204.086    24058745.860  
                 123199186.614                   123199186.614    23659107.503  
  24613321.549   129343836.348                                                  
  23648226.876   124272245.305                                                  
  27641261.013   145255791.426                                                  
  25087859.006   131837571.267                                                  
  23494415.365   123463976.864                                                  
  25891732.957   136061943.715                                                  
 21  9  1  8 44  1.0000000  0 19G 1G 7G 8G13G14G17G19G21G30C23C25C28
                                C34E13E15E19E21E27E30
  20654523.442   108540214.954    20654526.176    84576780.376                  
  21065022.127   110697450.443    21065021.609    86257756.313                  
  23271417.231   122292085.147    23271419.411    95292524.497                  
  23757029.749   124844051.035    23757028.837    97281082.778                  
  21434156.544   112637269.059    21434156.436    87769306.703                  
  22033019.015   115784307.877    22033018.533    90221540.879                  
  24564301.476   129086284.311    24564299.921   100586717.684                  
  21561284.975   113305325.692    21561283.688    88289866.847                  
  20628377.255   108402820.188    20628379.060    84469721.565                  
                 114296861.418                   114296861.418    21949500.703  
                 120847007.270                   120847007.270    23207394.184  
                 125277414.931                   125277414.931    24058210.236  
                 123201623.734                   123201623.734    23659575.528  
  24612855.096   129341385.165                                                  
  23648277.856   124272513.220                                                  
  27641609.673   145257623.655                                                  
  25087507.237   131835722.743                                                  
  23494468.561   123464256.417                                                  
  25892139.781   136064081.554                                                  
 21  9  1  8 44  2.0000000  0 19G 1G 7G 8G13G14G17G19G21G30C23C25C28
                                C34E13E15E19E21E27E30
  20654247.580   108538765.395    20654250.331    84575650.847                  
  21065462.295   110699763.554    21065461.776    86259558.737                  
  23272003.693   122295166.973    23272005.873    95294925.917                  
  23757065.361   124844238.250    23757064.468    97281228.660                  
  21433780.955   112635295.358    21433780.865    87767768.754                  
  22032614.782   115782183.548    22032614.300    90219885.555                  
  24563667.662   129082953.539    24563666.107   100584122.277                  
  21561497.884   113306444.442    21561496.580    88290738.602                  
  20628406.953   108402976.192    20628408.740    84469843.129                  
                 114296321.180                   114296321.180    21949396.955  
                 120849281.211                   120849281.211    23207830.885  
                 125274626.035                   125274626.035    24057674.666  
                 123204061.095                   123204061.095    23660043.607  
  24612388.696   129338934.296                                                  
  23648328.926   124272781.605                                                  
  27641958.405   145259456.168                                                  
  25087155.503   131833874.302                                                  
  23494521.793   123464536.199                                                  
  25892546.623   136066219.538                                                  
 21  9  1  8 44  3.0000000  0 19G 1G 7G 8G13G14G17G19G21G30C23C25C28
                                C34E13E15E19E21E27E30
  20653971.878   108537316.546    20653974.612    84574521.878                  
  21065902.552   110702077.188    21065902.033    86261361.571                  
  23272590.154   122298248.868    23272592.334    95297327.394                  
  23757101.117   124844426.075    23757100.206    97281375.015                  
  21433405.419   112633321.871    21433405.312    87766230.972                  
  22032210.603   115780059.539    22032210.120    90218230.485                  
  24563033.865   129079622.911    24563032.293   100581526.985                  
  21561710.883   113307563.782    21561709.579    88291610.817                  
  20628436.759   108403132.850    20628438.564    84469965.198                  
                 114295781.387                   114295781.387    21949293.297  
                 120851555.495                   120851555.495    23208267.622  
                 125271837.397                   125271837.397    24057139.114  
                 123206498.691                   123206498.691    23660511.722  
  24611922.386   129336483.735                                                  
  23648380.103   124273050.473                                                  
  27642307.155   145261288.933                                                  
  25086803.751   131832025.960                                                  
  23494575.079   123464816.222                                                  
  25892953.501   136068357.656                                                  
 21  9  1  8 44  4.0000000  0 19G 1G 7G 8G13G14G17G19G21G30C23C25C28
                                C34E13E15E19E21E27E30
  20653696.302   108535868.390    20653699.054    84573393.445                  
  21066342.934   110704391.352    21066342.415    86263164.811                  
  23273176.633   122301330.825    23273178.813    95299728.917                  
  23757136.981   124844614.522    23757136.051    97281521.859                  
  21433029.920   112631348.589    21433029.795    87764693.347                  
  22031806.459   115777935.861    22031805.994    90216575.671                  
  24562400.087   129076292.426    24562398.532   100578931.800                  
  21561924.007   113308683.699    21561922.702    88292483.478                  
  20628466.707   108403290.172    20628468.494    84470087.784                  
                 114295242.036                   114295242.036    21949189.728  
                 120853830.126                   120853830.126    23208704.448  
                 125269049.025                   125269049.025    24056603.633  
                 123208936.523                   123208936.523    23660979.873  
  24611456.112   129334033.485                                                  
  23648431.333   124273319.818                                                  
  27642655.976   145263121.969                                                  
  25086452.053   131830177.704                                                  
  23494628.418   123465096.488                                                  
  25893360.378   136070495.927                                                  
 21  9  1  8 44  5.0000000  0 19G 1G 7G 8G13G14G17G19G21G30C23C25C28
                                C34E13E15E19E21E27E30
  20653420.851   108534420.933    20653423.603    84572265.558                  
  21066783.405   110706706.031    21066782.887    86264968.457                  
  23273763.148   122304412.844    23273765.328    95302130.492                  
  23757172.933   124844803.589    23757172.040    97281669.184                  
  21432654.456   112629375.505    21432654.348    87763155.879                  
  22031402.405   115775812.511    22031401.940    90214921.113                  
  24561766.344   129072962.089    24561764.807   100576336.731                  
  21562137.220   113309804.192    21562135.916    88293356.589                  
  20628496.763   108403448.133    20628498.532    84470210.876                  
                 114294703.121                   114294703.121    21949086.213  
                 120856105.097                   120856105.097    23209141.345  
                 125266260.914                   125266260.914    24056068.223  
                 123211374.597                   123211374.597    23661448.077  
  24610989.891   129331583.550                                                  
  23648482.707   124273589.637                                                  
  27643004.833   145264955.245                                                  
  25086100.355   131828329.547                                                  
  23494681.775   123465376.981                                                  
  25893767.327   136072634.339                                                  
 21  9  1  8 44  6.0000000  0 19G 1G 7G 8G13G14G17G19G21G30C23C25C28
                                C34E13E15E19E21E27E30
  20653145.561   108532974.156    20653148.295    84571138.199                  
  21067223.984   110709021.234    21067223.465    86266772.512                  
  23274349.645   122307494.922    23274351.825    95304532.113                  
  23757209.046   124844993.269    23757208.135    97281816.988                  
  21432279.028   112627402.628    21432278.920    87761618.574                  
  22030998.404   115773689.491    22030997.939    90213266.813                  
  24561132.619   129069631.895    24561131.082   100573741.773                  
  21562350.558   113310925.274    21562349.254    88294230.160                  
  20628526.944   108403606.755    20628528.748    84470334.477                  
                 114294164.652                   114294164.652    21948982.823  
                 120858380.419                   120858380.419    23209578.279  
                 125263473.062                   125263473.062    24055532.831  
                 123213812.906                   123213812.906    23661916.334  
  24610523.760   129329133.922                                                  
  23648534.116   124273859.944                                                  
  27643353.761   145266788.797                                                  
  25085748.675   131826481.473                                                  
  23494735.221   123465657.719                                                  
  25894174.276   136074772.906                                                  
 21  9  1  8 44  7.0000000  0 19G 1G 7G 8G13G14G17G19G21G30C23C25C28
                                C34E13E15E19E21E27E30
  20652870.378   108531528.086    20652873.112    84570011.390                  
  21067664.634   110711336.933    21067664.116    86268576.953                  
  23274936.142   122310577.070    23274938.322    95306933.790                  
  23757245.267   124845183.582    23757244.355    97281965.280                  
  21431903.635   112625429.948    21431903.528    87760081.421                  
  22030594.475   115771566.790    22030593.992    90211612.759                  
  24560498.948   129066301.844    24560497.375   100571146.931                  
  21562564.004   113312046.938    21562562.699    88295104.183                  
  20628557.267   108403766.022    20628559.036    84470458.579                  
                 114293626.624                   114293626.624    21948879.504  
                 120860656.079                   120860656.079    23210015.302  
                 125260685.468                   125260685.468    24054997.511  
                 123216251.456                   123216251.456    23662384.628  
  24610057.665   129326684.617                                                  
  23648585.668   124274130.720                                                  
  27643702.725   145268622.601                                                  
  25085397.012   131824633.477                                                  
  23494788.685   123465938.687                                                  
  25894581.261   136076911.617                                                  
 21  9  1  8 44  8.0000000  0 19G 1G 7G 8G13G14G17G19G21G30C23C25C28
                                C34E13E15E19E21E27E30
  20652595.338   108530082.700    20652598.108    84568885.090                  
  21068105.427   110713653.061    21068104.927    86270381.673                  
  23275522.657   122313659.415    23275524.819    95309335.665                  
  23757281.612   124845374.321    23757280.719    97282113.828                  
  21431528.296   112623457.485    21431528.171    87758544.437                  
  22030190.581   115769444.688    22030190.063    90209959.278                  
  24559865.277   129062972.035    24559863.704   100568552.317                  
  21562777.521   113313169.388    21562776.198    88295978.913                  
  20628587.716   108403925.785    20628589.521    84470582.987                  
                 114293089.038                   114293089.038    21948776.257  
                 120862932.047                   120862932.047    23210452.396  
                 125257898.218                   125257898.218    24054462.227  
                 123218690.245                   123218690.245    23662852.975  
  24609591.587   129324235.917                                                  
  23648637.274   124274401.960                                                  
  27644051.743   145270456.690                                                  
  25085045.368   131822785.699                                                  
  23494842.185   123466219.989                                                  
  25894988.282   136079050.425                                                  
 21  9  1  8 44  9.0000000  0 19G 1G 7G 8G13G14G17G19G21G30C23C25C28
                                C34E13E15E19E21E27E30
  20652320.441   108528638.024    20652323.175    84567759.368                  
  21068546.291   110715969.800    21068545.773    86272186.921                  
  23276109.208   122316741.706    23276111.352    95311737.453                  
  23757318.065   124845565.853    23757317.172    97282263.073                  
  21431152.975   112621485.216    21431152.886    87757007.606                  
  22029786.759   115767322.656    22029786.259    90208305.751                  
  24559231.641   129059642.266    24559230.086   100565957.690                  
  21562991.199   113314292.202    21562989.858    88296853.840                  
  20628618.272   108404086.355    20628620.077    84470708.109                  
                 114292551.891                   114292551.891    21948673.117  
                 120865208.390                   120865208.390    23210889.543  
                 125255111.145                   125255111.145    24053926.996  
                 123221129.266                   123221129.266    23663321.358  
  24609125.616   129321787.225                                                  
  23648688.987   124274673.687                                                  
  27644400.796   145272291.008                                                  
  25084693.741   131820937.906                                                  
  23494895.738   123466501.423                                                  
  25895395.320   136081189.415                                                  
 21  9  1  8 44 10.0000000  0 19G 1G 7G 8G13G14G17G19G21G30C23C25C28
                                C34E13E15E19E21E27E30
  20652045.651   108527194.058    20652048.421    84566634.202                  
  21068987.263   110718287.066    21068986.763    86273992.583                  
  23276695.759   122319824.077    23276697.921    95314139.300                  
  23757354.643   124845758.006    23757353.732    97282412.806                  
  21430777.726   112619513.149    21430777.601    87755470.929                  
  22029383.026   115765200.974    22029382.526    90206652.487                  
  24558598.041   129056312.656    24558596.487   100563363.191                  
  21563204.984   113315415.620    21563203.643    88297729.231                  
  20628648.953   108404247.574    20628650.758    84470833.734                  
                 114292015.183                   114292015.183    21948570.048  
                 120867485.083                   120867485.083    23211326.763  
                 125252324.331                   125252324.331    24053391.819  
                 123223568.520                   123223568.520    23663789.794  
  24608659.699   129319338.839                                                  
  23648740.771   124274945.895                                                  
  27644749.921   145274125.614                                                  
  25084342.132   131819090.196                                                  
  23494949.345   123466783.101                                                  
  25895802.377   136083328.558                                                  
 21  9  1  8 44 11.0000000  0 19G 1G 7G 8G13G14G17G19G21G30C23C25C28
                                C34E13E15E19E21E27E30
  20651771.022   108525750.794    20651773.756    84565509.578                  
  21069428.324   110720604.861    21069427.824    86275798.657                  
  23277282.345   122322906.519    23277284.507    95316541.200                  
  23757391.328   124845950.770    23757390.417    97282563.011                  
  21430402.476   112617541.285    21430402.387    87753934.413                  
  22028979.347   115763079.626    22028978.847    90204999.491                  
  24557964.459   129052983.190    24557962.905   100560768.800                  
  21563418.858   113316539.625    21563417.536    88298605.075                  
  20628679.760   108404409.441    20628681.582    84470959.864                  
                 114291478.917                   114291478.917    21948467.051  
                 120869762.118                   120869762.118    23211764.036  
                 125249537.781                   125249537.781    24052856.695  
                 123226008.016                   123226008.016    23664258.284  
  24608193.854   129316890.778                                                  
  23648792.681   124275218.573                                                  
  27645099.082   145275960.460                                                  
  25083990.559   131817242.582                                                  
  23495002.988   123467065.016                                                  
  25896209.487   136085467.844                                                  
 21  9  1  8 44 12.0000000  0 19G 1G 7G 8G13G14G17G19G21G30C23C25C28
                                C34E13E15E19E21E27E30
  20651496.501   108524308.219    20651499.252    84564385.492                  
  21069869.475   110722923.172    21069868.974    86277605.133                  
  23277868.914   122325989.025    23277871.076    95318943.153                  
  23757428.121   124846144.148    23757427.227    97282713.695                  
  21430027.298   112615569.638    21430027.173    87752398.063                  
  22028575.740   115760958.609    22028575.221    90203346.749                  
  24557330.913   129049653.847    24557329.341   100558174.511                  
  21563632.857   113317664.206    21563631.535    88299481.371                  
  20628710.709   108404571.968    20628712.496    84471086.507                  
                 114290943.102                   114290943.102    21948364.161  
                 120872039.496                   120872039.496    23212201.380  
                 125246751.499                   125246751.499    24052321.625  
                 123228447.749                   123228447.749    23664726.792  
  24607728.062   129314443.017                                                  
  23648844.662   124275491.735                                                  
  27645448.296   145277795.581                                                  
  25083638.986   131815395.059                                                  
  23495056.685   123467347.172                                                  
  25896616.597   136087607.265                                                  
 21  9  1  8 44 13.0000000  0 19G 1G 7G 8G13G14G17G19G21G30C23C25C28
                                C34E13E15E19E21E27E30
  20651222.140   108522866.342    20651224.874    84563261.956                  
  21070310.732   110725241.999    21070310.232    86279412.012                  
  23278455.518   122329071.598    23278457.680    95321345.156                  
  23757465.038   124846338.153    23757464.144    97282864.868                  
  21429652.138   112613598.184    21429652.013    87750861.863                  
  22028172.186   115758837.925    22028171.685    90201694.274                  
  24556697.403   129046324.677    24556695.812   100555580.353                  
  21563846.982   113318789.388    21563845.660    88300358.136                  
  20628741.747   108404735.141    20628743.552    84471213.652                  
                 114290407.726                   114290407.726    21948261.361  
                 120874317.226                   120874317.226    23212638.796  
                 125243965.476                   125243965.476    24051786.573  
                 123230887.722                   123230887.722    23665195.372  
  24607262.324   129311995.578                                                  
  23648896.714   124275765.360                                                  
  27645797.564   145279630.941                                                  
  25083287.413   131813547.630                                                  
  23495110.417   123467629.560                                                  
  25897023.742   136089746.845                                                  
 21  9  1  8 44 14.0000000  0 19G 1G 7G 8G13G14G17G19G21G30C23C25C28
                                C34E13E15E19E21E27E30
  20650947.886   108521425.167    20650950.638    84562138.960                  
  21070752.097   110727561.352    21070751.597    86281219.302                  
  23279042.122   122332154.222    23279044.284    95323747.203                  
  23757502.080   124846532.777    23757501.187    97283016.523                  
  21429277.014   112611626.936    21429276.924    87749325.828                  
  22027768.703   115756717.574    22027768.185    90200042.051                  
  24556063.892   129042995.660    24556062.337   100552986.313                  
  21564061.214   113319915.145    21564059.873    88301235.352                  
  20628772.929   108404898.969    20628774.733    84471341.312                  
                 114289872.792                   114289872.792    21948158.614  
                 120876595.297                   120876595.297    23213076.283  
                 125241179.714                   125241179.714    24051251.628  
                 123233327.932                   123233327.932    23665664.005  
  24606796.657   129309548.445                                                  
  23648948.892   124276039.476                                                  
  27646146.868   145281466.591                                                  
  25082935.894   131811700.298                                                  
  23495164.202   123467912.191                                                  
  25897430.924   136091886.560                                                  
 21  9  1  8 44 15.0000000  0 19G 1G 7G 8G13G14G17G19G21G30C23C25C28
                                C34E13E15E19E21E27E30
  20650673.775   108519984.688    20650676.527    84561016.509                  
  21071193.551   110729881.227    21071193.069    86283026.992                  
  23279628.744   122335236.945    23279630.906    95326149.325                  
  23757539.248   124846728.015    23757538.337    97283168.656                  
  21428901.943   112609655.894    21428901.836    87747789.953                  
  22027365.256   115754597.559    22027364.756    90198390.093                  
  24555430.435   129039666.786    24555428.881   100550392.383                  
  21564275.535   113321041.477    21564274.212    88302113.011                  
  20628804.217   108405063.445    20628806.040    84471469.477                  
                 114289338.306                   114289338.306    21948055.974  
                 120878873.710                   120878873.710    23213513.824  
                 125238394.215                   125238394.215    24050716.683  
                 123235768.384                   123235768.384    23666132.655  
  24606331.044   129307101.628                                                  
  23649001.141   124276314.061                                                  
  27646496.243   145283302.496                                                  
  25082584.375   131809853.042                                                  
  23495218.042   123468195.055                                                  
  25897838.123   136094026.430                                                  
 21  9  1  8 44 16.0000000  0 19G 1G 7G 8G13G14G17G19G21G30C23C25C28
                                C34E13E15E19E21E27E30
  20650399.807   108518544.909    20650402.541    84559894.601                  
  21071635.113   110732201.628    21071634.612    86284835.094                  
  23280215.384   122338319.724    23280217.546    95328551.485                  
  23757576.505   124846923.878    23757575.611    97283321.270                  
  21428526.926   112607685.065    21428526.801    87746254.238                  
  22026961.899   115752477.880    22026961.398    90196738.386                  
  24554796.996   129036338.051    24554795.442   100547798.559                  
  21564489.999   113322168.399    21564488.658    88302991.130                  
  20628835.631   108405228.566    20628837.454    84471598.137                  
                 114288804.253                   114288804.253    21947953.424  
                 120881152.470                   120881152.470    23213951.436  
                 125235608.977                   125235608.977    24050181.827  
                 123238209.066                   123238209.066    23666601.360  
  24605865.502   129304655.120                                                  
  23649053.497   124276589.122                                                  
  27646845.636   145285138.648                                                  
  25082232.873   131808005.886                                                  
  23495271.899   123468478.150                                                  
  25898245.358   136096166.447                                                  
 21  9  1  8 44 17.0000000  0 19G 1G 7G 8G13G14G17G19G21G30C23C25C28
                                C34E13E15E19E21E27E30
  20650125.947   108517105.823    20650128.698    84558773.231                  
  21072076.781   110734522.550    21072076.281    86286643.599                  
  23280802.024   122341402.570    23280804.204    95330953.694                  
  23757613.905   124847120.359    23757612.993    97283474.370                  
  21428151.927   112605714.442    21428151.801    87744718.681                  
  22026558.595   115750358.539    22026558.095    90195086.950                  
  24554163.593   129033009.462    24554162.038   100545204.851                  
  21564704.552   113323295.914    21564703.212    88303869.711                  
  20628867.206   108405394.348    20628868.993    84471727.313                  
                 114288270.648                   114288270.648    21947850.945  
                 120883431.570                   120883431.570    23214389.120  
                 125232824.000                   125232824.000    24049646.972  
                 123240649.989                   123240649.989    23667070.118  
  24605399.996   129302208.929                                                  
  23649105.925   124276864.672                                                  
  27647195.101   145286975.067                                                  
  25081881.407   131806158.836                                                  
  23495325.828   123468761.491                                                  
  25898652.629   136098306.593                                                  
 21  9  1  8 44 18.0000000  0 19G 1G 7G 8G13G14G17G19G21G30C23C25C28
                                C34E13E15E19E21E27E30
  20649852.229   108515667.445    20649854.981    84557652.414                  
  21072518.522   110736843.984    21072518.021    86288452.503                  
  23281388.682   122344485.496    23281390.862    95333355.972                  
  23757651.394   124847317.457    23757650.518    97283627.949                  
  21427776.963   112603744.016    21427776.856    87743183.281                  
  22026155.380   115748239.527    22026154.880    90193435.769                  
  24553530.225   129029681.020    24553528.653   100542611.253                  
  21564919.213   113324424.004    21564917.908    88304748.735                  
  20628898.852   108405560.790    20628900.674    84471857.003                  
                 114287737.485                   114287737.485    21947748.556  
                 120885711.018                   120885711.018    23214826.858  
                 125230039.285                   125230039.285    24049112.223  
                 123243091.148                   123243091.148    23667538.912  
  24604934.562   129299763.042                                                  
  23649158.460   124277140.687                                                  
  27647544.619   145288811.759                                                  
  25081529.941   131804311.859                                                  
  23495379.774   123469045.070                                                  
  25899059.900   136100446.891                                                  
 21  9  1  8 44 19.0000000  0 19G 1G 7G 8G13G14G17G19G21G30C23C25C28
                                C34E13E15E19E21E27E30
  20649578.636   108514229.870    20649581.406    84556532.281                  
  21072960.387   110739165.936    21072959.886    86290261.812                  
  23281975.358   122347568.457    23281977.520    95335758.263                  
  23757689.026   124847515.160    23757688.133    97283782.000                  
  21427402.035   112601773.810    21427401.946    87741648.055                  
  22025752.202   115746120.797    22025751.701    90191784.781                  
  24552896.858   129026352.742    24552895.303   100540017.790                  
  21565133.998   113325552.707    21565132.676    88305628.253                  
  20628930.659   108405727.798    20628932.481    84471987.098                  
                 114287204.766                   114287204.766    21947646.256  
                 120887990.807                   120887990.807    23215264.684  
                 125227254.832                   125227254.832    24048577.475  
                 123245532.542                   123245532.542    23668007.759  
  24604469.199   129297317.499                                                  
  23649211.084   124277417.109                                                  
  27647894.173   145290648.718                                                  
  25081178.476   131802464.855                                                  
  23495433.792   123469328.711                                                  
  25899467.224   136102587.340                                                  
 21  9  1  8 44 20.0000000  0 19G 1G 7G 8G13G14G17G19G21G30C23C25C28
                                C34E13E15E19E21E27E30
  20649305.204   108512792.880    20649307.956    84555412.539                  
  21073402.341   110741488.412    21073401.841    86292071.526                  
  23282562.034   122350651.491    23282564.214    95338160.625                  
  23757726.766   124847713.485    23757725.872    97283936.532                  
  21427027.161   112599803.788    21427027.054    87740112.972                  
  22025349.094   115744002.454    22025348.594    90190134.121                  
  24552263.544   129023024.587    24552261.972   100537424.423                  
  21565348.909   113326681.965    21565347.587    88306508.192                  
  20628962.573   108405895.540    20628964.395    84472117.804                  
                 114286672.484                   114286672.484    21947544.045  
                 120890270.942                   120890270.942    23215702.547  
                 125224470.641                   125224470.641    24048042.798  
                 123247974.177                   123247974.177    23668476.642  
  24604003.872   129294872.241                                                  
  23649263.780   124277694.082                                                  
  27648243.780   145292485.947                                                  
  25080827.063   131800618.081                                                  
  23495487.864   123469612.757                                                  
  25899874.566   136104727.941                                                  
 21  9  1  8 44 21.0000000  0 19G 1G 7G 8G13G14G17G19G21G30C23C25C28
                                C34E13E15E19E21E27E30
  20649031.880   108511356.590    20649034.632    84554293.355                  
  21073844.403   110743811.406    21073843.903    86293881.656                  
  23283148.745   122353734.593    23283150.907    95340563.039                  
  23757764.612   124847912.426    23757763.737    97284091.556                  
  21426652.322   112597833.984    21426652.215    87738578.059                  
  22024946.059   115741884.445    22024945.558    90188483.727                  
  24551630.248   129019696.580    24551628.676   100534831.167                  
  21565563.891   113327811.804    21565562.587    88307388.586                  
  20628994.612   108406063.927    20628996.434    84472249.015                  
                 114286140.647                   114286140.647    21947441.905  
                 120892551.417                   120892551.417    23216140.481  
                 125221686.711                   125221686.711    24047508.175  
                 123250416.048                   123250416.048    23668945.579  
  24603538.616   129292427.300                                                  
  23649316.583   124277971.540                                                  
  27648593.441   145294323.419                                                  
  25080475.633   131798771.403                                                  
  23495541.954   123469897.049                                                  
  25900281.944   136106868.679                                                  
 21  9  1  8 44 22.0000000  0 19G 1G 7G 8G13G14G17G19G21G30C23C25C28
                                C34E13E15E19E21E27E30
  20648758.698   108509920.997    20648761.468    84553174.711                  
  21074286.536   110746134.929    21074286.036    86295692.187                  
  23283735.439   122356817.753    23283737.619    95342965.504                  
  23757802.602   124848111.986    23757801.726    97284247.050                  
  21426277.520   112595864.376    21426277.395    87737043.300                  
  22024543.076   115739766.765    22024542.576    90186833.585                  
  24550996.988   129016368.721    24550995.415   100532238.036                  
  21565778.998   113328942.218    21565777.676    88308269.430                  
  20629026.794   108406232.960    20629028.599    84472380.731                  
                 114285609.258                   114285609.258    21947339.855  
                 120894832.241                   120894832.241    23216578.504  
                 125218903.044                   125218903.044    24046973.623  
                 123252858.152                   123252858.152    23669414.552  
  24603073.414   129289982.675                                                  
  23649369.457   124278249.468                                                  
  27648943.156   145296161.141                                                  
  25080124.239   131796924.804                                                  
  23495596.097   123470181.582                                                  
  25900689.340   136109009.559                                                  
 21  9  1  8 44 23.0000000  0 19G 1G 7G 8G13G14G17G19G21G30C23C25C28
                                C34E13E15E19E21E27E30
  20648485.642   108508486.113    20648488.394    84552056.617                  
  21074728.795   110748458.977    21074728.294    86297503.133                  
  23284322.168   122359900.999    23284324.348    95345368.031                  
  23757840.681   124848312.159    23757839.805    97284403.032                  
  21425902.735   112593894.980    21425902.645    87735508.703                  
  22024140.166   115737649.429    22024139.665    90185183.710                  
  24550363.727   129013041.019    24550362.155   100529645.016                  
  21565994.213   113330073.225    21565992.909    88309150.730                  
  20629059.083   108406402.659    20629060.906    84472512.962                  
                 114285078.304                   114285078.304    21947237.895  
                 120897113.406                   120897113.406    23217016.563  
                 125216119.637                   125216119.637    24046439.071  
                 123255300.497                   123255300.497    23669883.596  
  24602608.283   129287538.371                                                  
  23649422.439   124278527.880                                                  
  27649292.924   145297999.136                                                  
  25079772.862   131795078.297                                                  
  23495650.293   123470466.359                                                  
  25901096.754   136111150.597                                                  
 21  9  1  8 44 24.0000000  0 19G 1G 7G 8G13G14G17G19G21G30C23C25C28
                                C34E13E15E19E21E27E30
  20648212.746   108507051.937    20648215.480    84550939.075                  
  21075171.142   110750783.547    21075170.642    86299314.480                  
  23284908.898   122362984.300    23284911.078    95347770.597                  
  23757878.902   124848512.952    23757878.027    97284559.489                  
  21425528.021   112591925.792    21425527.914    87733974.269                  
  22023737.308   115735532.427    22023736.808    90183534.093                  
  24549730.521   129009713.457    24549728.966   100527052.106                  
  21566209.553   113331204.819    21566208.248    88310032.489                  
  20629091.498   108406573.013    20629093.320    84472645.696                  
                 114284547.796                   114284547.796    21947136.023  
                 120899394.913                   120899394.913    23217454.694  
                 125213336.493                   125213336.493    24045904.627  
                 123257743.074                   123257743.074    23670352.658  
  24602143.224   129285094.380                                                  
  23649475.527   124278806.770                                                  
  27649642.728   145299837.386                                                  
  25079421.522   131793231.892                                                  
  23495704.526   123470751.358                                                  
  25901504.221   136113291.782                                                  
 21  9  1  8 44 25.0000000  0 19G 1G 7G 8G13G14G17G19G21G30C23C25C28
                                C34E13E15E19E21E27E30
  20647939.957   108505618.450    20647942.691    84549822.067                  
  21075613.597   110753108.640    21075613.097    86301126.238                  
  23285495.645   122366067.663    23285497.825    95350173.215                  
  23757917.214   124848714.363    23757916.338    97284716.426                  
  21425153.344   112589956.804    21425153.236    87732439.987                  
  22023334.523   115733415.753    22023334.022    90181884.737                  
  24549097.314   129006386.042    24549095.759   100524459.313                  
  21566424.999   113332336.988    21566423.677    88310914.696                  
  20629124.037   108406744.015    20629125.860    84472778.944                  
                 114284017.730                   114284017.730    21947034.224  
                 120901676.766                   120901676.766    23217892.914  
                 125210553.610                   125210553.610    24045370.182  
                 123260185.890                   123260185.890    23670821.773  
  24601678.201   129282650.695                                                  
  23649528.688   124279086.138                                                  
  27649992.586   145301675.903                                                  
  25079070.163   131791385.575                                                  
  23495758.794   123471036.610                                                  
  25901911.706   136115433.105                                                  
 21  9  1  8 44 26.0000000  0 19G 1G 7G 8G13G14G17G19G21G30C23C25C28
                                C34E13E15E19E21E27E30
  20647667.294   108504185.664    20647670.064    84548705.609                  
  21076056.141   110755434.249    21076055.641    86302938.403                  
  23286082.392   122369151.111    23286084.572    95352575.895                  
  23757955.686   124848916.391    23757954.774    97284873.851                  
  21424778.702   112587988.026    21424778.577    87730905.875                  
  22022931.809   115731299.426    22022931.308    90180235.649                  
  24548464.179   129003058.788    24548462.624   100521866.645                  
  21566640.553   113333469.750    21566639.231    88311797.363                  
  20629156.702   108406915.671    20629158.524    84472912.700                  
                 114283488.108                   114283488.108    21946932.513  
                 120903958.960                   120903958.960    23218331.187  
                 125207770.989                   125207770.989    24044835.827  
                 123262628.942                   123262628.942    23671290.942  
  24601213.249   129280207.318                                                  
  23649581.938   124279365.973                                                  
  27650342.497   145303514.681                                                  
  25078718.840   131789539.352                                                  
  23495813.134   123471322.091                                                  
  25902319.192   136117574.565                                                  
 21  9  1  8 44 27.0000000  0 19G 1G 7G 8G13G14G17G19G21G30C23C25C28
                                C34E13E15E19E21E27E30
  20647394.774   108502753.574    20647397.543    84547589.695                  
  21076498.793   110757760.371    21076498.293    86304750.964                  
  23286669.175   122372234.638    23286671.355    95354978.645                  
  23757994.247   124849119.042    23757993.336    97285031.762                  
  21424404.078   112586019.443    21424403.988    87729371.909                  
  22022529.148   115729183.433    22022528.648    90178586.824                  
  24547831.044   128999731.669    24547829.471   100519274.083                  
  21566856.232   113334603.089    21566854.928    88312680.485                  
  20629189.491   108407087.976    20629191.314    84473046.961                  
                 114282958.926                   114282958.926    21946830.874  
                 120906241.500                   120906241.500    23218769.515  
                 125204988.632                   125204988.632    24044301.507  
                 123265072.229                   123265072.229    23671760.165  
  24600748.332   129277764.257                                                  
  23649635.277   124279646.289                                                  
  27650692.444   145305353.697                                                  
  25078367.535   131787693.218                                                  
  23495867.491   123471607.803                                                  
  25902726.748   136119716.188                                                  
 21  9  1  8 44 28.0000000  0 19G 1G 7G 8G13G14G17G19G21G30C23C25C28
                                C34E13E15E19E21E27E30
  20647122.396   108501322.182    20647125.166    84546474.329                  
  21076941.534   110760087.016    21076941.033    86306563.929                  
  23287255.958   122375318.215    23287258.138    95357381.433                  
  23758032.915   124849322.314    23758032.040    97285190.151                  
  21424029.525   112584051.074    21424029.418    87727838.122                  
  22022126.541   115727067.769    22022126.041    90176938.259                  
  24547197.944   128996404.703    24547196.372   100516681.644                  
  21567072.019   113335737.007    21567070.679    88313564.060                  
  20629222.406   108407260.930    20629224.229    84473181.730                  
                 114282430.191                   114282430.191    21946729.360  
                 120908524.382                   120908524.382    23219207.913  
                 125202206.535                   125202206.535    24043767.223  
                 123267515.757                   123267515.757    23672229.405  
  24600283.506   129275321.517                                                  
  23649688.723   124279927.086                                                  
  27651042.462   145307192.988                                                  
  25078016.266   131785847.177                                                  
  23495921.920   123471893.763                                                  
  25903134.305   136121857.942                                                  
 21  9  1  8 44 29.0000000  0 19G 1G 7G 8G13G14G17G19G21G30C23C25C28
                                C34E13E15E19E21E27E30
  20646850.144   108499891.489    20646852.895    84545359.501                  
  21077384.382   110762414.183    21077383.881    86308377.309                  
  23287842.759   122378401.863    23287844.939    95359784.277                  
  23758071.727   124849526.208    23758070.816    97285349.032                  
  21423654.972   112582082.915    21423654.883    87726304.488                  
  22021724.006   115724952.446    22021723.505    90175289.953                  
  24546564.862   128993077.884    24546563.308   100514089.318                  
  21567287.894   113336871.500    21567286.572    88314448.078                  
  20629255.446   108407434.543    20629257.269    84473317.012                  
                 114281901.895                   114281901.895    21946627.900  
                 120910807.608                   120910807.608    23219646.401  
                 125199424.699                   125199424.699    24043232.993  
                 123269959.519                   123269959.519    23672698.699  
  24599818.714   129272879.081                                                  
  23649742.241   124280208.356                                                  
  27651392.516   145309032.550                                                  
  25077664.979   131784001.227                                                  
  23495976.385   123472179.962                                                  
  25903541.897   136123999.843                                                  
 21  9  1  8 44 30.0000000  0 19G 1G 7G 8G13G14G17G19G21G30C23C25C28
                                C34E13E15E19E21E27E30
  20646578.016   108498461.488    20646580.786    84544245.214                  
  21077827.319   110764741.864    21077826.819    86310191.086                  
  23288429.578   122381485.619    23288431.758    95362187.199                  
  23758110.628   124849730.698    23758109.734    97285508.375                  
  21423280.491   112580114.954    21423280.402    87724771.011                  
  22021321.524   115722837.448    22021321.023    90173641.902                  
  24545931.817   128989751.202    24545930.262   100511497.098                  
  21567503.895   113338006.583    21567502.573    88315332.558                  
  20629288.593   108407608.800    20629290.416    84473452.798                  
                 114281374.042                   114281374.042    21946526.529  
                 120913091.180                   120913091.180    23220084.943  
                 125196643.130                   125196643.130    24042698.817  
                 123272403.515                   123272403.515    23673168.047  
  24599353.995   129270436.954                                                  
  23649795.865   124280490.101                                                  
  27651742.624   145310872.367                                                  
  25077313.728   131782155.368                                                  
  23496030.904   123472466.394                                                  
  25903949.525   136126141.899                                                  
 21  9  1  8 44 31.0000000  0 19G 1G 7G 8G13G14G17G19G21G30C23C25C28
                                C34E13E15E19E21E27E30
  20646306.032   108497032.198    20646308.802    84543131.482                  
  21078270.381   110767070.070    21078269.881    86312005.273                  
  23289016.414   122384569.422    23289018.576    95364590.165                  
  23758149.654   124849935.819    23758148.778    97285668.212                  
  21422906.046   112578147.198    21422905.939    87723237.695                  
  22020919.113   115720722.785    22020918.613    90171994.113                  
  24545298.806   128986424.671    24545297.234   100508904.995                  
  21567720.003   113339142.241    21567718.681    88316217.488                  
  20629321.901   108407783.710    20629323.706    84473589.094                  
                 114280846.633                   114280846.633    21946425.247  
                 120915375.092                   120915375.092    23220523.538  
                 125193861.817                   125193861.817    24042164.694  
                 123274847.750                   123274847.750    23673637.449  
  24598889.346   129267995.150                                                  
  23649849.562   124280772.325                                                  
  27652092.785   145312712.437                                                  
  25076962.476   131780309.608                                                  
  23496085.440   123472753.063                                                  
  25904357.154   136128284.081                                                  
 21  9  1  8 44 32.0000000  0 19G 1G 7G 8G13G14G17G19G21G30C23C25C28
                                C34E13E15E19E21E27E30
  20646034.173   108495603.597    20646036.942    84542018.286                  
  21078713.515   110769398.793    21078713.015    86313819.859                  
  23289603.269   122387653.280    23289605.413    95366993.172                  
  23758188.823   124850141.562    23758187.911    97285828.531                  
  21422531.636   112576179.653    21422531.511    87721704.543                  
  22020516.774   115718608.462    22020516.274    90170346.586                  
  24544665.814   128983098.306    24544664.260   100506313.019                  
  21567936.218   113340278.489    21567934.896    88317102.874                  
  20629355.298   108407959.281    20629357.121    84473725.898                  
                 114280319.669                   114280319.669    21946324.037  
                 120917659.351                   120917659.351    23220962.205  
                 125191080.769                   125191080.769    24041630.642  
                 123277292.218                   123277292.218    23674106.886  
  24598424.734   129265553.656                                                  
  23649903.366   124281055.024                                                  
  27652442.983   145314552.770                                                  
  25076611.278   131778463.940                                                  
  23496140.048   123473039.970                                                  
  25904764.835   136130426.417                                                  
 21  9  1  8 44 33.0000000  0 19G 1G 7G 8G13G14G17G19G21G30C23C25C28
                                C34E13E15E19E21E27E30
  20645762.456   108494175.703    20645765.226    84540905.641                  
  21079156.756   110771728.043    21079156.256    86315634.860                  
  23290190.105   122390737.230    23290192.285    95369396.250                  
  23758228.081   124850347.909    23758227.205    97285989.321                  
  21422157.262   112574212.305    21422157.155    87720171.547                  
  22020114.507   115716494.465    22020114.007    90168699.320                  
  24544032.858   128979772.059    24544031.303   100503721.144                  
  21568152.559   113341415.312    21568151.236    88317988.715                  
  20629388.838   108408135.501    20629390.643    84473863.215                  
                 114279793.144                   114279793.144    21946222.934  
                 120919943.949                   120919943.949    23221400.943  
                 125188299.983                   125188299.983    24041096.626  
                 123279736.927                   123279736.927    23674576.358  
  24597960.193   129263112.480                                                  
  23649957.241   124281338.204                                                  
  27652793.233   145316393.370                                                  
  25076260.063   131776618.360                                                  
  23496194.673   123473327.106                                                  
  25905172.535   136132568.899                                                  
 21  9  1  8 44 34.0000000  0 19G 1G 7G 8G13G14G17G19G21G30C23C25C28
                                C34E13E15E19E21E27E30
  20645490.883   108492748.508    20645493.635    84539793.543                  
  21079600.105   110774057.808    21079599.604    86317450.263                  
  23290776.978   122393821.259    23290779.158    95371799.387                  
  23758267.464   124850554.876    23758266.589    97286150.590                  
  21421782.924   112572245.160    21421782.817    87718638.706                  
  22019712.275   115714380.802    22019711.775    90167052.308                  
  24543399.919   128976445.982    24543398.364   100501129.394                  
  21568369.006   113342552.718    21568367.684    88318875.003                  
  20629422.503   108408312.366    20629424.308    84474001.031                  
                 114279267.068                   114279267.068    21946121.903  
                 120922228.893                   120922228.893    23221839.734  
                 125185519.461                   125185519.461    24040562.646  
                 123282181.868                   123282181.868    23675045.885  
  24597495.724   129260671.606                                                  
  23650011.223   124281621.845                                                  
  27653143.538   145318234.200                                                  
  25075908.883   131774772.865                                                  
  23496249.388   123473614.479                                                  
  25905580.252   136134711.527                                                  
 21  9  1  8 44 35.0000000  0 19G 1G 7G 8G13G14G17G19G21G30C23C25C28
                                C34E13E15E19E21E27E30
  20645219.417   108491322.017    20645222.186    84538681.987                  
  21080043.542   110776388.094    21080043.042    86319266.070                  
  23291363.868   122396905.332    23291366.048    95374202.563                  
  23758306.955   124850762.462    23758306.079    97286312.345                  
  21421408.640   112570278.234    21421408.515    87717106.035                  
  22019310.133   115712267.489    22019309.615    90165405.570                  
  24542767.016   128973120.040    24542765.461   100498537.751                  
  21568585.561   113343690.715    21568584.221    88319761.754                  
  20629456.276   108408489.883    20629458.081    84474139.356                  
                 114278741.430                   114278741.430    21946020.961  
                 120924514.181                   120924514.181    23222278.598  
                 125182739.198                   125182739.198    24040028.720  
                 123284627.043                   123284627.043    23675515.447  
  24597031.308   129258231.046                                                  
  23650065.295   124281905.973                                                  
  27653493.896   145320075.331                                                  
  25075557.721   131772927.469                                                  
  23496304.103   123473902.093                                                  
  25905988.024   136136854.282                                                  
 21  9  1  8 44 36.0000000  0 19G 1G 7G 8G13G14G17G19G21G30C23C25C28
                                C34E13E15E19E21E27E30
  20644948.093   108489896.215    20644950.863    84537570.978                  
  21080487.052   110778718.891    21080486.587    86321082.274                  
  23291950.758   122399989.484    23291952.920    95376605.796                  
  23758346.588   124850970.661    23758345.695    97286474.578                  
  21421034.373   112568311.505    21421034.284    87715573.519                  
  22018908.044   115710154.495    22018907.544    90163759.086                  
  24542134.149   128969794.242    24542132.576   100495946.220                  
  21568802.223   113344829.290    21568800.900    88320648.953                  
  20629490.173   108408668.053    20629491.996    84474278.188                  
                 114278216.234                   114278216.234    21945920.108  
                 120926799.811                   120926799.811    23222717.532  
                 125179959.203                   125179959.203    24039494.865  
                 123287072.458                   123287072.458    23675985.063  
  24596566.945   129255790.805                                                  
  23650119.456   124282190.567                                                  
  27653844.307   145321916.669                                                  
  25075206.577   131771082.156                                                  
  23496358.872   123474189.957                                                  
  25906395.813   136138997.204                                                  
 21  9  1  8 44 37.0000000  0 19G 1G 7G 8G13G14G17G19G21G30C23C25C28
                                C34E13E15E19E21E27E30
  20644676.913   108488471.124    20644679.683    84536460.515                  
  21080930.704   110781050.202    21080930.203    86322898.882                  
  23292537.666   122403073.695    23292539.846    95379009.078                  
  23758386.311   124851179.473    23758385.436    97286637.289                  
  21420660.160   112566344.976    21420660.053    87714041.160                  
  22018506.027   115708041.836    22018505.527    90162112.856                  
  24541501.282   128966468.599    24541499.727   100493354.812                  
  21569018.974   113345968.434    21569017.652    88321536.598                  
  20629524.196   108408846.879    20629526.019    84474417.530                  
                 114277691.486                   114277691.486    21945819.344  
                 120929085.785                   120929085.785    23223156.538  
                 125177179.463                   125177179.463    24038961.046  
                 123289518.106                   123289518.106    23676454.714  
  24596102.637   129253350.870                                                  
  23650173.706   124282475.649                                                  
  27654194.736   145323758.302                                                  
  25074855.432   131769236.943                                                  
  23496413.694   123474478.040                                                  
  25906803.619   136141140.267                                                  
 21  9  1  8 44 38.0000000  0 19G 1G 7G 8G13G14G17G19G21G30C23C25C28
                                C34E13E15E19E21E27E30
  20644405.858   108487046.728    20644408.628    84535350.593                  
  21081374.445   110783382.044    21081373.945    86324715.899                  
  23293124.574   122406157.974    23293126.754    95381412.409                  
  23758426.177   124851388.911    23758425.301    97286800.489                  
  21420285.983   112564378.663    21420285.875    87712508.964                  
  22018104.063   115705929.523    22018103.563    90160466.898                  
  24540868.468   128963143.097    24540866.896   100490763.517                  
  21569235.886   113347108.171    21569234.546    88322424.707                  
  20629558.362   108409026.355    20629560.184    84474557.387                  
                 114277167.177                   114277167.177    21945718.635  
                 120931372.102                   120931372.102    23223595.598  
                 125174399.991                   125174399.991    24038427.262  
                 123291963.987                   123291963.987    23676924.437  
  24595638.399   129250911.246                                                  
  23650228.046   124282761.194                                                  
  27654545.255   145325600.197                                                  
  25074504.324   131767391.820                                                  
  23496468.587   123474766.376                                                  
  25907211.462   136143283.465                                                  
 21  9  1  8 44 39.0000000  0 19G 1G 7G 8G13G14G17G19G21G30C23C25C28
                                C34E13E15E19E21E27E30
  20644134.946   108485623.027    20644137.697    84534241.223                  
  21081818.258   110785714.399    21081817.776    86326533.317                  
  23293711.500   122409242.317    23293713.680    95383815.793                  
  23758466.132   124851598.956    23758465.256    97286964.160                  
  21419911.841   112562412.551    21419911.734    87710976.931                  
  22017702.153   115703817.536    22017701.653    90158821.196                  
  24540235.672   128959817.745    24540234.118   100488172.333                  
  21569452.852   113348248.486    21569451.547    88323313.261                  
  20629592.634   108409206.481    20629594.457    84474697.742                  
                 114276643.313                   114276643.313    21945618.032  
                 120933658.759                   120933658.759    23224034.712  
                 125171620.781                   125171620.781    24037893.533  
                 123294410.109                   123294410.109    23677394.178  
  24595174.216   129248471.939                                                  
  23650282.475   124283047.227                                                  
  27654895.792   145327442.335                                                  
  25074153.233   131765546.792                                                  
  23496523.499   123475054.938                                                  
  25907619.340   136145426.821                                                  
 21  9  1  8 44 40.0000000  0 19G 1G 7G 8G13G14G17G19G21G30C23C25C28
                                C34E13E15E19E21E27E30
  20643864.158   108484200.031    20643866.928    84533132.390                  
  21082262.196   110788047.277    21082261.696    86328351.148                  
  23294298.462   122412326.721    23294300.624    95386219.228                  
  23758506.248   124851809.620    23758505.355    97287128.316                  
  21419537.735   112560446.640    21419537.646    87709445.055                  
  22017300.315   115701705.878    22017299.814    90157175.750                  
  24539602.895   128956492.546    24539601.340   100485581.266                  
  21569669.978   113349389.379    21569668.638    88324202.269                  
  20629627.032   108409387.254    20629628.855    84474838.605                  
                 114276119.890                   114276119.890    21945517.519  
                 120935945.762                   120935945.762    23224473.914  
                 125168841.833                   125168841.833    24037359.874  
                 123296856.464                   123296856.464    23677863.973  
  24594710.104   129246032.957                                                  
  23650336.993   124283333.720                                                  
  27655246.400   145329284.749                                                  
  25073802.161   131763701.860                                                  
  23496578.464   123475343.735                                                  
  25908027.219   136147570.298                                                  
 21  9  1  8 44 41.0000000  0 19G 1G 7G 8G13G14G17G19G21G30C23C25C28
                                C34E13E15E19E21E27E30
  20643593.496   108482777.733    20643596.266    84532024.109                  
  21082706.241   110790380.677    21082705.741    86330169.379                  
  23294885.405   122415411.191    23294887.585    95388622.710                  
  23758546.435   124852020.903    23758545.560    97287292.948                  
  21419163.683   112558480.950    21419163.576    87707913.344                  
  22016898.547   115699594.554    22016898.047    90155530.563                  
  24538970.188   128953167.510    24538968.616   100482990.327                  
  21569887.176   113350530.847    21569885.854    88325091.727                  
  20629661.555   108409568.694    20629663.378    84474979.989                  
                 114275596.913                   114275596.913    21945417.095  
                 120938233.105                   120938233.105    23224913.188  
                 125166063.146                   125166063.146    24036826.252  
                 123299303.054                   123299303.054    23678333.821  
  24594246.027   129243594.278                                                  
  23650391.601   124283620.703                                                  
  27655597.044   145331127.403                                                  
  25073451.106   131761857.016                                                  
  23496633.465   123475632.772                                                  
  25908435.133   136149713.942                                                  
 21  9  1  8 44 42.0000000  0 19G 1G 7G 8G13G14G17G19G21G30C23C25C28
                                C34E13E15E19E21E27E30
  20643322.977   108481356.128    20643325.747    84530916.364                  
  21083150.358   110792714.585    21083149.858    86331988.009                  
  23295472.385   122418495.721    23295474.547    95391026.243                  
  23758586.766   124852232.805    23758585.872    97287458.069                  
  21418789.666   112556515.454    21418789.559    87706381.793                  
  22016496.834   115697483.558    22016496.334    90153885.629                  
  24538337.464   128949842.592    24538335.891   100480399.485                  
  21570104.499   113351672.902    21570103.177    88325981.640                  
  20629696.221   108409750.777    20629698.026    84475121.871                  
                 114275074.378                   114275074.378    21945316.742  
                 120940520.798                   120940520.798    23225352.498  
                 125163284.723                   125163284.723    24036292.700  
                 123301749.883                   123301749.883    23678803.705  
  24593782.022   129241155.922                                                  
  23650446.316   124283908.179                                                  
  27655947.759   145332970.342                                                  
  25073100.051   131760012.269                                                  
  23496688.502   123475922.059                                                  
  25908843.100   136151857.729                                                  
 21  9  1  8 44 43.0000000  0 19G 1G 7G 8G13G14G17G19G21G30C23C25C28
                                C34E13E15E19E21E27E30
  20643052.601   108479935.236    20643055.335    84529809.176                  
  21083594.582   110795049.023    21083594.099    86333807.050                  
  23296059.365   122421580.308    23296061.527    95393429.812                  
  23758627.203   124852445.333    23758626.328    97287623.673                  
  21418415.686   112554550.169    21418415.578    87704850.399                  
  22016095.192   115695372.892    22016094.692    90152240.954                  
  24537704.775   128946517.845    24537703.221   100477808.774                  
  21570321.947   113352815.544    21570320.625    88326872.008                  
  20629730.976   108409933.517    20629732.799    84475264.261                  
                 114274552.290                   114274552.290    21945216.479  
                 120942808.827                   120942808.827    23225791.898  
                 125160506.563                   125160506.563    24035759.185  
                 123304196.945                   123304196.945    23679273.642  
  24593318.089   129238717.882                                                  
  23650501.102   124284196.113                                                  
  27656298.492   145334813.534                                                  
  25072749.014   131758167.622                                                  
  23496743.592   123476211.586                                                  
  25909251.086   136154001.673                                                  
 21  9  1  8 44 44.0000000  0 19G 1G 7G 8G13G14G17G19G21G30C23C25C28
                                C34E13E15E19E21E27E30
  20642782.332   108478515.036    20642785.102    84528702.527                  
  21084038.913   110797383.976    21084038.413    86335626.495                  
  23296646.344   122424664.968    23296648.524    95395833.446                  
  23758667.766   124852658.456    23758666.873    97287789.745                  
  21418041.741   112552585.086    21418041.633    87703319.168                  
  22015693.621   115693262.574    22015693.121    90150596.551                  
  24537072.141   128943193.229    24537070.586   100475218.165                  
  21570539.503   113353958.767    21570538.180    88327762.831                  
  20629765.875   108410116.902    20629767.697    84475407.164                  
                 114274030.642                   114274030.642    21945116.306  
                 120945097.203                   120945097.203    23226231.368  
                 125157728.664                   125157728.664    24035225.705  
                 123306644.242                   123306644.242    23679743.615  
  24592854.191   129236280.157                                                  
  23650555.978   124284484.528                                                  
  27656649.297   145336656.981                                                  
  25072398.013   131756323.066                                                  
  23496798.736   123476501.348                                                  
  25909659.071   136156145.751                                                  
 21  9  1  8 44 45.0000000  0 19G 1G 7G 8G13G14G17G19G21G30C23C25C28
                                C34E13E15E19E21E27E30
  20642512.224   108477095.535    20642514.976    84527596.422                  
  21084483.333   110799719.451    21084482.833    86337446.344                  
  23297233.341   122427749.695    23297235.521    95398237.129                  
  23758708.436   124852872.230    23758707.560    97287956.320                  
  21417667.831   112550620.211    21417667.724    87701788.097                  
  22015292.104   115691152.577    22015291.604    90148952.399                  
  24536439.506   128939868.775    24536437.933   100472627.676                  
  21570757.165   113355102.550    21570755.825    88328654.093                  
  20629800.898   108410300.945    20629802.720    84475550.571                  
                 114273509.438                   114273509.438    21945016.221  
                 120947385.919                   120947385.919    23226670.875  
                 125154951.027                   125154951.027    24034692.297  
                 123309091.774                   123309091.774    23680213.642  
  24592390.383   129233842.742                                                  
  23650610.961   124284773.422                                                  
  27657000.137   145338500.686                                                  
  25072047.012   131754478.601                                                  
  23496853.915   123476791.348                                                  
  25910067.128   136158289.970                                                  
 21  9  1  8 44 46.0000000  0 19G 1G 7G 8G13G14G17G19G21G30C23C25C28
                                C34E13E15E19E21E27E30
  20642242.241   108475676.750    20642244.975    84526490.875                  
  21084927.861   110802055.439    21084927.379    86339266.594                  
  23297820.357   122430834.496    23297822.537    95400640.868                  
  23758749.249   124853086.656    23758748.355    97288123.405                  
  21417293.958   112548655.542    21417293.868    87700257.186                  
  22014890.641   115689042.890    22014890.141    90147308.488                  
  24535806.924   128936544.453    24535805.334   100470037.298                  
  21570974.917   113356246.915    21570973.595    88329545.806                  
  20629836.064   108410485.642    20629837.869    84475694.489                  
                 114272988.677                   114272988.677    21944916.208  
                 120949674.980                   120949674.980    23227110.489  
                 125152173.657                   125152173.657    24034158.925  
                 123311539.539                   123311539.539    23680683.705  
  24591926.592   129231405.645                                                  
  23650666.015   124285062.796                                                  
  27657351.031   145340344.655                                                  
  25071696.064   131752634.238                                                  
  23496909.166   123477081.586                                                  
  25910475.185   136160434.336                                                  
 21  9  1  8 44 47.0000000  0 19G 1G 7G 8G13G14G17G19G21G30C23C25C28
                                C34E13E15E19E21E27E30
  20641972.383   108474258.651    20641975.117    84525385.863                  
  21085372.478   110804391.946    21085371.996    86341087.249                  
  23298407.408   122433919.358    23298409.552    95403044.661                  
  23758790.169   124853301.663    23758789.275    97288290.946                  
  21416920.138   112546691.082    21416920.048    87698726.438                  
  22014489.231   115686933.562    22014488.749    90145664.855                  
  24535174.343   128933220.286    24535172.788   100467447.036                  
  21571192.794   113357391.872    21571191.472    88330437.980                  
  20629871.320   108410670.982    20629873.142    84475838.909                  
                 114272468.360                   114272468.360    21944816.285  
                 120951964.382                   120951964.382    23227550.120  
                 125149396.546                   125149396.546    24033625.624  
                 123313987.542                   123313987.542    23681153.821  
  24591462.891   129228968.864                                                  
  23650721.177   124285352.641                                                  
  27657701.979   145342188.874                                                  
  25071345.099   131750789.961                                                  
  23496964.435   123477372.067                                                  
  25910883.260   136162578.857                                                  
 21  9  1  8 44 48.0000000  0 19G 1G 7G 8G13G14G17G19G21G30C23C25C28
                                C34E13E15E19E21E27E30
  20641702.668   108472841.251    20641705.402    84524281.395                  
  21085817.220   110806728.965    21085816.720    86342908.305                  
  23298994.441   122437004.288    23298996.621    95405448.500                  
  23758831.178   124853517.266    23758830.303    97288458.946                  
  21416546.353   112544726.824    21416546.264    87697195.847                  
  22014087.929   115684824.565    22014087.429    90144021.481                  
  24534541.798   128929896.254    24534540.243   100464856.884                  
  21571410.778   113358537.410    21571409.456    88331330.605                  
  20629906.718   108410856.985    20629908.541    84475983.847                  
                 114271948.486                   114271948.486    21944716.468  
                 120954254.130                   120954254.130    23227989.841  
                 125146619.700                   125146619.700    24033092.341  
                 123316435.779                   123316435.779    23681623.973  
  24590999.262   129226532.391                                                  
  23650776.428   124285642.957                                                  
  27658052.980   145344033.363                                                  
  25070994.169   131748945.778                                                  
  23497019.758   123477662.777                                                  
  25911291.389   136164723.510                                                  
 21  9  1  8 44 49.0000000  0 19G 1G 7G 8G13G14G17G19G21G30C23C25C28
                                C34E13E15E19E21E27E30
  20641433.060   108471424.558    20641435.812    84523177.481                  
  21086262.016   110809066.508    21086261.534    86344729.765                  
  23299581.492   122440089.288    23299583.654    95407852.395                  
  23758872.349   124853733.500    23758871.455    97288627.442                  
  21416172.623   112542762.771    21416172.498    87695665.414                  
  22013686.644   115682715.903    22013686.144    90142378.367                  
  24533909.288   128926572.378    24533907.715   100462266.852                  
  21571628.888   113359683.532    21571627.565    88332223.687                  
  20629942.242   108411043.630    20629944.064    84476129.285                  
                 114271429.056                   114271429.056    21944616.706  
                 120956544.219                   120956544.219    23228429.633  
                 125143843.118                   125143843.118    24032559.147  
                 123318884.250                   123318884.250    23682094.178  
  24590535.685   129224096.230                                                  
  23650831.768   124285933.752                                                  
  27658404.017   145345878.110                                                  
  25070643.239   131747101.679                                                  
  23497075.116   123477953.727                                                  
  25911699.517   136166868.313                                                  
 21  9  1  8 44 50.0000000  0 19G 1G 7G 8G13G14G17G19G21G30C23C25C28
                                C34E13E15E19E21E27E30
  20641163.613   108470008.566    20641166.365    84522074.108                  
  21086706.937   110811404.562    21086706.454    86346551.625                  
  23300168.561   122443174.368    23300170.741    95410256.353                  
  23758913.608   124853950.344    23758912.715    97288796.411                  
  21415798.892   112540798.927    21415798.803    87694135.143                  
  22013285.449   115680607.575    22013284.949    90140735.517                  
  24533276.796   128923248.658    24533275.241   100459676.938                  
  21571847.104   113360830.230    21571845.764    88333117.222                  
  20629977.873   108411230.924    20629979.695    84476275.231                  
                 114270910.071                   114270910.071    21944517.032  
                 120958834.653                   120958834.653    23228869.497  
                 125141066.798                   125141066.798    24032025.989  
                 123321332.957                   123321332.957    23682564.437  
  24590072.145   129221660.385                                                  
  23650887.198   124286225.035                                                  
  27658755.126   145347723.109                                                  
  25070292.345   131745257.686                                                  
  23497130.545   123478244.921                                                  
  25912107.699   136169013.281                                                  
 21  9  1  8 44 51.0000000  0 19G 1G 7G 8G13G14G17G19G21G30C23C25C28
                                C34E13E15E19E21E27E30
  20640894.309   108468593.279    20640897.043    84520971.285                  
  21087151.965   110813743.147    21087151.482    86348373.899                  
  23300755.648   122446259.489    23300757.828    95412660.340                  
  23758954.975   124854167.801    23758954.099    97288965.856                  
  21415425.233   112538835.282    21415425.144    87692605.035                  
  22012884.307   115678499.582    22012883.807    90139092.922                  
  24532644.340   128919925.075    24532642.785   100457087.133                  
  21572065.428   113361977.511    21572064.088    88334011.203                  
  20630013.646   108411418.879    20630015.451    84476421.688                  
                 114270391.522                   114270391.522    21944417.466  
                 120961125.430                   120961125.430    23229309.415  
                 125138290.746                   125138290.746    24031492.866  
                 123323781.920                   123323781.920    23683034.732  
  24589608.676   129219224.852                                                  
  23650942.699   124286516.775                                                  
  27659106.252   145349568.366                                                  
  25069941.451   131743413.773                                                  
  23497185.975   123478536.347                                                  
  25912515.899   136171158.371                                                  
 21  9  1  8 44 52.0000000  0 19G 1G 7G 8G13G14G17G19G21G30C23C25C28
                                C34E13E15E19E21E27E30
  20640625.094   108467178.681    20640627.864    84519869.003                  
  21087597.082   110816082.261    21087596.582    86350196.585                  
  23301342.734   122449344.683    23301344.914    95415064.390                  
  23758996.485   124854385.875    23758995.591    97289135.786                  
  21415051.592   112536871.851    21415051.502    87691075.089                  
  22012483.237   115676391.929    22012482.737    90137450.598                  
  24532011.919   128916601.633    24532010.365   100454497.441                  
  21572283.841   113363125.370    21572282.519    88334905.641                  
  20630049.545   108411607.485    20630051.332    84476568.652                  
                 114269873.427                   114269873.427    21944317.953  
                 120963416.551                   120963416.551    23229749.404  
                 125135514.949                   125135514.949    24030959.798  
                 123326231.099                   123326231.099    23683505.063  
  24589145.279   129216789.629                                                  
  23650998.326   124286809.010                                                  
  27659457.432   145351413.888                                                  
  25069590.593   131741569.965                                                  
  23497241.476   123478828.011                                                  
  25912924.117   136173303.606                                                  
 21  9  1  8 44 53.0000000  0 19G 1G 7G 8G13G14G17G19G21G30C23C25C28
                                C34E13E15E19E21E27E30
  20640356.040   108465764.793    20640358.792    84518767.272                  
  21088042.307   110818421.879    21088041.806    86352019.664                  
  23301929.839   122452429.950    23301932.019    95417468.492                  
  23759038.102   124854604.567    23759037.226    97289306.191                  
  21414678.022   112534908.626    21414677.915    87689545.301                  
  22012082.220   115674284.613    22012081.720    90135808.531                  
  24531379.517   128913278.353    24531377.962   100451907.871                  
  21572502.379   113364273.825    21572501.057    88335800.544                  
  20630085.533   108411796.733    20630087.356    84476716.120                  
                 114269355.771                   114269355.771    21944218.548  
                 120965708.008                   120965708.008    23230189.446  
                 125132739.417                   125132739.417    24030426.783  
                 123328680.507                   123328680.507    23683975.465  
  24588681.917   129214354.736                                                  
  23651054.023   124287101.704                                                  
  27659808.683   145353259.665                                                  
  25069239.735   131739726.245                                                  
  23497297.031   123479119.921                                                  
  25913332.389   136175449.001                                                  
 21  9  1  8 44 54.0000000  0 19G 1G 7G 8G13G14G17G19G21G30C23C25C28
                                C34E13E15E19E21E27E30
  20640087.112   108464351.601    20640089.881    84517666.086                  
  21088487.621   110820762.007    21088487.120    86353843.141                  
  23302516.961   122455515.285    23302519.141    95419872.649                  
  23759079.826   124854823.859    23759078.932    97289477.070                  
  21414304.452   112532945.597    21414304.363    87688015.673                  
  22011681.275   115672177.629    22011680.775    90134166.730                  
  24530747.132   128909955.204    24530745.577   100449318.405                  
  21572721.042   113365422.847    21572719.720    88336695.883                  
  20630121.683   108411986.648    20630123.505    84476864.106                  
                 114268838.560                   114268838.560    21944119.214  
                 120967999.812                   120967999.812    23230629.560  
                 125129964.150                   125129964.150    24029893.821  
                 123331130.153                   123331130.153    23684445.884  
  24588218.645   129211920.144                                                  
  23651109.793   124287394.888                                                  
  27660159.988   145355105.694                                                  
  25068888.912   131737882.622                                                  
  23497352.640   123479412.066                                                  
  25913740.660   136177594.532                                                  
 21  9  1  8 44 55.0000000  0 19G 1G 7G 8G13G14G17G19G21G30C23C25C28
                                C34E13E15E19E21E27E30
  20639818.344   108462939.101    20639821.078    84516565.437                  
  21088933.024   110823102.661    21088932.524    86355667.027                  
  23303104.102   122458600.675    23303106.282    95422276.852                  
  23759121.675   124855043.772    23759120.799    97289648.431                  
  21413930.954   112530982.780    21413930.847    87686486.203                  
  22011280.402   115670070.980    22011279.901    90132525.183                  
  24530114.801   128906632.223    24530113.246   100446729.069                  
  21572939.795   113366572.458    21572938.473    88337591.684                  
  20630157.939   108412177.211    20630159.761    84477012.594                  
                 114268321.794                   114268321.794    21944019.987  
                 120970291.956                   120970291.956    23231069.746  
                 125127189.144                   125127189.144    24029360.913  
                 123333580.032                   123333580.032    23684916.358  
  24587755.426   129209485.872                                                  
  23651165.687   124287688.547                                                  
  27660511.293   145356951.981                                                  
  25068538.107   131736039.090                                                  
  23497408.266   123479704.448                                                  
  25914148.967   136179740.204                                                  
 21  9  1  8 44 56.0000000  0 19G 1G 7G 8G13G14G17G19G21G30C23C25C28
                                C34E13E15E19E21E27E30
  20639549.683   108461527.309    20639552.435    84515465.336                  
  21089378.534   110825443.835    21089378.034    86357491.316                  
  23303691.242   122461686.139    23303693.422    95424681.109                  
  23759163.632   124855264.308    23759162.756    97289820.277                  
  21413557.473   112529020.171    21413557.384    87684956.899                  
  22010879.581   115667964.659    22010879.081    90130883.899                  
  24529482.487   128903309.380    24529480.915   100444139.841                  
  21573158.673   113367722.645    21573157.368    88338487.933                  
  20630194.338   108412368.422    20630196.161    84477161.590                  
                 114267805.469                   114267805.469    21943920.814  
                 120972584.446                   120972584.446    23231510.003  
                 125124414.403                   125124414.403    24028828.059  
                 123336030.144                   123336030.144    23685386.885  
  24587292.243   129207051.909                                                  
  23651221.653   124287982.675                                                  
  27660862.705   145358798.524                                                  
  25068187.303   131734195.643                                                  
  23497463.964   123479997.072                                                  
  25914557.292   136181886.019                                                  
 21  9  1  8 44 57.0000000  0 19G 1G 7G 8G13G14G17G19G21G30C23C25C28
                                C34E13E15E19E21E27E30
  20639281.165   108460116.215    20639283.917    84514365.785                  
  21089824.134   110827785.531    21089823.634    86359316.016                  
  23304278.400   122464771.677    23304280.580    95427085.422                  
  23759205.713   124855485.457    23759204.837    97289992.603                  
  21413184.047   112527057.770    21413183.939    87683427.753                  
  22010478.815   115665858.688    22010478.315    90129242.880                  
  24528850.192   128899986.683    24528848.637   100441550.731                  
  21573377.658   113368873.418    21573376.335    88339384.642                  
  20630230.844   108412560.297    20630232.667    84477311.101                  
                 114267289.590                   114267289.590    21943821.766  
                 120974877.274                   120974877.274    23231950.296  
                 125121639.921                   125121639.921    24028295.241  
                 123338480.491                   123338480.491    23685857.448  
  24586829.132   129204618.271                                                  
  23651277.726   124288277.282                                                  
  27661214.135   145360645.343                                                  
  25067836.534   131732352.302                                                  
  23497519.679   123480289.921                                                  
  25914965.653   136184031.987                                                  
 21  9  1  8 44 58.0000000  0 19G 1G 7G 8G13G14G17G19G21G30C23C25C28
                                C34E13E15E19E21E27E30
  20639012.754   108458705.819    20639015.524    84513266.778                  
  21090269.859   110830127.737    21090269.359    86361141.110                  
  23304865.559   122467857.273    23304867.739    95429489.780                  
  23759247.920   124855707.227    23759247.044    97290165.407                  
  21412810.656   112525095.575    21412810.566    87681898.770                  
  22010078.138   115663753.039    22010077.620    90127602.112                  
  24528217.932   128896664.137    24528216.378   100438961.731                  
  21573596.767   113370024.781    21573595.445    88340281.805                  
  20630267.476   108412752.806    20630269.299    84477461.110                  
                 114266774.152                   114266774.152    21943722.772  
                 120977170.450                   120977170.450    23232390.678  
                 125118865.706                   125118865.706    24027762.476  
                 123340931.074                   123340931.074    23686328.047  
  24586366.074   129202184.941                                                  
  23651333.888   124288572.364                                                  
  27661565.619   145362492.414                                                  
  25067485.783   131730509.058                                                  
  23497575.466   123480583.016                                                  
  25915374.067   136186178.099                                                  
 21  9  1  8 44 59.0000000  0 19G 1G 7G 8G13G14G17G19G21G30C23C25C28
                                C34E13E15E19E21E27E30
  20638744.523   108457296.128    20638747.256    84512168.317                  
  21090715.656   110832470.468    21090715.155    86362966.613                  
  23305452.735   122470942.918    23305454.915    95431894.180                  
  23759290.234   124855929.609    23759289.358    97290338.691                  
  21412437.300   112523133.582    21412437.193    87680369.945                  
  22009677.497   115661647.731    22009676.996    90125961.617                  
  24527585.709   128893341.742    24527584.136   100436372.850                  
  21573815.967   113371176.707    21573814.644    88341179.411                  
  20630304.232   108412945.977    20630306.055    84477611.629                  
                 114266259.163                   114266259.163    21943623.885  
                 120979463.964                   120979463.964    23232831.131  
                 125116091.753                   125116091.753    24027229.782  
                 123343381.892                   123343381.892    23686798.699  
  24585903.106   129199751.923                                                  
  23651390.122   124288867.922                                                  
  27661917.156   145364339.746                                                  
  25067135.032   131728665.898                                                  
  23497631.271   123480876.353                                                  
  25915782.464   136188324.352                                                  
 21  9  1  8 45  0.0000000  0 19G 1G 7G 8G13G14G17G19G21G30C23C25C28
                                C34E13E15E19E21E27E30
  20638476.398   108455887.149    20638479.132    84511070.409                  
  21091161.559   110834813.711    21091161.059    86364792.520                  
  23306039.946   122474028.638    23306042.127    95434298.636                  
  23759332.672   124856152.595    23759331.797    97290512.448                  
  21412063.981   112521171.801    21412063.873    87678841.286                  
  22009276.945   115659542.754    22009276.444    90124321.371                  
  24526953.503   128890019.483    24526951.948   100433784.077                  
  21574035.273   113372329.218    21574033.969    88342077.473                  
  20630341.114   108413139.798    20630342.937    84477762.660                  
                 114265744.618                   114265744.618    21943525.051  
                 120981757.820                   120981757.820    23233271.638  
                 125113318.067                   125113318.067    24026697.124  
                 123345832.943                   123345832.943    23687269.405  
  24585440.173   129197319.218                                                  
  23651446.463   124289163.958                                                  
  27662268.747   145366187.321                                                  
  25066784.299   131726822.833                                                  
  23497687.148   123481169.927                                                  
  25916190.914   136190470.757                                                  
 21  9  1  8 45  1.0000000  0 19G 1G 7G 8G13G14G17G19G21G30C23C25C28
                                C34E13E15E19E21E27E30
  20638208.398   108454478.863    20638211.168    84509973.044                  
  21091607.552   110837157.481    21091607.087    86366618.832                  
  23306627.158   122477114.445    23306629.320    95436703.163                  
  23759375.219   124856376.202    23759374.343    97290686.688                  
  21411690.697   112519210.222    21411690.607    87677312.781                  
  22008876.446   115657438.106    22008875.946    90122681.388                  
  24526321.314   128886697.391    24526319.760   100431195.438                  
  21574254.705   113373482.315    21574253.383    88342975.988                  
  20630378.139   108413334.272    20630379.944    84477914.198                  
                 114265230.512                   114265230.512    21943426.343  
                 120984052.020                   120984052.020    23233712.217  
                 125110544.641                   125110544.641    24026164.503  
                 123348284.226                   123348284.226    23687740.146  
  24584977.294   129194886.836                                                  
  23651502.875   124289460.469                                                  
  27662620.374   145368035.164                                                  
  25066433.601   131724979.859                                                  
  23497743.060   123481463.741                                                  
  25916599.400   136192617.300                                                  
 21  9  1  8 45  2.0000000  0 19G 1G 7G 8G13G14G17G19G21G30C23C25C28
                                C34E13E15E19E21E27E30
  20637940.559   108453071.273    20637943.293    84508876.222                  
  21092053.652   110839501.765    21092053.188    86368445.547                  
  23307214.352   122480200.305    23307216.532    95439107.728                  
  23759417.908   124856600.432    23759417.014    97290861.410                  
  21411317.484   112517248.848    21411317.359    87675784.438                  
  22008476.001   115655333.796    22008475.501    90121041.667                  
  24525689.180   128883375.437    24525687.625   100428606.903                  
  21574474.244   113374635.991    21574472.921    88343874.956                  
  20630415.253   108413529.399    20630417.075    84478066.247                  
                 114264716.852                   114264716.852    21943327.706  
                 120986346.563                   120986346.563    23234152.867  
                 125107771.481                   125107771.481    24025631.952  
                 123350735.742                   123350735.742    23688210.923  
  24584514.504   129192454.765                                                  
  23651559.377   124289757.453                                                  
  27662972.054   145369883.259                                                  
  25066082.921   131723136.978                                                  
  23497799.008   123481757.794                                                  
  25917007.904   136194763.993                                                  
 21  9  1  8 45  3.0000000  0 19G 1G 7G 8G13G14G17G19G21G30C23C25C28
                                C34E13E15E19E21E27E30
  20637672.828   108451664.387    20637675.580    84507779.945                  
  21092499.877   110841846.565    21092499.377    86370272.664                  
  23307801.600   122483286.212    23307803.780    95441512.328                  
  23759460.686   124856825.279    23759459.793    97291036.618                  
  21410944.272   112515287.692    21410944.182    87674256.261                  
  22008075.628   115653229.828    22008075.128    90119402.210                  
  24525057.063   128880053.630    24525055.509   100426018.482                  
  21574693.872   113375790.247    21574692.567    88344774.379                  
  20630452.527   108413725.188    20630454.332    84478218.808                  
                 114264203.636                   114264203.636    21943229.140  
                 120988641.449                   120988641.449    23234593.589  
                 125104998.581                   125104998.581    24025099.437  
                 123353187.497                   123353187.497    23688681.754  
  24584051.732   129190022.996                                                  
  23651616.004   124290054.921                                                  
  27663323.788   145371731.618                                                  
  25065732.242   131721294.194                                                  
  23497855.027   123482052.078                                                  
  25917416.425   136196910.832                                                  
 21  9  1  8 45  4.0000000  0 19G 1G 7G 8G13G14G17G19G21G30C23C25C28
                                C34E13E15E19E21E27E30
  20637405.239   108450258.202    20637408.009    84506684.214                  
  21092946.156   110844191.888    21092945.674    86372100.189                  
  23308388.847   122486372.207    23308391.027    95443917.011                  
  23759503.572   124857050.724    23759502.696    97291212.282                  
  21410571.113   112513326.726    21410571.024    87672728.239                  
  22007675.326   115651126.169    22007674.826    90117762.984                  
  24524424.964   128876732.013    24524423.392   100423430.229                  
  21574913.643   113376945.082    21574912.321    88345674.250                  
  20630489.892   108413921.620    20630491.714    84478371.879                  
                 114263690.874                   114263690.874    21943130.664  
                 120990936.675                   120990936.675    23235034.346  
                 125102225.954                   125102225.954    24024566.976  
                 123355639.490                   123355639.490    23689152.639  
  24583589.067   129187591.565                                                  
  23651672.703   124290352.856                                                  
  27663675.575   145373580.195                                                  
  25065381.598   131719451.499                                                  
  23497911.064   123482346.608                                                  
  25917824.983   136199057.798                                                  
 21  9  1  8 45  5.0000000  0 19G 1G 7G 8G13G14G17G19G21G30C23C25C28
                                C34E13E15E19E21E27E30
  20637137.776   108448852.719    20637140.545    84505589.030                  
  21093392.560   110846537.715    21093392.078    86373928.106                  
  23308976.095   122489458.246    23308978.257    95446321.715                  
  23759546.618   124857276.796    23759545.725    97291388.440                  
  21410198.008   112511365.978    21410197.901    87671200.378                  
  22007275.078   115649022.862    22007274.578    90116124.048                  
  24523792.901   128873410.505    24523791.347   100420842.039                  
  21575133.521   113378100.500    21575132.199    88346574.574                  
  20630527.399   108414118.700    20630529.221    84478525.446                  
                 114263178.547                   114263178.547    21943032.277  
                 120993232.245                   120993232.245    23235475.175  
                 125099453.582                   125099453.582    24024034.586  
                 123358091.706                   123358091.706    23689623.559  
  24583126.438   129185160.442                                                  
  23651729.472   124290651.269                                                  
  27664027.399   145375429.059                                                  
  25065030.954   131717608.900                                                  
  23497967.137   123482641.371                                                  
  25918233.558   136201204.925                                                  
 21  9  1  8 45  6.0000000  0 19G 1G 7G 8G13G14G17G19G21G30C23C25C28
                                C34E13E15E19E21E27E30
  20636870.455   108447447.931    20636873.225    84504494.390                  
  21093839.054   110848884.062    21093838.553    86375756.430                  
  23309563.360   122492544.335    23309565.523    95448726.461                  
  23759589.736   124857503.474    23759588.861    97291565.074                  
  21409824.920   112509405.429    21409824.813    87669672.680                  
  22006874.901   115646919.890    22006874.401    90114485.370                  
  24523160.856   128870089.132    24523159.301   100418253.961                  
  21575353.507   113379256.503    21575352.185    88347475.355                  
  20630565.013   108414316.429    20630566.836    84478679.522                  
                 114262666.663                   114262666.663    21942933.980  
                 120995528.157                   120995528.157    23235916.093  
                 125096681.476                   125096681.476    24023502.215  
                 123360544.159                   123360544.159    23690094.533  
  24582663.863   129182729.642                                                  
  23651786.367   124290950.169                                                  
  27664379.275   145377278.175                                                  
  25064680.346   131715766.371                                                  
  23498023.282   123482936.374                                                  
  25918642.187   136203352.184                                                  
 21  9  1  8 45  7.0000000  0 19G 1G 7G 8G13G14G17G19G21G30C23C25C28
                                C34E13E15E19E21E27E30
  20636603.277   108446043.841    20636606.011    84503400.297                  
  21094285.654   110851230.928    21094285.154    86377585.157                  
  23310150.644   122495630.498    23310152.806    95451131.261                  
  23759632.997   124857730.761    23759632.122    97291742.184                  
  21409451.887   112507445.073    21409451.780    87668145.132                  
  22006474.778   115644817.255    22006474.278    90112846.949                  
  24522528.864   128866767.917    24522527.274   100415665.999                  
  21575573.582   113380413.089    21575572.259    88348376.589                  
  20630602.788   108414514.804    20630604.593    84478834.098                  
                 114262155.227                   114262155.227    21942835.754  
                 120997824.410                   120997824.410    23236357.065  
                 125093909.634                   125093909.634    24022969.914  
                 123362996.847                   123362996.847    23690565.542  
  24582201.359   129180299.168                                                  
  23651843.316   124291249.544                                                  
  27664731.206   145379127.544                                                  
  25064329.738   131713923.925                                                  
  23498079.462   123483231.620                                                  
  25919050.815   136205499.614                                                  
 21  9  1  8 45  8.0000000  0 19G 1G 7G 8G13G14G17G19G21G30C23C25C28
                                C34E13E15E19E21E27E30
  20636336.225   108444640.491    20636338.977    84502306.777                  
  21094732.344   110853578.326    21094731.861    86379414.294                  
  23310737.927   122498716.733    23310740.107    95453536.120                  
  23759676.383   124857958.692    23759675.472    97291919.790                  
  21409078.889   112505484.970    21409078.782    87666617.777                  
  22006074.726   115642714.960    22006074.226    90111208.802                  
  24521896.873   128863446.864    24521895.318   100413078.163                  
  21575793.782   113381570.251    21575792.459    88349278.273                  
  20630640.653   108414713.856    20630642.475    84478989.204                  
                 114261644.236                   114261644.236    21942737.617  
                 121000121.009                   121000121.009    23236798.108  
                 125091138.051                   125091138.051    24022437.685  
                 123365449.764                   123365449.764    23691036.606  
  24581738.908   129177868.948                                                  
  23651900.372   124291549.371                                                  
  27665083.172   145380977.235                                                  
  25063979.166   131712081.678                                                  
  23498135.696   123483527.090                                                  
  25919459.480   136207647.175                                                  
 21  9  1  8 45  9.0000000  0 19G 1G 7G 8G13G14G17G19G21G30C23C25C28
                                C34E13E15E19E21E27E30
  20636069.297   108443237.807    20636072.067    84501213.781                  
  21095179.141   110855926.231    21095178.641    86381243.832                  
  23311325.228   122501803.039    23311327.408    95455941.032                  
  23759719.858   124858187.224    23759718.983    97292097.867                  
  21408705.927   112503525.043    21408705.819    87665090.561                  
  22005674.746   115640613.000    22005674.228    90109570.911                  
  24521264.935   128860125.949    24521263.362   100410490.441                  
  21576014.107   113382727.993    21576012.784    88350180.415                  
  20630678.660   108414913.546    20630680.483    84479144.806                  
                 114261133.686                   114261133.686    21942639.588  
                 121002417.945                   121002417.945    23237239.205  
                 125088366.735                   125088366.735    24021905.457  
                 123367902.923                   123367902.923    23691507.704  
  24581276.512   129175439.087                                                  
  23651957.535   124291849.694                                                  
  27665435.192   145382827.117                                                  
  25063628.593   131710239.446                                                  
  23498191.965   123483822.818                                                  
  25919868.180   136209794.883                                                  
 21  9  1  8 45 10.0000000  0 19G 1G 7G 8G13G14G17G19G21G30C23C25C28
                                C34E13E15E19E21E27E30
  20635802.513   108441835.836    20635805.283    84500121.332                  
  21095626.045   110858274.655    21095625.545    86383073.769                  
  23311912.547   122504889.413    23311914.727    95458346.000                  
  23759763.459   124858416.363    23759762.583    97292276.414                  
  21408333.000   112501565.328    21408332.893    87663563.513                  
  22005274.802   115638511.372    22005274.301    90107933.278                  
  24520633.015   128856805.183    24520631.442   100407902.832                  
  21576234.521   113383886.317    21576233.199    88351083.000                  
  20630716.775   108415113.889    20630718.597    84479300.917                  
                 114260623.582                   114260623.582    21942541.612  
                 121004715.227                   121004715.227    23237680.373  
                 125085595.681                   125085595.681    24021373.317  
                 123370356.309                   123370356.309    23691978.857  
  24580814.204   129173009.546                                                  
  23652014.751   124292150.487                                                  
  27665787.283   145384677.301                                                  
  25063278.057   131708397.317                                                  
  23498248.289   123484118.777                                                  
  25920276.898   136211942.729                                                  
 21  9  1  8 45 11.0000000  0 19G 1G 7G 8G13G14G17G19G21G30C23C25C28
                                C34E13E15E19E21E27E30
  20635535.854   108440434.579    20635538.623    84499029.445                  
  21096073.021   110860623.593    21096072.521    86384904.112                  
  23312499.884   122507975.860    23312502.064    95460751.019                  
  23759807.184   124858646.119    23759806.309    97292455.445                  
  21407960.127   112499605.820    21407960.020    87662036.621                  
  22004874.946   115636410.075    22004874.446    90106295.902                  
  24520001.112   128853484.570    24519999.558   100405315.343                  
  21576455.061   113385045.228    21576453.720    88351986.047                  
  20630755.014   108415314.887    20630756.837    84479457.539                  
                 114260113.922                   114260113.922    21942443.743  
                 121007012.849                   121007012.849    23238121.613  
                 125082824.891                   125082824.891    24020841.213  
                 123372809.930                   123372809.930    23692450.045  
  24580351.915   129170580.310                                                  
  23652072.093   124292451.755                                                  
  27666139.392   145386527.706                                                  
  25062927.520   131706555.279                                                  
  23498304.665   123484414.978                                                  
  25920685.652   136214090.728                                                  
 21  9  1  8 45 12.0000000  0 19G 1G 7G 8G13G14G17G19G21G30C23C25C28
                                C34E13E15E19E21E27E30
  20635269.337   108439034.005    20635272.107    84497938.091                  
  21096520.104   110862973.047    21096519.621    86386734.856                  
  23313087.221   122511062.357    23313089.401    95463156.086                  
  23759851.017   124858876.485    23759850.142    97292634.953                  
  21407587.272   112497646.519    21407587.183    87660509.895                  
  22004475.145   115634309.110    22004474.645    90104658.788                  
  24519369.264   128850164.104    24519367.673   100402727.969                  
  21576675.707   113386204.719    21576674.385    88352889.552                  
  20630793.397   108415516.534    20630795.220    84479614.669                  
                 114259604.707                   114259604.707    21942345.964  
                 121009310.812                   121009310.812    23238562.924  
                 125080054.367                   125080054.367    24020309.163  
                 123375263.784                   123375263.784    23692921.287  
  24579889.715   129168151.390                                                  
  23652129.524   124292753.499                                                  
  27666491.573   145388378.383                                                  
  25062577.019   131704713.340                                                  
  23498361.060   123484711.413                                                  
  25921094.442   136216238.870                                                  
 21  9  1  8 45 13.0000000  0 19G 1G 7G 8G13G14G17G19G21G30C23C25C28
                                C34E13E15E19E21E27E30
  20635002.964   108437634.141    20635005.715    84496847.286                  
  21096967.294   110865323.012    21096966.794    86388565.995                  
  23313674.576   122514148.939    23313676.756    95465561.211                  
  23759894.975   124859107.473    23759894.099    97292814.941                  
  21407214.489   112495687.431    21407214.363    87658983.329                  
  22004075.397   115632208.473    22004074.897    90103021.931                  
  24518737.415   128846843.793    24518735.861   100400140.712                  
  21576896.443   113387364.780    21576895.121    88353793.493                  
  20630831.905   108415718.829    20630833.727    84479772.297                  
                 114259095.937                   114259095.937    21942248.256  
                 121011609.120                   121011609.120    23239004.271  
                 125077284.107                   125077284.107    24019777.167  
                 123377717.871                   123377717.871    23693392.565  
  24579427.586   129165722.794                                                  
  23652187.045   124293055.726                                                  
  27666843.807   145390229.316                                                  
  25062226.518   131702871.492                                                  
  23498417.526   123485008.083                                                  
  25921503.232   136218387.165                                                  
 21  9  1  8 45 14.0000000  0 19G 1G 7G 8G13G14G17G19G21G30C23C25C28
                                C34E13E15E19E21E27E30
  20634736.697   108436234.878    20634739.467    84495756.910                  
  21097414.574   110867673.514    21097414.073    86390397.571                  
  23314261.949   122517235.579    23314264.129    95467966.383                  
  23759939.040   124859339.100    23759938.164    97292995.453                  
  21406841.705   112493728.563    21406841.598    87657456.961                  
  22003675.721   115630108.156    22003675.220    90101385.313                  
  24518105.620   128843523.656    24518104.048   100397553.612                  
  21577117.322   113388525.422    21577115.982    88354697.892                  
  20630870.520   108415921.769    20630872.342    84479930.434                  
                 114258587.612                   114258587.612    21942150.637  
                 121013907.769                   121013907.769    23239445.707  
                 125074514.108                   125074514.108    24019245.224  
                 123380172.190                   123380172.190    23693863.878  
  24578965.475   129163294.497                                                  
  23652244.619   124293358.409                                                  
  27667196.059   145392080.495                                                  
  25061876.035   131701029.739                                                  
  23498474.028   123485304.993                                                  
  25921912.075   136220535.590                                                  
 21  9  1  8 45 15.0000000  0 19G 1G 7G 8G13G14G17G19G21G30C23C25C28
                                C34E13E15E19E21E27E30
  20634470.592   108434836.414    20634473.344    84494667.200                  
  21097861.960   110870024.506    21097861.460    86392229.508                  
  23314849.321   122520322.279    23314851.501    95470371.601                  
  23759983.248   124859571.312    23759982.354    97293176.395                  
  21406468.975   112491769.872    21406468.886    87655930.708                  
  22003276.116   115628008.191    22003275.615    90099748.977                  
  24517473.843   128840203.632    24517472.253   100394966.586                  
  21577338.273   113389686.645    21577336.968    88355602.738                  
  20630909.260   108416125.358    20630911.082    84480089.075                  
                 114258079.729                   114258079.729    21942053.108  
                 121016206.758                   121016206.758    23239887.197  
                 125071744.374                   125071744.374    24018713.317  
                 123382626.742                   123382626.742    23694335.263  
  24578503.454   129160866.511                                                  
  23652302.318   124293661.511                                                  
  27667548.382   145393931.933                                                  
  25061525.606   131699188.085                                                  
  23498530.566   123485602.217                                                  
  25922320.936   136222684.163                                                  
 21  9  1  8 45 16.0000000  0 19G 1G 7G 8G13G14G17G19G21G30C23C25C28
                                C34E13E15E19E21E27E30
  20634204.593   108433438.657    20634207.363    84493578.034                  
  21098309.436   110872376.024    21098308.936    86394061.860                  
  23315436.712   122523409.043    23315438.892    95472776.876                  
  23760027.545   124859804.137    23760026.652    97293357.817                  
  21406096.299   112489811.392    21406096.191    87654404.617                  
  22002876.582   115625908.561    22002876.082    90098112.902                  
  24516842.084   128836883.759    24516840.511   100392379.669                  
  21577559.366   113390848.446    21577558.044    88356508.040                  
  20630948.125   108416329.617    20630949.947    84480248.235                  
                 114257572.294                   114257572.294    21941955.669  
                 121018506.090                   121018506.090    23240328.759  
                 125068974.905                   125068974.905    24018181.481  
                 123385081.532                   123385081.532    23694806.683  
  24578041.486   129158438.844                                                  
  23652360.106   124293965.156                                                  
  27667900.760   145395783.634                                                  
  25061175.159   131697346.536                                                  
  23498587.157   123485899.597                                                  
  25922729.815   136224832.878                                                  
 21  9  1  8 45 17.0000000  0 19G 1G 7G 8G13G14G17G19G21G30C23C25C28
                                C34E13E15E19E21E27E30
  20633938.756   108432041.592    20633941.508    84492489.415                  
  21098757.020   110874728.055    21098756.519    86395894.613                  
  23316024.120   122526495.883    23316026.300    95475182.204                  
  23760071.968   124860037.581    23760071.074    97293539.722                  
  21405723.658   112487853.117    21405723.533    87652878.691                  
  22002477.102   115623809.266    22002476.584    90096477.085                  
  24516210.360   128833564.038    24516208.805   100389792.871                  
  21577780.567   113392010.825    21577779.245    88357413.790                  
  20630987.115   108416534.520    20630988.938    84480407.898                  
                 114257065.301                   114257065.301    21941858.300  
                 121020805.765                   121020805.765    23240770.392  
                 125066205.703                   125066205.703    24017649.681  
                 123387536.552                   123387536.552    23695278.140  
  24577579.572   129156011.507                                                  
  23652417.984   124294269.282                                                  
  27668253.172   145397635.591                                                  
  25060824.747   131695505.055                                                  
  23498643.802   123486197.230                                                  
  25923138.748   136226981.745                                                  
 21  9  1  8 45 18.0000000  0 19G 1G 7G 8G13G14G17G19G21G30C23C25C28
                                C34E13E15E19E21E27E30
  20633673.044   108430645.226    20633675.778    84491401.335                  
  21099204.674   110877080.602    21099204.192    86397727.765                  
  23316611.546   122529582.770    23316613.726    95477587.570                  
  23760116.497   124860271.624    23760115.622    97293722.093                  
  21405351.035   112485895.053    21405350.946    87651352.925                  
  22002077.676   115621710.296    22002077.158    90094841.528                  
  24515578.654   128830244.458    24515577.100   100387206.188                  
  21578001.857   113393173.788    21578000.535    88358319.992                  
  20631026.248   108416740.078    20631028.053    84480568.073                  
                 114256558.755                   114256558.755    21941761.021  
                 121023105.780                   121023105.780    23241212.096  
                 125063436.763                   125063436.763    24017117.917  
                 123389991.802                   123389991.802    23695749.632  
  24577117.747   129153584.483                                                  
  23652475.933   124294573.878                                                  
  27668605.639   145399487.800                                                  
  25060474.336   131693663.686                                                  
  23498700.482   123486495.094                                                  
  25923547.680   136229130.750                                                  
 21  9  1  8 45 19.0000000  0 19G 1G 7G 8G13G14G17G19G21G30C23C25C28
                                C34E13E15E19E21E27E30
  20633407.456   108429249.570    20633410.208    84490313.813                  
  21099652.454   110879433.680    21099651.972    86399561.332                  
  23317198.973   122532669.728    23317201.135    95479992.987                  
  23760161.152   124860506.304    23760160.276    97293904.960                  
  21404978.484   112483937.195    21404978.377    87649827.321                  
  22001678.321   115619611.672    22001677.821    90093206.237                  
  24514947.002   128826925.030    24514945.448   100384619.621                  
  21578223.272   113394337.332    21578221.968    88359226.652                  
  20631065.489   108416946.285    20631067.293    84480728.754                  
                 114256052.652                   114256052.652    21941663.814  
                 121025406.142                   121025406.142    23241653.854  
                 125060668.085                   125060668.085    24016586.242  
                 123392447.284                   123392447.284    23696221.195  
  24576655.940   129151157.774                                                  
  23652534.007   124294878.949                                                  
  27668958.159   145401340.282                                                  
  25060123.942   131691822.393                                                  
  23498757.198   123486793.198                                                  
  25923956.666   136231279.917                                                  
 21  9  1  8 45 20.0000000  0 19G 1G 7G 8G13G14G17G19G21G30C23C25C28
                                C34E13E15E19E21E27E30
  20633141.994   108427854.598    20633144.764    84489226.824                  
  21100100.341   110881787.269    21100099.841    86401395.298                  
  23317786.417   122535756.776    23317788.597    95482398.484                  
  23760205.932   124860741.605    23760205.056    97294088.308                  
  21404605.933   112481979.542    21404605.843    87648301.880                  
  22001279.020   115617513.380    22001278.520    90091571.202                  
  24514315.368   128823605.744    24514313.796   100382033.164                  
  21578444.812   113395501.460    21578443.472    88360133.765                  
  20631104.836   108417153.149    20631106.659    84480889.946                  
                 114255546.996                   114255546.996    21941566.714  
                 121027706.840                   121027706.840    23242095.684  
                 125057899.671                   125057899.671    24016054.585  
                 123394903.005                   123394903.005    23696692.777  
  24576194.222   129148731.372                                                  
  23652592.135   124295184.495                                                  
  27669310.715   145403193.008                                                  
  25059773.584   131689981.206                                                  
  23498813.986   123487091.538                                                  
  25924365.653   136233429.218                                                  
 21  9  1  8 45 21.0000000  0 19G 1G 7G 8G13G14G17G19G21G30C23C25C28
                                C34E13E15E19E21E27E30
  20632876.675   108426460.348    20632879.445    84488140.386                  
  21100548.300   110884141.372    21100547.817    86403229.661                  
  23318373.879   122538843.878    23318376.059    95484804.015                  
  23760250.836   124860977.523    23760249.961    97294272.137                  
  21404233.453   112480022.107    21404233.364    87646776.599                  
  22000879.808   115615415.429    22000879.308    90089936.430                  
  24513683.752   128820286.612    24513682.179   100379446.823                  
  21578666.442   113396666.169    21578665.119    88361041.324                  
  20631144.345   108417360.667    20631146.167    84481051.644                  
                 114255041.785                   114255041.785    21941469.703  
                 121030007.882                   121030007.882    23242537.567  
                 125055131.525                   125055131.525    24015522.999  
                 123397358.952                   123397358.952    23697164.412  
  24575732.540   129146305.290                                                  
  23652650.353   124295490.520                                                  
  27669663.324   145405046.001                                                  
  25059423.244   131688140.101                                                  
  23498870.792   123487390.121                                                  
  25924774.674   136235578.655                                                  
 21  9  1  8 45 22.0000000  0 19G 1G 7G 8G13G14G17G19G21G30C23C25C28
                                C34E13E15E19E21E27E30
  20632611.499   108425066.793    20632614.233    84487054.497                  
  21100996.383   110886496.000    21100995.883    86405064.429                  
  23318961.341   122541931.023    23318963.521    95487209.574                  
  23760295.849   124861214.054    23760294.955    97294456.445                  
  21403861.027   112478064.874    21403860.902    87645251.480                  
  22000480.632   115613317.809    22000480.132    90088301.919                  
  24513052.189   128816967.637    24513050.599   100376860.606                  
  21578888.196   113397831.465    21578886.874    88361949.344                  
  20631183.942   108417568.828    20631185.765    84481213.843                  
                 114254537.020                   114254537.020    21941372.763  
                 121032309.267                   121032309.267    23242979.521  
                 125052363.640                   125052363.640    24014991.467  
                 123399815.135                   123399815.135    23697636.100  
  24575270.948   129143879.529                                                  
  23652708.695   124295797.020                                                  
  27670015.987   145406899.240                                                  
  25059072.904   131686299.107                                                  
  23498927.669   123487688.945                                                  
  25925183.732   136237728.247                                                  
 21  9  1  8 45 23.0000000  0 19G 1G 7G 8G13G14G17G19G21G30C23C25C28
                                C34E13E15E19E21E27E30
  20632346.447   108423673.936    20632349.199    84485969.152                  
  21101444.539   110888851.138    21101444.056    86406899.593                  
  23319548.821   122545018.265    23319551.001    95489615.215                  
  23760340.986   124861451.199    23760340.092    97294641.231                  
  21403488.601   112476107.849    21403488.493    87643726.518                  
  22000081.545   115611220.523    22000081.045    90086667.668                  
  24512420.626   128813648.808    24512419.054   100374274.503                  
  21579110.058   113398997.338    21579108.736    88362857.813                  
  20631223.683   108417777.644    20631225.506    84481376.554                  
                 114254032.696                   114254032.696    21941275.913  
                 121034610.989                   121034610.989    23243421.547  
                 125049596.020                   125049596.020    24014459.953  
                 123402271.551                   123402271.551    23698107.843  
  24574809.373   129141454.075                                                  
  23652767.127   124296103.996                                                  
  27670368.704   145408752.722                                                  
  25058722.582   131684458.192                                                  
  23498984.564   123487988.000                                                  
  25925592.826   136239877.980                                                  
 21  9  1  8 45 24.0000000  0 19G 1G 7G 8G13G14G17G19G21G30C23C25C28
                                C34E13E15E19E21E27E30
  20632081.521   108422281.802    20632084.273    84484884.367                  
  21101892.819   110891206.790    21101892.318    86408735.163                  
  23320136.318   122548105.551    23320138.498    95492020.886                  
  23760386.212   124861688.954    23760385.337    97294826.487                  
  21403116.246   112474151.033    21403116.121    87642201.722                  
  21999682.494   115609123.575    21999681.994    90085033.676                  
  24511789.099   128810330.132    24511787.527   100371688.515                  
  21579332.027   113400163.793    21579330.705    88363766.734                  
  20631263.549   108417987.125    20631265.354    84481539.777                  
                 114253528.819                   114253528.819    21941179.134  
                 121036913.055                   121036913.055    23243863.645  
                 125046828.665                   125046828.665    24013928.528  
                 123404728.199                   123404728.199    23698579.620  
  24574347.905   129139028.944                                                  
  23652825.612   124296411.444                                                  
  27670721.456   145410606.481                                                  
  25058372.295   131682617.383                                                  
  23499041.512   123488287.293                                                  
  25926001.919   136242027.848                                                  
 21  9  1  8 45 25.0000000  0 19G 1G 7G 8G13G14G17G19G21G30C23C25C28
                                C34E13E15E19E21E27E30
  20631816.738   108420890.360    20631819.508    84483800.124                  
  21102341.188   110893562.958    21102340.688    86410571.137                  
  23320723.816   122551192.914    23320725.996    95494426.621                  
  23760431.582   124861927.328    23760430.706    97295012.233                  
  21402743.891   112472194.419    21402743.802    87640677.090                  
  21999283.515   115607026.964    21999283.014    90083399.953                  
  24511157.608   128807011.602    24511156.035   100369102.646                  
  21579554.103   113401330.824    21579552.781    88364676.108                  
  20631303.540   108418197.249    20631305.344    84481703.513                  
                 114253025.385                   114253025.385    21941082.481  
                 121039215.466                   121039215.466    23244305.778  
                 125044061.574                   125044061.574    24013397.121  
                 123407185.077                   123407185.077    23699051.416  
  24573886.473   129136604.130                                                  
  23652884.222   124296719.368                                                  
  27671074.262   145412460.492                                                  
  25058022.027   131680776.663                                                  
  23499098.515   123488586.827                                                  
  25926411.066   136244177.868                                                  
 21  9  1  8 45 26.0000000  0 19G 1G 7G 8G13G14G17G19G21G30C23C25C28
                                C34E13E15E19E21E27E30
  20631552.098   108419499.616    20631554.832    84482716.430                  
  21102789.647   110895919.640    21102789.147    86412407.517                  
  23321311.332   122554280.344    23321313.512    95496832.415                  
  23760477.058   124862166.315    23760476.183    97295198.457                  
  21402371.608   112470238.010    21402371.501    87639152.614                  
  21998884.625   115604930.688    21998884.124    90081766.491                  
  24510526.134   128803693.225    24510524.562   100366516.900                  
  21579776.304   113402498.426    21579774.964    88365585.926                  
  20631343.638   108418408.028    20631345.460    84481867.753                  
                 114252522.399                   114252522.399    21940985.881  
                 121041518.215                   121041518.215    23244748.000  
                 125041294.751                   125041294.751    24012865.786  
                 123409642.191                   123409642.191    23699523.301  
  24573425.095   129134179.630                                                  
  23652942.904   124297027.766                                                  
  27671427.122   145414314.755                                                  
  25057671.758   131678936.036                                                  
  23499155.552   123488886.613                                                  
  25926820.213   136246328.044                                                  
 21  9  1  8 45 27.0000000  0 19G 1G 7G 8G13G14G17G19G21G30C23C25C28
                                C34E13E15E19E21E27E30
  20631287.583   108418109.583    20631290.334    84481633.285                  
  21103238.195   110898276.856    21103237.713    86414244.304                  
  23321898.865   122557367.815    23321901.045    95499238.234                  
  23760522.660   124862405.925    23760521.784    97295385.164                  
  21401999.361   112468281.819    21401999.253    87637628.313                  
  21998485.788   115602834.750    21998485.252    90080133.293                  
  24509894.697   128800375.001    24509893.124   100363931.270                  
  21579998.577   113403666.606    21579997.255    88366496.194                  
  20631383.879   108418619.452    20631385.701    84482032.499                  
                 114252019.860                   114252019.860    21940889.353  
                 121043821.304                   121043821.304    23245190.295  
                 125038528.187                   125038528.187    24012334.504  
                 123412099.534                   123412099.534    23699995.204  
  24572963.806   129131755.444                                                  
  23653001.675   124297336.640                                                  
  27671780.017   145416169.285                                                  
  25057321.525   131677095.509                                                  
  23499212.662   123489186.626                                                  
  25927229.396   136248478.346                                                  
 21  9  1  8 45 28.0000000  0 19G 1G 7G 8G13G14G17G19G21G30C23C25C28
                                C34E13E15E19E21E27E30
  20631023.193   108416720.250    20631025.962    84480550.688                  
  21103686.869   110900634.565    21103686.368    86416081.484                  
  23322486.417   122560455.392    23322488.579    95501644.136                  
  23760568.351   124862646.147    23760567.476    97295572.353                  
  21401627.149   112466325.833    21401627.042    87636104.164                  
  21998087.005   115600739.137    21998086.487    90078500.347                  
  24509263.295   128797056.926    24509261.722   100361345.757                  
  21580220.993   113404835.362    21580219.689    88367406.918                  
  20631424.245   108418831.536    20631426.068    84482197.758                  
                 114251517.761                   114251517.761    21940792.931  
                 121046124.738                   121046124.738    23245632.642  
                 125035761.890                   125035761.890    24011803.258  
                 123414557.110                   123414557.110    23700467.161  
  24572502.553   129129331.569                                                  
  23653060.536   124297645.987                                                  
  27672132.984   145418024.062                                                  
  25056971.274   131675255.067                                                  
  23499269.807   123489486.884                                                  
  25927638.614   136250628.816                                                  
 21  9  1  8 45 29.0000000  0 19G 1G 7G 8G13G14G17G19G21G30C23C25C28
                                C34E13E15E19E21E27E30
  20630758.963   108415331.617    20630761.697    84479468.636                  
  21104135.613   110902992.817    21104135.113    86417919.083                  
  23323073.968   122563542.983    23323076.148    95504050.051                  
  23760614.203   124862886.981    23760613.327    97295760.013                  
  21401254.973   112464370.050    21401254.866    87634580.177                  
  21997688.276   115598643.867    21997687.775    90076867.672                  
  24508631.929   128793739.004    24508630.338   100358760.364                  
  21580443.516   113406004.707    21580442.194    88368318.098                  
  20631464.718   108419044.269    20631466.541    84482363.528                  
                 114251016.109                   114251016.109    21940696.617  
                 121048428.511                   121048428.511    23246075.061  
                 125032995.854                   125032995.854    24011272.066  
                 123417014.918                   123417014.918    23700939.136  
  24572041.354   129126908.020                                                  
  23653119.504   124297955.824                                                  
  27672485.987   145419879.086                                                  
  25056621.077   131673414.727                                                  
  23499326.988   123489787.375                                                  
  25928047.886   136252779.423                                                  
 21  9  1  8 45 30.0000000  0 19G 1G 7G 8G13G14G17G19G21G30C23C25C28
                                C34E13E15E19E21E27E30
  20630494.841   108413943.696    20630497.593    84478387.142                  
  21104584.483   110905351.571    21104583.983    86419757.071                  
  23323661.537   122566630.671    23323663.699    95506456.042                  
  23760660.144   124863128.427    23760659.269    97295948.153                  
  21400882.833   112462414.477    21400882.743    87633056.356                  
  21997289.618   115596548.930    21997289.117    90075235.253                  
  24508000.562   128790421.214    24507998.972   100356175.075                  
  21580666.146   113407174.628    21580664.824    88369229.722                  
  20631505.317   108419257.665    20631507.139    84482529.808                  
                 114250514.905                   114250514.905    21940600.357  
                 121050732.629                   121050732.629    23246517.534  
                 125030230.090                   125030230.090    24010740.945  
                 123419472.960                   123419472.960    23701411.182  
  24571580.244   129124484.785                                                  
  23653178.543   124298266.124                                                  
  27672839.025   145421734.388                                                  
  25056270.898   131671574.488                                                  
  23499384.204   123490088.106                                                  
  25928457.158   136254930.174                                                  
 21  9  1  8 45 31.0000000  0 19G 1G 7G 8G13G14G17G19G21G30C23C25C28
                                C34E13E15E19E21E27E30
  20630230.862   108412556.476    20630233.614    84477306.191                  
  21105033.442   110907710.847    21105032.942    86421595.470                  
  23324249.106   122569718.398    23324251.286    95508862.063                  
  23760706.193   124863370.484    23760705.317    97296136.771                  
  21400510.746   112460459.111    21400510.639    87631532.692                  
  21996891.031   115594454.323    21996890.513    90073603.094                  
  24507369.232   128787103.591    24507367.660   100353589.914                  
  21580888.883   113408345.124    21580887.561    88370141.797                  
  20631546.058   108419471.704    20631547.881    84482696.589                  
                 114250014.144                   114250014.144    21940504.204  
                 121053037.087                   121053037.087    23246960.078  
                 125027464.587                   125027464.587    24010209.842  
                 123421931.233                   123421931.233    23701883.281  
  24571119.187   129122061.872                                                  
  23653237.672   124298576.912                                                  
  27673192.117   145423589.919                                                  
  25055920.719   131669734.333                                                  
  23499441.475   123490389.083                                                  
  25928866.466   136257081.069                                                  
 21  9  1  8 45 32.0000000  0 19G 1G 7G 8G13G14G17G19G21G30C23C25C28
                                C34E13E15E19E21E27E30
  20629967.026   108411169.947    20629969.760    84476225.776                  
  21105482.473   110910070.625    21105482.009    86423434.258                  
  23324836.693   122572806.230    23324838.873    95511268.168                  
  23760752.384   124863613.160    23760751.509    97296325.866                  
  21400138.695   112458503.952    21400138.588    87630009.196                  
  21996492.498   115592360.043    21996491.998    90071971.187                  
  24506737.937   128783786.109    24506736.365   100351004.863                  
  21581111.728   113409516.206    21581110.406    88371054.329                  
  20631586.907   108419686.388    20631588.711    84482863.878                  
                 114249513.830                   114249513.830    21940408.122  
                 121055341.886                   121055341.886    23247402.694  
                 125024699.348                   125024699.348    24009678.828  
                 123424389.740                   123424389.740    23702355.399  
  24570658.166   129119639.259                                                  
  23653296.925   124298888.157                                                  
  27673545.280   145425445.731                                                  
  25055570.575   131667894.270                                                  
  23499498.799   123490690.293                                                  
  25929275.774   136259232.108                                                  
