     2.11           OBSERVATION DATA    M (MIXED)           RINEX VERSION / TYPE
CONVBIN 2.4.3                           20210902 201838 UTC PGM / RUN BY / DATE 
log: logs/21_09_02_06_16_41_fmyr_SW.rtcm                    COMMENT             
format: RTCM 3, station ID: 1722                            COMMENT             
1722                                                        MARKER NAME         
                                                            MARKER NUMBER       
                                                            OBSERVER / AGENCY   
                    SWFT                                    REC # / TYPE / VERS 
                    NULL                                    ANT # / TYPE        
   813911.2619 -5693305.6189  2748430.1503                  APPROX POSITION XYZ 
        0.0000        0.0000        0.0000                  ANTENNA: DELTA H/E/N
     1     1                                                WAVELENGTH FACT L1/2
     5    C1    L1    P2    L2    C2                        # / TYPES OF OBSERV 
  2021     9     2     6    16   46.0000000     GPS         TIME OF FIRST OBS   
  2021     9     2     6    46   44.0000000     GPS         TIME OF LAST OBS    
                                                            END OF HEADER       
 21  9  2  6 16 46.0000000  0 15G 4G 7G 8G 9G16G21G27E 2E 3E 5E 8E12
                                E24E25E36
  21724333.073   114162137.833    21724334.252    88957510.640                  
  22007628.384   115650879.579    22007627.812    90117571.226                  
  20271298.764   106526352.921    20271301.159    83007537.653                  
  21148209.344   111134559.075    21148211.274    86598349.864                  
  24073396.369   126506553.891    24073395.833    98576536.183                  
  22523356.656   118361035.480    22523356.048    92229378.214                  
  21826982.301   114701535.796    21826984.141    89377813.449                  
  25648331.794   134782866.011                                                  
  24725897.144   129935452.043                                                  
  26007549.224   136670583.903                                                  
  25071457.245   131751391.394                                                  
  26005039.359   136657417.893                                                  
  27121844.771   142526297.665                                                  
  24498835.648   128742239.000                                                  
  26315150.160   138286992.317                                                  
 21  9  2  6 16 47.0000000  0 15G 4G 7G 8G 9G16G21G27E 2E 3E 5E 8E12
                                E24E25E36
  21724858.672   114164899.879    21724859.852    88959662.884                  
  22007150.924   115648370.523    22007150.352    90115616.122                  
  20271489.034   106527352.872    20271491.446    83008316.836                  
  21148368.879   111135397.523    21148370.827    86599003.200                  
  24073876.956   126509079.473    24073876.438    98578504.167                  
  22522924.047   118358762.007    22522923.403    92227606.679                  
  21827511.617   114704317.445    21827513.475    89379980.966                  
  25648160.752   134781967.163                                                  
  24726083.000   129936428.728                                                  
  26008070.107   136673321.063                                                  
  25071194.838   131750012.476                                                  
  26005254.217   136658547.013                                                  
  27122094.026   142527607.415                                                  
  24498888.647   128742517.517                                                  
  26314632.351   138284271.180                                                  
 21  9  2  6 16 48.0000000  0 15G 4G 7G 8G 9G16G21G27E 2E 3E 5E 8E12
                                E24E25E36
  21725384.343   114167662.284    21725385.540    88961815.407                  
  22006673.482   115645861.558    22006672.928    90113661.087                  
  20271679.446   106528353.443    20271681.840    83009096.499                  
  21148528.556   111136236.578    21148530.504    86599657.007                  
  24074357.561   126511604.989    24074357.043    98580472.106                  
  22522491.438   118356488.755    22522490.812    92225835.313                  
  21828041.040   114707099.505    21828042.881    89382148.804                  
  25647989.727   134781068.312                                                  
  24726268.927   129937405.805                                                  
  26008590.989   136676058.302                                                  
  25070932.521   131748633.948                                                  
  26005469.181   136659676.579                                                  
  27122343.245   142528917.118                                                  
  24498941.647   128742796.020                                                  
  26314114.543   138281550.086                                                  
 21  9  2  6 16 49.0000000  0 16G 4G 7G 8G 9G16G21G27G30E 2E 3E 5E 8
                                E12E24E25E36
  21725910.086   114170425.073    21725911.283    88963968.230                  
  22006196.057   115643352.692    22006195.503    90111706.122                  
  20271869.965   106529354.597    20271872.360    83009876.624                  
  21148688.341   111137076.253    21148690.289    86600311.304                  
  24074838.113   126514130.408    24074837.595    98582439.960                  
  22522058.918   118354215.760    22522058.275    92224064.149                  
  21828570.517   114709881.954    21828572.358    89384316.945                  
  24751192.855   130068354.727    24751195.160   101351954.403                  
  25647818.685   134780169.487                                                  
  24726454.943   129938383.290                                                  
  26009111.853   136678795.626                                                  
  25070670.257   131747255.799                                                  
  26005684.199   136660806.547                                                  
  27122592.465   142530226.786                                                  
  24498994.646   128743074.516                                                  
  26313596.734   138278829.051                                                  
 21  9  2  6 16 50.0000000  0 16G 4G 7G 8G 9G16G21G27G30E 2E 3E 5E 8
                                E12E24E25E36
  21726435.899   114173188.238    21726437.079    88966121.343                  
  22005718.668   115640843.918    22005718.096    90109751.235                  
  20272060.574   106530356.356    20272063.004    83010657.211                  
  21148848.233   111137916.547    21148850.181    86600966.074                  
  24075318.682   126516655.738    24075318.164    98584407.755                  
  22521626.416   118351943.007    22521625.809    92222293.176                  
  21829100.084   114712664.800    21829101.924    89386485.398                  
  24750619.956   130065344.109    24750622.261   101349608.469                  
  25647647.643   134779270.672                                                  
  24726641.014   129939361.183                                                  
  26009632.788   136681533.026                                                  
  25070408.083   131745878.049                                                  
  26005899.306   136661936.941                                                  
  27122841.684   142531536.407                                                  
  24499047.628   128743352.990                                                  
  26313078.961   138276108.046                                                  
 21  9  2  6 16 51.0000000  0 16G 4G 7G 8G 9G16G21G27G30E 2E 3E 5E 8
                                E12E24E25E36
  21726961.785   114175951.781    21726962.982    88968274.753                  
  22005241.261   115638335.237    22005240.708    90107796.422                  
  20272251.344   106531358.720    20272253.738    83011438.278                  
  21149008.268   111138757.446    21149010.198    86601621.319                  
  24075799.216   126519181.007    24075798.698    98586375.492                  
  22521193.986   118349670.499    22521193.343    92220522.392                  
  21829629.704   114715448.043    21829631.562    89388654.156                  
  24750047.039   130062333.411    24750049.344   101347262.469                  
  25647476.600   134778371.859                                                  
  24726827.173   129940339.476                                                  
  26010153.706   136684270.523                                                  
  25070145.980   131744500.687                                                  
  26006114.485   136663067.745                                                  
  27123090.885   142532845.969                                                  
  24499100.628   128743631.437                                                  
  26312561.188   138273387.093                                                  
 21  9  2  6 16 52.0000000  0 21G 4G 7G 8G 9G16G21G27G30C24C26C33C34
                                C35E 2E 3E 5E 8E12E24E25E36
  21727487.742   114178715.703    21727488.921    88970428.461                  
  22004763.908   115635826.654    22004763.337    90105841.677                  
  20272442.185   106532361.688    20272444.597    83012219.810                  
  21149168.392   111139598.966    21149170.340    86602277.050                  
  24076279.732   126521706.179    24076279.214    98588343.161                  
  22520761.573   118347398.227    22520760.948    92218751.785                  
  21830159.413   114718231.681    21830161.253    89390823.223                  
  24749474.123   130059322.629    24749476.428   101344916.402                  
                 119200129.847                   119200129.847    22891126.201  
                 118171801.855                   118171801.855    22693651.000  
                 132613463.726                   132613463.726    25467055.666  
                 127102683.747                   127102683.747    24408735.013  
                 125953264.767                   125953264.767    24187999.973  
  25647305.558   134777473.070                                                  
  24727013.422   129941318.173                                                  
  26010674.660   136687008.085                                                  
  25069883.966   131743123.714                                                  
  26006329.753   136664198.969                                                  
  27123340.069   142534155.473                                                  
  24499153.591   128743909.886                                                  
  26312043.398   138270666.176                                                  
 21  9  2  6 16 53.0000000  0 21G 4G 7G 8G 9G16G21G27G30C24C26C33C34
                                C35E 2E 3E 5E 8E12E24E25E36
  21728013.788   114181480.000    21728014.967    88972582.456                  
  22004286.537   115633318.152    22004285.984    90103887.000                  
  20272633.151   106533365.257    20272635.564    83013001.812                  
  21149328.642   111140441.097    21149330.572    86602933.258                  
  24076760.266   126524231.281    24076759.748    98590310.773                  
  22520329.214   118345126.195    22520328.607    92216981.375                  
  21830689.194   114721015.715    21830691.034    89392992.603                  
  24748901.152   130056311.750    24748903.457   101342570.265                  
                 119199075.344                   119199075.344    22890923.691  
                 118172474.911                   118172474.911    22693780.247  
                 132614712.753                   132614712.753    25467295.522  
                 127099561.434                   127099561.434    24408135.400  
                 125955358.484                   125955358.484    24188402.062  
  25647134.534   134776574.289                                                  
  24727199.742   129942297.266                                                  
  26011195.595   136689745.731                                                  
  25069622.007   131741747.130                                                  
  26006545.093   136665330.607                                                  
  27123589.252   142535464.956                                                  
  24499206.573   128744188.322                                                  
  26311525.643   138267945.297                                                  
 21  9  2  6 16 54.0000000  0 21G 4G 7G 8G 9G16G21G27G30C24C26C33C34
                                C35E 2E 3E 5E 8E12E24E25E36
  21728539.888   114184244.676    21728541.067    88974736.747                  
  22003809.220   115630809.759    22003808.666    90101932.410                  
  20272824.261   106534369.461    20272826.655    83013784.308                  
  21149489.016   111141283.856    21149490.964    86603589.953                  
  24077240.764   126526756.300    24077240.246    98592278.320                  
  22519896.927   118342854.395    22519896.284    92215211.141                  
  21831219.064   114723800.140    21831220.904    89395162.284                  
  24748328.200   130053300.809    24748330.505   101340224.078                  
                 119198020.910                   119198020.910    22890721.199  
                 118173148.133                   118173148.133    22693909.547  
                 132615962.095                   132615962.095    25467535.432  
                 127096439.290                   127096439.290    24407535.841  
                 125957452.606                   125957452.606    24188804.222  
  25646963.491   134775675.526                                                  
  24727386.134   129943276.785                                                  
  26011716.584   136692483.448                                                  
  25069360.118   131740370.947                                                  
  26006760.522   136666462.661                                                  
  27123838.418   142536774.380                                                  
  24499259.555   128744466.739                                                  
  26311007.888   138265224.470                                                  
 21  9  2  6 16 55.0000000  0 21G 4G 7G 8G 9G16G21G27G30C24C26C33C34
                                C35E 2E 3E 5E 8E12E24E25E36
  21729066.041   114187009.710    21729067.220    88976891.321                  
  22003331.903   115628301.443    22003331.349    90099977.878                  
  20273015.459   106535374.266    20273017.854    83014567.273                  
  21149649.498   111142127.220    21149651.446    86604247.117                  
  24077721.244   126529281.238    24077720.726    98594245.804                  
  22519464.658   118340582.844    22519464.014    92213441.102                  
  21831749.006   114726584.970    21831750.846    89397332.281                  
  24747755.212   130050289.763    24747757.517   101337877.808                  
                 119196966.540                   119196966.540    22890518.726  
                 118173821.520                   118173821.520    22694038.847  
                 132617211.742                   132617211.742    25467775.413  
                 127093317.317                   127093317.317    24406936.299  
                 125959547.126                   125959547.126    24189206.436  
  25646792.485   134774776.767                                                  
  24727572.597   129944256.683                                                  
  26012237.556   136695221.257                                                  
  25069098.319   131738995.139                                                  
  26006976.022   136667595.130                                                  
  27124087.602   142538083.763                                                  
  24499312.536   128744745.136                                                  
  26310490.133   138262503.679                                                  
 21  9  2  6 16 56.0000000  0 21G 4G 7G 8G 9G16G21G27G30C24C26C33C34
                                C35E 2E 3E 5E 8E12E24E25E36
  21729592.284   114189775.134    21729593.463    88979046.195                  
  22002854.603   115625793.226    22002854.031    90098023.426                  
  20273206.783   106536379.655    20273209.177    83015350.695                  
  21149810.105   111142971.187    21149812.035    86604904.757                  
  24078201.706   126531806.090    24078201.188    98596213.219                  
  22519032.442   118338311.540    22519031.798    92211671.254                  
  21832279.001   114729370.193    21832280.859    89399502.583                  
  24747182.224   130047278.643    24747184.529   101335531.485                  
                 119195912.235                   119195912.235    22890316.234  
                 118174495.071                   118174495.071    22694168.201  
                 132618461.708                   132618461.708    25468015.465  
                 127090195.510                   127090195.510    24406336.776  
                 125961642.051                   125961642.051    24189608.757  
  25646621.442   134773878.015                                                  
  24727759.132   129945236.988                                                  
  26012758.563   136697959.144                                                  
  25068836.574   131737619.725                                                  
  26007191.594   136668728.032                                                  
  27124336.767   142539393.082                                                  
  24499365.518   128745023.518                                                  
  26309972.378   138259782.923                                                  
 21  9  2  6 16 57.0000000  0 21G 4G 7G 8G 9G16G21G27G30C24C26C33C34
                                C35E 2E 3E 5E 8E12E24E25E36
  21730118.598   114192540.931    21730119.777    88981201.363                  
  22002377.322   115623285.106    22002376.768    90096069.046                  
  20273398.214   106537385.657    20273400.626    83016134.593                  
  21149970.819   111143815.769    21149972.767    86605562.874                  
  24078682.133   126534330.866    24078681.615    98598180.579                  
  22518600.261   118336040.476    22518599.636    92209901.597                  
  21832809.085   114732155.800    21832810.944    89401673.188                  
  24746609.200   130044267.439    24746611.505   101333185.090                  
                 119194857.996                   119194857.996    22890113.796  
                 118175168.790                   118175168.790    22694297.573  
                 132619711.983                   132619711.983    25468255.553  
                 127087073.875                   127087073.875    24405737.306  
                 125963737.371                   125963737.371    24190011.131  
  25646450.418   134772979.276                                                  
  24727945.774   129946217.707                                                  
  26013279.588   136700697.113                                                  
  25068574.918   131736244.698                                                  
  26007407.255   136669861.337                                                  
  27124585.897   142540702.371                                                  
  24499418.500   128745301.892                                                  
  26309454.659   138257062.231                                                  
 21  9  2  6 16 58.0000000  0 21G 4G 7G 8G 9G16G21G27G30C24C26C33C34
                                C35E 2E 3E 5E 8E12E24E25E36
  21730644.984   114195307.101    21730646.163    88983356.820                  
  22001900.058   115620777.077    22001899.504    90094114.738                  
  20273589.752   106538392.249    20273592.182    83016918.948                  
  21150131.658   111144660.969    21150133.606    86606221.470                  
  24079162.577   126536855.563    24079162.059    98600147.875                  
  22518168.135   118333769.656    22518167.527    92208132.124                  
  21833339.241   114734941.812    21833341.100    89403844.104                  
  24746036.176   130041256.137    24746038.481   101330838.621                  
                 119193803.821                   119193803.821    22889911.340  
                 118175842.669                   118175842.669    22694426.980  
                 132620962.569                   132620962.569    25468495.713  
                 127083952.411                   127083952.411    24405137.853  
                 125965833.095                   125965833.095    24190413.595  
  25646279.394   134772080.551                                                  
  24728132.487   129947198.825                                                  
  26013800.613   136703435.159                                                  
  25068313.333   131734870.068                                                  
  26007623.006   136670995.046                                                  
  27124835.045   142542011.602                                                  
  24499471.463   128745580.251                                                  
  26308936.940   138254341.569                                                  
 21  9  2  6 16 59.0000000  0 21G 4G 7G 8G 9G16G21G27G30C24C26C33C34
                                C35E 2E 3E 5E 8E12E24E25E36
  21731171.441   114198073.649    21731172.620    88985512.570                  
  22001422.812   115618269.142    22001422.258    90092160.501                  
  20273781.433   106539399.452    20273783.845    83017703.786                  
  21150292.622   111145506.783    21150294.552    86606880.543                  
  24079643.004   126539380.171    24079642.486    98602115.101                  
  22517736.062   118331499.077    22517735.436    92206362.849                  
  21833869.487   114737728.224    21833871.345    89406015.332                  
  24745463.117   130038244.765    24745465.422   101328492.097                  
                 119192749.716                   119192749.716    22889708.919  
                 118176516.714                   118176516.714    22694556.441  
                 132622213.472                   132622213.472    25468735.944  
                 127080831.116                   127080831.116    24404538.437  
                 125967929.220                   125967929.220    24190816.149  
  25646108.387   134771181.841                                                  
  24728319.254   129948180.351                                                  
  26014321.656   136706173.278                                                  
  25068051.820   131733495.813                                                  
  26007838.828   136672129.187                                                  
  27125084.157   142543320.776                                                  
  24499524.427   128745858.577                                                  
  26308419.220   138251620.954                                                  
 21  9  2  6 17  0.0000000  0 21G 4G 7G 8G 9G16G21G27G30C24C26C33C34
                                C35E 2E 3E 5E 8E12E24E25E36
  21731697.951   114200840.566    21731699.167    88987668.610                  
  22000945.584   115615761.300    22000945.012    90090206.341                  
  20273973.221   106540407.273    20273975.615    83018489.097                  
  21150453.676   111146353.207    21150455.623    86607540.097                  
  24080123.395   126541904.707    24080122.876    98604082.269                  
  22517304.042   118329228.750    22517303.399    92204593.758                  
  21834399.804   114740515.028    21834401.644    89408186.868                  
  24744890.057   130035233.302    24744892.362   101326145.505                  
                 119191695.672                   119191695.672    22889506.499  
                 118177190.927                   118177190.927    22694685.902  
                 132623464.683                   132623464.683    25468976.247  
                 127077709.993                   127077709.993    24403939.056  
                 125970025.741                   125970025.741    24191218.756  
  25645937.363   134770283.137                                                  
  24728506.093   129949162.265                                                  
  26014842.734   136708911.485                                                  
  25067790.396   131732121.960                                                  
  26008054.721   136673263.759                                                  
  27125333.305   142544629.925                                                  
  24499577.409   128746136.907                                                  
  26307901.501   138248900.380                                                  
 21  9  2  6 17  1.0000000  0 21G 4G 7G 8G 9G16G21G27G30C24C26C33C34
                                C35E 2E 3E 5E 8E12E24E25E36
  21732224.552   114203607.860    21732225.767    88989824.942                  
  22000468.374   115613253.547    22000467.820    90088252.245                  
  20274165.116   106541415.708    20274167.529    83019274.886                  
  21150614.872   111147200.241    21150616.820    86608200.126                  
  24080603.785   126544429.154    24080603.267    98606049.368                  
  22516872.041   118326958.643    22516871.416    92202824.844                  
  21834930.174   114743302.223    21834932.032    89410358.710                  
  24744316.980   130032221.751    24744319.285   101323798.840                  
                 119190641.695                   119190641.695    22889304.097  
                 118177865.297                   118177865.297    22694815.417  
                 132624716.206                   132624716.206    25469216.585  
                 127074589.035                   127074589.035    24403339.712  
                 125972122.663                   125972122.663    24191621.434  
  25645766.356   134769384.450                                                  
  24728693.039   129950144.595                                                  
  26015363.813   136711649.769                                                  
  25067529.026   131730748.485                                                  
  26008270.704   136674398.730                                                  
  27125582.399   142545939.012                                                  
  24499630.355   128746415.216                                                  
  26307383.800   138246179.859                                                  
 21  9  2  6 17  2.0000000  0 21G 4G 7G 8G 9G16G21G27G30C24C26C33C34
                                C35E 2E 3E 5E 8E12E24E25E36
  21732751.241   114206375.526    21732752.420    88991981.567                  
  21999991.182   115610745.888    21999990.628    90086298.227                  
  20274357.119   106542424.730    20274359.513    83020061.144                  
  21150776.176   111148047.895    21150778.123    86608860.633                  
  24081084.158   126546953.525    24081083.640    98608016.410                  
  22516440.129   118324688.792    22516439.486    92201056.128                  
  21835460.634   114746089.823    21835462.492    89412530.868                  
  24743743.902   130029210.124    24743746.171   101321452.121                  
                 119189587.785                   119189587.785    22889101.694  
                 118178539.839                   118178539.839    22694944.967  
                 132625968.042                   132625968.042    25469456.977  
                 127071468.251                   127071468.251    24402740.402  
                 125974219.989                   125974219.989    24192024.220  
  25645595.332   134768485.770                                                  
  24728880.038   129951127.327                                                  
  26015884.891   136714388.140                                                  
  25067267.745   131729375.419                                                  
  26008486.759   136675534.121                                                  
  27125831.493   142547248.075                                                  
  24499683.319   128746693.516                                                  
  26306866.116   138243459.379                                                  
 21  9  2  6 17  3.0000000  0 21G 4G 7G 8G 9G16G21G27G30C24C26C33C34
                                C35E 2E 3E 5E 8E12E24E25E36
  21733277.984   114209143.579    21733279.163    88994138.487                  
  21999514.025   115608238.319    21999513.453    90084344.278                  
  20274549.247   106543434.348    20274551.659    83020847.859                  
  21150937.604   111148896.162    21150939.534    86609521.618                  
  24081564.513   126549477.805    24081563.995    98609983.382                  
  22516008.217   118322419.186    22516007.573    92199287.605                  
  21835991.183   114748877.816    21835993.041    89414703.328                  
  24743170.771   130026198.399    24743173.076   101319105.323                  
                 119188533.942                   119188533.942    22888899.327  
                 118179214.544                   118179214.544    22695074.518  
                 132627220.193                   132627220.193    25469697.441  
                 127068347.637                   127068347.637    24402141.111  
                 125976317.711                   125976317.711    24192427.059  
  25645424.325   134767587.107                                                  
  24729067.127   129952110.461                                                  
  26016406.024   136717126.579                                                  
  25067006.518   131728002.728                                                  
  26008702.902   136676669.917                                                  
  27126080.605   142548557.071                                                  
  24499736.264   128746971.796                                                  
  26306348.433   138240738.934                                                  
 21  9  2  6 17  4.0000000  0 21G 4G 7G 8G 9G16G21G27G30C24C26C33C34
                                C35E 2E 3E 5E 8E12E24E25E36
  21733804.781   114211911.988    21733805.978    88996295.691                  
  21999036.869   115605730.851    21999036.297    90082390.406                  
  20274741.482   106544444.564    20274743.876    83021635.040                  
  21151099.123   111149745.036    21151101.052    86610183.078                  
  24082044.869   126552002.003    24082044.332    98611950.294                  
  22515576.358   118320149.804    22515575.733    92197519.257                  
  21836521.804   114751666.208    21836523.644    89416876.101                  
  24742597.658   130023186.605    24742599.963   101316758.468                  
                 119187480.165                   119187480.165    22888696.961  
                 118179889.409                   118179889.409    22695204.122  
                 132628472.648                   132628472.648    25469937.958  
                 127065227.191                   127065227.191    24401541.873  
                 125978415.837                   125978415.837    24192829.988  
  25645253.319   134766688.449                                                  
  24729254.287   129953093.991                                                  
  26016927.138   136719865.109                                                  
  25066745.380   131726630.427                                                  
  26008919.117   136677806.141                                                  
  27126329.682   142549866.023                                                  
  24499789.228   128747250.066                                                  
  26305830.767   138238018.530                                                  
 21  9  2  6 17  5.0000000  0 21G 4G 7G 8G 9G16G21G27G30C24C26C33C34
                                C35E 2E 3E 5E 8E12E24E25E36
  21734331.685   114214680.790    21734332.864    88998453.195                  
  21998559.712   115603223.476    21998559.158    90080436.610                  
  20274933.842   106545455.405    20274936.236    83022422.706                  
  21151260.784   111150594.515    21151262.713    86610845.012                  
  24082525.188   126554526.124    24082524.652    98613917.140                  
  22515144.553   118317880.651    22515143.946    92195751.090                  
  21837052.478   114754454.994    21837054.336    89419049.176                  
  24742024.527   130020174.716    24742026.796   101314411.542                  
                 119186426.453                   119186426.453    22888494.594  
                 118180564.445                   118180564.445    22695333.762  
                 132629725.421                   132629725.421    25470178.546  
                 127062106.919                   127062106.919    24400942.654  
                 125980514.358                   125980514.358    24193232.988  
  25645082.312   134765789.801                                                  
  24729441.518   129954077.932                                                  
  26017448.288   136722603.707                                                  
  25066484.313   131725258.517                                                  
  26009135.404   136678942.777                                                  
  27126578.758   142551174.910                                                  
  24499842.156   128747528.317                                                  
  26305313.102   138235298.188                                                  
 21  9  2  6 17  6.0000000  0 21G 4G 7G 8G 9G16G21G27G30C24C26C33C34
                                C35E 2E 3E 5E 8E12E24E25E36
  21734858.642   114217449.973    21734859.821    89000611.004                  
  21998082.591   115600716.193    21998082.037    90078482.878                  
  20275126.327   106546466.862    20275128.721    83023210.855                  
  21151422.534   111151444.624    21151424.500    86611507.433                  
  24083005.507   126557050.172    24083004.953    98615883.930                  
  22514712.802   118315611.753    22514712.176    92193983.118                  
  21837583.242   114757244.157    21837585.100    89421222.555                  
  24741451.360   130017162.749    24741453.647   101312064.554                  
                 119185372.804                   119185372.804    22888292.263  
                 118181239.644                   118181239.644    22695463.419  
                 132630978.505                   132630978.505    25470419.188  
                 127058986.813                   127058986.813    24400343.487  
                 125982613.286                   125982613.286    24193636.059  
  25644911.306   134764891.153                                                  
  24729628.839   129955062.226                                                  
  26017969.438   136725342.401                                                  
  25066223.336   131723886.997                                                  
  26009351.780   136680079.831                                                  
  27126827.834   142552483.785                                                  
  24499895.120   128747806.561                                                  
  26304795.436   138232577.886                                                  
 21  9  2  6 17  7.0000000  0 21G 4G 7G 8G 9G16G21G27G30C24C26C33C34
                                C35E 2E 3E 5E 8E12E24E25E36
  21735385.653   114220219.546    21735386.868    89002769.113                  
  21997605.506   115598209.000    21997604.935    90076529.224                  
  20275318.901   106547478.930    20275321.296    83023999.481                  
  21151584.445   111152295.344    21151586.375    86612170.332                  
  24083485.773   126559574.124    24083485.255    98617850.643                  
  22514281.104   118313343.111    22514280.461    92192215.340                  
  21838114.077   114760033.717    21838115.935    89423396.238                  
  24740878.175   130014150.696    24740880.481   101309717.505                  
                 119184319.225                   119184319.225    22888089.932  
                 118181915.009                   118181915.009    22695593.113  
                 132632231.900                   132632231.900    25470659.884  
                 127055866.879                   127055866.879    24399744.321  
                 125984712.604                   125984712.604    24194039.220  
  25644740.299   134763992.513                                                  
  24729816.196   129956046.903                                                  
  26018490.606   136728081.172                                                  
  25065962.413   131722515.864                                                  
  26009568.245   136681217.306                                                  
  27127076.893   142553792.596                                                  
  24499948.066   128748084.788                                                  
  26304277.806   138229857.667                                                  
 21  9  2  6 17  8.0000000  0 21G 4G 7G 8G 9G16G21G27G30C24C26C33C34
                                C35E 2E 3E 5E 8E12E24E25E36
  21735912.754   114222989.408    21735913.933    89004927.444                  
  21997128.421   115595701.910    21997127.832    90074575.645                  
  20275511.601   106548491.535    20275513.995    83024788.519                  
  21151746.446   111153146.681    21151748.376    86612833.710                  
  24083966.057   126562098.016    24083965.538    98619817.313                  
  22513849.424   118311074.665    22513848.799    92190447.722                  
  21838645.001   114762823.694    21838646.841    89425570.246                  
  24740304.973   130011138.558    24740307.278   101307370.382                  
                 119183265.711                   119183265.711    22887887.619  
                 118182590.540                   118182590.540    22695722.842  
                 132633485.606                   132633485.606    25470900.633  
                 127052747.116                   127052747.116    24399145.209  
                 125986812.332                   125986812.332    24194442.435  
  25644569.292   134763093.938                                                  
  24730003.696   129957032.191                                                  
  26019011.774   136730819.989                                                  
  25065701.579   131721145.142                                                  
  26009784.764   136682355.191                                                  
  27127325.933   142555101.375                                                  
  24500000.994   128748362.988                                                  
  26303760.141   138227137.375                                                  
 21  9  2  6 17  9.0000000  0 21G 4G 7G 8G 9G16G21G27G30C24C26C33C34
                                C35E 2E 3E 5E 8E12E24E25E36
  21736439.926   114225759.703    21736441.105    89007086.116                  
  21996651.336   115593194.911    21996650.782    90072622.141                  
  20275704.408   106549504.765    20275706.820    83025578.054                  
  21151908.554   111153998.627    21151910.501    86613497.567                  
  24084446.322   126564621.809    24084445.804    98621783.907                  
  22513417.798   118308806.492    22513417.173    92188680.317                  
  21839175.979   114765614.055    21839177.837    89427744.551                  
  24739731.788   130008126.341    24739734.076   101305023.200                  
                 119182212.263                   119182212.263    22887685.324  
                 118183266.233                   118183266.233    22695852.607  
                 132634739.620                   132634739.620    25471141.454  
                 127049627.528                   127049627.528    24398546.114  
                 125988912.453                   125988912.453    24194845.756  
  25644398.304   134762195.331                                                  
  24730191.249   129958017.714                                                  
  26019532.978   136733558.910                                                  
  25065440.798   131719774.796                                                  
  26010001.373   136683493.505                                                  
  27127574.974   142556410.077                                                  
  24500053.940   128748641.180                                                  
  26303242.529   138224417.206                                                  
 21  9  2  6 17 10.0000000  0 21G 4G 7G 8G 9G16G21G27G30C24C26C33C34
                                C35E 2E 3E 5E 8E12E24E25E36
  21736967.151   114228530.368    21736968.348    89009245.074                  
  21996174.305   115590688.008    21996173.733    90070668.711                  
  20275897.339   106550518.608    20275899.734    83026368.059                  
  21152070.804   111154851.187    21152072.734    86614161.897                  
  24084926.588   126567145.520    24084926.052    98623750.433                  
  22512986.243   118306538.562    22512985.600    92186913.097                  
  21839707.046   114768404.810    21839708.905    89429919.165                  
  24739158.568   130005114.035    24739160.855   101302675.949                  
                 119181158.879                   119181158.879    22887483.029  
                 118183942.089                   118183942.089    22695982.407  
                 132635993.949                   132635993.949    25471382.347  
                 127046508.106                   127046508.106    24397947.055  
                 125991012.978                   125991012.978    24195249.132  
  25644227.315   134761296.741                                                  
  24730378.856   129959003.668                                                  
  26020054.199   136736297.915                                                  
  25065180.125   131718404.842                                                  
  26010218.088   136684632.232                                                  
  27127824.014   142557718.750                                                  
  24500106.886   128748919.360                                                  
  26302724.881   138221697.090                                                  
 21  9  2  6 17 11.0000000  0 21G 4G 7G 8G 9G16G21G27G30C24C26C33C34
                                C35E 2E 3E 5E 8E12E24E25E36
  21737494.484   114231301.406    21737495.663    89011404.324                  
  21995697.255   115588181.200    21995696.702    90068715.351                  
  20276090.378   106551533.070    20276092.773    83027158.552                  
  21152233.162   111155704.361    21152235.092    86614826.708                  
  24085406.800   126569669.149    24085406.282    98625716.894                  
  22512554.706   118304270.855    22512554.081    92185146.055                  
  21840238.185   114771195.954    21840240.044    89432094.083                  
  24738585.312   130002101.645    24738587.617   101300328.636                  
                 119180105.562                   119180105.562    22887280.733  
                 118184618.117                   118184618.117    22696112.226  
                 132637248.591                   132637248.591    25471623.275  
                 127043388.855                   127043388.855    24397348.032  
                 125993113.898                   125993113.898    24195652.596  
  25644056.326   134760398.163                                                  
  24730566.552   129959990.024                                                  
  26020575.421   136739036.991                                                  
  25064919.487   131717035.271                                                  
  26010434.839   136685771.370                                                  
  27128073.037   142559027.356                                                  
  24500159.796   128749197.516                                                  
  26302207.287   138218976.991                                                  
 21  9  2  6 17 12.0000000  0 21G 4G 7G 8G 9G16G21G27G30C24C26C33C34
                                C35E 2E 3E 5E 8E12E24E25E36
  21738021.852   114234072.816    21738023.032    89013563.862                  
  21995220.260   115585674.492    21995219.706    90066762.074                  
  20276283.543   106552548.122    20276285.937    83027949.499                  
  21152395.627   111156558.136    21152397.557    86615491.989                  
  24085887.012   126572192.695    24085886.494    98627683.292                  
  22512123.223   118302003.413    22512122.598    92183379.214                  
  21840769.396   114773987.501    21840771.236    89434269.312                  
  24738012.056   129999089.176    24738014.361   101297981.253                  
                 119179052.312                   119179052.312    22887078.474  
                 118185294.305                   118185294.305    22696242.080  
                 132638503.539                   132638503.539    25471864.274  
                 127040269.772                   127040269.772    24396749.062  
                 125995215.220                   125995215.220    24196056.132  
  25643885.320   134759499.597                                                  
  24730754.338   129960976.782                                                  
  26021096.678   136741776.152                                                  
  25064658.939   131715666.092                                                  
  26010651.698   136686910.922                                                  
  27128322.060   142560335.950                                                  
  24500212.742   128749475.664                                                  
  26301689.657   138216256.945                                                  
 21  9  2  6 17 13.0000000  0 21G 4G 7G 8G 9G16G21G27G30C24C26C33C34
                                C35E 2E 3E 5E 8E12E24E25E36
  21738549.328   114236844.579    21738550.507    89015723.664                  
  21994743.264   115583167.845    21994742.692    90064808.832                  
  20276476.814   106553563.800    20276479.226    83028740.938                  
  21152558.200   111157412.594    21152560.147    86616157.828                  
  24086367.224   126574716.227    24086366.706    98629649.714                  
  22511691.776   118299736.208    22511691.168    92181612.554                  
  21841300.677   114776779.423    21841302.536    89436444.829                  
  24737438.800   129996076.644    24737441.087   101295633.840                  
                 119177999.129                   119177999.129    22886876.215  
                 118185970.661                   118185970.661    22696371.952  
                 132639758.800                   132639758.800    25472105.345  
                 127037150.867                   127037150.867    24396150.092  
                 125997316.937                   125997316.937    24196459.740  
  25643714.331   134758601.098                                                  
  24730942.177   129961963.949                                                  
  26021617.935   136744515.183                                                  
  25064398.480   131714297.152                                                  
  26010868.628   136688050.844                                                  
  27128571.065   142561644.450                                                  
  24500265.652   128749753.846                                                  
  26301172.063   138213536.958                                                  
 21  9  2  6 17 14.0000000  0 21G 4G 7G 8G 9G16G21G27G30C24C26C33C34
                                C35E 2E 3E 5E 8E12E24E25E36
  21739076.839   114239616.743    21739078.019    89017883.794                  
  21994266.286   115580661.327    21994265.714    90062855.703                  
  20276670.193   106554580.069    20276672.605    83029532.837                  
  21152720.897   111158267.593    21152722.845    86616824.059                  
  24086847.401   126577239.606    24086846.883    98631615.979                  
  22511260.399   118297469.253    22511259.774    92179846.098                  
  21841832.048   114779571.753    21841833.907    89438620.668                  
  24736865.508   129993064.005    24736867.795   101293286.328                  
                 119176946.012                   119176946.012    22886673.973  
                 118186647.181                   118186647.181    22696501.877  
                 132641014.376                   132641014.376    25472346.452  
                 127034032.128                   127034032.128    24395551.176  
                 125999419.058                   125999419.058    24196863.437  
  25643543.342   134757702.558                                                  
  24731130.123   129962951.517                                                  
  26022139.192   136747254.509                                                  
  25064138.075   131712928.757                                                  
  26011085.647   136689191.235                                                  
  27128820.052   142562952.938                                                  
  24500318.580   128750031.962                                                  
  26300654.487   138210817.003                                                  
 21  9  2  6 17 15.0000000  0 21G 4G 7G 8G 9G16G21G27G30C24C26C33C34
                                C35E 2E 3E 5E 8E12E24E25E36
  21739604.422   114242389.275    21739605.620    89020044.206                  
  21993789.326   115578154.909    21993788.754    90060902.645                  
  20276863.696   106555596.941    20276866.126    83030325.204                  
  21152883.720   111159123.219    21152885.667    86617490.778                  
  24087327.559   126579762.909    24087327.041    98633582.196                  
  22510829.059   118295202.544    22510828.416    92178079.831                  
  21842363.473   114782364.480    21842365.332    89440796.821                  
  24736292.198   129990051.277    24736294.503   101290938.750                  
                 119175892.960                   119175892.960    22886471.767  
                 118187323.863                   118187323.863    22696631.839  
                 132642270.257                   132642270.257    25472587.648  
                 127030913.564                   127030913.564    24394952.296  
                 126001521.577                   126001521.577    24197267.206  
  25643372.354   134756804.018                                                  
  24731318.123   129963939.493                                                  
  26022660.503   136749993.884                                                  
  25063877.759   131711560.746                                                  
  26011302.720   136690332.043                                                  
  27129069.038   142564261.364                                                  
  24500371.508   128750310.062                                                  
  26300136.892   138208097.124                                                  
 21  9  2  6 17 16.0000000  0 21G 4G 7G 8G 9G16G21G27G30C24C26C33C34
                                C35E 2E 3E 5E 8E12E24E25E36
  21740132.095   114245162.179    21740133.274    89022204.910                  
  21993312.384   115575648.582    21993311.812    90058949.663                  
  20277057.325   106556614.414    20277059.719    83031118.040                  
  21153046.667   111159979.462    21153048.597    86618157.981                  
  24087807.718   126582286.124    24087807.200    98635548.335                  
  22510397.754   118292936.085    22510397.147    92176313.757                  
  21842895.005   114785157.605    21842896.864    89442973.282                  
  24735718.888   129987038.482    24735721.175   101288591.118                  
                 119174839.977                   119174839.977    22886269.543  
                 118188000.716                   118188000.716    22696761.818  
                 132643526.452                   132643526.452    25472828.880  
                 127027795.168                   127027795.168    24394353.433  
                 126003624.495                   126003624.495    24197671.045  
  25643201.383   134755905.505                                                  
  24731506.195   129964927.859                                                  
  26023181.796   136752733.356                                                  
  25063617.497   131710193.138                                                  
  26011519.882   136691473.265                                                  
  27129318.025   142565569.758                                                  
  24500424.418   128750588.157                                                  
  26299619.316   138205377.272                                                  
 21  9  2  6 17 17.0000000  0 21G 4G 7G 8G 9G16G21G27G30C24C26C33C34
                                C35E 2E 3E 5E 8E12E24E25E36
  21740659.838   114247935.462    21740661.018    89024365.910                  
  21992835.460   115573142.349    21992834.906    90056996.754                  
  20277251.061   106557632.468    20277253.455    83031911.329                  
  21153209.722   111160836.312    21153211.652    86618825.656                  
  24088287.858   126584809.265    24088287.340    98637514.417                  
  22509966.521   118290669.863    22509965.878    92174547.874                  
  21843426.573   114787951.124    21843428.431    89445150.050                  
  24735145.543   129984025.592    24735147.848   101286243.414                  
                 119173787.059                   119173787.059    22886067.337  
                 118188677.730                   118188677.730    22696891.815  
                 132644782.956                   132644782.956    25473070.183  
                 127024676.940                   127024676.940    24393754.625  
                 126005727.811                   126005727.811    24198074.957  
  25643030.394   134755006.997                                                  
  24731694.355   129965916.648                                                  
  26023703.125   136755472.910                                                  
  25063357.324   131708825.917                                                  
  26011737.134   136692614.906                                                  
  27129566.977   142566878.109                                                  
  24500477.346   128750866.231                                                  
  26299101.758   138202657.449                                                  
 21  9  2  6 17 18.0000000  0 21G 4G 7G 8G 9G16G21G27G30C24C26C33C34
                                C35E 2E 3E 5E 8E12E24E25E36
  21741187.636   114250709.114    21741188.815    89026527.200                  
  21992358.554   115570636.206    21992358.000    90055043.919                  
  20277444.904   106558651.112    20277447.298    83032705.077                  
  21153372.884   111161693.772    21153374.814    86619493.809                  
  24088767.981   126587332.333    24088767.463    98639480.442                  
  22509535.324   118288403.891    22509534.681    92172782.179                  
  21843958.266   114790745.047    21843960.106    89447327.133                  
  24734572.197   129981012.618    24734574.502   101283895.640                  
                 119172734.207                   119172734.207    22885865.167  
                 118189354.909                   118189354.909    22697021.884  
                 132646039.773                   132646039.773    25473311.540  
                 127021558.890                   127021558.890    24393155.816  
                 126007831.532                   126007831.532    24198478.958  
  25642859.423   134754108.507                                                  
  24731882.588   129966905.824                                                  
  26024224.454   136758212.543                                                  
  25063097.222   131707459.089                                                  
  26011954.457   136693756.961                                                  
  27129815.946   142568186.406                                                  
  24500530.239   128751144.288                                                  
  26298584.199   138199937.688                                                  
 21  9  2  6 17 19.0000000  0 21G 4G 7G 8G 9G16G21G27G30C24C26C33C34
                                C35E 2E 3E 5E 8E12E24E25E36
  21741715.522   114253483.142    21741716.702    89028688.778                  
  21991881.683   115568130.161    21991881.111    90053091.156                  
  20277638.854   106559670.360    20277641.267    83033499.297                  
  21153536.154   111162551.843    21153538.101    86620162.438                  
  24089248.086   126589855.313    24089247.568    98641446.405                  
  22509104.162   118286138.159    22509103.519    92171016.679                  
  21844489.976   114793539.340    21844491.835    89449504.504                  
  24733998.834   129977999.562    24734001.121   101281547.808                  
                 119171681.422                   119171681.422    22885662.979  
                 118190032.257                   118190032.257    22697151.953  
                 132647296.899                   132647296.899    25473552.968  
                 127018441.009                   127018441.009    24392557.078  
                 126009935.645                   126009935.645    24198883.048  
  25642688.435   134753210.014                                                  
  24732070.891   129967895.402                                                  
  26024745.800   136760952.250                                                  
  25062837.192   131706092.648                                                  
  26012171.851   136694899.433                                                  
  27130064.897   142569494.648                                                  
  24500583.167   128751422.338                                                  
  26298066.641   138197217.950                                                  
 21  9  2  6 17 20.0000000  0 21G 4G 7G 8G 9G16G21G27G30C24C26C33C34
                                C35E 2E 3E 5E 8E12E24E25E36
  21742243.463   114256257.531    21742244.660    89030850.648                  
  21991404.812   115565624.204    21991404.241    90051138.469                  
  20277832.912   106560690.210    20277835.324    83034293.988                  
  21153699.566   111163410.525    21153701.513    86620831.543                  
  24089728.173   126592378.202    24089727.655    98643412.297                  
  22508673.054   118283872.677    22508672.429    92169251.370                  
  21845021.794   114796334.030    21845023.653    89451682.191                  
  24733425.435   129974986.417    24733427.740   101279199.906                  
                 119170628.704                   119170628.704    22885460.827  
                 118190709.771                   118190709.771    22697282.057  
                 132648554.336                   132648554.336    25473794.432  
                 127015323.302                   127015323.302    24391958.341  
                 126012040.159                   126012040.159    24199287.173  
  25642517.464   134752311.548                                                  
  24732259.285   129968885.388                                                  
  26025267.165   136763692.039                                                  
  25062577.251   131704726.601                                                  
  26012389.335   136696042.321                                                  
  27130313.848   142570802.866                                                  
  24500636.059   128751700.375                                                  
  26297549.101   138194498.265                                                  
 21  9  2  6 17 21.0000000  0 21G 4G 7G 8G 9G16G21G27G30C24C26C33C34
                                C35E 2E 3E 5E 8E12E24E25E36
  21742771.474   114259032.296    21742772.672    89033012.805                  
  21990927.960   115563118.343    21990927.406    90049185.853                  
  20278027.113   106561710.679    20278029.525    83035089.165                  
  21153863.085   111164269.825    21153865.033    86621501.132                  
  24090208.260   126594901.012    24090207.742    98645378.126                  
  22508241.982   118281607.432    22508241.357    92167486.249                  
  21845553.683   114799129.121    21845555.542    89453860.187                  
  24732852.036   129971973.191    24732854.341   101276851.941                  
                 119169576.050                   119169576.050    22885258.657  
                 118191387.444                   118191387.444    22697412.197  
                 132649812.081                   132649812.081    25474035.986  
                 127012205.761                   127012205.761    24391359.657  
                 126014145.075                   126014145.075    24199691.424  
  25642346.493   134751413.087                                                  
  24732447.731   129969875.773                                                  
  26025788.547   136766431.907                                                  
  25062317.382   131703360.941                                                  
  26012606.908   136697185.626                                                  
  27130562.782   142572111.023                                                  
  24500688.987   128751978.399                                                  
  26297031.578   138191778.630                                                  
 21  9  2  6 17 22.0000000  0 21G 4G 7G 8G 9G16G21G27G30C24C26C33C34
                                C35E 2E 3E 5E 8E12E24E25E36
  21743299.575   114261807.439    21743300.755    89035175.254                  
  21990451.125   115560612.574    21990450.553    90047233.312                  
  20278221.420   106562731.759    20278223.815    83035884.816                  
  21154026.712   111165129.727    21154028.660    86622171.188                  
  24090688.311   126597423.734    24090687.793    98647343.887                  
  22507810.981   118279342.437    22507810.338    92165721.327                  
  21846085.644   114801924.597    21846087.503    89456038.484                  
  24732278.637   129968959.888    24732280.924   101274503.918                  
                 119168523.460                   119168523.460    22885056.523  
                 118192065.290                   118192065.290    22697542.373  
                 132651070.140                   132651070.140    25474277.575  
                 127009088.394                   127009088.394    24390760.992  
                 126016250.386                   126016250.386    24200095.729  
  25642175.522   134750514.633                                                  
  24732636.285   129970866.566                                                  
  26026309.947   136769171.857                                                  
  25062057.585   131701995.668                                                  
  26012824.535   136698329.348                                                  
  27130811.697   142573419.138                                                  
  24500741.879   128752256.394                                                  
  26296514.055   138189059.042                                                  
 21  9  2  6 17 23.0000000  0 21G 4G 7G 8G 9G16G21G27G30C24C26C33C34
                                C35E 2E 3E 5E 8E12E24E25E36
  21743827.748   114264582.946    21743828.927    89037337.991                  
  21989974.326   115558106.907    21989973.754    90045280.844                  
  20278415.835   106563753.449    20278418.248    83036680.940                  
  21154190.481   111165990.257    21154192.411    86622841.735                  
  24091168.363   126599946.383    24091167.845    98649309.590                  
  22507379.998   118277077.695    22507379.373    92163956.595                  
  21846617.677   114804720.463    21846619.535    89458217.081                  
  24731705.202   129965946.491    24731707.507   101272155.821                  
                 119167470.942                   119167470.942    22884854.406  
                 118192743.298                   118192743.298    22697672.584  
                 132652328.507                   132652328.507    25474519.236  
                 127005971.202                   127005971.202    24390162.379  
                 126018356.095                   126018356.095    24200500.105  
  25642004.552   134749616.195                                                  
  24732824.893   129971857.749                                                  
  26026831.348   136771911.878                                                  
  25061797.840   131700630.797                                                  
  26013042.251   136699473.478                                                  
  27131060.613   142574727.195                                                  
  24500794.754   128752534.383                                                  
  26295996.533   138186339.492                                                  
 21  9  2  6 17 24.0000000  0 21G 4G 7G 8G 9G16G21G27G30C24C26C33C34
                                C35E 2E 3E 5E 8E12E24E25E36
  21744355.974   114267358.831    21744357.154    89039501.019                  
  21989497.526   115555601.337    21989496.955    90043328.450                  
  20278610.375   106564775.746    20278612.788    83037477.536                  
  21154354.340   111166851.379    21154356.288    86623512.738                  
  24091648.378   126602468.937    24091647.860    98651275.219                  
  22506949.087   118274813.157    22506948.443    92162192.020                  
  21847149.798   114807516.732    21847151.639    89460395.992                  
  24731131.767   129962933.012    24731134.054   101269807.655                  
                 119166418.489                   119166418.489    22884652.272  
                 118193421.468                   118193421.468    22697802.814  
                 132653587.188                   132653587.188    25474760.932  
                 127002854.181                   127002854.181    24389563.785  
                 126020462.203                   126020462.203    24200904.552  
  25641833.581   134748717.761                                                  
  24733013.607   129972849.347                                                  
  26027352.784   136774651.972                                                  
  25061538.186   131699266.305                                                  
  26013260.075   136700618.036                                                  
  27131309.528   142576035.219                                                  
  24500847.664   128752812.351                                                  
  26295479.046   138183619.992                                                  
 21  9  2  6 17 25.0000000  0 21G 4G 7G 8G 9G16G21G27G30C24C26C33C34
                                C35E 2E 3E 5E 8E12E24E25E36
  21744884.272   114270135.086    21744885.451    89041664.337                  
  21989020.745   115553095.858    21989020.173    90041376.133                  
  20278805.023   106565798.642    20278807.417    83038274.597                  
  21154518.324   111167713.121    21154520.254    86624184.227                  
  24092128.394   126604991.415    24092127.876    98653240.782                  
  22506518.193   118272548.866    22506517.568    92160427.638                  
  21847681.973   114810313.387    21847683.832    89462575.204                  
  24730558.296   129959919.445    24730560.584   101267459.421                  
                 119165366.103                   119165366.103    22884450.173  
                 118194099.808                   118194099.808    22697933.079  
                 132654846.175                   132654846.175    25475002.718  
                 126999737.329                   126999737.329    24388965.226  
                 126022568.712                   126022568.712    24201309.071  
  25641662.628   134747819.339                                                  
  24733202.358   129973841.328                                                  
  26027874.202   136777392.142                                                  
  25061278.602   131697902.195                                                  
  26013477.952   136701762.996                                                  
  27131558.426   142577343.170                                                  
  24500900.556   128753090.305                                                  
  26294961.541   138180900.518                                                  
 21  9  2  6 17 26.0000000  0 21G 4G 7G 8G 9G16G21G27G30C24C26C33C34
                                C35E 2E 3E 5E 8E12E24E25E36
  21745412.659   114272911.708    21745413.838    89043827.934                  
  21988543.982   115550590.485    21988543.428    90039423.892                  
  20278999.795   106566822.151    20279002.207    83039072.137                  
  21154682.416   111168575.474    21154684.363    86624856.188                  
  24092608.374   126607513.809    24092607.856    98655206.285                  
  22506087.353   118270284.825    22506086.745    92158663.450                  
  21848214.238   114813110.430    21848216.096    89464754.718                  
  24729984.826   129956905.802    24729987.113   101265111.128                  
                 119164313.786                   119164313.786    22884248.092  
                 118194778.313                   118194778.313    22698063.380  
                 132656105.473                   132656105.473    25475244.557  
                 126996620.651                   126996620.651    24388366.703  
                 126024675.616                   126024675.616    24201713.697  
  25641491.657   134746920.922                                                  
  24733391.216   129974833.726                                                  
  26028395.656   136780132.394                                                  
  25061019.108   131696538.483                                                  
  26013695.918   136702908.388                                                  
  27131807.305   142578651.098                                                  
  24500953.449   128753368.242                                                  
  26294444.054   138178181.112                                                  
 21  9  2  6 17 27.0000000  0 21G 4G 7G 8G 9G16G21G27G30C24C26C33C34
                                C35E 2E 3E 5E 8E12E24E25E36
  21745941.100   114275688.718    21745942.279    89045991.840                  
  21988067.236   115548085.196    21988066.682    90037471.719                  
  20279194.674   106567846.253    20279197.087    83039870.141                  
  21154846.632   111169438.436    21154848.580    86625528.628                  
  24093088.354   126610036.117    24093087.835    98657171.718                  
  22505656.584   118268021.036    22505655.941    92156899.456                  
  21848746.574   114815907.884    21848748.432    89466934.552                  
  24729411.320   129953892.073    24729413.625   101262762.770                  
                 119163261.530                   119163261.530    22884046.011  
                 118195456.984                   118195456.984    22698193.717  
                 132657365.081                   132657365.081    25475486.468  
                 126993504.145                   126993504.145    24387768.198  
                 126026782.922                   126026782.922    24202118.377  
  25641320.704   134746022.523                                                  
  24733580.145   129975826.521                                                  
  26028917.127   136782872.726                                                  
  25060759.686   131695175.171                                                  
  26013913.938   136704054.181                                                  
  27132056.185   142579958.964                                                  
  24501006.341   128753646.160                                                  
  26293926.585   138175461.747                                                  
 21  9  2  6 17 28.0000000  0 21G 4G 7G 8G 9G16G21G27G30C24C26C33C34
                                C35E 2E 3E 5E 8E12E24E25E36
  21746469.612   114278466.091    21746470.809    89048156.024                  
  21987590.526   115545580.008    21987589.955    90035519.624                  
  20279389.661   106568870.954    20279392.056    83040668.606                  
  21155010.973   111170302.012    21155012.921    86626201.542                  
  24093568.333   126612558.351    24093567.815    98659137.098                  
  22505225.834   118265757.485    22505225.208    92155135.652                  
  21849279.000   114818705.716    21849280.840    89469114.679                  
  24728837.813   129950878.263    24728840.101   101260414.344                  
                 119162209.344                   119162209.344    22883843.966  
                 118196135.821                   118196135.821    22698324.071  
                 132658625.001                   132658625.001    25475728.397  
                 126990387.808                   126990387.808    24387169.747  
                 126028890.626                   126028890.626    24202523.146  
  25641149.733   134745124.133                                                  
  24733769.145   129976819.711                                                  
  26029438.617   136785613.128                                                  
  25060500.317   131693812.243                                                  
  26014132.065   136705200.391                                                  
  27132305.065   142581266.798                                                  
  24501059.215   128753924.073                                                  
  26293409.098   138172742.414                                                  
 21  9  2  6 17 29.0000000  0 21G 4G 7G 8G 9G16G21G27G30C24C26C33C34
                                C35E 2E 3E 5E 8E12E24E25E36
  21746998.195   114281243.831    21746999.392    89050320.499                  
  21987113.817   115543074.910    21987113.263    90033567.602                  
  20279584.755   106569896.235    20279587.185    83041467.523                  
  21155175.422   111171166.204    21155177.352    86626874.941                  
  24094048.277   126615080.495    24094047.759    98661102.402                  
  22504795.137   118263494.180    22504794.511    92153372.040                  
  21849811.479   114821503.944    21849813.319    89471295.116                  
  24728264.271   129947864.367    24728266.576   101258065.856                  
                 119161157.222                   119161157.222    22883641.921  
                 118196814.820                   118196814.820    22698454.479  
                 132659885.227                   132659885.227    25475970.415  
                 126987271.648                   126987271.648    24386571.313  
                 126030998.725                   126030998.725    24202927.987  
  25640978.780   134744225.749                                                  
  24733958.200   129977813.312                                                  
  26029960.106   136788353.621                                                  
  25060241.038   131692449.696                                                  
  26014350.264   136706347.018                                                  
  27132553.927   142582574.561                                                  
  24501112.108   128754201.957                                                  
  26292891.647   138170023.140                                                  
 21  9  2  6 17 30.0000000  0 21G 4G 7G 8G 9G16G21G27G30C24C26C33C34
                                C35E 2E 3E 5E 8E12E24E25E36
  21747526.868   114284021.941    21747528.047    89052485.258                  
  21986637.143   115540569.910    21986636.589    90031615.651                  
  20279779.992   106570922.124    20279782.404    83042266.921                  
  21155339.996   111172031.013    21155341.943    86627548.815                  
  24094528.222   126617602.554    24094527.703    98663067.645                  
  22504364.493   118261231.121    22504363.886    92151608.618                  
  21850344.047   114824302.554    21850345.887    89473475.856                  
  24727690.747   129944850.383    24727693.034   101255717.300                  
                 119160105.173                   119160105.173    22883439.876  
                 118197493.989                   118197493.989    22698584.905  
                 132661145.766                   132661145.766    25476212.504  
                 126984155.660                   126984155.660    24385972.915  
                 126033107.226                   126033107.226    24203332.899  
  25640807.845   134743327.379                                                  
  24734147.361   129978807.301                                                  
  26030481.614   136791094.185                                                  
  25059981.812   131691087.551                                                  
  26014568.534   136707494.062                                                  
  27132802.789   142583882.301                                                  
  24501164.982   128754479.828                                                  
  26292374.178   138167303.901                                                  
 21  9  2  6 17 31.0000000  0 21G 4G 7G 8G 9G16G21G27G30C24C26C33C34
                                C35E 2E 3E 5E 8E12E24E25E36
  21748055.595   114286800.432    21748056.774    89054650.316                  
  21986160.469   115538065.000    21986159.897    90029663.778                  
  20279975.318   106571948.624    20279977.749    83043066.789                  
  21155504.677   111172896.417    21155506.624    86628223.161                  
  24095008.148   126620124.542    24095007.612    98665032.829                  
  22503933.903   118258968.304    22503933.278    92149845.383                  
  21850876.669   114827101.575    21850878.527    89475656.911                  
  24727117.205   129941836.332    24727119.474   101253368.686                  
                 119159053.185                   119159053.185    22883237.867  
                 118198173.326                   118198173.326    22698715.367  
                 132662406.614                   132662406.614    25476454.612  
                 126981039.843                   126981039.843    24385374.553  
                 126035216.125                   126035216.125    24203737.900  
  25640636.874   134742429.015                                                  
  24734336.576   129979801.712                                                  
  26031003.139   136793834.825                                                  
  25059722.693   131689725.794                                                  
  26014786.894   136708641.522                                                  
  27133051.615   142585189.985                                                  
  24501217.857   128754757.694                                                  
  26291856.745   138164584.715                                                  
 21  9  2  6 17 32.0000000  0 21G 4G 7G 8G 9G16G21G27G30C24C26C33C34
                                C35E 2E 3E 5E 8E12E24E25E36
  21748584.393   114289579.290    21748585.572    89056815.660                  
  21985683.812   115535560.196    21985683.258    90027711.980                  
  20280170.788   106572975.707    20280173.182    83043867.113                  
  21155669.483   111173762.446    21155671.412    86628897.984                  
  24095488.038   126622646.445    24095487.520    98666997.946                  
  22503503.367   118256705.741    22503502.724    92148082.348                  
  21851409.380   114829900.977    21851411.239    89477838.259                  
  24726543.627   129938822.187    24726545.915   101251020.004                  
                 119158001.267                   119158001.267    22883035.840  
                 118198852.819                   118198852.819    22698845.864  
                 132663667.769                   132663667.769    25476696.826  
                 126977924.200                   126977924.200    24384776.245  
                 126037325.417                   126037325.417    24204142.955  
  25640465.921   134741530.663                                                  
  24734525.899   129980796.508                                                  
  26031524.700   136796575.550                                                  
  25059463.646   131688364.424                                                  
  26015005.324   136709789.390                                                  
  27133300.459   142586497.628                                                  
  24501270.713   128755035.537                                                  
  26291339.293   138161865.573                                                  
 21  9  2  6 17 33.0000000  0 21G 4G 7G 8G 9G16G21G27G30C24C26C33C34
                                C35E 2E 3E 5E 8E12E24E25E36
  21749113.262   114292358.524    21749114.459    89058981.297                  
  21985207.174   115533055.477    21985206.620    90025760.249                  
  20280366.346   106574003.386    20280368.741    83044667.902                  
  21155834.396   111174629.079    21155836.343    86629573.285                  
  24095967.929   126625168.266    24095967.393    98668963.001                  
  22503072.849   118254443.425    22503072.223    92146319.504                  
  21851942.163   114832700.772    21851944.021    89480019.917                  
  24725970.032   129935807.960    24725972.319   101248671.258                  
                 119156949.415                   119156949.415    22882833.848  
                 118199532.485                   118199532.485    22698976.380  
                 132664929.233                   132664929.233    25476939.077  
                 126974808.727                   126974808.727    24384177.936  
                 126039435.113                   126039435.113    24204548.100  
  25640294.986   134740632.323                                                  
  24734715.275   129981791.714                                                  
  26032046.243   136799316.336                                                  
  25059204.634   131687003.448                                                  
  26015223.845   136710937.684                                                  
  27133549.285   142587805.219                                                  
  24501323.606   128755313.370                                                  
  26290821.878   138159146.472                                                  
 21  9  2  6 17 34.0000000  0 21G 4G 7G 8G 9G16G21G27G30C24C26C33C34
                                C35E 2E 3E 5E 8E12E24E25E36
  21749642.203   114295138.124    21749643.400    89061147.219                  
  21984730.571   115530550.849    21984730.018    90023808.593                  
  20280561.994   106575031.652    20280564.424    83045469.153                  
  21155999.416   111175496.329    21156001.364    86630249.062                  
  24096447.801   126627689.993    24096447.283    98670927.981                  
  22502642.384   118252181.353    22502641.759    92144556.853                  
  21852475.017   114835500.961    21852476.876    89482201.883                  
  24725396.418   129932793.644    24725398.723   101246322.439                  
                 119155897.628                   119155897.628    22882631.857  
                 118200212.316                   118200212.316    22699106.913  
                 132666191.011                   132666191.011    25477181.381  
                 126971693.430                   126971693.430    24383579.681  
                 126041545.204                   126041545.204    24204953.316  
  25640124.033   134739734.000                                                  
  24734904.740   129982787.320                                                  
  26032567.822   136802057.214                                                  
  25058945.748   131685642.867                                                  
  26015442.419   136712086.386                                                  
  27133798.093   142589112.759                                                  
  24501376.462   128755591.183                                                  
  26290304.463   138156427.430                                                  
 21  9  2  6 17 35.0000000  0 21G 4G 7G 8G 9G16G21G27G30C24C26C33C34
                                C35E 2E 3E 5E 8E12E24E25E36
  21750171.215   114297918.098    21750172.395    89063313.430                  
  21984253.987   115528046.320    21984253.415    90021857.013                  
  20280757.803   106576060.546    20280760.197    83046270.886                  
  21156164.580   111176364.192    21156166.527    86630925.321                  
  24096927.638   126630211.653    24096927.120    98672892.910                  
  22502211.973   118249919.527    22502211.347    92142794.391                  
  21853007.961   114838301.552    21853009.801    89484384.161                  
  24724822.805   129929779.250    24724825.092   101243973.560                  
                 119154845.910                   119154845.910    22882429.901  
                 118200892.313                   118200892.313    22699237.518  
                 132667453.098                   132667453.098    25477423.756  
                 126968578.305                   126968578.305    24382981.462  
                 126043655.694                   126043655.694    24205358.621  
  25639953.080   134738835.680                                                  
  24735094.259   129983783.336                                                  
  26033089.401   136804798.159                                                  
  25058686.897   131684282.671                                                  
  26015661.100   136713235.507                                                  
  27134046.902   142590420.258                                                  
  24501429.319   128755868.982                                                  
  26289787.065   138153708.423                                                  
 21  9  2  6 17 36.0000000  0 21G 4G 7G 8G 9G16G21G27G30C24C26C33C34
                                C35E 2E 3E 5E 8E12E24E25E36
  21750700.299   114300698.441    21750701.479    89065479.933                  
  21983777.402   115525541.886    21983776.848    90019905.503                  
  20280953.701   106577090.050    20280956.113    83047073.093                  
  21156329.832   111177232.657    21156331.780    86631602.047                  
  24097407.475   126632733.218    24097406.957    98674857.769                  
  22501781.597   118247657.939    22501780.972    92141032.114                  
  21853540.958   114841102.509    21853542.816    89486566.727                  
  24724249.155   129926764.773    24724251.461   101241624.617                  
                 119153794.259                   119153794.259    22882227.946  
                 118201572.476                   118201572.476    22699368.140  
                 132668715.492                   132668715.492    25477666.185  
                 126965463.352                   126965463.352    24382383.261  
                 126045766.582                   126045766.582    24205763.997  
  25639782.145   134737937.372                                                  
  24735283.885   129984779.743                                                  
  26033610.998   136807539.180                                                  
  25058428.136   131682922.862                                                  
  26015879.834   136714385.048                                                  
  27134295.692   142591727.708                                                  
  24501482.175   128756146.765                                                  
  26289269.632   138150989.468                                                  
 21  9  2  6 17 37.0000000  0 21G 4G 7G 8G 9G16G21G27G30C24C26C33C34
                                C35E 2E 3E 5E 8E12E24E25E36
  21751229.437   114303479.156    21751230.634    89067646.722                  
  21983300.835   115523037.554    21983300.281    90017954.078                  
  20281149.742   106578120.159    20281152.137    83047875.782                  
  21156495.228   111178101.738    21156497.158    86632279.251                  
  24097887.312   126635254.711    24097886.794    98676822.566                  
  22501351.294   118245396.609    22501350.668    92139270.044                  
  21854074.045   114843903.880    21854075.903    89488749.610                  
  24723675.524   129923750.214    24723677.793   101239275.612                  
                 119152742.672                   119152742.672    22882025.972  
                 118202252.804                   118202252.804    22699498.781  
                 132669978.195                   132669978.195    25477908.686  
                 126962348.571                   126962348.571    24381785.095  
                 126047877.868                   126047877.868    24206169.446  
  25639611.192   134737039.082                                                  
  24735473.564   129985776.554                                                  
  26034132.613   136810280.290                                                  
  25058169.446   131681563.456                                                  
  26016098.676   136715535.005                                                  
  27134544.500   142593035.116                                                  
  24501535.032   128756424.534                                                  
  26288752.252   138148270.561                                                  
 21  9  2  6 17 38.0000000  0 21G 4G 7G 8G 9G16G21G27G30C24C26C33C34
                                C35E 2E 3E 5E 8E12E24E25E36
  21751758.682   114306260.242    21751759.861    89069813.802                  
  21982824.304   115520533.305    21982823.732    90016002.715                  
  20281345.855   106579150.872    20281348.285    83048678.930                  
  21156660.713   111178971.429    21156662.661    86632956.934                  
  24098367.113   126637776.121    24098366.595    98678787.301                  
  22500921.025   118243135.522    22500920.382    92137508.156                  
  21854607.203   114846705.630    21854609.061    89490932.793                  
  24723101.839   129920735.567    24723104.144   101236926.534                  
                 119151691.152                   119151691.152    22881824.052  
                 118202933.298                   118202933.298    22699629.457  
                 132671241.206                   132671241.206    25478151.222  
                 126959233.966                   126959233.966    24381186.983  
                 126049989.547                   126049989.547    24206574.983  
  25639440.257   134736140.792                                                  
  24735663.316   129986773.774                                                  
  26034654.245   136813021.463                                                  
  25057910.845   131680204.436                                                  
  26016317.572   136716685.379                                                  
  27134793.273   142594342.477                                                  
  24501587.906   128756702.292                                                  
  26288234.872   138145551.686                                                  
 21  9  2  6 17 39.0000000  0 21G 4G 7G 8G 9G16G21G27G30C24C26C33C34
                                C35E 2E 3E 5E 8E12E24E25E36
  21752287.962   114309041.700    21752289.159    89071981.167                  
  21982347.773   115518029.164    21982347.219    90014051.439                  
  20281542.128   106580182.172    20281544.522    83049482.543                  
  21156826.323   111179841.742    21156828.253    86633635.098                  
  24098846.914   126640297.446    24098846.396    98680751.970                  
  22500490.793   118240874.683    22500490.167    92135746.460                  
  21855140.432   114849507.782    21855142.273    89493116.288                  
  24722528.154   129917720.835    24722530.459   101234577.395                  
                 119150639.702                   119150639.702    22881622.132  
                 118203613.958                   118203613.958    22699760.187  
                 132672504.528                   132672504.528    25478393.812  
                 126956119.528                   126956119.528    24380588.871  
                 126052101.628                   126052101.628    24206980.574  
  25639269.340   134735242.519                                                  
  24735853.156   129987771.378                                                  
  26035175.895   136815762.714                                                  
  25057652.299   131678845.804                                                  
  26016536.575   136717836.164                                                  
  27135042.063   142595649.792                                                  
  24501640.745   128756980.031                                                  
  26287717.493   138142832.881                                                  
 21  9  2  6 17 40.0000000  0 21G 4G 7G 8G 9G16G21G27G30C24C26C33C34
                                C35E 2E 3E 5E 8E12E24E25E36
  21752817.332   114311823.527    21752818.511    89074148.827                  
  21981871.260   115515525.117    21981870.706    90012100.235                  
  20281738.473   106581214.083    20281740.885    83050286.629                  
  21156992.058   111180712.652    21156994.006    86634313.731                  
  24099326.680   126642818.689    24099326.161    98682716.575                  
  22500060.614   118238614.095    22500059.989    92133984.966                  
  21855673.733   114852310.303    21855675.574    89495300.071                  
  24721954.451   129914706.024    24721956.756   101232228.191                  
                 119149588.322                   119149588.322    22881420.212  
                 118204294.784                   118204294.784    22699890.916  
                 132673768.161                   132673768.161    25478636.509  
                 126953005.269                   126953005.269    24379990.813  
                 126054214.106                   126054214.106    24207386.255  
  25639098.405   134734344.255                                                  
  24736043.086   129988769.401                                                  
  26035697.564   136818504.058                                                  
  25057393.841   131677487.566                                                  
  26016755.649   136718987.363                                                  
  27135290.818   142596957.050                                                  
  24501693.601   128757257.750                                                  
  26287200.149   138140114.106                                                  
 21  9  2  6 17 41.0000000  0 21G 4G 7G 8G 9G16G21G27G30C24C26C33C34
                                C35E 2E 3E 5E 8E12E24E25E36
  21753346.755   114314605.719    21753347.952    89076316.769                  
  21981394.782   115513021.167    21981394.228    90010149.105                  
  20281934.961   106582246.577    20281937.355    83051091.173                  
  21157157.901   111181584.180    21157159.848    86634992.844                  
  24099806.463   126645339.855    24099805.945    98684681.120                  
  22499630.507   118236353.742    22499629.863    92132223.652                  
  21856207.123   114855113.236    21856208.964    89497484.172                  
  24721380.748   129911691.140    24721383.036   101229878.931                  
                 119148537.005                   119148537.005    22881218.346  
                 118204975.778                   118204975.778    22700021.700  
                 132675032.097                   132675032.097    25478879.224  
                 126949891.180                   126949891.180    24379392.773  
                 126056326.980                   126056326.980    24207792.024  
  25638927.452   134733446.002                                                  
  24736233.087   129989767.812                                                  
  26036219.214   136821245.469                                                  
  25057135.437   131676129.723                                                  
  26016974.777   136720138.984                                                  
  27135539.573   142598264.274                                                  
  24501746.440   128757535.464                                                  
  26286682.787   138137395.378                                                  
 21  9  2  6 17 42.0000000  0 21G 4G 7G 8G 9G16G21G27G30C24C26C33C34
                                C35E 2E 3E 5E 8E12E24E25E36
  21753876.268   114317388.301    21753877.465    89078485.024                  
  21980918.323   115510517.317    21980917.769    90008198.046                  
  20282131.556   106583279.659    20282133.968    83051896.164                  
  21157323.868   111182456.321    21157325.798    86635672.433                  
  24100286.193   126647860.943    24100285.674    98686645.601                  
  22499200.417   118234093.624    22499199.774    92130462.512                  
  21856740.567   114857916.561    21856742.426    89499668.586                  
  24720807.028   129908676.138    24720809.315   101227529.567                  
                 119147485.750                   119147485.750    22881016.462  
                 118205656.932                   118205656.932    22700152.501  
                 132676296.364                   132676296.364    25479121.992  
                 126946777.262                   126946777.262    24378794.804  
                 126058440.270                   126058440.270    24208197.848  
  25638756.535   134732547.741                                                  
  24736423.142   129990766.637                                                  
  26036740.918   136823986.966                                                  
  25056877.123   131674772.247                                                  
  26017193.994   136721291.031                                                  
  27135788.327   142599571.441                                                  
  24501799.279   128757813.148                                                  
  26286165.443   138134676.685                                                  
 21  9  2  6 17 43.0000000  0 21G 4G 7G 8G 9G16G21G27G30C24C26C33C34
                                C35E 2E 3E 5E 8E12E24E25E36
  21754405.834   114320171.235    21754407.014    89080653.544                  
  21980441.863   115508013.560    21980441.291    90006247.067                  
  20282328.258   106584313.333    20282330.652    83052701.625                  
  21157489.943   111183329.079    21157491.873    86636352.504                  
  24100765.922   126650381.942    24100765.422    98688610.017                  
  22498770.381   118231833.773    22498769.738    92128701.589                  
  21857274.101   114860720.265    21857275.941    89501853.293                  
  24720233.271   129905661.083    24720235.558   101225180.176                  
                 119146434.567                   119146434.567    22880814.577  
                 118206338.258                   118206338.258    22700283.356  
                 132677560.919                   132677560.919    25479364.832  
                 126943663.521                   126943663.521    24378196.835  
                 126060553.941                   126060553.941    24208603.743  
  25638585.600   134731649.513                                                  
  24736613.286   129991765.860                                                  
  26037262.622   136826728.536                                                  
  25056618.879   131673415.185                                                  
  26017413.318   136722443.480                                                  
  27136037.064   142600878.568                                                  
  24501852.118   128758090.831                                                  
  26285648.099   138131958.053                                                  
 21  9  2  6 17 44.0000000  0 21G 4G 7G 8G 9G16G21G27G30C24C26C33C34
                                C35E 2E 3E 5E 8E12E24E25E36
  21754935.472   114322954.539    21754936.687    89082822.352                  
  21979965.439   115505509.906    21979964.885    90004296.173                  
  20282525.085   106585347.620    20282527.480    83053507.563                  
  21157656.143   111184202.430    21157658.073    86637033.039                  
  24101245.634   126652902.862    24101245.116    98690574.372                  
  22498340.381   118229574.175    22498339.756    92126940.863                  
  21857807.705   114863524.357    21857809.546    89504038.297                  
  24719659.515   129902645.937    24719661.802   101222830.712                  
                 119145383.454                   119145383.454    22880612.729  
                 118207019.750                   118207019.750    22700414.229  
                 132678825.785                   132678825.785    25479607.762  
                 126940549.952                   126940549.952    24377598.901  
                 126062668.007                   126062668.007    24209009.745  
  25638414.683   134730751.284                                                  
  24736803.520   129992765.489                                                  
  26037784.344   136829470.177                                                  
  25056360.726   131672058.516                                                  
  26017632.696   136723596.343                                                  
  27136285.783   142602185.647                                                  
  24501904.956   128758368.501                                                  
  26285130.755   138129239.469                                                  
 21  9  2  6 17 45.0000000  0 21G 4G 7G 8G 9G16G21G27G30C24C26C33C34
                                C35E 2E 3E 5E 8E12E24E25E36
  21755465.199   114325738.218    21755466.397    89084991.453                  
  21979489.015   115503006.352    21979488.461    90002345.347                  
  20282722.020   106586382.527    20282724.414    83054313.984                  
  21157822.432   111185076.394    21157824.380    86637714.052                  
  24101725.346   126655423.700    24101724.828    98692538.657                  
  22497910.434   118227314.819    22497909.827    92125180.328                  
  21858341.382   114866328.847    21858343.222    89506223.617                  
  24719085.740   129899630.718    24719088.028   101220481.190                  
                 119144332.402                   119144332.402    22880410.880  
                 118207701.407                   118207701.407    22700545.119  
                 132680090.957                   132680090.957    25479850.727  
                 126937436.560                   126937436.560    24377001.004  
                 126064782.472                   126064782.472    24209415.800  
  25638243.765   134729853.070                                                  
  24736993.825   129993765.508                                                  
  26038306.066   136832211.882                                                  
  25056102.643   131670702.232                                                  
  26017852.164   136724749.622                                                  
  27136534.502   142603492.680                                                  
  24501957.795   128758646.152                                                  
  26284613.447   138126520.934                                                  
 21  9  2  6 17 46.0000000  0 21G 4G 7G 8G 9G16G21G27G30C24C26C33C34
                                C35E 2E 3E 5E 8E12E24E25E36
  21755994.998   114328522.264    21755996.177    89087160.839                  
  21979012.645   115500502.889    21979012.073    90000394.601                  
  20282919.061   106587418.038    20282921.456    83055120.880                  
  21157988.882   111185950.977    21157990.812    86638395.543                  
  24102205.022   126657944.453    24102204.504    98694502.882                  
  22497480.559   118225055.708    22497479.916    92123419.980                  
  21858875.112   114869133.728    21858876.988    89508409.233                  
  24718511.948   129896615.414    24718514.235   101218131.605                  
                 119143281.423                   119143281.423    22880209.068  
                 118208383.230                   118208383.230    22700676.063  
                 132681356.442                   132681356.442    25480093.745  
                 126934323.340                   126934323.340    24376403.142  
                 126066897.332                   126066897.332    24209821.945  
  25638072.848   134728954.867                                                  
  24737184.184   129994765.929                                                  
  26038827.806   136834953.675                                                  
  25055844.615   131669346.335                                                  
  26018071.702   136725903.315                                                  
  27136783.221   142604799.663                                                  
  24502010.634   128758923.786                                                  
  26284096.139   138123802.446                                                  
 21  9  2  6 17 47.0000000  0 21G 4G 7G 8G 9G16G21G27G30C24C26C33C34
                                C35E 2E 3E 5E 8E12E24E25E36
  21756524.832   114331306.680    21756526.048    89089330.512                  
  21978536.257   115497999.523    21978535.703    89998443.926                  
  20283116.228   106588454.159    20283118.640    83055928.243                  
  21158155.421   111186826.164    21158157.369    86639077.505                  
  24102684.698   126660465.129    24102684.180    98696467.043                  
  22497050.702   118222796.843    22497050.077    92121659.827                  
  21859408.949   114871938.993    21859410.807    89510595.157                  
  24717938.138   129893600.024    24717940.425   101215781.949                  
                 119142230.511                   119142230.511    22880007.237  
                 118209065.222                   118209065.222    22700807.043  
                 132682622.230                   132682622.230    25480336.818  
                 126931210.294                   126931210.294    24375805.316  
                 126069012.591                   126069012.591    24210228.144  
  25637901.913   134728056.668                                                  
  24737374.632   129995766.746                                                  
  26039349.563   136837695.547                                                  
  25055586.657   131667990.837                                                  
  26018291.313   136727057.425                                                  
  27137031.922   142606106.605                                                  
  24502063.455   128759201.394                                                  
  26283578.848   138121084.000                                                  
 21  9  2  6 17 48.0000000  0 21G 4G 7G 8G 9G16G21G27G30C24C26C33C34
                                C35E 2E 3E 5E 8E12E24E25E36
  21757054.774   114334091.469    21757055.953    89091500.477                  
  21978059.904   115495496.257    21978059.333    89996493.329                  
  20283313.520   106589490.897    20283315.914    83056736.090                  
  21158322.085   111187701.968    21158324.015    86639759.954                  
  24103164.338   126662985.718    24103163.838    98698431.136                  
  22496620.899   118220538.230    22496620.273    92119899.872                  
  21859942.839   114874744.651    21859944.698    89512781.384                  
  24717364.292   129890584.559    24717366.597   101213432.237                  
                 119141179.665                   119141179.665    22879805.442  
                 118209747.376                   118209747.376    22700938.041  
                 132683888.332                   132683888.332    25480579.962  
                 126928097.423                   126928097.423    24375207.526  
                 126071128.247                   126071128.247    24210634.432  
  25637730.996   134727158.489                                                  
  24737565.151   129996767.980                                                  
  26039871.339   136840437.496                                                  
  25055328.807   131666635.726                                                  
  26018511.012   136728211.948                                                  
  27137280.623   142607413.493                                                  
  24502116.275   128759478.999                                                  
  26283061.540   138118365.606                                                  
 21  9  2  6 17 49.0000000  0 21G 4G 7G 8G 9G16G21G27G30C24C26C33C34
                                C35E 2E 3E 5E 8E12E24E25E36
  21757584.787   114336876.621    21757585.967    89093670.726                  
  21977583.552   115492993.087    21977582.998    89994542.805                  
  20283510.901   106590528.204    20283513.314    83057544.379                  
  21158488.857   111188578.388    21158490.805    86640442.872                  
  24103643.979   126665506.227    24103643.460    98700395.171                  
  22496191.166   118218279.876    22496190.523    92118140.113                  
  21860476.819   114877550.703    21860478.678    89514967.918                  
  24716790.464   129887569.011    24716792.752   101211082.460                  
                 119140128.887                   119140128.887    22879603.647  
                 118210429.699                   118210429.699    22701069.057  
                 132685154.739                   132685154.739    25480823.159  
                 126924984.726                   126924984.726    24374609.753  
                 126073244.300                   126073244.300    24211040.791  
  25637560.079   134726260.313                                                  
  24737755.760   129997769.607                                                  
  26040393.132   136843179.515                                                  
  25055070.993   131665281.008                                                  
  26018730.801   136729366.883                                                  
  27137529.306   142608720.344                                                  
  24502169.114   128759756.595                                                  
  26282544.268   138115647.248                                                  
 21  9  2  6 17 50.0000000  0 21G 4G 7G 8G 9G16G21G27G30C24C26C33C34
                                C35E 2E 3E 5E 8E12E24E25E36
  21758114.836   114339662.141    21758116.015    89095841.262                  
  21977107.235   115490490.011    21977106.681    89992592.358                  
  20283708.425   106591566.110    20283710.820    83058353.141                  
  21158655.736   111189455.409    21158657.684    86641126.270                  
  24104123.601   126668026.651    24104123.083    98702359.141                  
  22495761.434   118216021.759    22495760.827    92116380.543                  
  21861010.853   114880357.151    21861012.711    89517154.758                  
  24716216.619   129884553.378    24716218.906   101208732.616                  
                 119139078.175                   119139078.175    22879401.852  
                 118211112.188                   118211112.188    22701200.144  
                 132686421.454                   132686421.454    25481066.428  
                 126921872.204                   126921872.204    24374012.035  
                 126075360.750                   126075360.750    24211447.240  
  25637389.162   134725362.149                                                  
  24737946.441   129998771.633                                                  
  26040914.943   136845921.613                                                  
  25054813.286   131663926.675                                                  
  26018950.644   136730522.234                                                  
  27137777.971   142610027.142                                                  
  24502221.935   128760034.161                                                  
  26282026.977   138112928.953                                                  
 21  9  2  6 17 51.0000000  0 21G 4G 7G 8G 9G16G21G27G30C24C26C33C34
                                C35E 2E 3E 5E 8E12E24E25E36
  21758644.974   114342448.044    21758646.154    89098012.090                  
  21976630.937   115487987.035    21976630.383    89990641.985                  
  20283906.039   106592604.620    20283908.433    83059162.368                  
  21158822.758   111190333.059    21158824.705    86641810.152                  
  24104603.223   126670546.996    24104602.705    98704323.043                  
  22495331.774   118213763.886    22495331.166    92114621.159                  
  21861544.994   114883163.983    21861546.834    89519341.902                  
  24715642.737   129881537.663    24715645.042   101206382.711                  
                 119138027.554                   119138027.554    22879200.093  
                 118211794.840                   118211794.840    22701331.231  
                 132687688.487                   132687688.487    25481309.732  
                 126918759.853                   126918759.853    24373414.334  
                 126077477.614                   126077477.614    24211853.760  
  25637218.244   134724463.996                                                  
  24738137.192   129999774.061                                                  
  26041436.754   136848663.782                                                  
  25054555.633   131662572.750                                                  
  26019170.576   136731678.010                                                  
  27138026.637   142611333.890                                                  
  24502274.738   128760311.710                                                  
  26281509.705   138110210.692                                                  
 21  9  2  6 17 52.0000000  0 21G 4G 7G 8G 9G16G21G27G30C24C26C33C34
                                C35E 2E 3E 5E 8E12E24E25E36
  21759175.184   114345234.300    21759176.381    89100183.203                  
  21976154.656   115485484.156    21976154.102    89988691.692                  
  20284103.778   106593643.723    20284106.172    83059972.058                  
  21158989.887   111191211.304    21158991.816    86642494.499                  
  24105082.792   126673067.253    24105082.274    98706286.880                  
  22494902.184   118211506.271    22494901.541    92112861.981                  
  21862079.188   114885971.203    21862081.047    89521529.344                  
  24715068.856   129878521.863    24715071.143   101204032.739                  
                 119136976.982                   119136976.982    22878998.352  
                 118212477.660                   118212477.660    22701462.354  
                 132688955.822                   132688955.822    25481553.126  
                 126915647.676                   126915647.676    24372816.686  
                 126079594.858                   126079594.858    24212260.352  
  25637047.345   134723565.858                                                  
  24738328.034   130000776.891                                                  
  26041958.583   136851406.032                                                  
  25054298.086   131661219.207                                                  
  26019390.597   136732834.195                                                  
  27138275.302   142612640.597                                                  
  24502327.559   128760589.259                                                  
  26280992.468   138107492.489                                                  
 21  9  2  6 17 53.0000000  0 21G 4G 7G 8G 9G16G21G27G30C24C26C33C34
                                C35E 2E 3E 5E 8E12E24E25E36
  21759705.465   114348020.938    21759706.662    89102354.606                  
  21975678.392   115482981.380    21975677.839    89986741.477                  
  20284301.623   106594683.442    20284304.018    83060782.231                  
  21159157.123   111192090.157    21159159.053    86643179.317                  
  24105562.379   126675587.431    24105561.861    98708250.652                  
  22494472.613   118209248.891    22494471.988    92111102.984                  
  21862613.454   114888778.812    21862615.312    89523717.094                  
  24714494.938   129875505.984    24714497.243   101201682.698                  
                 119135926.474                   119135926.474    22878796.629  
                 118213160.649                   118213160.649    22701593.513  
                 132690223.456                   132690223.456    25481796.556  
                 126912535.675                   126912535.675    24372219.057  
                 126081712.495                   126081712.495    24212667.015  
  25636876.428   134722667.726                                                  
  24738518.946   130001780.126                                                  
  26042480.448   136854148.360                                                  
  25054040.576   131659866.059                                                  
  26019610.708   136733990.796                                                  
  27138523.932   142613947.251                                                  
  24502380.380   128760866.782                                                  
  26280475.195   138104774.321                                                  
 21  9  2  6 17 54.0000000  0 21G 4G 7G 8G 9G16G21G27G30C24C26C33C34
                                C35E 2E 3E 5E 8E12E24E25E36
  21760235.818   114350807.939    21760236.997    89104526.298                  
  21975202.165   115480478.703    21975201.593    89984791.337                  
  20284499.576   106595723.768    20284502.007    83061592.875                  
  21159324.484   111192969.623    21159326.414    86643864.618                  
  24106041.948   126678107.523    24106041.412    98710214.363                  
  22494043.095   118206991.769    22494042.452    92109344.187                  
  21863147.792   114891586.810    21863149.668    89525905.141                  
  24713921.021   129872490.019    24713923.326   101199332.601                  
                 119134876.032                   119134876.032    22878594.887  
                 118213843.804                   118213843.804    22701724.725  
                 132691491.407                   132691491.407    25482040.057  
                 126909423.847                   126909423.847    24371621.463  
                 126083830.531                   126083830.531    24213073.786  
  25636705.529   134721769.606                                                  
  24738709.912   130002783.761                                                  
  26043002.295   136856890.763                                                  
  25053783.155   131658513.293                                                  
  26019830.854   136735147.825                                                  
  27138772.579   142615253.876                                                  
  24502433.182   128761144.301                                                  
  26279957.959   138102056.215                                                  
 21  9  2  6 17 55.0000000  0 21G 4G 7G 8G 9G16G21G27G30C24C26C33C34
                                C35E 2E 3E 5E 8E12E24E25E36
  21760766.242   114353595.315    21760767.421    89106698.277                  
  21974725.938   115477976.118    21974725.366    89982841.270                  
  20284697.672   106596764.696    20284700.085    83062403.984                  
  21159491.952   111193849.708    21159493.900    86644550.398                  
  24106521.481   126680627.539    24106520.963    98712178.012                  
  22493613.613   118204734.887    22493613.006    92107585.583                  
  21863682.218   114894395.194    21863684.077    89528093.495                  
  24713347.104   129869473.970    24713349.373   101196982.430                  
                 119133825.655                   119133825.655    22878393.182  
                 118214527.125                   118214527.125    22701855.937  
                 132692759.661                   132692759.661    25482283.612  
                 126906312.194                   126906312.194    24371023.905  
                 126085948.965                   126085948.965    24213480.592  
  25636534.611   134720871.495                                                  
  24738900.986   130003787.794                                                  
  26043524.178   136859633.246                                                  
  25053525.805   131657160.923                                                  
  26020051.126   136736305.257                                                  
  27139021.227   142616560.448                                                  
  24502486.003   128761421.800                                                  
  26279440.740   138099338.155                                                  
 21  9  2  6 17 56.0000000  0 21G 4G 7G 8G 9G16G21G27G30C24C26C33C34
                                C35E 2E 3E 5E 8E12E24E25E36
  21761296.719   114356383.047    21761297.917    89108870.536                  
  21974249.728   115475473.626    21974249.157    89980891.277                  
  20284895.858   106597806.220    20284898.288    83063215.558                  
  21159659.546   111194730.385    21159661.476    86645236.641                  
  24107000.996   126683147.468    24107000.478    98714141.590                  
  22493184.203   118202478.258    22493183.560    92105827.169                  
  21864216.716   114897203.969    21864218.557    89530282.148                  
  24712773.133   129866457.841    24712775.438   101194632.202                  
                 119132775.350                   119132775.350    22878191.476  
                 118215210.614                   118215210.614    22701987.203  
                 132694028.223                   132694028.223    25482527.220  
                 126903200.719                   126903200.719    24370426.383  
                 126088067.794                   126088067.794    24213887.505  
  25636363.712   134719973.395                                                  
  24739092.113   130004792.226                                                  
  26044046.061   136862375.790                                                  
  25053268.545   131655808.946                                                  
  26020271.469   136737463.105                                                  
  27139269.838   142617866.952                                                  
  24502538.806   128761699.279                                                  
  26278923.503   138096620.128                                                  
 21  9  2  6 17 57.0000000  0 21G 4G 7G 8G 9G16G21G27G30C24C26C33C34
                                C35E 2E 3E 5E 8E12E24E25E36
  21761827.286   114359171.155    21761828.484    89111043.089                  
  21973773.537   115472971.243    21973772.983    89978941.368                  
  20285094.186   106598848.351    20285096.580    83064027.613                  
  21159827.247   111195611.683    21159829.177    86645923.363                  
  24107480.511   126685667.320    24107479.993    98716105.109                  
  22492754.828   118200221.870    22492754.203    92104068.946                  
  21864751.286   114900013.137    21864753.145    89532471.113                  
  24712199.180   129863441.630    24712201.467   101192281.905                  
                 119131725.113                   119131725.113    22877989.789  
                 118215894.266                   118215894.266    22702118.487  
                 132695297.093                   132695297.093    25482770.900  
                 126900089.418                   126900089.418    24369828.878  
                 126090187.018                   126090187.018    24214294.472  
  25636192.813   134719075.301                                                  
  24739283.347   130005797.043                                                  
  26044567.979   136865118.414                                                  
  25053011.338   131654457.351                                                  
  26020491.865   136738621.367                                                  
  27139518.468   142619173.442                                                  
  24502591.591   128761976.731                                                  
  26278406.302   138093902.160                                                  
 21  9  2  6 17 58.0000000  0 21G 4G 7G 8G 9G16G21G27G30C24C26C33C34
                                C35E 2E 3E 5E 8E12E24E25E36
  21762357.925   114361959.629    21762359.104    89113215.922                  
  21973297.363   115470468.950    21973296.791    89976991.532                  
  20285292.604   106599891.078    20285294.998    83064840.125                  
  21159995.073   111196493.602    21159997.020    86646610.571                  
  24107960.027   126688187.086    24107959.508    98718068.566                  
  22492325.507   118197965.734    22492324.864    92102310.918                  
  21865285.927   114902822.692    21865287.786    89534660.374                  
  24711625.209   129860425.325    24711627.478   101189931.538                  
                 119130674.942                   119130674.942    22877788.119  
                 118216578.089                   118216578.089    22702249.806  
                 132696566.274                   132696566.274    25483014.634  
                 126896978.288                   126896978.288    24369231.428  
                 126092306.642                   126092306.642    24214701.529  
  25636021.913   134718177.210                                                  
  24739474.617   130006802.288                                                  
  26045089.897   136867861.122                                                  
  25052754.203   131653106.161                                                  
  26020712.333   136739780.043                                                  
  27139767.062   142620479.859                                                  
  24502644.376   128762254.183                                                  
  26277889.101   138091184.239                                                  
 21  9  2  6 17 59.0000000  0 21G 4G 7G 8G 9G16G21G27G30C24C26C33C34
                                C35E 2E 3E 5E 8E12E24E25E36
  21762888.617   114364748.473    21762889.796    89115389.047                  
  21972821.225   115467966.758    21972820.653    89975041.774                  
  20285491.146   106600934.398    20285493.541    83065653.106                  
  21160163.006   111197376.111    21160164.936    86647298.242                  
  24108439.506   126690706.774    24108438.988    98720031.957                  
  22491896.222   118195709.859    22491895.578    92100553.089                  
  21865820.640   114905632.641    21865822.480    89536849.945                  
  24711051.202   129857408.956    24711053.472   101187581.125                  
                 119129624.841                   119129624.841    22877586.431  
                 118217262.079                   118217262.079    22702381.161  
                 132697835.758                   132697835.758    25483258.421  
                 126893867.336                   126893867.336    24368633.995  
                 126094426.657                   126094426.657    24215108.657  
  25635851.014   134717279.140                                                  
  24739665.995   130007807.921                                                  
  26045611.816   136870603.887                                                  
  25052497.157   131651755.352                                                  
  26020932.926   136740939.135                                                  
  27140015.656   142621786.249                                                  
  24502697.179   128762531.617                                                  
  26277371.900   138088466.359                                                  
 21  9  2  6 18  0.0000000  0 21G 4G 7G 8G 9G16G21G27G30C24C26C33C34
                                C35E 2E 3E 5E 8E12E24E25E36
  21763419.381   114367537.687    21763420.560    89117562.460                  
  21972345.087   115465464.659    21972344.515    89973092.087                  
  20285689.778   106601978.313    20285692.209    83066466.542                  
  21160331.064   111198259.239    21160332.994    86647986.394                  
  24108918.968   126693226.380    24108918.432    98721995.286                  
  22491466.972   118193454.219    22491466.364    92098795.454                  
  21866355.424   114908442.977    21866357.282    89539039.817                  
  24710477.178   129854392.504    24710479.483   101185230.641                  
                 119128574.804                   119128574.804    22877384.797  
                 118217946.231                   118217946.231    22702512.534  
                 132699105.550                   132699105.550    25483502.279  
                 126890756.555                   126890756.555    24368036.598  
                 126096547.071                   126096547.071    24215515.856  
  25635680.115   134716381.082                                                  
  24739857.443   130008813.964                                                  
  26046133.788   136873346.751                                                  
  25052240.183   131650404.943                                                  
  26021153.555   136742098.636                                                  
  27140264.232   142623092.583                                                  
  24502749.982   128762809.043                                                  
  26276854.717   138085748.531                                                  
 21  9  2  6 18  1.0000000  0 21G 4G 7G 8G 9G16G21G27G30C24C26C33C34
                                C35E 2E 3E 5E 8E12E24E25E36
  21763950.216   114370327.270    21763951.395    89119736.160                  
  21971868.967   115462962.667    21971868.395    89971142.480                  
  20285888.553   106603022.833    20285890.966    83067280.454                  
  21160499.247   111199142.977    21160501.177    86648675.024                  
  24109398.394   126695745.903    24109397.893    98723958.551                  
  22491037.794   118191198.820    22491037.168    92097038.000                  
  21866890.280   114911253.691    21866892.138    89541229.984                  
  24709903.153   129851375.961    24709905.441   101182880.091                  
                 119127524.840                   119127524.840    22877183.163  
                 118218630.551                   118218630.551    22702643.961  
                 132700375.653                   132700375.653    25483746.174  
                 126887645.952                   126887645.952    24367439.236  
                 126098667.883                   126098667.883    24215923.145  
  25635509.215   134715483.020                                                  
  24740048.963   130009820.395                                                  
  26046655.742   136876089.677                                                  
  25051983.280   131649054.926                                                  
  26021374.273   136743258.562                                                  
  27140512.825   142624398.867                                                  
  24502802.767   128763086.442                                                  
  26276337.534   138083030.754                                                  
 21  9  2  6 18  2.0000000  0 21G 4G 7G 8G 9G16G21G27G30C24C26C33C34
                                C35E 2E 3E 5E 8E12E24E25E36
  21764481.140   114373117.224    21764482.319    89121910.151                  
  21971392.883   115460460.773    21971392.293    89969192.952                  
  20286087.436   106604067.934    20286089.848    83068094.816                  
  21160667.520   111200027.329    21160669.467    86649364.125                  
  24109877.837   126698265.332    24109877.319    98725921.742                  
  22490608.651   118188943.678    22490608.026    92095280.747                  
  21867425.225   114914064.796    21867427.083    89543420.458                  
  24709329.129   129848359.343    24709331.398   101180529.481                  
                 119126474.936                   119126474.936    22876981.547  
                 118219315.038                   118219315.038    22702775.406  
                 132701646.058                   132701646.058    25483990.157  
                 126884535.523                   126884535.523    24366841.928  
                 126100789.085                   126100789.085    24216330.487  
  25635338.334   134714584.985                                                  
  24740240.555   130010827.239                                                  
  26047177.714   136878832.679                                                  
  25051726.466   131647705.297                                                  
  26021595.099   136744418.898                                                  
  27140761.401   142625705.102                                                  
  24502855.535   128763363.833                                                  
  26275820.369   138080313.035                                                  
 21  9  2  6 18  3.0000000  0 21G 4G 7G 8G 9G16G21G27G30C24C26C33C34
                                C35E 2E 3E 5E 8E12E24E25E36
  21765012.118   114375907.547    21765013.297    89124084.429                  
  21970916.798   115457958.977    21970916.244    89967243.501                  
  20286286.425   106605113.636    20286288.820    83068909.653                  
  21160835.917   111200912.294    21160837.865    86650053.708                  
  24110357.263   126700784.682    24110356.745    98727884.875                  
  22490179.563   118186688.781    22490178.919    92093523.684                  
  21867960.241   114916876.297    21867962.082    89545611.235                  
  24708755.069   129845342.645    24708757.338   101178178.805                  
                 119125425.106                   119125425.106    22876779.949  
                 118219999.696                   118219999.696    22702906.886  
                 132702916.775                   132702916.775    25484234.177  
                 126881425.269                   126881425.269    24366244.621  
                 126102910.689                   126102910.689    24216737.918  
  25635167.434   134713686.953                                                  
  24740432.218   130011834.474                                                  
  26047699.704   136881575.757                                                  
  25051469.706   131646356.058                                                  
  26021815.978   136745579.652                                                  
  27141009.959   142627011.304                                                  
  24502908.320   128763641.200                                                  
  26275303.203   138077595.345                                                  
 21  9  2  6 18  4.0000000  0 21G 4G 7G 8G 9G16G21G27G30C24C26C33C34
                                C35E 2E 3E 5E 8E12E24E25E36
  21765543.168   114378698.231    21765544.365    89126258.988                  
  21970440.732   115455457.278    21970440.178    89965294.125                  
  20286485.522   106606159.949    20286487.934    83069724.960                  
  21161004.440   111201797.861    21161006.388    86650743.762                  
  24110836.653   126703303.956    24110836.135    98729847.941                  
  22489750.527   118184434.135    22489749.884    92091766.820                  
  21868495.329   114919688.179    21868497.187    89547802.312                  
  24708180.973   129842325.847    24708183.260   101175828.055                  
                 119124375.345                   119124375.345    22876578.332  
                 118220684.517                   118220684.517    22703038.402  
                 132704187.794                   132704187.794    25484478.268  
                 126878315.192                   126878315.192    24365647.366  
                 126105032.687                   126105032.687    24217145.421  
  25634996.553   134712788.929                                                  
  24740623.953   130012842.102                                                  
  26048221.694   136884318.912                                                  
  25051213.035   131645007.218                                                  
  26022036.946   136746740.822                                                  
  27141258.500   142628317.453                                                  
  24502961.105   128763918.558                                                  
  26274786.056   138074877.726                                                  
 21  9  2  6 18  5.0000000  0 21G 4G 7G 8G 9G16G21G27G30C24C26C33C34
                                C35E 2E 3E 5E 8E12E24E25E36
  21766074.289   114381489.284    21766075.486    89128433.835                  
  21969964.701   115452955.675    21969964.147    89963344.824                  
  20286684.743   106607206.852    20286687.156    83070540.726                  
  21161173.088   111202684.047    21161175.018    86651434.296                  
  24111316.044   126705823.142    24111315.525    98731810.945                  
  22489321.528   118182179.734    22489320.884    92090010.141                  
  21869030.488   114922500.458    21869032.347    89549993.696                  
  24707606.877   129839308.993    24707609.182   101173477.263                  
                 119123325.648                   119123325.648    22876376.752  
                 118221369.504                   118221369.504    22703169.936  
                 132705459.124                   132705459.124    25484722.412  
                 126875205.290                   126875205.290    24365050.148  
                 126107155.078                   126107155.078    24217553.014  
  25634825.672   134711890.926                                                  
  24740815.795   130013850.152                                                  
  26048743.720   136887062.146                                                  
  25050956.418   131643658.766                                                  
  26022257.986   136747902.400                                                  
  27141507.058   142629623.559                                                  
  24503013.872   128764195.910                                                  
  26274268.926   138072160.136                                                  
 21  9  2  6 18  6.0000000  0 21G 4G 7G 8G 9G16G21G27G30C24C26C33C34
                                C35E 2E 3E 5E 8E12E24E25E36
  21766605.481   114384280.725    21766606.660    89130608.984                  
  21969488.688   115450454.175    21969488.116    89961395.605                  
  20286884.072   106608254.359    20286886.485    83071356.970                  
  21161341.825   111203570.837    21161343.755    86652125.302                  
  24111795.416   126708342.237    24111794.898    98733773.876                  
  22488892.564   118179925.599    22488891.939    92088253.672                  
  21869565.701   114925313.121    21869567.560    89552185.384                  
  24707032.781   129836292.046    24707035.068   101171126.394                  
                 119122276.018                   119122276.018    22876175.171  
                 118222054.659                   118222054.659    22703301.523  
                 132706730.759                   132706730.759    25484966.628  
                 126872095.559                   126872095.559    24364452.947  
                 126109277.868                   126109277.868    24217960.678  
  25634654.772   134710992.894                                                  
  24741007.672   130014858.576                                                  
  26049265.763   136889805.456                                                  
  25050699.908   131642310.698                                                  
  26022479.097   136749064.394                                                  
  27141755.580   142630929.626                                                  
  24503066.657   128764473.230                                                  
  26273751.797   138069442.640                                                  
 21  9  2  6 18  7.0000000  0 21G 4G 7G 8G 9G16G21G27G30C24C26C33C34
                                C35E 2E 3E 5E 8E12E24E25E36
  21767136.745   114387072.542    21767137.942    89132784.425                  
  21969012.675   115447952.778    21969012.121    89959446.460                  
  20287083.526   106609302.468    20287085.939    83072173.676                  
  21161510.705   111204458.238    21161512.635    86652816.785                  
  24112274.752   126710861.261    24112274.252    98735736.750                  
  22488463.654   118177671.702    22488463.046    92086497.391                  
  21870101.021   114928126.183    21870102.880    89554377.380                  
  24706458.667   129833275.019    24706460.936   101168775.464                  
                 119121226.461                   119121226.461    22875973.627  
                 118222739.983                   118222739.983    22703433.146  
                 132708002.700                   132708002.700    25485210.880  
                 126868986.008                   126868986.008    24363855.800  
                 126111401.056                   126111401.056    24218368.395  
  25634483.909   134710094.874                                                  
  24741199.657   130015867.395                                                  
  26049787.807   136892548.828                                                  
  25050443.434   131640963.035                                                  
  26022700.298   136750226.806                                                  
  27142004.120   142632235.643                                                  
  24503119.424   128764750.530                                                  
  26273234.685   138066725.200                                                  
 21  9  2  6 18  8.0000000  0 21G 4G 7G 8G 9G16G21G27G30C24C26C33C34
                                C35E 2E 3E 5E 8E12E24E25E36
  21767668.062   114389864.649    21767669.260    89134960.089                  
  21968536.698   115445451.469    21968536.144    89957497.390                  
  20287283.088   106610351.160    20287285.500    83072990.841                  
  21161679.675   111205346.254    21161681.623    86653508.746                  
  24112754.107   126713380.207    24112753.606    98737699.566                  
  22488034.797   118175418.034    22488034.172    92084741.286                  
  21870636.395   114930939.620    21870638.236    89556569.665                  
  24705884.517   129830257.910    24705886.822   101166424.468                  
                 119120176.968                   119120176.968    22875772.082  
                 118223425.473                   118223425.473    22703564.788  
                 132709274.949                   132709274.949    25485455.203  
                 126865876.632                   126865876.632    24363258.653  
                 126113524.634                   126113524.634    24218776.220  
  25634313.027   134709196.953                                                  
  24741391.713   130016876.684                                                  
  26050309.886   136895292.290                                                  
  25050187.085   131639615.765                                                  
  26022921.588   136751389.634                                                  
  27142252.625   142633541.596                                                  
  24503172.192   128765027.841                                                  
  26272717.556   138064007.669                                                  
 21  9  2  6 18  9.0000000  0 21G 4G 7G 8G 9G16G21G27G30C24C26C33C34
                                C35E 2E 3E 5E 8E12E24E25E36
  21768199.451   114392657.188    21768200.667    89137136.097                  
  21968060.739   115442950.262    21968060.167    89955548.398                  
  20287482.756   106611400.469    20287485.186    83073808.484                  
  21161848.787   111206234.870    21161850.717    86654201.172                  
  24113233.425   126715899.058    24113232.925    98739662.305                  
  22487605.994   118173164.633    22487605.351    92082985.392                  
  21871171.858   114933753.457    21871173.699    89558762.265                  
  24705310.368   129827240.707    24705312.655   101164073.403                  
                 119119127.547                   119119127.547    22875570.555  
                 118224111.128                   118224111.128    22703696.446  
                 132710547.509                   132710547.509    25485699.580  
                 126862767.430                   126862767.430    24362661.578  
                 126115648.610                   126115648.610    24219184.098  
  25634142.146   134708298.974                                                  
  24741583.841   130017886.313                                                  
  26050831.947   136898035.821                                                  
  25049930.754   131638268.883                                                  
  26023142.931   136752552.867                                                  
  27142501.147   142634847.528                                                  
  24503224.959   128765305.120                                                  
  26272200.462   138061290.288                                                  
 21  9  2  6 18 10.0000000  0 21G 4G 7G 8G 9G16G21G27G30C24C26C33C34
                                C35E 2E 3E 5E 8E12E24E25E36
  21768730.948   114395450.078    21768732.127    89139312.376                  
  21967584.779   115440449.162    21967584.225    89953599.489                  
  20287682.568   106612450.374    20287684.962    83074626.589                  
  21162017.971   111207124.102    21162019.937    86654894.077                  
  24113712.744   126718417.833    24113712.226    98741624.985                  
  22487177.245   118170911.487    22487176.602    92081229.691                  
  21871707.375   114936567.667    21871709.234    89560955.160                  
  24704736.200   129824223.446    24704738.487   101161722.288                  
                 119118078.190                   119118078.190    22875369.046  
                 118224796.952                   118224796.952    22703828.159  
                 132711820.369                   132711820.369    25485944.028  
                 126859658.406                   126859658.406    24362064.520  
                 126117772.981                   126117772.981    24219592.066  
  25633971.264   134707401.012                                                  
  24741776.058   130018896.356                                                  
  26051354.044   136900779.421                                                  
  25049674.548   131636922.393                                                  
  26023364.382   136753716.519                                                  
  27142749.634   142636153.393                                                  
  24503277.726   128765582.393                                                  
  26271683.368   138058572.962                                                  
 21  9  2  6 18 11.0000000  0 21G 4G 7G 8G 9G16G21G27G30C24C26C33C34
                                C35E 2E 3E 5E 8E12E24E25E36
  21769262.480   114398243.339    21769263.659    89141488.942                  
  21967108.856   115437948.161    21967108.302    89951650.657                  
  20287882.468   106613500.874    20287884.863    83075445.163                  
  21162187.316   111208013.932    21162189.264    86655587.456                  
  24114192.027   126720936.520    24114191.527    98743587.598                  
  22486748.514   118168658.591    22486747.906    92079474.188                  
  21872242.981   114939382.269    21872244.840    89563148.356                  
  24704162.015   129821206.090    24704164.302   101159371.102                  
                 119117028.904                   119117028.904    22875167.537  
                 118225482.942                   118225482.942    22703959.872  
                 132713093.536                   132713093.536    25486188.512  
                 126856549.553                   126856549.553    24361467.498  
                 126119897.745                   126119897.745    24220000.105  
  25633800.401   134706503.059                                                  
  24741968.347   130019906.801                                                  
  26051876.141   136903523.104                                                  
  25049418.378   131635576.300                                                  
  26023585.886   136754880.591                                                  
  27142998.121   142637459.223                                                  
  24503330.475   128765859.646                                                  
  26271166.274   138055855.669                                                  
 21  9  2  6 18 12.0000000  0 21G 4G 7G 8G 9G16G21G27G30C24C26C33C34
                                C35E 2E 3E 5E 8E12E24E25E36
  21769794.083   114401036.966    21769795.280    89143665.792                  
  21966632.968   115435447.248    21966632.396    89949701.891                  
  20288082.476   106614551.988    20288084.889    83076264.210                  
  21162356.768   111208904.388    21162358.698    86656281.313                  
  24114671.292   126723455.116    24114670.774    98745550.141                  
  22486319.854   118166405.938    22486319.228    92077718.876                  
  21872778.659   114942197.265    21872780.499    89565341.855                  
  24703587.812   129818188.656    24703590.099   101157019.855                  
                 119115979.684                   119115979.684    22874966.046  
                 118226169.101                   118226169.101    22704091.656  
                 132714367.012                   132714367.012    25486433.085  
                 126853440.884                   126853440.884    24360870.512  
                 126122022.910                   126122022.910    24220408.216  
  25633629.519   134705605.112                                                  
  24742160.707   130020917.645                                                  
  26052398.256   136906266.852                                                  
  25049162.297   131634230.589                                                  
  26023807.480   136756045.077                                                  
  27143246.625   142638765.008                                                  
  24503383.243   128766136.878                                                  
  26270649.198   138053138.417                                                  
 21  9  2  6 18 13.0000000  0 21G 4G 7G 8G 9G16G21G27G30C24C26C33C34
                                C35E 2E 3E 5E 8E12E24E25E36
  21770325.758   114403830.966    21770326.955    89145842.933                  
  21966157.062   115432946.428    21966156.508    89947753.203                  
  20288282.627   106615603.700    20288285.022    83077083.726                  
  21162526.327   111209795.439    21162528.257    86656975.641                  
  24115150.557   126725973.653    24115150.039    98747512.637                  
  22485891.247   118164153.534    22485890.604    92075963.754                  
  21873314.408   114945012.636    21873316.266    89567535.653                  
  24703013.609   129815171.142    24703015.896   101154668.547                  
                 119114930.531                   119114930.531    22874764.555  
                 118226855.425                   118226855.425    22704223.458  
                 132715640.794                   132715640.794    25486677.694  
                 126850332.383                   126850332.383    24360273.561  
                 126124148.465                   126124148.465    24220816.416  
  25633458.638   134704707.177                                                  
  24742353.120   130021928.883                                                  
  26052920.407   136909010.675                                                  
  25048906.305   131632885.282                                                  
  26024029.163   136757209.992                                                  
  27143495.076   142640070.741                                                  
  24503435.992   128766414.098                                                  
  26270132.140   138050421.226                                                  
 21  9  2  6 18 14.0000000  0 21G 4G 7G 8G 9G16G21G27G30C24C26C33C34
                                C35E 2E 3E 5E 8E12E24E25E36
  21770857.522   114406625.309    21770858.702    89148020.341                  
  21965681.192   115430445.765    21965680.638    89945804.659                  
  20288482.868   106616655.993    20288485.262    83077903.695                  
  21162695.993   111210687.118    21162697.941    86657670.458                  
  24115629.804   126728492.061    24115629.304    98749475.015                  
  22485462.677   118161901.366    22485462.033    92074208.815                  
  21873850.228   114947828.375    21873852.087    89569729.724                  
  24702439.388   129812153.599    24702441.657   101152317.242                  
                 119113881.450                   119113881.450    22874563.100  
                 118227541.918                   118227541.918    22704355.295  
                 132716914.883                   132716914.883    25486922.375  
                 126847224.062                   126847224.062    24359676.647  
                 126126274.418                   126126274.418    24221224.687  
  25633287.774   134703809.247                                                  
  24742545.641   130022940.425                                                  
  26053442.540   136911754.599                                                  
  25048650.385   131631540.392                                                  
  26024250.918   136758375.370                                                  
  27143743.545   142641376.409                                                  
  24503488.741   128766691.198                                                  
  26269615.082   138047704.015                                                  
 21  9  2  6 18 15.0000000  0 21G 4G 7G 8G 9G16G21G27G30C24C26C33C34
                                C35E 2E 3E 5E 8E12E24E25E36
  21771389.340   114409420.030    21771390.519    89150198.044                  
  21965205.340   115427945.148    21965204.786    89943856.129                  
  20288683.215   106617708.891    20288685.627    83078724.137                  
  21162865.803   111211579.384    21162867.733    86658365.730                  
  24116109.034   126731010.417    24116108.516    98751437.372                  
  22485034.142   118159649.461    22485033.516    92072454.082                  
  21874386.120   114950644.515    21874387.979    89571924.116                  
  24701865.113   129809135.912    24701867.418   101149965.800                  
                 119112832.434                   119112832.434    22874361.644  
                 118228228.579                   118228228.579    22704487.169  
                 132718189.278                   132718189.278    25487167.109  
                 126844115.919                   126844115.919    24359079.732  
                 126128400.767                   126128400.767    24221633.012  
  25633116.928   134702911.329                                                  
  24742738.216   130023952.458                                                  
  26053964.709   136914498.575                                                  
  25048394.519   131630195.854                                                  
  26024472.744   136759541.109                                                  
  27143991.996   142642682.042                                                  
  24503541.473   128766968.380                                                  
  26269098.042   138044986.927                                                  
 21  9  2  6 18 16.0000000  0 21G 4G 7G 8G 9G16G21G27G30C24C26C33C34
                                C35E 2E 3E 5E 8E12E24E25E36
  21771921.212   114412215.128    21771922.427    89152376.035                  
  21964729.524   115425444.637    21964728.952    89941907.672                  
  20288883.705   106618762.390    20288886.100    83079545.043                  
  21163035.719   111212472.269    21163037.667    86659061.485                  
  24116588.245   126733528.687    24116587.745    98753399.651                  
  22484605.678   118157397.800    22484605.035    92070699.539                  
  21874922.102   114953461.054    21874923.942    89574118.820                  
  24701290.856   129806118.157    24701293.161   101147614.301                  
                 119111783.487                   119111783.487    22874160.207  
                 118228915.404                   118228915.404    22704619.060  
                 132719463.975                   132719463.975    25487411.897  
                 126841007.950                   126841007.950    24358482.907  
                 126130527.508                   126130527.508    24222041.444  
  25632946.047   134702013.420                                                  
  24742930.879   130024964.898                                                  
  26054486.877   136917242.628                                                  
  25048138.741   131628851.718                                                  
  26024694.659   136760707.250                                                  
  27144240.464   142643987.640                                                  
  24503594.240   128767245.553                                                  
  26268581.002   138042269.883                                                  
 21  9  2  6 18 17.0000000  0 21G 4G 7G 8G 9G16G21G27G30C24C26C33C34
                                C35E 2E 3E 5E 8E12E24E25E36
  21772453.172   114415010.586    21772454.387    89154554.316                  
  21964253.708   115422944.214    21964253.136    89939959.293                  
  20289084.285   106619816.473    20289086.680    83080366.402                  
  21163205.743   111213365.765    21163207.673    86659757.711                  
  24117067.439   126736046.878    24117066.921    98755361.878                  
  22484177.233   118155146.398    22484176.625    92068945.199                  
  21875458.137   114956277.987    21875459.995    89576313.828                  
  24700716.581   129803100.309    24700718.887   101145262.731                  
                 119110734.610                   119110734.610    22873958.787  
                 118229602.400                   118229602.400    22704750.987  
                 132720738.984                   132720738.984    25487656.756  
                 126837900.156                   126837900.156    24357886.081  
                 126132654.648                   126132654.648    24222449.948  
  25632775.183   134701115.526                                                  
  24743123.615   130025977.735                                                  
  26055009.081   136919986.751                                                  
  25047883.018   131627507.970                                                  
  26024916.646   136761873.813                                                  
  27144488.897   142645293.188                                                  
  24503646.972   128767522.715                                                  
  26268063.980   138039552.874                                                  
 21  9  2  6 18 18.0000000  0 21G 4G 7G 8G 9G16G21G27G30C24C26C33C34
                                C35E 2E 3E 5E 8E12E24E25E36
  21772985.222   114417806.417    21772986.402    89156732.883                  
  21963777.891   115420443.900    21963777.337    89938010.996                  
  20289284.972   106620871.173    20289287.385    83081188.246                  
  21163375.874   111214259.870    21163377.822    86660454.419                  
  24117546.614   126738564.999    24117546.114    98757324.050                  
  22483748.859   118152895.238    22483748.215    92067191.051                  
  21875994.261   114959095.304    21875996.101    89578509.140                  
  24700142.307   129800082.387    24700144.576   101142911.101                  
                 119109685.800                   119109685.800    22873757.368  
                 118230289.558                   118230289.558    22704882.932  
                 132722014.292                   132722014.292    25487901.669  
                 126834792.539                   126834792.539    24357289.274  
                 126134782.180                   126134782.180    24222858.505  
  25632604.320   134700217.638                                                  
  24743316.439   130026990.979                                                  
  26055531.286   136922730.944                                                  
  25047627.401   131626164.620                                                  
  26025138.704   136763040.788                                                  
  27144737.313   142646598.694                                                  
  24503699.721   128767799.859                                                  
  26267546.957   138036835.942                                                  
 21  9  2  6 18 19.0000000  0 21G 4G 7G 8G 9G16G21G27G30C24C26C33C34
                                C35E 2E 3E 5E 8E12E24E25E36
  21773517.308   114420602.606    21773518.506    89158911.730                  
  21963302.128   115417943.682    21963301.557    89936062.774                  
  20289485.802   106621926.450    20289488.197    83082010.538                  
  21163546.148   111215154.581    21163548.078    86661151.593                  
  24118025.808   126741083.028    24118025.272    98759286.153                  
  22483320.520   118150644.329    22483319.895    92065437.094                  
  21876530.439   114961912.999    21876532.297    89580704.747                  
  24699567.978   129797064.383    24699570.284   101140559.414                  
                 119108637.057                   119108637.057    22873555.966  
                 118230976.886                   118230976.886    22705014.948  
                 132723289.914                   132723289.914    25488146.635  
                 126831685.096                   126831685.096    24356692.538  
                 126136910.105                   126136910.105    24223267.152  
  25632433.456   134699319.761                                                  
  24743509.318   130028004.626                                                  
  26056053.508   136925475.214                                                  
  25047371.839   131624821.664                                                  
  26025360.852   136764208.176                                                  
  27144985.746   142647904.160                                                  
  24503752.452   128768076.985                                                  
  26267029.953   138034119.042                                                  
 21  9  2  6 18 20.0000000  0 21G 4G 7G 8G 9G16G21G27G30C24C26C33C34
                                C35E 2E 3E 5E 8E12E24E25E36
  21774049.484   114423399.168    21774050.663    89161090.866                  
  21962826.384   115415443.568    21962825.794    89934114.628                  
  20289686.721   106622982.332    20289689.116    83082833.306                  
  21163716.511   111216049.902    21163718.459    86661849.251                  
  24118504.948   126743600.982    24118504.412    98761248.190                  
  22482892.235   118148393.668    22482891.592    92063683.337                  
  21877066.706   114964731.085    21877068.565    89582900.655                  
  24698993.668   129794046.300    24698995.955   101138207.659                  
                 119107588.387                   119107588.387    22873354.582  
                 118231664.382                   118231664.382    22705146.964  
                 132724565.835                   132724565.835    25488391.655  
                 126828577.831                   126828577.831    24356095.820  
                 126139038.431                   126139038.431    24223675.888  
  25632262.593   134698421.890                                                  
  24743702.285   130029018.660                                                  
  26056575.712   136928219.563                                                  
  25047116.365   131623479.089                                                  
  26025583.071   136765375.981                                                  
  27145234.161   142649209.573                                                  
  24503805.184   128768354.097                                                  
  26266512.966   138031402.200                                                  
 21  9  2  6 18 21.0000000  0 21G 4G 7G 8G 9G16G21G27G30C24C26C33C34
                                C35E 2E 3E 5E 8E12E24E25E36
  21774581.712   114426196.093    21774582.892    89163270.293                  
  21962350.639   115412943.547    21962350.085    89932166.562                  
  20289887.766   106624038.810    20289890.160    83083656.535                  
  21163886.999   111216945.839    21163888.947    86662547.379                  
  24118984.088   126746118.847    24118983.552    98763210.163                  
  22482464.004   118146143.258    22482463.361    92061929.770                  
  21877603.045   114967549.558    21877604.903    89585096.871                  
  24698419.322   129791028.141    24698421.627   101135855.849                  
                 119106539.780                   119106539.780    22873153.198  
                 118232352.047                   118232352.047    22705279.016  
                 132725842.068                   132725842.068    25488636.747  
                 126825470.746                   126825470.746    24355499.137  
                 126141167.149                   126141167.149    24224084.678  
  25632091.747   134697524.034                                                  
  24743895.324   130030033.110                                                  
  26057097.988   136930963.991                                                  
  25046860.963   131622136.917                                                  
  26025805.380   136766544.199                                                  
  27145482.558   142650514.942                                                  
  24503857.915   128768631.194                                                  
  26265995.962   138028685.394                                                  
 21  9  2  6 18 22.0000000  0 21G 4G 7G 8G 9G16G21G27G30C24C26C33C34
                                C35E 2E 3E 5E 8E12E24E25E36
  21775114.013   114428993.385    21775115.228    89165449.999                  
  21961874.912   115410443.637    21961874.358    89930218.581                  
  20290088.917   106625095.886    20290091.312    83084480.235                  
  21164057.613   111217842.386    21164059.561    86663245.989                  
  24119463.192   126748636.633    24119462.674    98765172.075                  
  22482035.827   118143893.102    22482035.184    92060176.397                  
  21878139.455   114970368.422    21878141.313    89587293.388                  
  24697844.976   129788009.887    24697847.263   101133503.961                  
                 119105491.247                   119105491.247    22872951.832  
                 118233039.874                   118233039.874    22705411.122  
                 132727118.603                   132727118.603    25488881.892  
                 126822363.836                   126822363.836    24354902.473  
                 126143296.257                   126143296.257    24224493.539  
  25631920.883   134696626.193                                                  
  24744088.435   130031047.936                                                  
  26057620.246   136933708.481                                                  
  25046605.615   131620795.137                                                  
  26026027.778   136767712.832                                                  
  27145730.955   142651820.267                                                  
  24503910.647   128768908.271                                                  
  26265478.975   138025968.649                                                  
 21  9  2  6 18 23.0000000  0 21G 4G 7G 8G 9G16G21G27G30C24C26C33C34
                                C35E 2E 3E 5E 8E12E24E25E36
  21775646.402   114431791.050    21775647.582    89167629.996                  
  21961399.221   115407943.825    21961398.667    89928270.675                  
  20290290.176   106626153.558    20290292.606    83085304.391                  
  21164228.334   111218739.532    21164230.281    86663945.062                  
  24119942.297   126751154.319    24119941.778    98767133.910                  
  22481607.667   118141643.199    22481607.042    92058423.226                  
  21878675.937   114973187.673    21878677.795    89589490.204                  
  24697270.594   129784991.563    24697272.899   101131152.020                  
                 119104442.777                   119104442.777    22872750.502  
                 118233727.876                   118233727.876    22705543.246  
                 132728395.440                   132728395.440    25489127.108  
                 126819257.100                   126819257.100    24354305.862  
                 126145425.767                   126145425.767    24224902.507  
  25631750.037   134695728.351                                                  
  24744281.635   130032063.191                                                  
  26058142.504   136936453.038                                                  
  25046350.356   131619453.745                                                  
  26026250.247   136768881.878                                                  
  27145979.335   142653125.536                                                  
  24503963.361   128769185.335                                                  
  26264962.024   138023251.957                                                  
 21  9  2  6 18 24.0000000  0 21G 4G 7G 8G 9G16G21G27G30C24C26C33C34
                                C35E 2E 3E 5E 8E12E24E25E36
  21776178.846   114434589.073    21776180.043    89169810.278                  
  21960923.547   115405444.109    21960922.975    89926322.847                  
  20290491.560   106627211.823    20290493.972    83086129.015                  
  21164399.179   111219637.297    21164401.127    86664644.621                  
  24120421.383   126753671.941    24120420.865    98769095.691                  
  22481179.579   118139393.539    22481178.936    92056670.247                  
  21879212.508   114976007.308    21879214.366    89591687.325                  
  24696696.212   129781973.140    24696698.499   101128800.004                  
                 119103394.380                   119103394.380    22872549.154  
                 118234416.038                   118234416.038    22705675.405  
                 132729672.589                   132729672.589    25489372.361  
                 126816150.547                   126816150.547    24353709.286  
                 126147555.663                   126147555.663    24225311.511  
  25631579.174   134694830.525                                                  
  24744474.924   130033078.827                                                  
  26058664.798   136939197.695                                                  
  25046095.186   131618112.749                                                  
  26026472.788   136770051.340                                                  
  27146227.714   142654430.770                                                  
  24504016.074   128769462.385                                                  
  26264445.056   138020535.310                                                  
 21  9  2  6 18 25.0000000  0 21G 4G 7G 8G 9G16G21G27G30C24C26C33C34
                                C35E 2E 3E 5E 8E12E24E25E36
  21776711.361   114437387.466    21776712.558    89171990.839                  
  21960447.874   115402944.496    21960447.320    89924375.097                  
  20290693.051   106628270.672    20290695.464    83086954.090                  
  21164570.114   111220535.667    21164572.062    86665344.647                  
  24120900.451   126756189.469    24120899.933    98771057.401                  
  22480751.526   118137144.149    22480750.901    92054917.476                  
  21879749.132   114978827.336    21879751.009    89593884.747                  
  24696121.812   129778954.652    24696124.100   101126447.938                  
                 119102346.047                   119102346.047    22872347.841  
                 118235104.375                   118235104.375    22705807.582  
                 132730950.040                   132730950.040    25489617.685  
                 126813044.163                   126813044.163    24353112.747  
                 126149685.961                   126149685.961    24225720.623  
  25631408.346   134693932.704                                                  
  24744668.267   130034094.868                                                  
  26059187.091   136941942.405                                                  
  25045840.088   131616772.149                                                  
  26026695.400   136771221.223                                                  
  27146476.076   142655735.962                                                  
  24504068.806   128769739.427                                                  
  26263928.105   138017818.715                                                  
 21  9  2  6 18 26.0000000  0 21G 4G 7G 8G 9G16G21G27G30C24C26C33C34
                                C35E 2E 3E 5E 8E12E24E25E36
  21777243.947   114440186.226    21777245.144    89174171.691                  
  21959972.236   115400444.977    21959971.682    89922427.422                  
  20290894.667   106629330.110    20290897.080    83087779.624                  
  21164741.192   111221434.641    21164743.140    86666045.149                  
  24121379.502   126758706.929    24121379.002    98773019.059                  
  22480323.528   118134895.000    22480322.902    92053164.894                  
  21880285.846   114981647.737    21880287.705    89596082.464                  
  24695547.395   129775936.090    24695549.700   101124095.810                  
                 119101297.786                   119101297.786    22872146.547  
                 118235792.874                   118235792.874    22705939.795  
                 132732227.796                   132732227.796    25489863.062  
                 126809937.965                   126809937.965    24352516.225  
                 126151816.648                   126151816.648    24226129.805  
  25631237.482   134693034.892                                                  
  24744861.681   130035111.305                                                  
  26059709.421   136944687.180                                                  
  25045585.044   131615431.937                                                  
  26026918.102   136772391.513                                                  
  27146724.437   142657041.102                                                  
  24504121.519   128770016.442                                                  
  26263411.154   138015102.161                                                  
 21  9  2  6 18 27.0000000  0 21G 4G 7G 8G 9G16G21G27G30C24C26C33C34
                                C35E 2E 3E 5E 8E12E24E25E36
  21777776.604   114442985.343    21777777.802    89176352.824                  
  21959496.616   115397945.566    21959496.044    89920479.829                  
  20291096.373   106630390.165    20291098.803    83088605.645                  
  21164912.378   111222334.243    21164914.325    86666746.133                  
  24121858.553   126761224.302    24121858.034    98774980.648                  
  22479895.582   118132646.101    22479894.939    92051412.507                  
  21880822.614   114984468.534    21880824.472    89598280.484                  
  24694972.977   129772917.441    24694975.264   101121743.618                  
                 119100249.593                   119100249.593    22871945.234  
                 118236481.542                   118236481.542    22706072.062  
                 132733505.860                   132733505.860    25490108.493  
                 126806831.936                   126806831.936    24351919.740  
                 126153947.733                   126153947.733    24226539.060  
  25631066.637   134692137.091                                                  
  24745055.185   130036128.144                                                  
  26060231.732   136947432.051                                                  
  25045330.088   131614092.118                                                  
  26027140.875   136773562.214                                                  
  27146972.799   142658346.195                                                  
  24504174.215   128770293.451                                                  
  26262894.221   138012385.671                                                  
 21  9  2  6 18 28.0000000  0 21G 4G 7G 8G 9G16G21G27G30C24C26C33C34
                                C35E 2E 3E 5E 8E12E24E25E36
  21778309.316   114445784.827    21778310.513    89178534.242                  
  21959020.996   115395446.255    21959020.443    89918532.312                  
  20291298.221   106631450.801    20291300.616    83089432.113                  
  21165083.688   111223234.426    21165085.618    86667447.579                  
  24122337.585   126763741.595    24122337.067    98776942.172                  
  22479467.673   118130397.453    22479467.048    92049660.312                  
  21881359.489   114987289.716    21881361.311    89600478.809                  
  24694398.524   129769898.703    24694400.829   101119391.352                  
                 119099201.469                   119099201.469    22871743.958  
                 118237170.378                   118237170.378    22706204.346  
                 132734784.227                   132734784.227    25490353.995  
                 126803726.090                   126803726.090    24351323.307  
                 126156079.211                   126156079.211    24226948.385  
  25630895.809   134691239.297                                                  
  24745248.760   130037145.383                                                  
  26060754.080   136950176.981                                                  
  25045075.205   131612752.694                                                  
  26027363.719   136774733.332                                                  
  27147221.143   142659651.241                                                  
  24504226.946   128770570.433                                                  
  26262377.306   138009669.211                                                  
 21  9  2  6 18 29.0000000  0 21G 4G 7G 8G 9G16G21G27G30C24C26C33C34
                                C35E 2E 3E 5E 8E12E24E25E36
  21778842.116   114448584.676    21778843.314    89180715.942                  
  21958545.412   115392947.044    21958544.859    89916584.875                  
  20291500.159   106632512.044    20291502.572    83090259.055                  
  21165255.105   111224135.231    21165257.035    86668149.503                  
  24122816.582   126766258.806    24122816.082    98778903.633                  
  22479039.817   118128149.061    22479039.174    92047908.321                  
  21881896.399   114990111.273    21881898.258    89602677.425                  
  24693824.053   129766879.884    24693826.358   101117039.028                  
                 119098153.415                   119098153.415    22871542.699  
                 118237859.383                   118237859.383    22706336.666  
                 132736062.902                   132736062.902    25490599.552  
                 126800620.418                   126800620.418    24350726.875  
                 126158211.082                   126158211.082    24227357.782  
  25630724.963   134690341.511                                                  
  24745442.406   130038163.011                                                  
  26061276.445   136952921.987                                                  
  25044820.375   131611413.662                                                  
  26027586.653   136775904.873                                                  
  27147469.486   142660956.237                                                  
  24504279.642   128770847.407                                                  
  26261860.373   138006952.816                                                  
 21  9  2  6 18 30.0000000  0 21G 4G 7G 8G 9G16G21G27G30C24C26C33C34
                                C35E 2E 3E 5E 8E12E24E25E36
  21779374.989   114451384.899    21779376.186    89182897.930                  
  21958069.864   115390447.933    21958069.292    89914637.515                  
  20291702.240   106633573.889    20291704.634    83091086.469                  
  21165426.648   111225036.644    21165428.578    86668851.902                  
  24123295.580   126768775.934    24123295.061    98780865.034                  
  22478611.997   118125900.913    22478611.371    92046156.519                  
  21882433.399   114992933.230    21882435.258    89604876.352                  
  24693249.599   129763860.994    24693251.886   101114686.646                  
                 119097105.425                   119097105.425    22871341.440  
                 118238548.554                   118238548.554    22706469.004  
                 132737341.880                   132737341.880    25490845.161  
                 126797514.927                   126797514.927    24350130.496  
                 126160343.348                   126160343.348    24227767.251  
  25630554.117   134689443.734                                                  
  24745636.124   130039181.054                                                  
  26061798.828   136955667.073                                                  
  25044565.634   131610075.016                                                  
  26027809.677   136777076.818                                                  
  27147717.794   142662261.198                                                  
  24504332.338   128771124.366                                                  
  26261343.476   138004236.479                                                  
 21  9  2  6 18 31.0000000  0 21G 4G 7G 8G 9G16G21G27G30C24C26C33C34
                                C35E 2E 3E 5E 8E12E24E25E36
  21779907.914   114454185.481    21779909.094    89185080.199                  
  21957594.316   115387948.921    21957593.762    89912690.238                  
  20291904.392   106634636.336    20291906.822    83091914.347                  
  21165598.280   111225938.664    21165600.228    86669554.778                  
  24123774.559   126771292.975    24123774.040    98782826.363                  
  22478184.266   118123653.029    22478183.623    92044404.918                  
  21882970.453   114995755.559    21882972.329    89607075.570                  
  24692675.092   129760842.024    24692677.379   101112334.202                  
                 119096057.508                   119096057.508    22871140.199  
                 118239237.894                   118239237.894    22706601.378  
                 132738621.160                   132738621.160    25491090.843  
                 126794409.610                   126794409.610    24349534.154  
                 126162476.009                   126162476.009    24228176.827  
  25630383.272   134688545.978                                                  
  24745829.914   130040199.489                                                  
  26062321.193   136958412.214                                                  
  25044310.982   131608736.767                                                  
  26028032.771   136778249.183                                                  
  27147966.120   142663566.112                                                  
  24504385.034   128771401.305                                                  
  26260826.597   138001520.187                                                  
 21  9  2  6 18 32.0000000  0 21G 4G 7G 8G 9G16G21G27G30C24C26C33C34
                                C35E 2E 3E 5E 8E12E24E25E36
  21780440.912   114456986.421    21780442.127    89187262.755                  
  21957118.785   115385450.016    21957118.214    89910743.039                  
  20292106.705   106635699.384    20292109.100    83092742.696                  
  21165770.037   111226841.300    21165771.985    86670258.128                  
  24124253.520   126773809.934    24124253.002    98784787.629                  
  22477756.535   118121405.388    22477755.892    92042653.508                  
  21883507.613   114998578.272    21883509.472    89609275.087                  
  24692100.603   129757822.970    24692102.872   101109981.694                  
                 119095009.658                   119095009.658    22870938.958  
                 118239927.399                   118239927.399    22706733.805  
                 132739900.751                   132739900.751    25491336.577  
                 126791304.468                   126791304.468    24348937.864  
                 126164609.063                   126164609.063    24228586.456  
  25630212.444   134687648.216                                                  
  24746023.793   130041218.321                                                  
  26062843.594   136961157.449                                                  
  25044056.402   131607398.905                                                  
  26028255.938   136779421.962                                                  
  27148214.428   142664870.974                                                  
  24504437.747   128771678.234                                                  
  26260309.699   137998803.941                                                  
 21  9  2  6 18 33.0000000  0 21G 4G 7G 8G 9G16G21G27G30C24C26C33C34
                                C35E 2E 3E 5E 8E12E24E25E36
  21780973.998   114459787.734    21780975.177    89189445.593                  
  21956643.273   115382951.210    21956642.719    89908795.915                  
  20292309.108   106636763.039    20292311.520    83093571.519                  
  21165941.919   111227744.544    21165943.885    86670961.952                  
  24124732.463   126776326.801    24124731.945    98786748.825                  
  22477328.876   118119157.994    22477328.233    92040902.294                  
  21884044.846   115001401.382    21884046.686    89611474.910                  
  24691526.060   129754803.833    24691528.366   101107629.120                  
                 119093961.880                   119093961.880    22870737.753  
                 118240617.073                   118240617.073    22706866.232  
                 132741180.642                   132741180.642    25491582.366  
                 126788199.508                   126788199.508    24348341.575  
                 126166742.513                   126166742.513    24228996.157  
  25630041.598   134686750.474                                                  
  24746217.761   130042237.552                                                  
  26063366.013   136963902.749                                                  
  25043801.894   131606061.448                                                  
  26028479.193   136780595.148                                                  
  27148462.718   142666175.797                                                  
  24504490.443   128771955.141                                                  
  26259792.838   137996087.745                                                  
 21  9  2  6 18 34.0000000  0 21G 4G 7G 8G 9G16G21G27G30C24C26C33C34
                                C35E 2E 3E 5E 8E12E24E25E36
  21781507.138   114462589.413    21781508.318    89191628.720                  
  21956167.796   115380452.500    21956167.224    89906848.866                  
  20292511.617   106637827.281    20292514.012    83094400.801                  
  21166113.926   111228648.387    21166115.856    86671666.245                  
  24125211.407   126778843.590    24125210.889    98788709.956                  
  22476901.252   118116910.855    22476900.627    92039151.276                  
  21884582.113   115004224.870    21884583.972    89613675.035                  
  24690951.536   129751784.617    24690953.823   101105276.485                  
                 119092914.163                   119092914.163    22870536.548  
                 118241306.919                   118241306.919    22706998.713  
                 132742460.840                   132742460.840    25491828.208  
                 126785094.724                   126785094.724    24347745.339  
                 126168876.352                   126168876.352    24229405.948  
  25629870.752   134685852.726                                                  
  24746411.783   130043257.184                                                  
  26063888.431   136966648.122                                                  
  25043547.457   131604724.375                                                  
  26028702.520   136781768.740                                                  
  27148711.008   142667480.555                                                  
  24504543.139   128772232.035                                                  
  26259275.958   137993371.611                                                  
 21  9  2  6 18 35.0000000  0 21G 4G 7G 8G 9G16G21G27G30C24C26C33C34
                                C35E 2E 3E 5E 8E12E24E25E36
  21782040.332   114465391.453    21782041.547    89193812.126                  
  21955692.319   115377953.888    21955691.765    89904901.898                  
  20292714.252   106638892.137    20292716.664    83095230.558                  
  21166286.041   111229552.845    21166287.989    86672371.020                  
  24125690.297   126781360.296    24125689.796    98790671.030                  
  22476473.682   118114663.968    22476473.057    92037400.458                  
  21885119.506   115007048.751    21885121.347    89615875.458                  
  24690376.975   129748765.325    24690379.262   101102923.789                  
                 119091866.522                   119091866.522    22870335.360  
                 118241996.930                   118241996.930    22707131.212  
                 132743741.339                   132743741.339    25492074.121  
                 126781990.116                   126781990.116    24347149.139  
                 126171010.589                   126171010.589    24229815.792  
  25629699.942   134684954.999                                                  
  24746605.894   130044277.219                                                  
  26064410.886   136969393.566                                                  
  25043293.091   131603387.705                                                  
  26028925.919   136782942.754                                                  
  27148959.298   142668785.284                                                  
  24504595.817   128772508.915                                                  
  26258759.115   137990655.500                                                  
 21  9  2  6 18 36.0000000  0 21G 4G 7G 8G 9G16G21G27G30C24C26C33C34
                                C35E 2E 3E 5E 8E12E24E25E36
  21782573.615   114468193.866    21782574.812    89195995.824                  
  21955216.878   115375455.375    21955216.306    89902955.005                  
  20292916.994   106639957.594    20292919.424    83096060.785                  
  21166458.263   111230457.905    21166460.192    86673076.262                  
  24126169.204   126783876.923    24126168.686    98792632.036                  
  22476046.166   118112417.340    22476045.541    92035649.841                  
  21885656.935   115009872.999    21885658.776    89618076.173                  
  24689802.397   129745745.945    24689804.702   101100571.028                  
                 119090818.948                   119090818.948    22870134.173  
                 118242687.104                   118242687.104    22707263.765  
                 132745022.145                   132745022.145    25492320.088  
                 126778885.692                   126778885.692    24346552.957  
                 126173145.219                   126173145.219    24230225.743  
  25629529.097   134684057.278                                                  
  24746800.077   130045297.644                                                  
  26064933.340   136972139.086                                                  
  25043038.797   131602051.418                                                  
  26029149.425   136784117.188                                                  
  27149207.552   142670089.972                                                  
  24504648.495   128772785.777                                                  
  26258242.253   137987939.462                                                  
 21  9  2  6 18 37.0000000  0 21G 4G 7G 8G 9G16G21G27G30C24C26C33C34
                                C35E 2E 3E 5E 8E12E24E25E36
  21783106.988   114470996.634    21783108.167    89198179.801                  
  21954741.437   115372956.962    21954740.883    89901008.187                  
  20293119.879   106641023.661    20293122.273    83096891.484                  
  21166630.591   111231363.579    21166632.557    86673781.982                  
  24126648.076   126786393.456    24126647.576    98794592.969                  
  22475618.703   118110170.952    22475618.060    92033899.411                  
  21886194.435   115012697.652    21886196.294    89620277.199                  
  24689227.818   129742726.489    24689230.123   101098218.203                  
                 119089771.447                   119089771.447    22869933.021  
                 118243377.453                   118243377.453    22707396.335  
                 132746303.257                   132746303.257    25492566.091  
                 126775781.442                   126775781.442    24345956.829  
                 126175280.239                   126175280.239    24230635.748  
  25629358.287   134683159.566                                                  
  24746994.349   130046318.480                                                  
  26065455.795   136974884.676                                                  
  25042784.592   131600715.528                                                  
  26029372.984   136785292.032                                                  
  27149455.825   142671394.610                                                  
  24504701.172   128773062.634                                                  
  26257725.428   137985223.472                                                  
 21  9  2  6 18 38.0000000  0 21G 4G 7G 8G 9G16G21G27G30C24C26C33C34
                                C35E 2E 3E 5E 8E12E24E25E36
  21783640.378   114473799.813    21783641.575    89200364.112                  
  21954265.996   115370458.737    21954265.442    89899061.567                  
  20293322.835   106642090.313    20293325.266    83097722.641                  
  21166803.099   111232269.745    21166805.047    86674488.024                  
  24127126.966   126788909.825    24127126.466    98796553.734                  
  22475191.240   118107925.007    22475190.579    92032149.402                  
  21886732.007   115015522.843    21886733.848    89622478.726                  
  24688653.240   129739706.897    24688655.545   101095865.242                  
                 119088724.015                   119088724.015    22869731.888  
                 118244067.851                   118244067.851    22707528.977  
                 132747584.729                   132747584.729    25492812.183  
                 126772677.286                   126772677.286    24345360.736  
                 126177415.674                   126177415.674    24231045.824  
  25629187.441   134682261.927                                                  
  24747188.675   130047339.610                                                  
  26065978.267   136977630.548                                                  
  25042530.423   131599380.243                                                  
  26029596.579   136786467.593                                                  
  27149704.079   142672699.202                                                  
  24504753.886   128773339.452                                                  
  26257208.620   137982507.464                                                  
 21  9  2  6 18 39.0000000  0 21G 4G 7G 8G 9G16G21G27G30C24C26C33C34
                                C35E 2E 3E 5E 8E12E24E25E36
  21784173.875   114476603.320    21784175.055    89202548.664                  
  21953790.626   115367960.530    21953790.037    89897114.914                  
  20293525.935   106643157.551    20293528.347    83098554.253                  
  21166975.660   111233176.637    21166977.626    86675194.692                  
  24127605.820   126791426.199    24127605.302    98798514.546                  
  22474763.867   118105679.142    22474763.206    92030399.379                  
  21887269.668   115018348.264    21887271.509    89624680.356                  
  24688078.626   129736687.285    24688080.913   101093512.298                  
                 119087676.653                   119087676.653    22869530.736  
                 118244758.540                   118244758.540    22707661.601  
                 132748866.452                   132748866.452    25493058.311  
                 126769573.394                   126769573.394    24344764.661  
                 126179551.488                   126179551.488    24231455.971  
  25629016.613   134681364.223                                                  
  24747383.107   130048361.232                                                  
  26066500.739   136980376.285                                                  
  25042276.362   131598045.125                                                  
  26029820.299   136787643.262                                                  
  27149952.333   142674003.737                                                  
  24504806.546   128773616.261                                                  
  26256691.794   137979791.561                                                  
 21  9  2  6 18 40.0000000  0 21G 4G 7G 8G 9G16G21G27G30C24C26C33C34
                                C35E 2E 3E 5E 8E12E24E25E36
  21784707.445   114479407.189    21784708.624    89204733.496                  
  21953315.239   115365462.431    21953314.667    89895168.336                  
  20293729.141   106644225.418    20293731.536    83099386.359                  
  21167148.364   111234084.135    21167150.312    86675901.836                  
  24128084.638   126793942.492    24128084.138    98800475.293                  
  22474336.547   118103433.523    22474335.886    92028649.546                  
  21887807.383   115021174.068    21887809.223    89626882.274                  
  24687503.994   129733667.591    24687506.299   101091159.289                  
                 119086629.358                   119086629.358    22869329.620  
                 118245449.394                   118245449.394    22707794.278  
                 132750148.485                   132750148.485    25493304.529  
                 126766469.685                   126766469.685    24344168.622  
                 126181687.700                   126181687.700    24231866.226  
  25628845.785   134680466.535                                                  
  24747577.576   130049383.250                                                  
  26067023.265   136983122.083                                                  
  25042022.371   131596710.411                                                  
  26030044.109   136788819.345                                                  
  27150200.588   142675308.226                                                  
  24504859.224   128773893.059                                                  
  26256175.004   137977075.724                                                  
 21  9  2  6 18 41.0000000  0 21G 4G 7G 8G 9G16G21G27G30C24C26C33C34
                                C35E 2E 3E 5E 8E12E24E25E36
  21785241.067   114482211.418    21785242.246    89206918.610                  
  21952839.887   115362964.429    21952839.297    89893221.843                  
  20293932.455   106645293.883    20293934.867    83100218.929                  
  21167321.158   111234992.241    21167323.123    86676609.449                  
  24128563.457   126796458.696    24128562.956    98802435.972                  
  22473909.263   118101188.159    22473908.602    92026899.915                  
  21888345.187   115024000.247    21888347.027    89629084.496                  
  24686929.344   129730647.821    24686931.649   101088806.219                  
                 119085582.136                   119085582.136    22869128.504  
                 118246140.418                   118246140.418    22707926.973  
                 132751430.816                   132751430.816    25493550.782  
                 126763366.153                   126763366.153    24343572.619  
                 126183824.301                   126183824.301    24232276.517  
  25628674.957   134679568.855                                                  
  24747772.134   130050405.677                                                  
  26067545.774   136985867.961                                                  
  25041768.453   131595376.085                                                  
  26030267.972   136789995.844                                                  
  27150448.806   142676612.676                                                  
  24504911.902   128774169.839                                                  
  26255658.196   137974359.938                                                  
 21  9  2  6 18 42.0000000  0 21G 4G 7G 8G 9G16G21G27G30C24C26C33C34
                                C35E 2E 3E 5E 8E12E24E25E36
  21785774.761   114485016.020    21785775.941    89209104.016                  
  21952364.535   115360466.533    21952363.981    89891275.431                  
  20294135.894   106646362.940    20294138.306    83101051.966                  
  21167494.076   111235900.958    21167496.042    86677317.542                  
  24129042.257   126798974.827    24129041.757    98804396.594                  
  22473482.015   118098943.060    22473481.354    92025150.484                  
  21888883.062   115026826.828    21888884.903    89631287.024                  
  24686354.676   129727627.974    24686356.981   101086453.094                  
                 119084534.980                   119084534.980    22868927.406  
                 118246831.609                   118246831.609    22708059.722  
                 132752713.454                   132752713.454    25493797.088  
                 126760262.796                   126760262.796    24342976.669  
                 126185961.298                   126185961.298    24232686.915  
  25628504.147   134678671.186                                                  
  24747966.781   130051428.493                                                  
  26068068.317   136988613.909                                                  
  25041514.623   131594042.161                                                  
  26030491.942   136791172.755                                                  
  27150697.025   142677917.082                                                  
  24504964.562   128774446.611                                                  
  26255141.424   137971644.189                                                  
 21  9  2  6 18 43.0000000  0 21G 4G 7G 8G 9G16G21G27G30C24C26C33C34
                                C35E 2E 3E 5E 8E12E24E25E36
  21786308.527   114487820.977    21786309.706    89211289.695                  
  21951889.219   115357968.721    21951888.665    89889329.089                  
  20294339.440   106647432.582    20294341.834    83101885.453                  
  21167667.120   111236810.276    21167669.085    86678026.106                  
  24129521.058   126801490.882    24129520.540    98806357.156                  
  22473054.838   118096698.207    22473054.177    92023401.255                  
  21889421.027   115029653.790    21889422.867    89633489.856                  
  24685780.026   129724608.036    24685782.295   101084099.898                  
                 119083487.895                   119083487.895    22868726.326  
                 118247522.973                   118247522.973    22708192.471  
                 132753996.395                   132753996.395    25494043.466  
                 126757159.625                   126757159.625    24342380.719  
                 126188098.685                   126188098.685    24233097.384  
  25628333.337   134677773.527                                                  
  24748161.500   130052451.715                                                  
  26068590.879   136991359.925                                                  
  25041260.865   131592708.628                                                  
  26030715.984   136792350.085                                                  
  27150945.243   142679221.442                                                  
  24505017.222   128774723.356                                                  
  26254624.634   137968928.509                                                  
 21  9  2  6 18 44.0000000  0 21G 4G 7G 8G 9G16G21G27G30C24C26C33C34
                                C35E 2E 3E 5E 8E12E24E25E36
  21786842.364   114490626.292    21786843.543    89213475.659                  
  21951413.939   115355471.019    21951413.367    89887382.832                  
  20294543.093   106648502.813    20294545.505    83102719.402                  
  21167840.253   111237720.199    21167842.218    86678735.137                  
  24129999.822   126804006.840    24129999.322    98808317.649                  
  22472627.697   118094453.597    22472627.036    92021652.211                  
  21889959.045   115032481.117    21889960.886    89635692.972                  
  24685205.322   129721588.019    24685207.628   101081746.645                  
                 119082440.879                   119082440.879    22868525.264  
                 118248214.499                   118248214.499    22708325.274  
                 132755279.641                   132755279.641    25494289.898  
                 126754056.626                   126754056.626    24341784.823  
                 126190236.464                   126190236.464    24233507.907  
  25628162.527   134676875.876                                                  
  24748356.272   130053475.327                                                  
  26069113.441   136994106.020                                                  
  25041007.179   131591375.472                                                  
  26030940.097   136793527.829                                                  
  27151193.444   142680525.745                                                  
  24505069.900   128775000.095                                                  
  26254107.880   137966212.871                                                  
 21  9  2  6 18 45.0000000  0 21G 4G 7G 8G 9G16G21G27G30C24C26C33C34
                                C35E 2E 3E 5E 8E12E24E25E36
  21787376.255   114493431.977    21787377.434    89215661.914                  
  21950938.659   115352973.421    21950938.087    89885436.657                  
  20294746.871   106649573.638    20294749.284    83103553.813                  
  21168013.547   111238630.735    21168015.494    86679444.648                  
  24130478.587   126806522.719    24130478.087    98810278.079                  
  22472200.627   118092209.237    22472199.966    92019903.363                  
  21890497.135   115035308.836    21890498.976    89637896.395                  
  24684630.619   129718567.923    24684632.924   101079393.328                  
                 119081393.933                   119081393.933    22868324.202  
                 118248906.194                   118248906.194    22708458.112  
                 132756563.187                   132756563.187    25494536.383  
                 126750953.810                   126750953.810    24341188.945  
                 126192374.642                   126192374.642    24233918.519  
  25627991.699   134675978.234                                                  
  24748551.152   130054499.347                                                  
  26069636.020   136996852.183                                                  
  25040753.564   131590042.722                                                  
  26031164.300   136794705.980                                                  
  27151441.645   142681830.011                                                  
  24505122.560   128775276.813                                                  
  26253591.125   137963497.288                                                  
 21  9  2  6 18 46.0000000  0 21G 4G 7G 8G 9G16G21G27G30C24C26C33C34
                                C35E 2E 3E 5E 8E12E24E25E36
  21787910.235   114496238.023    21787911.414    89217848.446                  
  21950463.396   115350475.927    21950462.825    89883490.559                  
  20294950.757   106650645.055    20294953.151    83104388.687                  
  21168186.912   111239541.878    21168188.877    86680154.632                  
  24130957.316   126809038.515    24130956.816    98812238.437                  
  22471773.575   118089965.132    22471772.914    92018154.715                  
  21891035.297   115038136.937    21891037.137    89640100.112                  
  24684055.898   129715547.745    24684058.185   101077039.945                  
                 119080347.054                   119080347.054    22868123.140  
                 118249598.057                   118249598.057    22708590.986  
                 132757847.038                   132757847.038    25494782.940  
                 126747851.168                   126747851.168    24340593.120  
                 126194513.206                   126194513.206    24234329.203  
  25627820.907   134675080.598                                                  
  24748746.103   130055523.763                                                  
  26070158.618   136999598.421                                                  
  25040500.020   131588710.368                                                  
  26031388.574   136795884.546                                                  
  27151689.828   142683134.229                                                  
  24505175.202   128775553.517                                                  
  26253074.353   137960781.758                                                  
 21  9  2  6 18 47.0000000  0 21G 4G 7G 8G 9G16G21G27G30C24C26C33C34
                                C35E 2E 3E 5E 8E12E24E25E36
  21788444.286   114499044.429    21788445.465    89220035.254                  
  21949988.152   115347978.524    21949987.580    89881544.531                  
  20295154.768   106651717.105    20295157.162    83105224.054                  
  21168360.420   111240453.640    21168362.386    86680865.098                  
  24131436.045   126811554.224    24131435.545    98814198.730                  
  22471346.595   118087721.303    22471345.934    92016406.277                  
  21891573.565   115040965.417    21891575.388    89642304.120                  
  24683481.158   129712527.472    24683483.445   101074686.483                  
                 119079300.241                   119079300.241    22867922.113  
                 118250290.087                   118250290.087    22708723.878  
                 132759131.191                   132759131.191    25495029.533  
                 126744748.703                   126744748.703    24339997.313  
                 126196652.160                   126196652.160    24234739.976  
  25627650.079   134674182.965                                                  
  24748941.125   130056548.569                                                  
  26070681.215   137002344.731                                                  
  25040246.566   131587378.402                                                  
  26031612.920   136797063.519                                                  
  27151937.993   142684438.410                                                  
  24505227.862   128775830.203                                                  
  26252557.635   137958066.273                                                  
 21  9  2  6 18 48.0000000  0 21G 4G 7G 8G 9G16G21G27G30C24C26C33C34
                                C35E 2E 3E 5E 8E12E24E25E36
  21788978.373   114501851.203    21788979.553    89222222.348                  
  21949512.943   115345481.232    21949512.353    89879598.587                  
  20295358.885   106652789.731    20295361.280    83106059.864                  
  21168534.035   111241366.001    21168536.001    86681576.027                  
  24131914.738   126814069.841    24131914.238    98816158.949                  
  22470919.633   118085477.712    22470918.972    92014658.024                  
  21892111.852   115043794.284    21892113.692    89644508.434                  
  24682906.401   129709507.147    24682908.706   101072332.988                  
                 119078253.499                   119078253.499    22867721.104  
                 118250982.285                   118250982.285    22708856.806  
                 132760415.650                   132760415.650    25495276.197  
                 126741646.419                   126741646.419    24339401.560  
                 126198791.509                   126198791.509    24235150.821  
  25627479.252   134673285.364                                                  
  24749136.201   130057573.792                                                  
  26071203.848   137005091.122                                                  
  25039993.183   131586046.840                                                  
  26031837.354   136798242.921                                                  
  27152186.176   142685742.546                                                  
  24505280.522   128776106.883                                                  
  26252040.898   137955350.852                                                  
 21  9  2  6 18 49.0000000  0 21G 4G 7G 8G 9G16G21G27G30C24C26C33C34
                                C35E 2E 3E 5E 8E12E24E25E36
  21789512.568   114504658.340    21789513.747    89224409.730                  
  21949037.734   115342984.028    21949037.162    89877652.716                  
  20295563.093   106653862.933    20295565.505    83106896.125                  
  21168707.776   111242278.970    21168709.724    86682287.433                  
  24132393.432   126816585.380    24132392.931    98818119.109                  
  22470492.760   118083234.370    22470492.098    92012909.970                  
  21892650.263   115046623.535    21892652.086    89646713.043                  
  24682331.644   129706486.723    24682333.931   101069979.410                  
                 119077206.823                   119077206.823    22867520.096  
                 118251674.648                   118251674.648    22708989.751  
                 132761700.405                   132761700.405    25495522.932  
                 126738544.310                   126738544.310    24338805.842  
                 126200931.251                   126200931.251    24235561.719  
  25627308.460   134672387.755                                                  
  24749331.385   130058599.402                                                  
  26071726.482   137007837.575                                                  
  25039739.854   131584715.665                                                  
  26032061.879   136799422.734                                                  
  27152434.341   142687046.630                                                  
  24505333.164   128776383.540                                                  
  26251524.180   137952635.489                                                  
 21  9  2  6 18 50.0000000  0 21G 4G 7G 8G 9G16G21G27G30C24C26C33C34
                                C35E 2E 3E 5E 8E12E24E25E36
  21790046.816   114507465.839    21790047.995    89226597.391                  
  21948562.561   115340486.941    21948561.971    89875706.934                  
  20295767.443   106654936.735    20295769.837    83107732.857                  
  21168881.624   111243192.543    21168883.571    86682999.308                  
  24132872.125   126819100.839    24132871.625    98820079.207                  
  22470065.904   118080991.278    22470065.243    92011162.101                  
  21893188.728   115049453.168    21893190.569    89648917.952                  
  24681756.851   129703466.227    24681759.138   101067625.777                  
                 119076160.220                   119076160.220    22867319.123  
                 118252367.181                   118252367.181    22709122.768  
                 132762985.466                   132762985.466    25495769.721  
                 126735442.380                   126735442.380    24338210.143  
                 126203071.383                   126203071.383    24235972.724  
  25627137.667   134671490.157                                                  
  24749526.622   130059625.423                                                  
  26072249.115   137010584.101                                                  
  25039486.614   131583384.890                                                  
  26032286.457   136800602.960                                                  
  27152682.488   142688350.684                                                  
  24505385.806   128776660.188                                                  
  26251007.479   137949920.168                                                  
 21  9  2  6 18 51.0000000  0 21G 4G 7G 8G 9G16G21G27G30C24C26C33C34
                                C35E 2E 3E 5E 8E12E24E25E36
  21790581.135   114510273.704    21790582.315    89228785.335                  
  21948087.406   115337989.949    21948086.816    89873761.226                  
  20295971.882   106656011.157    20295974.295    83108570.066                  
  21169055.579   111244106.726    21169057.544    86683711.661                  
  24133350.783   126821616.216    24133350.282    98822039.243                  
  22469639.121   118078748.441    22469638.442    92009414.438                  
  21893727.265   115052283.194    21893729.088    89651123.167                  
  24681182.058   129700445.656    24681184.363   101065272.085                  
                 119075113.681                   119075113.681    22867118.132  
                 118253059.882                   118253059.882    22709255.785  
                 132764270.852                   132764270.852    25496016.564  
                 126732340.640                   126732340.640    24337614.479  
                 126205211.921                   126205211.921    24236383.783  
  25626966.840   134670592.573                                                  
  24749721.948   130060651.832                                                  
  26072771.784   137013330.704                                                  
  25039233.464   131582054.508                                                  
  26032511.124   136801783.603                                                  
  27152930.617   142689654.682                                                  
  24505438.448   128776936.822                                                  
  26250490.778   137947204.899                                                  
 21  9  2  6 18 52.0000000  0 21G 4G 7G 8G 9G16G21G27G30C24C26C33C34
                                C35E 2E 3E 5E 8E12E24E25E36
  21791115.526   114513081.927    21791116.706    89230973.559                  
  21947612.269   115335493.068    21947611.679    89871815.602                  
  20296176.465   106657086.160    20296178.859    83109407.731                  
  21169229.659   111245021.523    21169231.624    86684424.487                  
  24133829.422   126824131.510    24133828.922    98823999.211                  
  22469212.355   118076505.859    22469211.694    92007666.972                  
  21894265.855   115055113.599    21894267.696    89653328.675                  
  24680607.265   129697424.999    24680609.535   101062918.329                  
                 119074067.212                   119074067.212    22866917.177  
                 118253752.751                   118253752.751    22709388.838  
                 132765556.520                   132765556.520    25496263.460  
                 126729239.071                   126729239.071    24337018.869  
                 126207352.841                   126207352.841    24236794.914  
  25626796.047   134669694.999                                                  
  24749917.346   130061678.645                                                  
  26073294.453   137016077.380                                                  
  25038980.385   131580724.510                                                  
  26032735.880   136802964.651                                                  
  27153178.764   142690958.637                                                  
  24505491.073   128777213.440                                                  
  26249974.078   137944489.680                                                  
 21  9  2  6 18 53.0000000  0 22G 4G 7G 8G 9G16G21G27G30C24C25C26C33
                                C34C35E 2E 3E 5E 8E12E24E25E36
  21791649.989   114515890.517    21791651.168    89233162.071                  
  21947137.113   115332996.281    21947136.559    89869870.056                  
  20296381.136   106658161.750    20296383.549    83110245.855                  
  21169403.864   111245936.921    21169405.811    86685137.785                  
  24134308.062   126826646.723    24134307.544    98825959.116                  
  22468785.660   118074263.533    22468784.999    92005919.702                  
  21894804.535   115057944.382    21894806.375    89655534.485                  
  24680032.419   129694404.269    24680034.724   101060564.511                  
                 119073020.815                   119073020.815    22866716.222  
                 137175294.781                   137175294.781    26343071.884  
                 118254445.790                   118254445.790    22709521.927  
                 132766842.491                   132766842.491    25496510.428  
                 126726137.677                   126726137.677    24336423.258  
                 126209494.153                   126209494.153    24237206.134  
  25626625.237   134668797.430                                                  
  24750112.797   130062705.852                                                  
  26073817.157   137018824.126                                                  
  25038727.359   131579394.918                                                  
  26032960.708   136804146.121                                                  
  27153426.876   142692262.547                                                  
  24505543.715   128777490.042                                                  
  26249457.395   137941774.514                                                  
 21  9  2  6 18 54.0000000  0 22G 4G 7G 8G 9G16G21G27G30C24C25C26C33
                                C34C35E 2E 3E 5E 8E12E24E25E36
  21792184.505   114518699.465    21792185.684    89235350.863                  
  21946662.012   115330499.599    21946661.440    89867924.589                  
  20296585.915   106659237.932    20296588.328    83111084.436                  
  21169578.158   111246852.921    21169580.124    86685851.551                  
  24134786.666   126829161.850    24134786.165    98827918.956                  
  22468359.002   118072021.456    22468358.341    92004172.634                  
  21895343.304   115060775.561    21895345.144    89657740.594                  
  24679457.572   129691383.454    24679459.878   101058210.629                  
                 119071974.489                   119071974.489    22866515.285  
                 137173169.930                   137173169.930    26342663.827  
                 118255138.997                   118255138.997    22709655.069  
                 132768128.767                   132768128.767    25496757.431  
                 126723036.466                   126723036.466    24335827.719  
                 126211635.855                   126211635.855    24237617.443  
  25626454.445   134667899.871                                                  
  24750308.356   130063733.466                                                  
  26074339.862   137021570.937                                                  
  25038474.423   131578065.715                                                  
  26033185.608   136805328.003                                                  
  27153675.005   142693566.417                                                  
  24505596.357   128777766.625                                                  
  26248940.748   137939059.407                                                  
 21  9  2  6 18 55.0000000  0 22G 4G 7G 8G 9G16G21G27G30C24C25C26C33
                                C34C35E 2E 3E 5E 8E12E24E25E36
  21792719.092   114521508.774    21792720.272    89237539.938                  
  21946186.946   115328003.020    21946186.356    89865979.203                  
  20296790.820   106660314.702    20296793.214    83111923.478                  
  21169752.596   111247769.531    21169754.543    86686565.793                  
  24135265.252   126831676.902    24135264.751    98829878.738                  
  22467932.397   118069779.646    22467931.735    92002425.766                  
  21895882.126   115063607.116    21895883.967    89659947.000                  
  24678882.726   129688362.563    24678885.013   101055856.688                  
                 119070928.232                   119070928.232    22866314.366  
                 137171044.986                   137171044.986    26342255.752  
                 118255832.372                   118255832.372    22709788.193  
                 132769415.342                   132769415.342    25497004.506  
                 126719935.435                   126719935.435    24335232.181  
                 126213777.949                   126213777.949    24238028.806  
  25626283.635   134667002.326                                                  
  24750503.986   130064761.468                                                  
  26074862.567   137024317.825                                                  
  25038221.559   131576736.903                                                  
  26033410.597   136806510.298                                                  
  27153923.116   142694870.221                                                  
  24505648.981   128778043.194                                                  
  26248424.083   137936344.347                                                  
 21  9  2  6 18 56.0000000  0 22G 4G 7G 8G 9G16G21G27G30C24C25C26C33
                                C34C35E 2E 3E 5E 8E12E24E25E36
  21793253.751   114524318.452    21793254.949    89239729.293                  
  21945711.880   115325506.547    21945711.308    89864033.902                  
  20296995.849   106661392.096    20296998.261    83112763.008                  
  21169927.140   111248686.749    21169929.088    86687280.508                  
  24135743.838   126834191.865    24135743.337    98831838.445                  
  22467505.845   118067538.073    22467505.184    92000679.089                  
  21896421.020   115066439.047    21896422.861    89662153.700                  
  24678307.862   129685341.586    24678310.149   101053502.680                  
                 119069882.042                   119069882.042    22866113.464  
                 137168919.943                   137168919.943    26341847.659  
                 118256525.914                   118256525.914    22709921.407  
                 132770702.226                   132770702.226    25497251.635  
                 126716834.579                   126716834.579    24334636.695  
                 126215920.439                   126215920.439    24238440.240  
  25626112.843   134666104.778                                                  
  24750699.687   130065789.866                                                  
  26075385.307   137027064.777                                                  
  25037968.766   131575408.487                                                  
  26033635.657   136807693.007                                                  
  27154171.228   142696173.997                                                  
  24505701.605   128778319.745                                                  
  26247907.436   137933629.337                                                  
 21  9  2  6 18 57.0000000  0 22G 4G 7G 8G 9G16G21G27G30C24C25C26C33
                                C34C35E 2E 3E 5E 8E12E24E25E36
  21793788.500   114527128.495    21793789.679    89241918.936                  
  21945236.832   115323010.177    21945236.260    89862088.676                  
  20297200.985   106662470.078    20297203.380    83113602.991                  
  21170101.792   111249604.571    21170103.740    86687995.691                  
  24136222.424   126836706.749    24136221.906    98833798.098                  
  22467079.347   118065296.765    22467078.686    91998932.617                  
  21896960.003   115069271.362    21896961.826    89664360.698                  
  24677732.962   129682320.536    24677735.267   101051148.618                  
                 119068835.921                   119068835.921    22865912.563  
                 137166794.804                   137166794.804    26341439.549  
                 118257219.626                   118257219.626    22710054.620  
                 132771989.407                   132771989.407    25497498.817  
                 126713733.905                   126713733.905    24334041.264  
                 126218063.315                   126218063.315    24238851.763  
  25625942.069   134665207.241                                                  
  24750895.442   130066818.672                                                  
  26075908.047   137029811.808                                                  
  25037716.062   131574080.467                                                  
  26033860.807   136808876.130                                                  
  27154419.303   142697477.713                                                  
  24505754.248   128778596.285                                                  
  26247390.807   137930914.382                                                  
 21  9  2  6 18 58.0000000  0 22G 4G 7G 8G 9G16G21G27G30C24C25C26C33
                                C34C35E 2E 3E 5E 8E12E24E25E36
  21794323.302   114529938.889    21794324.481    89244108.857                  
  21944761.820   115320513.906    21944761.248    89860143.532                  
  20297406.229   106663548.628    20297408.623    83114443.423                  
  21170276.551   111250523.003    21170278.517    86688711.355                  
  24136700.956   126839221.536    24136700.456    98835757.672                  
  22466652.885   118063055.724    22466652.224    91997186.347                  
  21897499.040   115072104.070    21897500.881    89666568.003                  
  24677158.062   129679299.407    24677160.367   101048794.489                  
                 119067789.874                   119067789.874    22865711.679  
                 137164669.571                   137164669.571    26341031.420  
                 118257913.508                   118257913.508    22710187.852  
                 132773276.895                   132773276.895    25497746.089  
                 126710633.410                   126710633.410    24333445.832  
                 126220206.590                   126220206.590    24239263.359  
  25625771.259   134664309.720                                                  
  24751091.305   130067847.874                                                  
  26076430.806   137032558.909                                                  
  25037463.412   131572752.835                                                  
  26034086.028   136810059.663                                                  
  27154667.379   142698781.398                                                  
  24505806.854   128778872.804                                                  
  26246874.160   137928199.483                                                  
 21  9  2  6 18 59.0000000  0 22G 4G 7G 8G 9G16G21G27G30C24C25C26C33
                                C34C35E 2E 3E 5E 8E12E24E25E36
  21794858.157   114532749.648    21794859.355    89246299.058                  
  21944286.808   115318017.744    21944286.218    89858198.468                  
  20297611.580   106664627.798    20297613.974    83115284.332                  
  21170451.453   111251442.052    21170453.401    86689427.497                  
  24137179.507   126841736.255    24137179.006    98837717.191                  
  22466226.477   118060814.914    22466225.798    91995440.266                  
  21898038.167   115074937.136    21898040.007    89668775.585                  
  24676583.144   129676278.190    24676585.449   101046440.301                  
                 119066743.896                   119066743.896    22865510.796  
                 137162544.243                   137162544.243    26340623.274  
                 118258607.558                   118258607.558    22710321.154  
                 132774564.683                   132774564.683    25497993.378  
                 126707533.097                   126707533.097    24332850.436  
                 126222350.254                   126222350.254    24239675.025  
  25625600.467   134663412.204                                                  
  24751287.221   130068877.472                                                  
  26076953.564   137035306.081                                                  
  25037210.833   131571425.601                                                  
  26034311.321   136811243.613                                                  
  27154915.454   142700085.033                                                  
  24505859.460   128779149.314                                                  
  26246357.548   137925484.637                                                  
 21  9  2  6 19  0.0000000  0 22G 4G 7G 8G 9G16G21G27G30C24C25C26C33
                                C34C35E 2E 3E 5E 8E12E24E25E36
  21795393.102   114535560.773    21795394.282    89248489.543                  
  21943811.813   115315521.678    21943811.242    89856253.485                  
  20297817.055   106665707.567    20297819.468    83116125.710                  
  21170626.462   111252361.697    21170628.392    86690144.101                  
  24137658.021   126844250.875    24137657.503    98839676.638                  
  22465800.104   118058574.366    22465799.443    91993694.382                  
  21898577.347   115077770.610    21898579.187    89670983.489                  
  24676008.226   129673256.911    24676010.495   101044086.055                  
                 119065697.985                   119065697.985    22865309.948  
                 137160418.816                   137160418.816    26340215.092  
                 118259301.774                   118259301.774    22710454.475  
                 132775852.774                   132775852.774    25498240.739  
                 126704432.962                   126704432.962    24332255.094  
                 126224494.311                   126224494.311    24240086.763  
  25625429.675   134662514.700                                                  
  24751483.226   130069907.463                                                  
  26077476.340   137038053.320                                                  
  25036958.362   131570098.758                                                  
  26034536.685   136812427.977                                                  
  27155163.512   142701388.629                                                  
  24505912.085   128779425.803                                                  
  26245840.937   137922769.847                                                  
 21  9  2  6 19  1.0000000  0 22G 4G 7G 8G 9G16G21G27G30C24C25C26C33
                                C34C35E 2E 3E 5E 8E12E24E25E36
  21795928.119   114538372.262    21795929.298    89250680.311                  
  21943336.855   115313025.719    21943336.283    89854308.581                  
  20298022.639   106666787.937    20298025.033    83116967.559                  
  21170801.579   111253281.966    21170803.526    86690861.196                  
  24138136.518   126846765.422    24138136.018    98841636.025                  
  22465373.803   118056334.070    22465373.142    91991948.699                  
  21899116.616   115080604.460    21899118.439    89673191.684                  
  24675433.254   129670235.539    24675435.559   101041731.739                  
                 119064652.144                   119064652.144    22865109.100  
                 137158293.296                   137158293.296    26339806.928  
                 118259996.162                   118259996.162    22710587.814  
                 132777141.167                   132777141.167    25498488.171  
                 126701333.007                   126701333.007    24331659.788  
                 126226638.758                   126226638.758    24240498.573  
  25625258.900   134661617.199                                                  
  24751679.303   130070937.860                                                  
  26077999.134   137040800.642                                                  
  25036705.944   131568772.311                                                  
  26034762.138   136813612.758                                                  
  27155411.588   142702692.176                                                  
  24505964.691   128779702.278                                                  
  26245324.344   137920055.109                                                  
 21  9  2  6 19  2.0000000  0 22G 4G 7G 8G 9G16G21G27G30C24C25C26C33
                                C34C35E 2E 3E 5E 8E12E24E25E36
  21796463.207   114541184.109    21796464.386    89252871.363                  
  21942861.914   115310529.859    21942861.342    89852363.757                  
  20298228.347   106667868.902    20298230.741    83117809.872                  
  21170976.802   111254202.825    21170978.768    86691578.747                  
  24138614.997   126849279.880    24138614.496    98843595.340                  
  22464947.519   118054094.027    22464946.858    91990203.211                  
  21899655.939   115083438.688    21899657.779    89675400.171                  
  24674858.300   129667214.087    24674860.605   101039377.358                  
                 119063606.375                   119063606.375    22864908.288  
                 137156167.683                   137156167.683    26339398.728  
                 118260690.718                   118260690.718    22710721.206  
                 132778429.868                   132778429.868    25498735.657  
                 126698233.235                   126698233.235    24331064.499  
                 126228783.600                   126228783.600    24240910.471  
  25625088.108   134660719.710                                                  
  24751875.451   130071968.655                                                  
  26078521.964   137043548.028                                                  
  25036453.598   131567446.257                                                  
  26034987.681   136814797.949                                                  
  27155659.646   142703995.681                                                  
  24506017.298   128779978.735                                                  
  26244807.768   137917340.410                                                  
 21  9  2  6 19  3.0000000  0 22G 4G 7G 8G 9G16G21G27G30C24C25C26C33
                                C34C35E 2E 3E 5E 8E12E24E25E36
  21796998.348   114543996.323    21796999.528    89255062.699                  
  21942386.973   115308034.110    21942386.401    89850419.016                  
  20298434.162   106668950.458    20298436.557    83118652.640                  
  21171152.151   111255124.298    21171154.117    86692296.782                  
  24139093.475   126851794.253    24139092.957    98845554.595                  
  22464521.325   118051854.250    22464520.646    91988457.931                  
  21900195.369   115086273.298    21900197.191    89677608.958                  
  24674283.329   129664192.559    24674285.616   101037022.926                  
                 119062560.677                   119062560.677    22864707.458  
                 137154041.971                   137154041.971    26338990.492  
                 118261385.443                   118261385.443    22710854.616  
                 132779718.868                   132779718.868    25498983.197  
                 126695133.638                   126695133.638    24330469.264  
                 126230928.832                   126230928.832    24241322.442  
  25624917.316   134659822.229                                                  
  24752071.689   130072999.844                                                  
  26079044.776   137046295.476                                                  
  25036201.341   131566120.606                                                  
  26035213.295   136815983.554                                                  
  27155907.668   142705299.122                                                  
  24506069.904   128780255.184                                                  
  26244291.174   137914625.784                                                  
 21  9  2  6 19  4.0000000  0 22G 4G 7G 8G 9G16G21G27G30C24C25C26C33
                                C34C35E 2E 3E 5E 8E12E24E25E36
  21797533.561   114546808.890    21797534.741    89257254.309                  
  21941912.086   115305538.462    21941911.496    89848474.355                  
  20298640.085   106670032.597    20298642.479    83119495.868                  
  21171327.625   111256046.366    21171329.573    86693015.274                  
  24139571.919   126854308.559    24139571.418    98847513.794                  
  22464095.131   118049614.723    22464094.488    91986712.847                  
  21900734.835   115089108.289    21900736.675    89679818.044                  
  24673708.339   129661170.957    24673710.627   101034668.431                  
                 119061515.048                   119061515.048    22864506.664  
                 137151916.167                   137151916.167    26338582.256  
                 118262080.336                   118262080.336    22710988.062  
                 132781008.168                   132781008.168    25499230.772  
                 126692034.224                   126692034.224    24329874.065  
                 126233074.456                   126233074.456    24241734.501  
  25624746.542   134658924.758                                                  
  24752267.998   130074031.438                                                  
  26079567.623   137049043.012                                                  
  25035949.155   131564795.344                                                  
  26035438.981   136817169.559                                                  
  27156155.708   142706602.542                                                  
  24506122.528   128780531.612                                                  
  26243774.599   137911911.202                                                  
 21  9  2  6 19  5.0000000  0 22G 4G 7G 8G 9G16G21G27G30C24C25C26C33
                                C34C35E 2E 3E 5E 8E12E24E25E36
  21798068.846   114549621.825    21798070.025    89259446.207                  
  21941437.199   115303042.913    21941436.627    89846529.769                  
  20298846.115   106671115.321    20298848.527    83120339.547                  
  21171503.206   111256969.051    21171505.154    86693734.247                  
  24140050.362   126856822.774    24140049.861    98849472.918                  
  22463669.026   118047375.452    22463668.365    91984967.960                  
  21901274.408   115091943.665    21901276.212    89682027.425                  
  24673133.314   129658149.265    24673135.619   101032313.867                  
                 119060469.483                   119060469.483    22864305.852  
                 137149790.266                   137149790.266    26338174.003  
                 118262775.398                   118262775.398    22711121.544  
                 132782297.771                   132782297.771    25499478.437  
                 126688934.993                   126688934.993    24329278.883  
                 126235220.473                   126235220.473    24242146.615  
  25624575.768   134658027.289                                                  
  24752464.378   130075063.418                                                  
  26080090.453   137051790.609                                                  
  25035697.041   131563470.473                                                  
  26035664.756   136818355.997                                                  
  27156403.712   142707905.907                                                  
  24506175.117   128780808.028                                                  
  26243258.041   137909196.673                                                  
 21  9  2  6 19  6.0000000  0 22G 4G 7G 8G 9G16G21G27G30C24C25C26C33
                                C34C35E 2E 3E 5E 8E12E24E25E36
  21798604.202   114552435.134    21798605.381    89261638.395                  
  21940962.312   115300547.473    21940961.740    89844585.272                  
  20299052.252   106672198.652    20299054.682    83121183.698                  
  21171678.894   111257892.331    21171680.860    86694453.688                  
  24140528.805   126859336.904    24140528.287    98851431.980                  
  22463242.957   118045136.453    22463242.296    91983223.286                  
  21901814.016   115094779.410    21901815.857    89684237.097                  
  24672558.307   129655127.507    24672560.576   101029959.249                  
                 119059423.997                   119059423.997    22864105.093  
                 137147664.269                   137147664.269    26337765.713  
                 118263470.629                   118263470.629    22711255.061  
                 132783587.676                   132783587.676    25499726.155  
                 126685835.936                   126685835.936    24328683.738  
                 126237366.880                   126237366.880    24242558.799  
  25624404.958   134657129.811                                                  
  24752660.848   130076095.819                                                  
  26080613.336   137054538.268                                                  
  25035444.998   131562145.992                                                  
  26035890.603   136819542.841                                                  
  27156651.734   142709209.230                                                  
  24506227.705   128781084.433                                                  
  26242741.501   137906482.223                                                  
 21  9  2  6 19  7.0000000  0 22G 4G 7G 8G 9G16G21G27G30C24C25C26C33
                                C34C35E 2E 3E 5E 8E12E24E25E36
  21799139.611   114555248.809    21799140.808    89263830.867                  
  21940487.478   115298052.132    21940486.906    89842640.851                  
  20299258.532   106673282.605    20299260.944    83122028.339                  
  21171854.725   111258816.230    21171856.655    86695173.610                  
  24141007.194   126861850.954    24141006.694    98853390.981                  
  22462816.942   118042897.701    22462816.281    91981478.805                  
  21902353.714   115097615.554    21902355.555    89686447.077                  
  24671983.264   129652105.671    24671985.551   101027604.569                  
                 119058378.574                   119058378.574    22863904.335  
                 137145538.176                   137145538.176    26337357.442  
                 118264166.028                   118264166.028    22711388.596  
                 132784877.886                   132784877.886    25499973.927  
                 126682737.063                   126682737.063    24328088.628  
                 126239513.676                   126239513.676    24242971.074  
  25624234.183   134656232.339                                                  
  24752857.354   130077128.616                                                  
  26081136.220   137057286.015                                                  
  25035193.045   131560821.919                                                  
  26036116.521   136820730.078                                                  
  27156899.738   142710512.495                                                  
  24506280.294   128781360.814                                                  
  26242224.979   137903767.841                                                  
 21  9  2  6 19  8.0000000  0 22G 4G 7G 8G 9G16G21G27G30C24C25C26C33
                                C34C35E 2E 3E 5E 8E12E24E25E36
  21799675.092   114558062.778    21799676.271    89266023.566                  
  21940012.645   115295556.871    21940012.055    89840696.492                  
  20299464.919   106674367.118    20299467.313    83122873.410                  
  21172030.646   111259740.731    21172032.594    86695894.000                  
  24141485.602   126864364.917    24141485.083    98855349.915                  
  22462390.962   118040659.183    22462390.301    91979734.504                  
  21902893.484   115100452.071    21902895.325    89688657.353                  
  24671408.203   129649083.741    24671410.508   101025249.823                  
                 119057333.222                   119057333.222    22863703.576  
                 137143411.987                   137143411.987    26336949.117  
                 118264861.596                   118264861.596    22711522.185  
                 132786168.396                   132786168.396    25500221.752  
                 126679638.370                   126679638.370    24327493.554  
                 126241660.867                   126241660.867    24243383.419  
  25624063.427   134655334.953                                                  
  24753053.967   130078161.765                                                  
  26081659.103   137060033.803                                                  
  25034941.146   131559498.216                                                  
  26036342.546   136821917.749                                                  
  27157147.742   142711815.734                                                  
  24506332.900   128781637.168                                                  
  26241708.439   137901053.394                                                  
 21  9  2  6 19  9.0000000  0 22G 4G 7G 8G 9G16G21G27G30C24C25C26C33
                                C34C35E 2E 3E 5E 8E12E24E25E36
  21800210.662   114560877.161    21800211.842    89268216.593                  
  21939537.847   115293061.739    21939537.257    89838752.235                  
  20299671.395   106675452.230    20299673.808    83123718.954                  
  21172206.674   111260665.839    21172208.639    86696614.864                  
  24141963.955   126866878.794    24141963.455    98857308.778                  
  22461965.036   118038420.938    22461964.375    91977990.417                  
  21903433.343   115103288.964    21903435.166    89690867.918                  
  24670833.142   129646061.746    24670835.447   101022895.020                  
                 119056287.945                   119056287.945    22863502.836  
                 137141285.708                   137141285.708    26336540.774  
                 118265557.336                   118265557.336    22711655.774  
                 132787459.208                   132787459.208    25500469.632  
                 126676539.860                   126676539.860    24326898.515  
                 126243808.449                   126243808.449    24243795.836  
  25623892.635   134654437.508                                                  
  24753250.651   130079195.348                                                  
  26082182.004   137062781.677                                                  
  25034689.318   131558174.915                                                  
  26036568.625   136823105.845                                                  
  27157395.728   142713118.908                                                  
  24506385.489   128781913.514                                                  
  26241191.918   137898339.096                                                  
 21  9  2  6 19 10.0000000  0 22G 4G 7G 8G 9G16G21G27G30C24C25C26C33
                                C34C35E 2E 3E 5E 8E12E24E25E36
  21800746.286   114563691.901    21800747.466    89270409.898                  
  21939063.031   115290566.706    21939062.459    89836808.050                  
  20299877.997   106676537.929    20299880.392    83124564.953                  
  21172382.844   111261591.555    21172384.792    86697336.198                  
  24142442.327   126869392.598    24142441.827    98859267.586                  
  22461539.164   118036182.946    22461538.503    91976246.527                  
  21903973.238   115106126.250    21903975.078    89693078.788                  
  24670258.063   129643039.661    24670260.333   101020540.148                  
                 119055242.735                   119055242.735    22863302.113  
                 137139159.328                   137139159.328    26336132.449  
                 118266253.241                   118266253.241    22711789.416  
                 132788750.320                   132788750.320    25500717.582  
                 126673441.528                   126673441.528    24326303.512  
                 126245956.423                   126245956.423    24244208.343  
  25623721.861   134653540.083                                                  
  24753447.407   130080229.312                                                  
  26082704.923   137065529.638                                                  
  25034437.579   131556852.015                                                  
  26036794.775   136824294.341                                                  
  27157643.697   142714422.055                                                  
  24506438.059   128782189.851                                                  
  26240675.396   137895624.826                                                  
 21  9  2  6 19 11.0000000  0 22G 4G 7G 8G 9G16G21G27G30C24C25C26C33
                                C34C35E 2E 3E 5E 8E12E24E25E36
  21801281.982   114566507.000    21801283.161    89272603.483                  
  21938588.287   115288071.777    21938587.697    89834863.953                  
  20300084.724   106677624.215    20300087.118    83125411.410                  
  21172559.122   111262517.878    21172561.052    86698058.011                  
  24142920.663   126871906.305    24142920.163    98861226.317                  
  22461113.345   118033945.212    22461112.666    91974502.840                  
  21904513.240   115108963.914    21904515.080    89695289.958                  
  24669682.967   129640017.501    24669685.236   101018185.223                  
                 119054197.594                   119054197.594    22863101.426  
                 137137032.857                   137137032.857    26335724.088  
                 118266949.321                   118266949.321    22711923.094  
                 132790041.740                   132790041.740    25500965.604  
                 126670343.375                   126670343.375    24325708.545  
                 126248104.786                   126248104.786    24244620.920  
  25623551.104   134652642.667                                                  
  24753644.234   130081263.697                                                  
  26083227.860   137068277.649                                                  
  25034185.911   131555529.506                                                  
  26037021.015   136825483.253                                                  
  27157891.683   142715725.150                                                  
  24506490.648   128782466.171                                                  
  26240158.927   137892910.637                                                  
 21  9  2  6 19 12.0000000  0 22G 4G 7G 8G 9G16G21G27G30C24C25C26C33
                                C34C35E 2E 3E 5E 8E12E24E25E36
  21801817.749   114569322.456    21801818.928    89274797.348                  
  21938113.525   115285576.953    21938112.935    89832919.935                  
  20300291.540   106678711.114    20300293.952    83126258.349                  
  21172735.507   111263444.818    21172737.455    86698780.297                  
  24143398.999   126874419.936    24143398.498    98863184.988                  
  22460687.562   118031707.727    22460686.883    91972759.343                  
  21905053.295   115111801.960    21905055.135    89697501.422                  
  24669107.834   129636995.266    24669110.139   101015830.230                  
                 119053152.524                   119053152.524    22862900.721  
                 137134906.290                   137134906.290    26335315.674  
                 118267645.564                   118267645.564    22712056.808  
                 132791333.453                   132791333.453    25501213.662  
                 126667245.407                   126667245.407    24325113.614  
                 126250253.539                   126250253.539    24245033.552  
  25623380.312   134651745.266                                                  
  24753841.169   130082298.465                                                  
  26083750.797   137071025.734                                                  
  25033934.333   131554207.400                                                  
  26037247.344   136826672.570                                                  
  27158139.634   142717028.194                                                  
  24506543.219   128782742.472                                                  
  26239642.423   137890196.472                                                  
 21  9  2  6 19 13.0000000  0 22G 4G 7G 8G 9G16G21G27G30C24C25C26C33
                                C34C35E 2E 3E 5E 8E12E24E25E36
  21802353.587   114572138.274    21802354.767    89276991.485                  
  21937638.799   115283082.226    21937638.227    89830975.991                  
  20300498.499   106679798.612    20300500.893    83127105.745                  
  21172912.000   111264372.347    21172913.965    86699503.052                  
  24143877.317   126876933.488    24143876.799    98865143.602                  
  22460261.815   118029470.524    22460261.154    91971016.071                  
  21905593.440   115114640.382    21905595.280    89699713.177                  
  24668532.720   129633972.943    24668535.007   101013475.173                  
                 119052107.523                   119052107.523    22862700.034  
                 137132779.624                   137132779.624    26334907.277  
                 118268341.978                   118268341.978    22712190.540  
                 132792625.472                   132792625.472    25501461.773  
                 126664147.618                   126664147.618    24324518.719  
                 126252402.685                   126252402.685    24245446.273  
  25623209.556   134650847.858                                                  
  24754038.139   130083333.633                                                  
  26084273.752   137073773.894                                                  
  25033682.827   131552885.677                                                  
  26037473.745   136827862.307                                                  
  27158387.602   142718331.198                                                  
  24506595.807   128783018.757                                                  
  26239125.955   137887482.371                                                  
 21  9  2  6 19 14.0000000  0 22G 4G 7G 8G 9G16G21G27G30C24C25C26C33
                                C34C35E 2E 3E 5E 8E12E24E25E36
  21802889.479   114574954.461    21802890.659    89279185.918                  
  21937164.072   115280587.610    21937163.500    89829032.133                  
  20300705.565   106680886.714    20300707.960    83127953.617                  
  21173088.617   111265300.484    21173090.583    86700226.273                  
  24144355.599   126879446.949    24144355.099    98867102.140                  
  22459836.139   118027233.550    22459835.478    91969272.976                  
  21906133.638   115117479.185    21906135.479    89701925.231                  
  24667957.587   129630950.552    24667959.857   101011120.065                  
                 119051062.595                   119051062.595    22862499.383  
                 137130652.869                   137130652.869    26334498.863  
                 118269038.564                   118269038.564    22712324.326  
                 132793917.793                   132793917.793    25501709.938  
                 126661050.012                   126661050.012    24323923.859  
                 126254552.223                   126254552.223    24245859.083  
  25623038.782   134649950.469                                                  
  24754235.199   130084369.200                                                  
  26084796.725   137076522.129                                                  
  25033431.374   131551564.359                                                  
  26037700.217   136829052.458                                                  
  27158635.535   142719634.164                                                  
  24506648.378   128783295.032                                                  
  26238609.486   137884768.320                                                  
 21  9  2  6 19 15.0000000  0 22G 4G 7G 8G 9G16G21G27G30C24C25C26C33
                                C34C35E 2E 3E 5E 8E12E24E25E36
  21803425.460   114577771.009    21803426.640    89281380.636                  
  21936689.399   115278093.091    21936688.828    89827088.352                  
  20300912.721   106681975.351    20300915.115    83128801.891                  
  21173265.360   111266229.278    21173267.325    86700950.031                  
  24144833.881   126881960.313    24144833.381    98869060.597                  
  22459410.517   118024996.890    22459409.838    91967530.161                  
  21906673.926   115120318.328    21906675.767    89704137.532                  
  24667382.419   129627928.020    24667384.707   101008764.825                  
                 119050017.734                   119050017.734    22862298.714  
                 137128526.011                   137128526.011    26334090.413  
                 118269735.315                   118269735.315    22712458.129  
                 132795210.417                   132795210.417    25501958.175  
                 126657952.581                   126657952.581    24323329.017  
                 126256702.148                   126256702.148    24246271.947  
  25622868.025   134649052.962                                                  
  24754432.348   130085405.289                                                  
  26085319.698   137079270.433                                                  
  25033180.028   131550243.371                                                  
  26037926.778   136830243.087                                                  
  27158883.485   142720936.968                                                  
  24506700.948   128783571.319                                                  
  26238093.036   137882054.140                                                  
 21  9  2  6 19 16.0000000  0 22G 4G 7G 8G 9G16G21G27G30C24C25C26C33
                                C34C35E 2E 3E 5E 8E12E24E25E36
  21803961.478   114580587.906    21803962.675    89283575.621                  
  21936214.727   115275598.672    21936214.137    89825144.648                  
  20301120.001   106683064.630    20301122.396    83129650.676                  
  21173442.227   111267158.626    21173444.157    86701674.199                  
  24145312.164   126884473.609    24145311.663    98871019.012                  
  22458984.912   118022760.444    22458984.251    91965787.474                  
  21907214.285   115123157.885    21907216.108    89706350.176                  
  24666807.233   129624905.462    24666809.539   101006409.583                  
                 119048972.945                   119048972.945    22862098.080  
                 137126399.063                   137126399.063    26333681.963  
                 118270432.238                   118270432.238    22712591.968  
                 132796503.340                   132796503.340    25502206.483  
                 126654855.336                   126654855.336    24322734.246  
                 126258852.468                   126258852.468    24246684.900  
  25622697.269   134648155.593                                                  
  24754629.568   130086441.660                                                  
  26085842.706   137082018.811                                                  
  25032928.718   131548922.839                                                  
  26038153.429   136831434.074                                                  
  27159131.400   142722239.839                                                  
  24506753.501   128783847.562                                                  
  26237576.585   137879340.210                                                  
 21  9  2  6 19 17.0000000  0 22G 4G 7G 8G 9G16G21G27G30C24C25C26C33
                                C34C35E 2E 3E 5E 8E12E24E25E36
  21804497.602   114583405.170    21804498.781    89285770.887                  
  21935740.072   115273104.356    21935739.500    89823201.023                  
  20301327.407   106684154.472    20301329.802    83130499.899                  
  21173619.184   111268088.585    21173621.132    86702398.840                  
  24145790.392   126886986.820    24145789.892    98872977.351                  
  22458559.397   118020524.257    22458558.736    91964044.987                  
  21907754.698   115125997.827    21907756.539    89708563.113                  
  24666232.065   129621882.833    24666234.335   101004054.285                  
                 119047928.226                   119047928.226    22861897.465  
                 137124272.017                   137124272.017    26333273.477  
                 118271129.327                   118271129.327    22712725.825  
                 132797796.566                   132797796.566    25502454.826  
                 126651758.275                   126651758.275    24322139.476  
                 126261003.181                   126261003.181    24247097.924  
  25622526.495   134647258.230                                                  
  24754826.842   130087478.421                                                  
  26086365.714   137084767.254                                                  
  25032677.516   131547602.704                                                  
  26038380.115   136832625.472                                                  
  27159379.315   142723542.667                                                  
  24506806.072   128784123.794                                                  
  26237060.153   137876626.332                                                  
 21  9  2  6 19 18.0000000  0 22G 4G 7G 8G 9G16G21G27G30C24C25C26C33
                                C34C35E 2E 3E 5E 8E12E24E25E36
  21805033.780   114586222.796    21805034.959    89287966.437                  
  21935265.435   115270610.145    21935264.863    89821257.480                  
  20301534.902   106685244.901    20301537.297    83131349.586                  
  21173796.266   111269019.146    21173798.214    86703123.950                  
  24146268.639   126889499.958    24146268.138    98874935.636                  
  22458133.918   118018288.327    22458133.239    91962302.703                  
  21908295.200   115128838.156    21908297.023    89710776.352                  
  24665656.861   129618860.122    24665659.149   101001698.922                  
                 119046883.577                   119046883.577    22861696.831  
                 137122144.874                   137122144.874    26332865.009  
                 118271826.590                   118271826.590    22712859.735  
                 132799090.091                   132799090.091    25502703.242  
                 126648661.390                   126648661.390    24321544.741  
                 126263154.281                   126263154.281    24247511.021  
  25622355.720   134646360.878                                                  
  24755024.205   130088515.581                                                  
  26086888.741   137087515.770                                                  
  25032426.384   131546282.960                                                  
  26038606.927   136833817.277                                                  
  27159627.248   142724845.453                                                  
  24506858.643   128784400.013                                                  
  26236543.720   137873912.513                                                  
 21  9  2  6 19 19.0000000  0 22G 4G 7G 8G 9G16G21G27G30C24C25C26C33
                                C34C35E 2E 3E 5E 8E12E24E25E36
  21805570.011   114589040.773    21805571.209    89290162.265                  
  21934790.816   115268116.031    21934790.244    89819314.015                  
  20301742.522   106686335.941    20301744.917    83132199.743                  
  21173973.455   111269950.320    21173975.403    86703849.540                  
  24146746.867   126892013.005    24146746.367    98876893.854                  
  22457708.474   118016052.656    22457707.813    91960560.621                  
  21908835.756   115131678.863    21908837.597    89712989.890                  
  24665081.640   129615837.332    24665083.927   100999343.503                  
                 119045839.001                   119045839.001    22861496.234  
                 137120017.641                   137120017.641    26332456.487  
                 118272524.019                   118272524.019    22712993.663  
                 132800383.918                   132800383.918    25502951.692  
                 126645564.686                   126645564.686    24320950.060  
                 126265305.770                   126265305.770    24247924.188  
  25622184.964   134645463.530                                                  
  24755221.640   130089553.141                                                  
  26087411.785   137090264.347                                                  
  25032175.307   131544963.614                                                  
  26038833.774   136835009.497                                                  
  27159875.145   142726148.196                                                  
  24506911.195   128784676.215                                                  
  26236027.323   137871198.741                                                  
 21  9  2  6 19 20.0000000  0 22G 4G 7G 8G 9G16G21G27G30C24C25C26C33
                                C34C35E 2E 3E 5E 8E12E24E25E36
  21806106.332   114591859.117    21806107.511    89292358.375                  
  21934316.232   115265622.029    21934315.661    89817370.634                  
  20301950.232   106687427.591    20301952.662    83133050.379                  
  21174150.752   111270882.098    21174152.717    86704575.599                  
  24147225.060   126894525.964    24147224.560    98878852.009                  
  22457283.102   118013817.232    22457282.423    91958818.730                  
  21909376.401   115134519.952    21909378.242    89715203.726                  
  24664506.400   129612814.472    24664508.705   100996988.028                  
                 119044794.492                   119044794.492    22861295.654  
                 137117890.310                   137117890.310    26332047.948  
                 118273221.617                   118273221.617    22713127.645  
                 132801678.046                   132801678.046    25503200.215  
                 126642468.168                   126642468.168    24320355.397  
                 126267457.652                   126267457.652    24248337.427  
  25622014.225   134644566.202                                                  
  24755419.164   130090591.102                                                  
  26087934.847   137093013.007                                                  
  25031924.319   131543644.659                                                  
  26039060.746   136836202.130                                                  
  27160123.042   142727450.886                                                  
  24506963.748   128784952.394                                                  
  26235510.908   137868485.025                                                  
 21  9  2  6 19 21.0000000  0 22G 4G 7G 8G 9G16G21G27G30C24C25C26C33
                                C34C35E 2E 3E 5E 8E12E24E25E36
  21806642.724   114594677.819    21806643.904    89294554.767                  
  21933841.667   115263128.132    21933841.077    89815427.340                  
  20302158.102   106688519.848    20302160.497    83133901.489                  
  21174328.191   111271814.484    21174330.139    86705302.133                  
  24147703.235   126897038.847    24147702.735    98880810.097                  
  22456857.766   118011582.083    22456857.105    91957077.060                  
  21909917.118   115137361.414    21909918.958    89717417.852                  
  24663931.161   129609791.521    24663933.448   100994632.481                  
                 119043750.055                   119043750.055    22861095.074  
                 137115762.882                   137115762.882    26331639.408  
                 118273919.386                   118273919.386    22713261.645  
                 132802972.478                   132802972.478    25503448.809  
                 126639371.828                   126639371.828    24319760.787  
                 126269609.926                   126269609.926    24248750.755  
  25621843.451   134643668.871                                                  
  24755616.760   130091629.445                                                  
  26088457.891   137095761.725                                                  
  25031673.402   131542326.105                                                  
  26039287.754   136837395.171                                                  
  27160370.921   142728753.534                                                  
  24507016.301   128785228.563                                                  
  26234994.511   137865771.358                                                  
 21  9  2  6 19 22.0000000  0 22G 4G 7G 8G 9G16G21G27G30C24C25C26C33
                                C34C35E 2E 3E 5E 8E12E24E25E36
  21807179.153   114597496.879    21807180.332    89296751.437                  
  21933367.101   115260634.341    21933366.512    89813484.126                  
  20302366.062   106689612.716    20302368.456    83134753.074                  
  21174505.738   111272747.474    21174507.686    86706029.136                  
  24148181.428   126899551.641    24148180.892    98882768.116                  
  22456432.465   118009347.180    22456431.804    91955335.577                  
  21910457.906   115140203.269    21910459.747    89719632.284                  
  24663355.903   129606768.505    24663358.172   100992276.882                  
                 119042705.688                   119042705.688    22860894.512  
                 137113635.362                   137113635.362    26331230.815  
                 118274617.324                   118274617.324    22713395.663  
                 132804267.207                   132804267.207    25503697.438  
                 126636275.673                   126636275.673    24319166.196  
                 126271762.590                   126271762.590    24249164.137  
  25621672.695   134642771.543                                                  
  24755814.427   130092668.196                                                  
  26088980.989   137098510.511                                                  
  25031422.556   131541007.937                                                  
  26039514.887   136838588.626                                                  
  27160618.800   142730056.136                                                  
  24507068.836   128785504.707                                                  
  26234478.115   137863057.745                                                  
 21  9  2  6 19 23.0000000  0 22G 4G 7G 8G 9G16G21G27G30C24C25C26C33
                                C34C35E 2E 3E 5E 8E12E24E25E36
  21807715.688   114600316.306    21807716.867    89298948.390                  
  21932892.572   115258140.652    21932892.000    89811540.992                  
  20302574.147   106690706.168    20302576.541    83135605.114                  
  21174683.392   111273681.066    21174685.339    86706756.613                  
  24148659.568   126902064.357    24148659.067    98884726.079                  
  22456007.236   118007112.548    22456006.557    91953594.305                  
  21910998.766   115143045.487    21911000.606    89721847.000                  
  24662780.628   129603745.407    24662782.897   100989921.226                  
                 119041661.391                   119041661.391    22860693.986  
                 137111507.745                   137111507.745    26330822.240  
                 118275315.431                   118275315.431    22713529.716  
                 132805562.238                   132805562.238    25503946.139  
                 126633179.696                   126633179.696    24318571.640  
                 126273915.641                   126273915.641    24249577.627  
  25621501.938   134641874.230                                                  
  24756012.166   130093707.337                                                  
  26089504.069   137101259.376                                                  
  25031171.800   131539690.164                                                  
  26039742.056   136839782.497                                                  
  27160866.661   142731358.696                                                  
  24507121.407   128785780.838                                                  
  26233961.753   137860344.184                                                  
 21  9  2  6 19 24.0000000  0 22G 4G 7G 8G 9G16G21G27G30C24C25C26C33
                                C34C35E 2E 3E 5E 8E12E24E25E36
  21808252.259   114603136.085    21808253.456    89301145.621                  
  21932418.060   115255647.058    21932417.488    89809597.934                  
  20302782.339   106691800.210    20302784.733    83136457.614                  
  21174861.153   111274615.265    21174863.118    86707484.562                  
  24149137.707   126904576.984    24149137.207    98886683.968                  
  22455582.043   118004878.165    22455581.382    91951853.225                  
  21911539.679   115145888.091    21911541.519    89724062.015                  
  24662205.317   129600722.235    24662207.622   100987565.508                  
                 119040617.167                   119040617.167    22860493.442  
                 137109380.030                   137109380.030    26330413.647  
                 118276013.706                   118276013.706    22713663.823  
                 132806857.569                   132806857.569    25504194.894  
                 126630083.902                   126630083.902    24317977.137  
                 126276069.087                   126276069.087    24249991.152  
  25621331.200   134640976.917                                                  
  24756209.976   130094746.874                                                  
  26090027.167   137104008.294                                                  
  25030921.116   131538372.781                                                  
  26039969.314   136840976.774                                                  
  27161114.522   142732661.204                                                  
  24507173.941   128786056.952                                                  
  26233445.392   137857630.685                                                  
 21  9  2  6 19 25.0000000  0 22G 4G 7G 8G 9G16G21G27G30C24C25C26C33
                                C34C35E 2E 3E 5E 8E12E24E25E36
  21808788.919   114605956.228    21808790.099    89303343.137                  
  21931943.566   115253153.578    21931942.976    89807654.960                  
  20302990.638   106692894.853    20302993.032    83137310.583                  
  21175039.057   111275550.075    21175041.004    86708212.981                  
  24149615.828   126907089.526    24149615.328    98888641.793                  
  22455156.903   118002644.040    22455156.242    91950112.351                  
  21912080.699   115148731.078    21912082.522    89726277.333                  
  24661630.024   129597698.981    24661632.293   100985209.723                  
                 119039573.012                   119039573.012    22860292.916  
                 137107252.227                   137107252.227    26330005.018  
                 118276712.155                   118276712.155    22713797.966  
                 132808153.199                   132808153.199    25504443.720  
                 126626988.294                   126626988.294    24317382.653  
                 126278222.917                   126278222.917    24250404.784  
  25621160.443   134640079.618                                                  
  24756407.875   130095786.804                                                  
  26090550.282   137106757.294                                                  
  25030670.503   131537055.792                                                  
  26040196.662   136842171.470                                                  
  27161362.384   142733963.668                                                  
  24507226.476   128786333.052                                                  
  26232929.031   137854917.236                                                  
 21  9  2  6 19 26.0000000  0 22G 4G 7G 8G 9G16G21G27G30C24C25C26C33
                                C34C35E 2E 3E 5E 8E12E24E25E36
  21809325.633   114608776.731    21809326.848    89305540.930                  
  21931469.107   115250660.206    21931468.518    89805712.073                  
  20303199.044   106693990.083    20303201.457    83138164.009                  
  21175217.068   111276485.483    21175218.998    86708941.870                  
  24150093.914   126909601.983    24150093.414    98890599.552                  
  22454731.817   118000410.177    22454731.138    91948371.681                  
  21912621.755   115151574.450    21912623.596    89728492.945                  
  24661054.695   129594675.646    24661056.982   100982853.880                  
                 119038528.924                   119038528.924    22860092.425  
                 137105124.320                   137105124.320    26329596.371  
                 118277410.771                   118277410.771    22713932.127  
                 132809449.132                   132809449.132    25504692.582  
                 126623892.864                   126623892.864    24316788.204  
                 126280377.146                   126280377.146    24250818.487  
  25620989.705   134639182.328                                                  
  24756605.846   130096827.140                                                  
  26091073.416   137109506.356                                                  
  25030419.961   131535739.208                                                  
  26040424.081   136843366.571                                                  
  27161610.227   142735266.079                                                  
  24507279.011   128786609.128                                                  
  26232412.706   137852203.848                                                  
 21  9  2  6 19 27.0000000  0 22G 4G 7G 8G 9G16G21G27G30C24C25C26C33
                                C34C35E 2E 3E 5E 8E12E24E25E36
  21809862.437   114611597.587    21809863.616    89307738.999                  
  21930994.631   115248166.935    21930994.059    89803769.266                  
  20303407.576   106695085.891    20303409.988    83139017.888                  
  21175395.186   111277421.499    21175397.116    86709671.235                  
  24150572.018   126912114.364    24150571.517    98892557.251                  
  22454306.766   117998176.554    22454306.105    91946631.195                  
  21913162.919   115154418.192    21913164.741    89730708.848                  
  24660479.366   129591652.239    24660481.635   100980497.981                  
                 119037484.915                   119037484.915    22859891.917  
                 137102996.323                   137102996.323    26329187.725  
                 118278109.555                   118278109.555    22714066.305  
                 132810745.367                   132810745.367    25504941.515  
                 126620797.614                   126620797.614    24316193.809  
                 126282531.758                   126282531.758    24251232.262  
  25620818.949   134638285.039                                                  
  24756803.889   130097867.868                                                  
  26091596.567   137112255.479                                                  
  25030169.491   131534423.011                                                  
  26040651.572   136844562.089                                                  
  27161858.034   142736568.469                                                  
  24507331.546   128786885.200                                                  
  26231896.362   137849490.499                                                  
 21  9  2  6 19 28.0000000  0 22G 4G 7G 8G 9G16G21G27G30C24C25C26C33
                                C34C35E 2E 3E 5E 8E12E24E25E36
  21810399.293   114614418.810    21810400.473    89309937.352                  
  21930520.209   115245673.774    21930519.619    89801826.542                  
  20303616.215   106696182.309    20303618.627    83139872.237                  
  21175573.394   111278358.134    21175575.360    86710401.079                  
  24151050.103   126914626.663    24151049.603    98894514.886                  
  22453881.787   117995943.207    22453881.108    91944890.925                  
  21913704.136   115157262.312    21913705.958    89732925.043                  
  24659904.019   129588628.751    24659906.306   100978142.016                  
                 119036440.970                   119036440.970    22859691.444  
                 137100868.229                   137100868.229    26328779.042  
                 118278808.511                   118278808.511    22714200.537  
                 132812041.902                   132812041.902    25505190.502  
                 126617702.549                   126617702.549    24315599.414  
                 126284686.763                   126284686.763    24251646.091  
  25620648.192   134637387.761                                                  
  24757002.002   130098908.993                                                  
  26092119.719   137115004.691                                                  
  25029919.092   131533107.219                                                  
  26040879.152   136845758.015                                                  
  27162105.878   142737870.792                                                  
  24507384.081   128787161.250                                                  
  26231380.037   137846777.220                                                  
