     2.11           OBSERVATION DATA    M (MIXED)           RINEX VERSION / TYPE
CONVBIN 2.4.3                           20210828 140812 UTC PGM / RUN BY / DATE 
log: logs/21_08_28_05_02_33_SN_CA_tibb.rtcm                 COMMENT             
format: RTCM 3, station ID: 1504                            COMMENT             
1504                                                        MARKER NAME         
                                                            MARKER NUMBER       
                                                            OBSERVER / AGENCY   
1831720             LEICA GR25          4.30                REC # / TYPE / VERS 
                    GPPNULLANTENNA                          ANT # / TYPE        
 -2704034.8426 -4253064.9404  3895891.9219                  APPROX POSITION XYZ 
        0.0000        0.0000        0.0000                  ANTENNA: DELTA H/E/N
     1     1                                                WAVELENGTH FACT L1/2
     7    C1    L1    C2    L2    P2    C5    L5            # / TYPES OF OBSERV 
  2021     8    28     5     2   40.0000000     GPS         TIME OF FIRST OBS   
  2021     8    28     5     8   33.0000000     GPS         TIME OF LAST OBS    
                                                            END OF HEADER       
 21  8 28  5  2 40.0000000  0 14G 3G 4G 7G 8G 9G16G20G27G30R 5R 7R 9
                                R15R16
  24537889.702   128947479.701    24537890.506   100478554.752    24537889.434  
  24537890.238    96291951.238  
  21058389.557   110662583.494    21058387.126    86230571.340    21058386.304  
  21058390.021    82637645.238  
  21401723.927   112466817.796    21401720.604    87636463.487    21401719.621  
                                
  23846271.652   125313002.411    23846272.349    97646493.090    23846271.044  
  23846270.651    93577887.543  
  20375970.837   107076449.945    20375969.229    83436184.370    20375968.353  
  20375969.121    79959679.157  
  22350901.750   117454780.809                    91523186.314    22350896.872  
                                
  24409534.741   128272969.949                    99952948.039    24409531.024  
                                
  23567842.969   123849849.921    23567842.236    96506368.625    23567841.075  
  23567841.647    92485272.211  
  23739552.718   124752191.340    23739552.826    97209495.664    23739551.682  
  23739552.629    93159103.018  
  20268928.295   108349037.802    20268926.687    84271466.521    20268925.972  
                                
  23424646.623   125393967.405    23424645.658    97528636.902    23424644.675  
                                
  22105483.157   118042046.060    22105481.924    91810474.881    22105481.155  
                                
  21166825.399   113109097.371    21166823.916    87973736.308    21166823.202  
                                
  19310689.949   103154239.281    19310687.250    80231063.779    19310687.590  
                                
 21  8 28  5  2 41.0000000  0 14G 3G 4G 7G 8G 9G16G20G27G30R 5R 7R 9
                                R15R16
  24538611.021   128951270.322    24538611.861   100481508.482    24538610.771  
  24538611.557    96294781.883  
  21058668.010   110664046.795    21058665.579    86231711.577    21058664.775  
  21058668.474    82638737.950  
  21401497.920   112465630.125    21401494.596    87635538.029    21401493.596  
                                
  23845751.449   125310268.714    23845752.128    97644362.936    23845750.841  
  23845750.430    93575846.162  
  20375842.216   107075774.033    20375840.590    83435657.687    20375839.750  
  20375840.500    79959174.411  
  22351421.846   117457513.887                    91525315.985    22351416.968  
                                
  24409032.353   128270329.914                    99950890.857    24409028.655  
                                
  23567502.653   123848061.562    23567501.939    96504975.099    23567500.777  
  23567501.313    92483936.751  
  23739076.938   124749690.964    23739077.027    97207547.319    23739075.919  
  23739076.831    93157235.837  
  20269426.073   108351698.707    20269424.465    84273536.112    20269423.732  
                                
  23423879.220   125389859.331    23423878.219    97525441.736    23423877.254  
                                
  22104884.634   118038850.097    22104883.419    91807989.133    22104882.650  
                                
  21167429.837   113112327.249    21167428.336    87976248.432    21167427.621  
                                
  19310622.189   103153877.275    19310619.491    80230782.219    19310619.831  
                                
 21  8 28  5  2 42.0000000  0 14G 3G 4G 7G 8G 9G16G20G27G30R 5R 7R 9
                                R15R16
  24539332.358   128955060.972    24539333.197   100484462.235    24539332.107  
  24539332.894    96297612.552  
  21058946.552   110665510.501    21058944.122    86232852.129    21058943.318  
  21058947.017    82639830.984  
  21401271.966   112464442.704    21401268.625    87634612.767    21401267.642  
                                
  23845231.282   125307535.264    23845231.979    97642232.979    23845230.674  
  23845230.281    93573804.938  
  20375713.684   107075098.564    20375712.040    83435131.348    20375711.200  
  20375711.951    79958670.005  
  22351942.031   117460247.467                    91527446.047    22351937.153  
                                
  24408530.073   128267690.336                    99948834.027    24408526.374  
                                
  23567162.427   123846273.668    23567161.712    96503581.930    23567160.551  
  23567161.087    92482601.639  
  23738601.139   124747190.714    23738601.246    97205599.077    23738600.121  
  23738601.032    93155368.780  
  20269923.975   108354360.249    20269922.349    84275606.202    20269921.634  
                                
  23423111.817   125385751.372    23423110.834    97522246.656    23423109.851  
                                
  22104286.218   118035654.561    22104285.003    91805503.722    22104284.217  
                                
  21168034.328   113115557.383    21168032.827    87978760.761    21168032.095  
                                
  19310554.555   103153515.952    19310551.839    80230501.190    19310552.179  
                                
 21  8 28  5  2 43.0000000  0 14G 3G 4G 7G 8G 9G16G20G27G30R 5R 7R 9
                                R15R16
  24540053.676   128958851.540    24540054.516   100487415.911    24540053.444  
  24540054.230    96300443.184  
  21059225.148   110666974.538    21059222.700    86233992.933    21059221.896  
  21059225.612    82640924.260  
  21401046.030   112463255.420    21401042.689    87633687.613    21401041.706  
                                
  23844711.132   125304801.907    23844711.811    97640103.093    23844710.543  
  23844710.114    93571763.806  
  20375585.206   107074423.447    20375583.579    83434605.280    20375582.740  
  20375583.472    79958165.861  
  22352462.288   117462981.466                    91529576.441    22352457.392  
                                
  24408027.828   128265051.082                    99946777.474    24408024.130  
                                
  23566822.272   123844486.187    23566821.558    96502189.096    23566820.414  
  23566820.950    92481266.832  
  23738125.359   124744690.579    23738125.466    97203650.920    23738124.322  
  23738125.269    93153501.807  
  20270421.967   108357022.315    20270420.341    84277676.696    20270419.644  
                                
  23422344.414   125381643.451    23422343.413    97519051.612    23422342.466  
                                
  22103687.856   118032459.299    22103686.623    91803018.519    22103685.855  
                                
  21168638.819   113118787.672    21168637.318    87981273.208    21168636.604  
                                
  19310487.028   103153155.247    19310484.312    80230220.643    19310484.669  
                                
 21  8 28  5  2 44.0000000  0 18G 3G 4G 7G 8G 9G16G20G27G30R 5R 7R 9
                                R15R16E 1E 4E19E21
  24540774.977   128962641.935    24540775.817   100490369.472    24540774.727  
  24540775.531    96303273.685  
  21059503.780   110668438.793    21059501.331    86235133.906    21059500.527  
  21059504.226    82642017.699  
  21400820.094   112462068.174    21400816.753    87632762.480    21400815.788  
                                
  23844191.019   125302068.580    23844191.698    97637973.258    23844190.411  
  23844190.000    93569722.702  
  20375456.781   107073748.556    20375455.155    83434079.394    20375454.315  
  20375455.048    79957661.893  
  22352982.616   117465715.759                    91531707.051    22352977.720  
                                
  24407525.637   128262412.032                    99944721.086    24407521.938  
                                
  23566482.171   123842698.964    23566481.457    96500796.464    23566480.313  
  23566480.849    92479932.233  
  23737649.596   124742190.379    23737649.703    97201702.721    23737648.559  
  23737649.489    93151634.785  
  20270920.030   108359684.808    20270918.440    84279747.522    20270917.707  
                                
  23421577.011   125377535.416    23421576.010    97515856.469    23421575.045  
                                
  22103089.512   118029264.228    22103088.297    91800533.461    22103087.510  
                                
  21169243.328   113122017.970    21169241.845    87983785.658    21169241.131  
                                
  19310419.573   103152794.977    19310416.874    80229940.434    19310417.214  
                                
  25136169.715   132091463.500                                                  
  25136172.663    98639740.141  
  26026212.561   136768670.545                                                  
  26026214.062   102132454.354  
  23146303.497   121634646.323                                                  
  23146304.676    90831070.988  
  23555166.702   123783236.569                                                  
  23555169.114    92435542.805  
 21  8 28  5  2 45.0000000  0 18G 3G 4G 7G 8G 9G16G20G27G30R 5R 7R 9
                                R15R16E 1E 4E19E21
  24541496.296   128966432.485    24541497.136   100493323.154    24541496.046  
  24541496.850    96306104.288  
  21059782.536   110669903.578    21059780.088    86236275.302    21059779.266  
  21059783.001    82643111.528  
  21400594.230   112460881.293    21400590.906    87631837.640    21400589.924  
                                
  23843670.923   125299335.567    23843671.620    97635843.644    23843670.333  
  23843669.904    93567681.825  
  20375328.463   107073074.234    20375326.819    83433553.953    20375325.980  
  20375326.730    79957158.337  
  22353503.051   117468450.656                    91533838.147    22353498.137  
                                
  24407023.554   128259773.564                    99942665.135    24407019.855  
                                
  23566142.213   123840912.366    23566141.481    96499404.312    23566140.319  
  23566140.873    92478598.081  
  23737173.905   124739690.493    23737173.976    97199754.769    23737172.868  
  23737173.780    93149767.972  
  20271418.272   108362348.090    20271416.646    84281818.965    20271415.931  
                                
  23420809.625   125373427.567    23420808.643    97512661.478    23420807.660  
                                
  22102491.275   118026069.705    22102490.060    91798048.835    22102489.273  
                                
  21169847.909   113125248.662    21169846.426    87986298.423    21169845.711  
                                
  19310352.296   103152435.518    19310349.580    80229660.859    19310349.937  
                                
  25135746.130   132089237.598                                                  
  25135749.096    98638077.933  
  26025774.556   136766368.798                                                  
  26025776.057   102130735.511  
  23146305.087   121634654.589                                                  
  23146306.231    90831077.166  
  23555207.676   123783451.881                                                  
  23555210.106    92435703.586  
 21  8 28  5  2 46.0000000  0 18G 3G 4G 7G 8G 9G16G20G27G30R 5R 7R 9
                                R15R16E 1E 4E19E21
  24542217.633   128970223.135    24542218.473   100496276.908    24542217.401  
  24542218.187    96308934.973  
  21060061.365   110671368.874    21060058.916    86237417.089    21060058.112  
  21060061.829    82644205.739  
  21400368.455   112459694.731    21400365.113    87630913.048    21400364.131  
                                
  23843150.934   125296602.879    23843151.613    97633714.273    23843150.327  
  23843149.916    93565641.177  
  20375200.235   107072400.453    20375198.609    83433028.928    20375197.769  
  20375198.520    79956655.188  
  22354023.594   117471186.175                    91535969.716    22354018.698  
                                
  24406521.577   128257135.604                    99940609.574    24406517.878  
                                
  23565802.326   123839126.331    23565801.612    96498012.595    23565800.468  
  23565800.986    92477264.356  
  23736698.231   124737190.845    23736698.303    97197806.996    23736697.195  
  23736698.106    93147901.360  
  20271916.639   108365012.135    20271915.013    84283890.998    20271914.298  
                                
  23420042.276   125369319.889    23420041.293    97509466.619    23420040.310  
                                
  22101893.145   118022875.678    22101891.912    91795564.593    22101891.144  
                                
  21170452.543   113128479.712    21170451.060    87988811.464    21170450.345  
                                
  19310285.144   103152076.832    19310282.428    80229381.879    19310282.785  
                                
  25135322.652   132087012.089                                                  
  25135325.600    98636416.031  
  26025336.604   136764067.255                                                  
  26025338.105   102129016.819  
  23146306.713   121634663.284                                                  
  23146307.892    90831083.663  
  23555248.756   123783667.712                                                  
  23555251.169    92435864.755  
 21  8 28  5  2 47.0000000  0 18G 3G 4G 7G 8G 9G16G20G27G30R 5R 7R 9
                                R15R16E 1E 4E19E21
  24542938.916   128974013.562    24542939.774   100499230.483    24542938.666  
  24542939.488    96311765.489  
  21060340.228   110672834.300    21060337.798    86238558.974    21060336.994  
  21060340.693    82645300.050  
  21400142.644   112458508.128    21400139.302    87629988.423    21400138.320  
                                
  23842630.874   125293870.080    23842631.571    97631584.814    23842630.285  
  23842629.856    93563600.455  
  20375072.061   107071726.835    20375070.435    83432504.029    20375069.577  
  20375070.345    79956152.162  
  22354544.208   117473921.891                    91538101.436    22354539.294  
                                
  24406019.618   128254497.843                    99938554.183    24406015.919  
                                
  23565462.493   123837340.508    23565461.779    96496621.049    23565460.617  
  23565461.153    92475930.786  
  23736222.540   124734691.076    23736222.611    97195859.127    23736221.504  
  23736222.415    93146034.654  
  20272415.060   108367676.527    20272413.452    84285963.305    20272412.719  
                                
  23419274.891   125365212.022    23419273.908    97506271.609    23419272.925  
                                
  22101295.015   118019681.737    22101293.782    91793080.415    22101293.014  
                                
  21171057.195   113131710.732    21171055.712    87991324.480    21171054.997  
                                
  19310218.081   103151718.537    19310215.347    80229103.205    19310215.687  
                                
  25134899.156   132084786.621                                                  
  25134902.104    98634754.158  
  26024898.581   136761765.517                                                  
  26024900.082   102127297.996  
  23146308.393   121634672.034                                                  
  23146309.572    90831090.193  
  23555289.873   123783883.685                                                  
  23555292.267    92436026.037  
 21  8 28  5  2 48.0000000  0 18G 3G 4G 7G 8G 9G16G20G27G30R 5R 7R 9
                                R15R16E 1E 4E19E21
  24543660.253   128977804.177    24543661.093   100502184.211    24543660.003  
  24543660.825    96314596.149  
  21060619.218   110674300.315    21060616.752    86239701.326    21060615.948  
  21060619.664    82646394.799  
  21399916.923   112457321.939    21399913.581    87629064.119    21399912.598  
                                
  23842110.921   125291137.680    23842111.600    97629455.681    23842110.314  
  23842109.921    93561560.031  
  20374943.994   107071053.820    20374942.350    83431979.601    20374941.510  
  20374942.260    79955649.588  
  22355064.911   117476658.276                    91540233.686    22355060.015  
                                
  24405517.767   128251860.636                    99936499.205    24405514.068  
                                
  23565122.785   123835555.328    23565122.071    96495229.999    23565120.927  
  23565121.445    92474597.706  
  23735746.902   124732191.666    23735747.010    97193911.541    23735745.866  
  23735746.795    93144168.216  
  20272913.641   108370341.734    20272912.033    84288036.239    20272911.318  
                                
  23418507.559   125361104.447    23418506.559    97503076.824    23418505.611  
                                
  22100696.992   118016488.356    22100695.777    91790596.677    22100694.991  
                                
  21171661.919   113134942.176    21171660.435    87993837.823    21171659.721  
                                
  19310151.162   103151361.110    19310148.446    80228825.208    19310148.785  
                                
  25134475.731   132082561.637                                                  
  25134478.698    98633092.637  
  26024460.629   136759464.076                                                  
  26024462.130   102125579.394  
  23146310.144   121634681.284                                                  
  23146311.323    90831097.109  
  23555331.061   123784100.256                                                  
  23555333.491    92436187.762  
 21  8 28  5  2 49.0000000  0 18G 3G 4G 7G 8G 9G16G20G27G30R 5R 7R 9
                                R15R16E 1E 4E19E21
  24544381.625   128981595.079    24544382.483   100505138.147    24544381.411  
  24544382.215    96317427.005  
  21060898.296   110675766.970    21060895.848    86240844.172    21060895.044  
  21060898.743    82647490.033  
  21399691.290   112456136.219    21399687.949    87628140.184    21399686.966  
                                
  23841591.058   125288405.715    23841591.737    97627326.867    23841590.450  
  23841590.039    93559519.916  
  20374816.051   107070381.508    20374814.425    83431455.722    20374813.568  
  20374814.336    79955147.539  
  22355585.775   117479395.418                    91542366.533    22355580.861  
                                
  24405016.076   128249224.155                    99934444.809    24405012.377  
                                
  23564783.220   123833770.907    23564782.488    96493839.544    23564781.326  
  23564781.880    92473265.184  
  23735271.354   124729692.651    23735271.461    97191964.253    23735270.318  
  23735271.229    93142302.064  
  20273412.384   108373007.821    20273410.776    84290109.862    20273410.061  
                                
  23417740.299   125356997.214    23417739.316    97499882.307    23417738.333  
                                
  22100099.095   118013295.632    22100097.880    91788113.442    22100097.094  
                                
  21172266.731   113138174.151    21172265.248    87996351.595    21172264.534  
                                
  19310084.421   103151004.628    19310081.723    80228547.947    19310082.062  
                                
  25134052.450   132080337.205                                                  
  25134055.398    98631431.548  
  26024022.748   136757162.982                                                  
  26024024.249   102123861.031  
  23146312.020   121634691.126                                                  
  23146313.200    90831104.458  
  23555372.392   123784317.508                                                  
  23555374.822    92436349.991  
 21  8 28  5  2 50.0000000  0 18G 3G 4G 7G 8G 9G16G20G27G30R 5R 7R 9
                                R15R16E 1E 4E19E21
  24545103.087   128985386.278    24545103.927   100508092.328    24545102.855  
  24545103.641    96320258.090  
  21061177.535   110677234.323    21061175.087    86241987.564    21061174.283  
  21061177.982    82648585.784  
  21399465.748   112454951.016    21399462.406    87627216.654    21399461.441  
                                
  23841071.266   125285674.233    23841071.945    97625198.440    23841070.676  
  23841070.247    93557480.171  
  20374688.252   107069709.910    20374686.626    83430932.401    20374685.768  
  20374686.501    79954646.014  
  22356106.764   117482133.323                    91544499.965    22356101.868  
                                
  24404514.475   128246588.342                    99932390.947    24404510.776  
                                
  23564443.798   123831987.226    23564443.066    96492449.665    23564441.904  
  23564442.458    92471933.208  
  23734795.895   124727194.101    23734796.002    97190017.328    23734794.877  
  23734795.788    93140436.248  
  20273911.305   108375674.840    20273909.696    84292184.213    20273908.964  
                                
  23416973.093   125352890.310    23416972.110    97496688.048    23416971.127  
                                
  22099501.340   118010103.608    22099500.107    91785630.761    22099499.339  
                                
  21172871.634   113141406.619    21172870.168    87998865.736    21172869.436  
                                
  19310017.877   103150649.083    19310015.143    80228271.408    19310015.482  
                                
  25133629.276   132078113.374                                                  
  25133632.224    98629770.891  
  26023584.957   136754862.274                                                  
  26023586.458   102122142.963  
  23146314.004   121634701.581                                                  
  23146315.183    90831112.251  
  23555413.884   123784535.452                                                  
  23555416.296    92436512.740  
 21  8 28  5  2 51.0000000  0 18G 3G 4G 7G 8G 9G16G20G27G30R 5R 7R 9
                                R15R16E 1E 4E19E21
  24545824.513   128989177.339    24545825.353   100511046.403    24545824.263  
  24545825.067    96323089.086  
  21061456.810   110678701.944    21061454.344    86243131.162    21061453.540  
  21061457.257    82649681.741  
  21399240.223   112453765.901    21399236.881    87626293.190    21399235.916  
                                
  23840551.492   125282942.784    23840552.171    97623070.038    23840550.884  
  23840550.473    93555440.461  
  20374560.506   107069038.593    20374558.862    83430409.297    20374558.023  
  20374558.755    79954144.715  
  22356627.843   117484871.588                    91546633.679    22356622.947  
                                
  24404012.963   128243952.846                    99930337.323    24404009.246  
                                
  23564104.430   123830203.850    23564103.715    96491060.024    23564102.554  
  23564103.072    92470601.484  
  23734320.436   124724695.529    23734320.525    97188070.389    23734319.382  
  23734320.311    93138570.451  
  20274410.315   108378342.363    20274408.707    84294258.953    20274408.010  
                                
  23416205.868   125348783.321    23416204.885    97493493.731    23416203.903  
                                
  22098903.604   118006911.805    22098902.389    91783148.248    22098901.602  
                                
  21173476.589   113144639.191    21173475.106    88001379.959    21173474.391  
                                
  19309951.404   103150294.031    19309948.688    80227995.260    19309949.045  
                                
  25133206.119   132075889.693                                                  
  25133209.068    98628110.363  
  26023147.113   136752561.497                                                  
  26023148.613   102120424.863  
  23146316.023   121634712.198                                                  
  23146317.202    90831120.196  
  23555455.412   123784753.675                                                  
  23555457.806    92436675.703  
 21  8 28  5  2 52.0000000  0 18G 3G 4G 7G 8G 9G16G20G27G30R 5R 7R 9
                                R15R16E 1E 4E19E21
  24546545.886   128992968.218    24546546.725   100514000.335    24546545.635  
  24546546.439    96325919.922  
  21061736.121   110680169.758    21061733.673    86244274.909    21061732.869  
  21061736.568    82650777.827  
  21399014.698   112452580.791    21399011.374    87625369.726    21399010.391  
                                
  23840031.700   125280211.320    23840032.397    97620941.625    23840031.128  
  23840030.699    93553400.723  
  20374432.779   107068367.479    20374431.153    83429886.353    20374430.313  
  20374431.063    79953643.556  
  22357148.975   117487610.116                    91548767.596    22357144.061  
                                
  24403511.469   128241317.498                    99928283.795    24403507.770  
                                
  23563765.097   123828420.742    23563764.382    96489670.595    23563763.221  
  23563763.739    92469269.933  
  23733844.977   124722196.914    23733845.066    97186123.420    23733843.941  
  23733844.834    93136704.594  
  20274909.433   108381010.325    20274907.807    84296334.037    20274907.092  
                                
  23415438.626   125344676.187    23415437.643    97490299.293    23415436.660  
                                
  22098305.903   118003720.133    22098304.688    91780665.843    22098303.901  
                                
  21174081.527   113147871.808    21174080.026    88003894.219    21174079.311  
                                
  19309885.003   103149939.390    19309882.287    80227719.430    19309882.644  
                                
  25132782.963   132073666.097                                                  
  25132785.929    98626449.875  
  26022709.286   136750260.602                                                  
  26022710.751   102118706.660  
  23146318.060   121634722.929                                                  
  23146319.239    90831128.201  
  23555496.957   123784972.081                                                  
  23555499.387    92436838.796  
 21  8 28  5  2 53.0000000  0 18G 3G 4G 7G 8G 9G16G20G27G30R 5R 7R 9
                                R15R16E 1E 4E19E21
  24547267.204   128996758.777    24547268.044   100516954.018    24547266.954  
  24547267.758    96328750.534  
  21062015.449   110681637.669    21062013.037    86245418.735    21062012.215  
  21062015.932    82651873.985  
  21398789.191   112451395.603    21398785.849    87624446.205    21398784.848  
                                
  23839511.908   125277479.757    23839512.587    97618813.140    23839511.318  
  23839510.889    93551360.914  
  20374305.104   107067696.494    20374303.478    83429363.508    20374302.639  
  20374303.371    79953142.494  
  22357670.125   117490348.822                    91550901.657    22357665.229  
                                
  24403010.010   128238682.307                    99926230.396    24403006.311  
                                
  23563425.818   123826637.809    23563425.103    96488281.302    23563423.942  
  23563424.460    92467938.518  
  23733369.465   124719698.140    23733369.572    97184176.326    23733368.428  
  23733369.339    93134838.633  
  20275408.586   108383678.609    20275406.960    84298409.366    20275406.263  
                                
  23414671.312   125340568.837    23414670.329    97487104.685    23414669.382  
                                
  22097708.220   118000528.563    22097707.005    91778183.513    22097706.236  
                                
  21174686.447   113151104.362    21174684.982    88006408.425    21174684.232  
                                
  19309818.691   103149585.079    19309815.957    80227443.854    19309816.332  
                                
  25132359.825   132071442.489                                                  
  25132362.791    98624789.393  
  26022271.387   136747959.510                                                  
  26022272.888   102116988.308  
  23146320.115   121634733.672                                                  
  23146321.294    90831136.219  
  23555538.556   123785190.603                                                  
  23555540.951    92437001.980  
 21  8 28  5  2 54.0000000  0 18G 3G 4G 7G 8G 9G16G20G27G30R 5R 7R 9
                                R15R16E 1E 4E19E21
  24547988.452   129000549.016    24547989.292   100519907.453    24547988.219  
  24547989.041    96331580.919  
  21062294.796   110683105.623    21062292.348    86246562.605    21062291.544  
  21062295.243    82652970.201  
  21398563.612   112450210.277    21398560.271    87623522.578    21398559.288  
                                
  23838992.062   125274748.008    23838992.741    97616684.512    23838991.472  
  23838991.061    93549320.992  
  20374177.430   107067025.585    20374175.822    83428840.720    20374174.947  
  20374175.715    79952641.499  
  22358191.293   117493087.642                    91553035.796    22358186.397  
                                
  24402508.570   128236047.161                    99924177.028    24402504.871  
                                
  23563086.557   123824854.955    23563085.842    96486892.047    23563084.680  
  23563085.199    92466607.170  
  23732893.916   124717199.167    23732894.006    97182229.083    23732892.880  
  23732893.791    93132972.532  
  20275907.793   108386347.162    20275906.167    84300484.908    20275905.452  
                                
  23413903.999   125336461.206    23413902.998    97483909.866    23413902.033  
                                
  22097110.572   117997337.013    22097109.322    91775701.195    22097108.553  
                                
  21175291.367   113154336.778    21175289.866    88008922.527    21175289.134  
                                
  19309752.415   103149231.086    19309749.699    80227168.530    19309750.056  
                                
  25131936.686   132069218.832                                                  
  25131939.634    98623128.876  
  26021833.453   136745658.142                                                  
  26021834.954   102115269.765  
  23146322.152   121634744.383                                                  
  23146323.331    90831144.226  
  23555580.137   123785409.175                                                  
  23555582.550    92437165.213  
 21  8 28  5  2 55.0000000  0 18G 3G 4G 7G 8G 9G16G20G27G30R 5R 7R 9
                                R15R16E 1E 4E19E21
  24548709.735   129004339.414    24548710.593   100522861.010    24548709.520  
  24548710.307    96334411.408  
  21062574.232   110684574.115    21062571.784    86247706.885    21062570.997  
  21062574.696    82654066.806  
  21398338.123   112449025.311    21398334.781    87622599.231    21398333.799  
                                
  23838472.306   125272016.609    23838472.985    97614556.158    23838471.698  
  23838471.287    93547281.317  
  20374049.881   107066355.237    20374048.255    83428318.375    20374047.397  
  20374048.130    79952140.919  
  22358712.604   117495827.102                    91555170.445    22358707.708  
                                
  24402007.236   128233412.604                    99922124.127    24402003.520  
                                
  23562747.420   123823072.759    23562746.688    96485503.327    23562745.544  
  23562746.062    92465276.307  
  23732418.439   124714700.487    23732418.511    97180282.065    23732417.385  
  23732418.296    93131106.636  
  20276407.143   108389016.476    20276405.517    84302561.043    20276404.820  
                                
  23413136.685   125332353.796    23413135.702    97480715.214    23413134.737  
                                
  22096512.996   117994145.992    22096511.746    91773219.296    22096510.977  
                                
  21175896.323   113157569.547    21175894.822    88011436.903    21175894.107  
                                
  19309686.299   103148877.921    19309683.583    80226893.846    19309683.923  
                                
  25131513.619   132066995.612                                                  
  25131516.585    98621468.677  
  26021395.555   136743357.004                                                  
  26021397.056   102113551.391  
  23146324.278   121634755.549                                                  
  23146325.458    90831152.571  
  23555621.826   123785628.302                                                  
  23555624.238    92437328.849  
 21  8 28  5  2 56.0000000  0 18G 3G 4G 7G 8G 9G16G20G27G30R 5R 7R 9
                                R15R16E 1E 4E19E21
  24549431.089   129008130.146    24549431.947   100525814.822    24549430.875  
  24549431.661    96337242.150  
  21062853.828   110686043.350    21062851.398    86248851.745    21062850.594  
  21062854.293    82655163.953  
  21398112.741   112447840.927    21398109.399    87621676.334    21398108.417  
                                
  23837952.621   125269285.741    23837953.300    97612428.214    23837952.013  
  23837951.620    93545242.044  
  20373922.457   107065685.684    20373920.831    83427796.643    20373919.973  
  20373920.724    79951640.915  
  22359234.076   117498567.393                    91557305.732    22359229.162  
                                
  24401506.010   128230778.769                    99920071.799    24401502.294  
                                
  23562408.409   123821291.355    23562407.712    96484115.218    23562406.551  
  23562407.051    92463946.023  
  23731943.070   124712202.326    23731943.141    97178335.446    23731942.033  
  23731942.927    93129241.109  
  20276906.671   108391686.772    20276905.045    84304637.940    20276904.348  
                                
  23412369.460   125328246.781    23412368.460    97477520.868    23412367.513  
                                
  22095915.528   117990955.697    22095914.313    91770737.960    22095913.527  
                                
  21176501.386   113160802.919    21176499.921    88013951.752    21176499.188  
                                
  19309620.380   103148525.806    19309617.664    80226619.982    19309618.022  
                                
  25131090.677   132064773.031                                                  
  25131093.626    98619808.958  
  26020957.764   136741056.299                                                  
  26020959.247   102111833.320  
  23146326.530   121634767.383                                                  
  23146327.709    90831161.402  
  23555663.675   123785848.195                                                  
  23555666.087    92437493.042  
 21  8 28  5  2 57.0000000  0 18G 3G 4G 7G 8G 9G16G20G27G30R 5R 7R 9
                                R15R16E 1E 4E19E21
  24550152.426   129011920.755    24550153.266   100528768.544    24550152.176  
  24550152.998    96340072.793  
  21063133.443   110687512.825    21063131.012    86249996.788    21063130.208  
  21063133.907    82656261.290  
  21397887.377   112446656.595    21397884.035    87620753.480    21397883.035  
                                
  23837432.972   125266554.929    23837433.651    97610300.306    23837432.364  
  23837431.953    93543202.794  
  20373795.087   107065016.389    20373793.479    83427275.117    20373792.603  
  20373793.371    79951141.119  
  22359755.583   117501308.003                    91559441.275    22359750.687  
                                
  24401004.856   128228145.199                    99918019.660    24401001.157  
                                
  23562069.488   123819510.266    23562068.791    96482727.351    23562067.629  
  23562068.130    92462615.984  
  23731467.664   124709704.137    23731467.754    97176388.802    23731466.610  
  23731467.539    93127375.589  
  20277406.289   108394357.504    20277404.663    84306715.176    20277403.948  
                                
  23411602.200   125324139.670    23411601.218    97474326.447    23411600.270  
                                
  22095318.131   117987765.612    22095316.898    91768256.785    22095316.129  
                                
  21177106.503   113164036.395    21177105.020    88016466.676    21177104.305  
                                
  19309554.551   103148174.187    19309551.835    80226346.500    19309552.192  
                                
  25130667.753   132062550.594                                                  
  25130670.719    98618149.352  
  26020519.919   136738755.530                                                  
  26020521.420   102110115.222  
  23146328.799   121634779.374                                                  
  23146329.979    90831170.353  
  23555705.578   123786068.338                                                  
  23555707.972    92437657.440  
 21  8 28  5  2 58.0000000  0 18G 3G 4G 7G 8G 9G16G20G27G30R 5R 7R 9
                                R15R16E 1E 4E19E21
  24550873.691   129015711.126    24550874.531   100531722.084    24550873.477  
  24550874.281    96342903.278  
  21063413.129   110688982.467    21063410.698    86251141.962    21063409.876  
  21063413.593    82657358.753  
  21397662.013   112445472.255    21397658.653    87619830.613    21397657.670  
                                
  23836913.305   125263824.069    23836913.984    97608172.359    23836912.715  
  23836912.304    93541163.514  
  20373667.770   107064347.290    20373666.144    83426753.739    20373665.286  
  20373666.037    79950641.467  
  22360277.162   117504048.863                    91561577.008    22360272.248  
                                
  24400503.772   128225511.836                    99915967.684    24400500.038  
                                
  23561730.602   123817729.410    23561729.905    96481339.672    23561728.743  
  23561729.243    92461286.125  
  23730992.241   124707205.853    23730992.348    97174442.086    23730991.205  
  23730992.098    93125510.001  
  20277905.978   108397028.627    20277904.352    84308792.714    20277903.655  
                                
  23410834.940   125320032.380    23410833.957    97471131.890    23410832.992  
                                
  22094720.769   117984575.708    22094719.536    91765775.747    22094718.768  
                                
  21177711.619   113167269.856    21177710.118    88018981.587    21177709.404  
                                
  19309488.829   103147822.985    19309486.095    80226073.341    19309486.434  
                                
  25130244.865   132060328.228                                                  
  25130247.831    98616489.791  
  26020082.093   136736454.615                                                  
  26020083.558   102108397.010  
  23146331.104   121634791.461                                                  
  23146332.284    90831179.381  
  23555747.499   123786288.653                                                  
  23555749.893    92437821.964  
 21  8 28  5  2 59.0000000  0 18G 3G 4G 7G 8G 9G16G20G27G30R 5R 7R 9
                                R15R16E 1E 4E19E21
  24551595.082   129019501.949    24551595.922   100534675.970    24551594.849  
  24551595.654    96345734.085  
  21063692.958   110690452.951    21063690.509    86252287.794    21063689.705  
  21063693.404    82658456.833  
  21397436.738   112444288.563    21397433.396    87618908.260    21397432.396  
                                
  23836393.763   125261093.850    23836394.460    97606044.906    23836393.156  
  23836392.763    93539124.694  
  20373540.614   107063679.046    20373538.988    83426233.027    20373538.130  
  20373538.863    79950142.452  
  22360798.920   117506790.633                    91563713.458    22360793.988  
                                
  24400002.814   128222879.352                    99913916.411    24399999.116  
                                
  23561391.876   123815949.444    23561391.179    96479952.697    23561390.018  
  23561390.518    92459956.940  
  23730516.943   124704708.156    23730517.050    97172495.842    23730515.907  
  23730516.800    93123644.846  
  20278405.864   108399700.843    20278404.256    84310871.101    20278403.541  
                                
  23410067.769   125315925.643    23410066.787    97467937.726    23410065.822  
                                
  22094123.551   117981386.556    22094122.318    91763295.295    22094121.532  
                                
  21178316.825   113170503.935    21178315.342    88021496.977    21178314.627  
                                
  19309423.267   103147472.890    19309420.551    80225801.049    19309420.909  
                                
  25129822.084   132058106.566                                                  
  25129825.050    98614830.760  
  26019644.337   136734154.233                                                  
  26019645.838   102106679.181  
  23146333.552   121634804.290                                                  
  23146334.732    90831188.957  
  23555789.580   123786509.820                                                  
  23555792.010    92437987.112  
 21  8 28  5  3  0.0000000  0 18G 3G 4G 7G 8G 9G16G20G27G30R 5R 7R 9
                                R15R16E 1E 4E19E21
  24552316.454   129023292.758    24552317.294   100537629.840    24552316.222  
  24552317.026    96348564.873  
  21063972.840   110691923.782    21063970.392    86253433.898    21063969.588  
  21063973.287    82659555.185  
  21397211.535   112443105.091    21397208.193    87617986.077    21397207.210  
                                
  23835874.239   125258363.753    23835874.918    97603917.562    23835873.632  
  23835873.239    93537085.999  
  20373413.512   107063011.201    20373411.886    83425712.630    20373411.046  
  20373411.796    79949643.734  
  22361320.731   117509532.843                    91565850.245    22361315.817  
                                
  24399501.928   128220247.213                    99911865.396    24399498.229  
                                
  23561053.258   123814169.910    23561052.544    96478566.049    23561051.382  
  23561051.882    92458628.069  
  23730041.699   124702210.588    23730041.770    97170549.688    23730040.626  
  23730041.556    93121779.773  
  20278905.893   108402373.682    20278904.267    84312949.977    20278903.552  
                                
  23409300.599   125311818.912    23409299.616    97464743.602    23409298.633  
                                
  22093526.386   117978197.777    22093525.153    91760815.136    22093524.385  
                                
  21178922.067   113173738.228    21178920.584    88024012.546    21178919.869  
                                
  19309357.849   103147123.385    19309355.133    80225529.217    19309355.490  
                                
  25129399.374   132055885.182                                                  
  25129402.340    98613171.937  
  26019206.600   136731853.901                                                  
  26019208.101   102104961.397  
  23146336.054   121634817.401                                                  
  23146337.233    90831198.750  
  23555831.733   123786731.350                                                  
  23555834.146    92438152.542  
 21  8 28  5  3  1.0000000  0 18G 3G 4G 7G 8G 9G16G20G27G30R 5R 7R 9
                                R15R16E 1E 4E19E21
  24553037.791   129027083.396    24553038.631   100540583.586    24553037.559  
  24553038.363    96351395.553  
  21064252.776   110693394.856    21064250.328    86254580.189    21064249.542  
  21064253.241    82660653.717  
  21396986.367   112441921.642    21396983.008    87617063.898    21396982.025  
                                
  23835354.733   125255633.707    23835355.412    97601790.247    23835354.126  
  23835353.715    93535047.325  
  20373286.463   107062343.599    20373284.855    83425192.419    20373284.015  
  20373284.748    79949145.211  
  22361842.614   117512275.378                    91567987.286    22361837.700  
                                
  24399001.095   128217615.341                    99909814.592    24398997.396  
                                
  23560714.676   123812390.698    23560713.961    96477179.652    23560712.818  
  23560713.300    92457299.426  
  23729566.400   124699712.985    23729566.508    97168603.503    23729565.364  
  23729566.257    93119914.686  
  20279405.976   108405046.993    20279404.350    84315029.216    20279403.653  
                                
  23408533.392   125307712.112    23408532.427    97461549.427    23408531.462  
                                
  22092929.292   117975009.224    22092928.024    91758335.152    22092927.273  
                                
  21179527.344   113176972.591    21179525.861    88026528.159    21179525.146  
                                
  19309292.502   103146774.337    19309289.786    80225257.735    19309290.143  
                                
  25128976.682   132053663.937                                                  
  25128979.631    98611513.214  
  26018768.827   136729553.481                                                  
  26018770.328   102103243.564  
  23146338.574   121634830.677                                                  
  23146339.753    90831208.664  
  23555873.940   123786953.133                                                  
  23555876.334    92438318.166  
 21  8 28  5  3  2.0000000  0 18G 3G 4G 7G 8G 9G16G20G27G30R 5R 7R 9
                                R15R16E 1E 4E19E21
  24553759.110   129030873.990    24553759.950   100543537.294    24553758.877  
  24553759.699    96354226.190  
  21064532.784   110694866.268    21064530.336    86255726.742    21064529.532  
  21064533.230    82661752.498  
  21396761.182   112440738.323    21396757.840    87616141.819    21396756.839  
                                
  23834835.245   125252903.792    23834835.924    97599663.043    23834834.637  
  23834834.226    93533008.755  
  20373159.504   107061676.376    20373157.895    83424672.505    20373157.038  
  20373157.788    79948646.962  
  22362364.586   117515018.339                    91570124.663    22362359.672  
                                
  24398500.351   128214983.793                    99907764.030    24398496.634  
                                
  23560376.165   123810611.868    23560375.468    96475793.551    23560374.307  
  23560374.807    92455971.092  
  23729091.138   124697215.479    23729091.227    97166657.397    23729090.084  
  23729090.995    93118049.672  
  20279906.183   108407720.874    20279904.557    84317108.904    20279903.860  
                                
  23407766.221   125303605.318    23407765.239    97458355.254    23407764.274  
                                
  22092332.235   117971820.993    22092330.984    91755855.420    22092330.216  
                                
  21180132.640   113180207.168    21180131.174    88029043.943    21180130.442  
                                
  19309227.280   103146425.895    19309224.546    80224986.724    19309224.885  
                                
  25128554.044   132051442.924                                                  
  25128557.011    98609854.672  
  26018331.089   136727253.109                                                  
  26018332.572   102101525.751  
  23146341.147   121634844.201                                                  
  23146342.326    90831218.761  
  23555916.218   123787175.261                                                  
  23555918.612    92438484.044  
 21  8 28  5  3  3.0000000  0 18G 3G 4G 7G 8G 9G16G20G27G30R 5R 7R 9
                                R15R16E 1E 4E19E21
  24554480.536   129034665.013    24554481.376   100546491.335    24554480.286  
  24554481.108    96357057.146  
  21064812.916   110696338.486    21064810.486    86256873.927    21064809.682  
  21064813.381    82662851.886  
  21396536.121   112439555.673    21396532.780    87615220.280    21396531.797  
                                
  23834315.882   125250174.482    23834316.561    97597536.308    23834315.274  
  23834314.863    93530970.636  
  20373032.687   107061010.001    20373031.097    83424153.251    20373030.239  
  20373030.972    79948149.342  
  22362886.718   117517762.186                    91572262.723    22362881.804  
                                
  24397999.733   128212353.095                    99905714.142    24397996.016  
                                
  23560037.851   123808833.932    23560037.154    96474408.142    23560035.993  
  23560036.493    92454643.426  
  23728615.965   124694718.536    23728616.054    97164711.732    23728614.929  
  23728615.840    93116185.081  
  20280406.587   108410395.797    20280404.961    84319189.397    20280404.246  
                                
  23406999.140   125299499.038    23406998.157    97455161.480    23406997.174  
                                
  22091735.320   117968633.600    22091734.087    91753376.336    22091733.301  
                                
  21180738.078   113183442.434    21180736.595    88031560.257    21180735.880  
                                
  19309162.237   103146078.532    19309159.521    80224716.555    19309159.878  
                                
  25128131.531   132049222.614                                                  
  25128134.462    98608196.660  
  26017893.441   136724953.229                                                  
  26017894.924   102099808.317  
  23146343.845   121634858.454                                                  
  23146345.024    90831229.413  
  23555958.621   123787398.218                                                  
  23555961.034    92438650.541  
 21  8 28  5  3  4.0000000  0 18G 3G 4G 7G 8G 9G16G20G27G30R 5R 7R 9
                                R15R16E 1E 4E19E21
  24555201.855   129038455.640    24555202.695   100549445.064    24555201.622  
  24555202.444    96359887.789  
  21065093.103   110697810.711    21065090.655    86258021.113    21065089.851  
  21065093.567    82663951.255  
  21396311.025   112438372.850    21396307.702    87614298.602    21396306.701  
                                
  23833796.465   125247444.973    23833797.162    97595409.406    23833795.893  
  23833795.464    93528932.331  
  20372905.888   107060343.655    20372904.280    83423634.023    20372903.440  
  20372904.173    79947651.738  
  22363408.869   117520506.151                    91574400.877    22363403.955  
                                
  24397499.132   128209722.456                    99903664.282    24397495.415  
                                
  23559699.537   123807056.085    23559698.822    96473022.802    23559697.661  
  23559698.161    92453315.795  
  23728140.792   124692221.380    23728140.899    97162765.895    23728139.755  
  23728140.667    93114320.290  
  20280907.027   108413070.965    20280905.419    84321270.083    20280904.686  
                                
  23406231.987   125295392.418    23406231.004    97451967.449    23406230.039  
                                
  22091138.423   117965446.154    22091137.190    91750897.211    22091136.404  
                                
  21181343.498   113186677.525    21181342.015    88034076.443    21181341.282  
                                
  19309097.265   103145731.443    19309094.531    80224446.597    19309094.888  
                                
  25127709.018   132047002.229                                                  
  25127711.967    98606538.562  
  26017455.721   136722653.061                                                  
  26017457.222   102098090.646  
  23146346.561   121634872.642                                                  
  23146347.740    90831239.995  
  23556001.078   123787621.207                                                  
  23556003.490    92438817.044  
 21  8 28  5  3  5.0000000  0 18G 3G 4G 7G 8G 9G16G20G27G30R 5R 7R 9
                                R15R16E 1E 4E19E21
  24555923.156   129042246.120    24555924.013   100552398.680    24555922.941  
  24555923.763    96362718.340  
  21065373.289   110699283.167    21065370.841    86259168.481    21065370.037  
  21065373.736    82665050.823  
  21396085.947   112437190.082    21396082.605    87613376.972    21396081.605  
                                
  23833277.048   125244715.466    23833277.727    97593282.522    23833276.441  
  23833276.048    93526894.092  
  20372779.144   107059677.562    20372777.535    83423114.987    20372776.678  
  20372777.410    79947154.337  
  22363931.091   117523250.412                    91576539.260    22363926.159  
                                
  24396998.585   128207092.031                    99901614.598    24396994.868  
                                
  23559361.276   123805278.522    23559360.579    96471637.683    23559359.418  
  23559359.918    92451988.408  
  23727665.583   124689724.170    23727665.690    97160820.015    23727664.547  
  23727665.440    93112455.502  
  20281407.556   108415746.563    20281405.948    84323351.099    20281405.233  
                                
  23405464.798   125291285.681    23405463.816    97448773.318    23405462.869  
                                
  22090541.562   117962258.916    22090540.311    91748418.244    22090539.543  
                                
  21181948.901   113189912.645    21181947.418    88036592.646    21181946.703  
                                
  19309032.365   103145384.814    19309029.648    80224176.995    19309030.006  
                                
  25127286.487   132044781.954                                                  
  25127289.436    98604880.576  
  26017017.984   136720352.800                                                  
  26017019.485   102096372.925  
  23146349.277   121634886.959                                                  
  23146350.439    90831250.706  
  23556043.553   123787844.421                                                  
  23556045.965    92438983.737  
 21  8 28  5  3  6.0000000  0 18G 3G 4G 7G 8G 9G16G20G27G30R 5R 7R 9
                                R15R16E 1E 4E19E21
  24556644.528   129046036.937    24556645.368   100555352.572    24556644.296  
  24556645.100    96365549.134  
  21065653.618   110700756.345    21065651.188    86260316.413    21065650.384  
  21065654.083    82666150.922  
  21395860.994   112436007.857    21395857.634    87612455.760    21395856.652  
                                
  23832757.757   125241986.488    23832758.436    97591156.055    23832757.149  
  23832756.738    93524856.216  
  20372652.541   107059012.228    20372650.915    83422596.546    20372650.076  
  20372650.790    79946657.495  
  22364453.456   117525995.468                    91578678.263    22364448.542  
                                
  24396498.181   128204462.369                    99899565.509    24396494.482  
                                
  23559023.159   123803501.758    23559022.462    96470253.203    23559021.300  
  23559021.801    92450661.594  
  23727190.499   124687227.447    23727190.571    97158874.517    23727189.427  
  23727190.339    93110591.061  
  20281908.264   108418423.115    20281906.638    84325432.864    20281905.941  
                                
  23404697.699   125287179.353    23404696.734    97445579.510    23404695.769  
                                
  22089944.844   117959072.409    22089943.575    91745939.847    22089942.807  
                                
  21182554.410   113193148.308    21182552.927    88039109.275    21182552.213  
                                
  19308967.679   103145039.194    19308964.963    80223908.183    19308965.302  
                                
  25126864.117   132042562.311                                                  
  25126867.083    98603223.044  
  26016580.354   136718052.947                                                  
  26016581.837   102094655.500  
  23146352.136   121634901.948                                                  
  23146353.316    90831261.880  
  23556086.170   123788068.364                                                  
  23556088.583    92439150.960  
 21  8 28  5  3  7.0000000  0 18G 3G 4G 7G 8G 9G16G20G27G30R 5R 7R 9
                                R15R16E 1E 4E19E21
  24557365.936   129049827.989    24557366.776   100558306.643    24557365.704  
  24557366.526    96368380.128  
  21065934.090   110702230.166    21065931.642    86261464.840    21065930.838  
  21065934.537    82667251.502  
  21395636.112   112434826.087    21395632.753    87611534.903    21395631.752  
                                
  23832238.518   125239257.973    23832239.233    97589029.935    23832237.947  
  23832237.518    93522818.673  
  20372526.047   107058347.555    20372524.438    83422078.621    20372523.581  
  20372524.313    79946161.146  
  22364975.982   117528741.252                    91580817.837    22364971.051  
                                
  24395997.884   128201833.341                    99897516.918    24395994.185  
                                
  23558685.202   123801725.715    23558684.469    96468869.281    23558683.308  
  23558683.808    92449335.326  
  23726715.434   124684731.103    23726715.523    97156929.316    23726714.397  
  23726715.273    93108726.924  
  20282409.133   108421100.537    20282407.525    84327515.298    20282406.810  
                                
  23403930.671   125283073.351    23403929.706    97442385.953    23403928.724  
                                
  22089348.215   117955886.519    22089346.964    91743461.933    22089346.196  
                                
  21183160.009   113196384.455    21183158.526    88041626.278    21183157.812  
                                
  19308903.136   103144694.486    19308900.420    80223640.079    19308900.777  
                                
  25126441.819   132040343.202                                                  
  25126444.785    98601565.917  
  26016142.777   136715753.440                                                  
  26016144.260   102092938.340  
  23146355.085   121634917.478                                                  
  23146356.264    90831273.485  
  23556128.913   123788292.964                                                  
  23556131.307    92439318.687  
 21  8 28  5  3  8.0000000  0 18G 3G 4G 7G 8G 9G16G20G27G30R 5R 7R 9
                                R15R16E 1E 4E19E21
  24558087.327   129053618.941    24558088.166   100561260.628    24558087.094  
  24558087.916    96371211.023  
  21066214.580   110703704.260    21066212.150    86262613.484    21066211.346  
  21066215.045    82668352.293  
  21395411.230   112433644.411    21395407.889    87610614.119    21395406.888  
                                
  23831719.298   125236529.488    23831719.977    97586903.845    23831718.691  
  23831718.280    93520781.194  
  20372399.623   107057683.190    20372397.997    83421560.934    20372397.157  
  20372397.908    79945665.031  
  22365498.544   117531487.376                    91582957.674    22365493.612  
                                
  24395497.641   128199204.603                    99895468.555    24395493.924  
                                
  23558347.263   123799949.989    23558346.566    96467485.607    23558345.404  
  23558345.887    92448009.313  
  23726240.403   124682234.788    23726240.475    97154984.138    23726239.367  
  23726240.243    93106862.793  
  20282910.091   108423778.462    20282908.483    84329598.130    20282907.768  
                                
  23403163.626   125278967.263    23403162.643    97439192.326    23403161.696  
                                
  22088751.640   117952700.873    22088750.389    91740984.213    22088749.621  
                                
  21183765.644   113199620.751    21183764.161    88044143.392    21183763.446  
                                
  19308838.700   103144350.302    19308835.984    80223372.381    19308836.341  
                                
  25126019.574   132038124.266                                                  
  25126022.522    98599908.926  
  26015705.183   136713453.874                                                  
  26015706.648   102091221.143  
  23146358.069   121634933.206                                                  
  23146359.248    90831285.235  
  23556171.691   123788517.839                                                  
  23556174.086    92439486.622  
 21  8 28  5  3  9.0000000  0 18G 3G 4G 7G 8G 9G16G20G27G30R 5R 7R 9
                                R15R16E 1E 4E19E21
  24558808.699   129057409.805    24558809.539   100564214.568    24558808.467  
  24558809.289    96374041.898  
  21066495.178   110705178.682    21066492.730    86263762.389    21066491.926  
  21066495.624    82669453.323  
  21395186.402   112432462.900    21395183.043    87609693.458    21395182.042  
                                
  23831200.132   125233801.155    23831200.811    97584777.871    23831199.524  
  23831199.113    93518743.792  
  20372273.271   107057019.166    20372271.645    83421043.512    20372270.806  
  20372271.520    79945169.171  
  22366021.177   117534233.917                    91585097.838    22366016.263  
                                
  24394997.505   128196576.238                    99893420.476    24394993.770  
                                
  23558009.449   123798174.660    23558008.734    96466102.227    23558007.573  
  23558008.073    92446683.575  
  23725765.391   124679738.544    23725765.463    97153039.020    23725764.337  
  23725765.212    93104998.727  
  20283411.156   108426456.890    20283409.530    84331681.332    20283408.833  
                                
  23402396.580   125274861.201    23402395.615    97435998.635    23402394.632  
                                
  22088155.136   117949515.496    22088153.885    91738506.681    22088153.117  
                                
  21184371.297   113202857.196    21184369.814    88046660.606    21184369.099  
                                
  19308774.372   103144006.647    19308771.655    80223105.064    19308772.013  
                                
  25125597.364   132035905.559                                                  
  25125600.331    98598252.097  
  26015267.606   136711154.355                                                  
  26015269.089   102089503.961  
  23146361.124   121634949.178                                                  
  23146362.304    90831297.160  
  23556214.559   123788743.064                                                  
  23556216.954    92439654.799  
 21  8 28  5  3 10.0000000  0 18G 3G 4G 7G 8G 9G16G20G27G30R 5R 7R 9
                                R15R16E 1E 4E19E21
  24559530.072   129061200.626    24559530.911   100567168.452    24559529.839  
  24559530.661    96376872.694  
  21066775.793   110706653.407    21066773.345    86264911.525    21066772.541  
  21066776.257    82670554.591  
  21394961.592   112431281.514    21394958.233    87608772.900    21394957.250  
                                
  23830680.947   125231072.919    23830681.626    97582651.982    23830680.340  
  23830679.947    93516706.491  
  20372146.973   107056355.496    20372145.347    83420526.369    20372144.507  
  20372145.258    79944673.576  
  22366543.900   117536980.863                    91587238.320    22366538.986  
                                
  24394497.386   128193948.184                    99891372.647    24394493.670  
                                
  23557671.689   123796399.744    23557670.992    96464719.178    23557669.830  
  23557670.295    92445358.145  
  23725290.379   124677242.394    23725290.450    97151093.968    23725289.307  
  23725290.218    93103134.725  
  20283912.329   108429135.923    20283910.703    84333765.027    20283910.006  
                                
  23401629.534   125270755.137    23401628.552    97432805.031    23401627.604  
                                
  22087558.686   117946330.456    22087557.417    91736029.428    22087556.649  
                                
  21184976.985   113206093.838    21184975.502    88049177.997    21184974.787  
                                
  19308710.168   103143663.601    19308707.452    80222838.255    19308707.792  
                                
  25125175.191   132033687.063                                                  
  25125178.157    98596595.439  
  26014830.012   136708854.830                                                  
  26014831.495   102087786.790  
  23146364.198   121634965.382                                                  
  23146365.377    90831309.265  
  23556257.481   123788968.614                                                  
  23556259.875    92439823.240  
 21  8 28  5  3 11.0000000  0 18G 3G 4G 7G 8G 9G16G20G27G30R 5R 7R 9
                                R15R16E 1E 4E19E21
  24560251.444   129064991.487    24560252.284   100570122.372    24560251.230  
  24560252.034    96379703.521  
  21067056.515   110708128.581    21067054.067    86266061.011    21067053.281  
  21067056.980    82671656.171  
  21394736.818   112430100.375    21394733.458    87607852.532    21394732.476  
                                
  23830161.834   125228344.895    23830162.513    97580526.258    23830161.227  
  23830160.816    93514669.325  
  20372020.764   107055692.276    20372019.156    83420009.574    20372018.298  
  20372019.031    79944178.314  
  22367066.730   117539728.305                    91589379.186    22367061.798  
                                
  24393997.375   128191320.600                    99889325.181    24393993.659  
                                
  23557334.018   123794625.298    23557333.321    96463336.488    23557332.159  
  23557332.642    92444033.073  
  23724815.420   124674746.413    23724815.492    97149149.055    23724814.366  
  23724815.242    93101270.840  
  20284413.626   108431815.619    20284412.000    84335849.235    20284411.286  
                                
  23400862.507   125266649.183    23400861.542    97429611.509    23400860.559  
                                
  22086962.307   117943145.839    22086961.057    91733552.506    22086960.270  
                                
  21185582.727   113209330.707    21185581.244    88051695.559    21185580.529  
                                
  19308646.072   103143321.249    19308643.338    80222571.981    19308643.695  
                                
  25124753.089   132031468.884                                                  
  25124756.055    98594939.002  
  26014392.435   136706555.423                                                  
  26014393.918   102086069.702  
  23146367.361   121634981.941                                                  
  23146368.540    90831321.626  
  23556300.473   123789194.599                                                  
  23556302.868    92439991.988  
 21  8 28  5  3 12.0000000  0 18G 3G 4G 7G 8G 9G16G20G27G30R 5R 7R 9
                                R15R16E 1E 4E19E21
  24560972.834   129068782.360    24560973.674   100573076.299    24560972.602  
  24560973.424    96382534.377  
  21067337.291   110709604.168    21067334.861    86267210.824    21067334.057  
  21067337.756    82672758.073  
  21394512.097   112428919.495    21394508.738    87606932.370    21394507.755  
                                
  23829642.739   125225617.099    23829643.418    97578400.709    23829642.149  
  23829641.721    93512632.330  
  20371894.645   107055029.533    20371893.037    83419493.151    20371892.179  
  20371892.929    79943683.404  
  22367589.649   117542476.281                    91591520.466    22367584.735  
                                
  24393497.436   128188693.465                    99887278.056    24393493.719  
                                
  23556996.454   123792851.371    23556995.757    96461954.205    23556994.596  
  23556995.078    92442708.388  
  23724340.480   124672250.609    23724340.569    97147204.281    23724339.425  
  23724340.301    93099407.092  
  20284915.031   108434495.978    20284913.405    84337933.963    20284912.708  
                                
  23400095.497   125262543.301    23400094.532    97426418.045    23400093.549  
                                
  22086366.000   117939961.622    22086364.749    91731075.893    22086363.963  
                                
  21186188.505   113212567.826    21186187.022    88054213.321    21186186.289  
                                
  19308582.101   103142979.566    19308579.385    80222306.227    19308579.742  
                                
  25124331.058   132029251.049                                                  
  25124334.024    98593282.828  
  26013954.912   136704256.139                                                  
  26013956.395   102084352.700  
  23146370.577   121634998.844                                                  
  23146371.756    90831334.250  
  23556343.574   123789421.027                                                  
  23556345.968    92440161.079  
 21  8 28  5  3 13.0000000  0 18G 3G 4G 7G 8G 9G16G20G27G30R 5R 7R 9
                                R15R16E 1E 4E19E21
  24561694.189   129072573.022    24561695.029   100576030.048    24561693.939  
  24561694.761    96385365.061  
  21067618.121   110711079.914    21067615.673    86268360.756    21067614.886  
  21067618.585    82673860.097  
  21394287.376   112427738.573    21394284.017    87606012.171    21394283.034  
                                
  23829123.626   125222889.212    23829124.305    97576275.079    23829123.019  
  23829122.590    93510595.307  
  20371768.561   107054366.956    20371766.953    83418976.859    20371766.113  
  20371766.828    79943188.631  
  22368112.621   117545224.480                    91593661.918    22368107.690  
                                
  24392997.550   128186066.497                    99885231.074    24392993.833  
                                
  23556658.926   123791077.655    23556658.229    96460572.089    23556657.068  
  23556657.550    92441383.864  
  23723865.503   124669754.711    23723865.592    97145259.424    23723864.449  
  23723865.324    93097543.283  
  20285416.507   108437176.700    20285414.899    84340018.970    20285414.184  
                                
  23399328.433   125258437.188    23399327.468    97423224.405    23399326.485  
                                
  22085769.729   117936777.551    22085768.460    91728599.393    22085767.692  
                                
  21186794.301   113215804.943    21186792.818    88056731.078    21186792.085  
                                
  19308518.237   103142638.303    19308515.485    80222040.801    19308515.843  
                                
  25123909.010   132027033.254                                                  
  25123911.976    98591626.685  
  26013517.335   136701956.693                                                  
  26013518.818   102082635.595  
  23146373.793   121635015.817                                                  
  23146374.973    90831346.929  
  23556386.692   123789647.619                                                  
  23556389.086    92440330.287  
 21  8 28  5  3 14.0000000  0 18G 3G 4G 7G 8G 9G16G20G27G30R 5R 7R 9
                                R15R16E 1E 4E19E21
  24562415.508   129076363.684    24562416.348   100578983.820    24562415.275  
  24562416.097    96388195.737  
  21067899.022   110712556.041    21067896.609    86269510.978    21067895.787  
  21067899.504    82674962.378  
  21394062.709   112426557.836    21394059.350    87605092.112    21394058.349  
                                
  23828604.585   125220161.563    23828605.264    97574149.636    23828603.995  
  23828603.566    93508558.391  
  20371642.549   107053704.785    20371640.958    83418460.883    20371640.083  
  20371640.833    79942694.144  
  22368635.666   117547973.119                    91595803.714    22368630.752  
                                
  24392497.718   128183439.901                    99883184.370    24392494.001  
                                
  23556321.487   123789304.383    23556320.773    96459190.334    23556319.611  
  23556320.094    92440059.676  
  23723390.580   124667258.928    23723390.652    97143314.648    23723389.508  
  23723390.401    93095679.533  
  20285918.109   108439858.002    20285916.501    84342104.420    20285915.768  
                                
  23398561.405   125254331.118    23398560.422    97420030.787    23398559.458  
                                
  22085173.511   117933593.826    22085172.260    91726123.160    22085171.492  
                                
  21187400.114   113219042.271    21187398.631    88059249.001    21187397.916  
                                
  19308454.462   103142297.685    19308451.746    80221775.873    19308452.086  
                                
  25123487.033   132024815.730                                                  
  25123489.999    98589970.731  
  26013079.776   136699657.315                                                  
  26013081.277   102080918.514  
  23146377.099   121635033.086                                                  
  23146378.279    90831359.816  
  23556429.881   123789874.581                                                  
  23556432.275    92440499.767  
 21  8 28  5  3 15.0000000  0 18G 3G 4G 7G 8G 9G16G20G27G30R 5R 7R 9
                                R15R16E 1E 4E19E21
  24563136.862   129080154.431    24563137.702   100581937.653    24563136.630  
  24563137.452    96391026.490  
  21068180.012   110714032.667    21068177.582    86270661.596    21068176.796  
  21068180.495    82676065.058  
  21393838.077   112425377.451    21393834.718    87604172.329    21393833.717  
                                
  23828085.579   125217434.196    23828086.276    97572024.414    23828085.007  
  23828084.578    93506521.716  
  20371516.661   107053043.147    20371515.035    83417945.318    20371514.178  
  20371514.910    79942200.068  
  22369158.835   117550722.375                    91597945.989    22369153.903  
                                
  24391998.010   128180813.878                    99881138.115    24391994.294  
                                
  23555984.138   123787531.694    23555983.441    96457809.020    23555982.280  
  23555982.762    92438735.906  
  23722915.693   124664763.429    23722915.800    97141370.117    23722914.657  
  23722915.514    93093816.007  
  20286419.835   108442540.059    20286418.227    84344190.467    20286417.512  
                                
  23397794.377   125250225.286    23397793.430    97416837.358    23397792.448  
                                
  22084577.400   117930410.578    22084576.132    91723647.303    22084575.363  
                                
  21188005.981   113222279.946    21188004.498    88061767.192    21188003.783  
                                
  19308390.831   103141957.851    19308388.115    80221511.560    19308388.472  
                                
  25123065.145   132022598.622                                                  
  25123068.093    98588315.103  
  26012642.271   136697358.139                                                  
  26012643.737   102079201.595  
  23146380.459   121635050.787                                                  
  23146381.638    90831373.034  
  23556473.160   123790102.077                                                  
  23556475.554    92440669.651  
 21  8 28  5  3 16.0000000  0 18G 3G 4G 7G 8G 9G16G20G27G30R 5R 7R 9
                                R15R16E 1E 4E19E21
  24563858.199   129083945.095    24563859.039   100584891.420    24563857.949  
  24563858.771    96393857.172  
  21068461.074   110715509.575    21068458.626    86271812.429    21068457.822  
  21068461.539    82677167.940  
  21393613.482   112424197.169    21393610.122    87603252.631    21393609.122  
                                
  23827566.573   125214706.855    23827567.252    97569899.216    23827565.966  
  23827565.572    93504485.083  
  20371390.810   107052381.819    20371389.184    83417429.997    20371388.344  
  20371389.059    79941706.213  
  22369682.076   117553471.976                    91600088.534    22369677.144  
                                
  24391498.339   128178188.110                    99879092.049    24391494.640  
                                
  23555646.878   123785759.346    23555646.181    96456427.972    23555645.020  
  23555645.484    92437412.412  
  23722440.824   124662267.939    23722440.913    97139425.588    23722439.769  
  23722440.645    93091952.498  
  20286921.687   108445222.642    20286920.061    84346276.915    20286919.346  
                                
  23397027.367   125246119.404    23397026.420    97413643.894    23397025.455  
                                
  22083981.326   117927227.592    22083980.057    91721171.647    22083979.306  
                                
  21188611.902   113225517.739    21188610.419    88064285.476    21188609.704  
                                
  19308327.324   103141618.542    19308324.608    80221247.653    19308324.948  
                                
  25122643.257   132020381.681                                                  
  25122646.224    98586659.595  
  26012204.730   136695058.940                                                  
  26012206.231   102077484.654  
  23146383.854   121635068.684                                                  
  23146385.033    90831386.394  
  23556516.510   123790329.861                                                  
  23556518.922    92440839.744  
 21  8 28  5  3 17.0000000  0 18G 3G 4G 7G 8G 9G16G20G27G30R 5R 7R 9
                                R15R16E 1E 4E19E21
  24564579.482   129087735.525    24564580.322   100587845.009    24564579.250  
  24564580.072    96396687.688  
  21068742.154   110716986.656    21068739.706    86272963.401    21068738.919  
  21068742.618    82678270.955  
  21393388.886   112423016.878    21393385.527    87602332.926    21393384.526  
                                
  23827047.585   125211979.526    23827048.264    97567774.029    23827046.978  
  23827046.584    93502448.437  
  20371264.994   107051720.696    20371263.386    83416914.835    20371262.528  
  20371263.279    79941212.522  
  22370205.352   117556221.839                    91602231.277    22370200.438  
                                
  24390998.739   128175562.565                    99877046.170    24390995.022  
                                
  23555309.654   123783987.253    23555308.957    96455047.121    23555307.796  
  23555308.278    92436089.099  
  23721965.937   124659772.381    23721966.008    97137480.996    23721964.864  
  23721965.758    93090088.937  
  20287423.592   108447905.645    20287421.984    84348363.693    20287421.269  
                                
  23396260.340   125242013.402    23396259.375    97410450.337    23396258.392  
                                
  22083385.286   117924044.764    22083384.018    91718696.114    22083383.249  
                                
  21189217.823   113228755.533    21189216.340    88066803.762    21189215.625  
                                
  19308263.889   103141279.638    19308261.155    80220984.062    19308261.495  
                                
  25122221.423   132018164.829                                                  
  25122224.390    98585004.151  
  26011767.189   136692759.586                                                  
  26011768.673   102075767.612  
  23146387.267   121635086.675                                                  
  23146388.482    90831399.829  
  23556559.896   123790557.830                                                  
  23556562.290    92441009.983  
 21  8 28  5  3 18.0000000  0 18G 3G 4G 7G 8G 9G16G20G27G30R 5R 7R 9
                                R15R16E 1E 4E19E21
  24565300.801   129091525.993    24565301.641   100590798.620    24565300.551  
  24565301.373    96399518.224  
  21069023.305   110718464.160    21069020.875    86274114.700    21069020.071  
  21069023.770    82679374.287  
  21393164.326   112421836.842    21393160.967    87601413.418    21393159.966  
                                
  23826528.633   125209252.425    23826529.312    97565649.014    23826528.025  
  23826527.632    93500411.966  
  20371139.285   107051060.023    20371137.659    83416400.029    20371136.819  
  20371137.534    79940719.162  
  22370728.736   117558972.198                    91604374.418    22370723.786  
                                
  24390499.175   128172937.437                    99875000.622    24390495.476  
                                
  23554972.537   123782215.659    23554971.840    96453666.665    23554970.679  
  23554971.125    92434766.151  
  23721491.103   124657276.999    23721491.175    97135536.549    23721490.031  
  23721490.889    93088225.496  
  20287925.622   108450589.302    20287924.014    84350450.984    20287923.281  
                                
  23395493.330   125237907.502    23395492.347    97407256.862    23395491.382  
                                
  22082789.319   117920862.336    22082788.050    91716220.897    22082787.282  
                                
  21189823.761   113231993.578    21189822.278    88069322.239    21189821.563  
                                
  19308200.562   103140941.406    19308197.828    80220720.994    19308198.203  
                                
  25121799.625   132015948.273                                                  
  25121802.574    98583348.939  
  26011329.649   136690460.372                                                  
  26011331.132   102074050.664  
  23146390.769   121635105.015                                                  
  23146391.948    90831413.523  
  23556603.353   123790786.232                                                  
  23556605.766    92441180.543  
 21  8 28  5  3 19.0000000  0 18G 3G 4G 7G 8G 9G16G20G27G30R 5R 7R 9
                                R15R16E 1E 4E19E21
  24566022.120   129095316.585    24566022.960   100593752.300    24566021.888  
  24566022.692    96402348.834  
  21069304.563   110719942.195    21069302.115    86275266.416    21069301.329  
  21069305.028    82680478.017  
  21392939.837   112420657.135    21392936.460    87600494.163    21392935.477  
                                
  23826009.752   125206525.625    23826010.431    97563524.227    23826009.145  
  23826008.752    93498375.714  
  20371013.666   107050399.913    20371012.040    83415885.657    20371011.200  
  20371011.933    79940226.227  
  22371252.209   117561723.164                    91606518.035    22371247.295  
                                
  24389999.735   128170312.890                    99872955.532    24389996.019  
                                
  23554635.527   123780444.643    23554634.830    96452286.643    23554633.651  
  23554634.133    92433443.637  
  23721016.287   124654781.867    23721016.359    97133592.277    23721015.215  
  23721016.073    93086362.252  
  20288427.813   108453273.723    20288426.187    84352538.863    20288425.472  
                                
  23394726.338   125233801.802    23394725.373    97404063.537    23394724.408  
                                
  22082193.458   117917680.451    22082192.172    91713746.102    22082191.421  
                                
  21190429.771   113235231.974    21190428.324    88071840.992    21190427.591  
                                
  19308137.395   103140604.006    19308134.661    80220458.568    19308135.036  
                                
  25121377.898   132013732.165                                                  
  25121380.865    98581694.058  
  26010892.161   136688161.358                                                  
  26010893.644   102072333.883  
  23146394.343   121635123.793                                                  
  23146395.522    90831427.551  
  23556646.918   123791015.175                                                  
  23556649.330    92441351.525  
 21  8 28  5  3 20.0000000  0 18G 3G 4G 7G 8G 9G16G20G27G30R 5R 7R 9
                                R15R16E 1E 4E19E21
  24566743.457   129099107.211    24566744.296   100596706.033    24566743.206  
  24566744.046    96405179.516  
  21069585.911   110721420.655    21069583.463    86276418.465    21069582.659  
  21069586.358    82681582.068  
  21392715.402   112419477.698    21392712.025    87599575.126    21392711.042  
                                
  23825490.889   125203799.058    23825491.569    97561399.627    23825490.300  
  23825489.871    93496339.653  
  20370888.136   107049740.255    20370886.510    83415371.638    20370885.670  
  20370886.385    79939733.625  
  22371775.807   117564474.644                    91608662.045    22371770.875  
                                
  24389500.386   128167688.786                    99870910.773    24389496.669  
                                
  23554298.625   123778674.156    23554297.910    96450907.038    23554296.748  
  23554297.231    92432121.517  
  23720541.507   124652286.949    23720541.579    97131648.183    23720540.453  
  23720541.329    93084499.157  
  20288930.111   108455958.786    20288928.485    84354627.247    20288927.770  
                                
  23393959.381   125229696.189    23393958.399    97400870.283    23393957.451  
                                
  22081597.669   117914498.950    22081596.383    91711271.602    22081595.597  
                                
  21191035.853   113238470.648    21191034.388    88074359.963    21191033.655  
                                
  19308074.370   103140267.316    19308071.637    80220196.702    19308071.994  
                                
  25120956.243   132011516.384                                                  
  25120959.209    98580039.423  
  26010454.728   136685862.476                                                  
  26010456.193   102070617.181  
  23146397.970   121635142.925                                                  
  23146399.150    90831441.843  
  23556690.554   123791244.567                                                  
  23556692.967    92441522.821  
 21  8 28  5  3 21.0000000  0 18G 3G 4G 7G 8G 9G16G20G27G30R 5R 7R 9
                                R15R16E 1E 4E19E21
  24567464.829   129102898.096    24567465.651   100599659.976    24567464.597  
  24567465.419    96408010.343  
  21069867.366   110722899.728    21069864.936    86277570.992    21069864.132  
  21069867.831    82682686.565  
  21392491.039   112418298.687    21392487.662    87598656.418    21392486.679  
                                
  23824972.116   125201072.900    23824972.813    97559275.360    23824971.526  
  23824971.097    93494303.892  
  20370762.714   107049081.236    20370761.105    83414858.117    20370760.266  
  20370760.980    79939241.494  
  22372299.530   117567226.813                    91610806.595    22372294.598  
                                
  24389001.143   128165065.304                    99868866.511    24388997.426  
                                
  23553961.812   123776904.331    23553961.115    96449527.956    23553959.953  
  23553960.418    92430799.892  
  23720066.817   124649792.366    23720066.888    97129704.358    23720065.745  
  23720066.602    93082636.326  
  20289432.552   108458644.670    20289430.926    84356716.266    20289430.230  
                                
  23393192.479   125225590.851    23393191.496    97397677.244    23393190.531  
                                
  22081001.970   117911318.079    22081000.719    91708797.593    22080999.933  
                                
  21191642.024   113241709.770    21191640.541    88076879.280    21191639.826  
                                
  19308011.489   103139931.497    19308008.773    80219935.512    19308009.131  
                                
  25120534.713   132009301.101                                                  
  25120537.643    98578385.149  
  26010017.312   136683563.887                                                  
  26010018.795   102068900.701  
  23146401.741   121635162.595                                                  
  23146402.920    90831456.516  
  23556734.333   123791474.563                                                  
  23556736.728    92441694.572  
 21  8 28  5  3 22.0000000  0 18G 3G 4G 7G 8G 9G16G20G27G30R 5R 7R 9
                                R15R16E 1E 4E19E21
  24568186.291   129106689.333    24568187.095   100602614.187    24568186.041  
  24568186.863    96410841.473  
  21070148.982   110724379.574    21070146.534    86278724.121    21070145.730  
  21070149.429    82683791.646  
  21392266.801   112417120.280    21392263.423    87597738.179    21392262.423  
                                
  23824453.468   125198347.337    23824454.147    97557151.544    23824452.860  
  23824452.449    93492268.563  
  20370637.470   107048423.025    20370635.844    83414345.230    20370635.004  
  20370635.736    79938749.972  
  22372823.414   117569979.824                    91612951.801    22372818.464  
                                
  24388502.079   128162442.620                    99866822.854    24388498.362  
                                
  23553625.195   123775135.358    23553624.498    96448149.535    23553623.336  
  23553623.801    92429478.912  
  23719592.216   124647298.337    23719592.287    97127760.966    23719591.161  
  23719592.019    93080773.895  
  20289935.190   108461331.560    20289933.564    84358806.069    20289932.867  
                                
  23392425.647   125221485.979    23392424.682    97394484.564    23392423.700  
                                
  22080406.449   117908137.944    22080405.162    91706324.161    22080404.412  
                                
  21192248.302   113244949.542    21192246.819    88079399.100    21192246.104  
                                
  19307948.805   103139596.684    19307946.089    80219675.101    19307946.446  
                                
  25120113.290   132007086.511                                                  
  25120116.220    98576731.392  
  26009579.985   136681265.771                                                  
  26009581.468   102067184.579  
  23146405.600   121635182.934                                                  
  23146406.780    90831471.719  
  23556778.255   123791705.357                                                  
  23556780.650    92441866.912  
 21  8 28  5  3 23.0000000  0 18G 3G 4G 7G 8G 9G16G20G27G30R 5R 7R 9
                                R15R16E 1E 4E19E21
  24568907.717   129110480.461    24568908.557   100605568.306    24568907.467  
  24568908.307    96413672.512  
  21070430.633   110725859.704    21070428.203    86279877.469    21070427.399  
  21070431.098    82684896.929  
  21392042.562   112415941.964    21392039.203    87596820.013    21392038.202  
                                
  23823934.801   125195621.813    23823935.480    97555027.757    23823934.212  
  23823933.783    93490233.284  
  20370512.261   107047765.113    20370510.653    83413832.573    20370509.795  
  20370510.546    79938258.685  
  22373347.352   117572733.179                    91615097.268    22373342.438  
                                
  24388003.051   128159820.203                    99864779.401    24387999.334  
                                
  23553288.650   123773366.736    23553287.935    96446771.395    23553286.773  
  23553287.238    92428158.189  
  23719117.596   124644804.317    23719117.704    97125817.576    23719116.542  
  23719117.400    93078911.489  
  20290437.935   108464018.984    20290436.309    84360896.288    20290435.594  
                                
  23391658.816   125217381.068    23391657.851    97391291.858    23391656.868  
                                
  22079810.964   117904958.080    22079809.677    91703850.936    22079808.909  
                                
  21192854.598   113248189.401    21192853.115    88081918.988    21192852.400  
                                
  19307886.245   103139262.398    19307883.511    80219415.101    19307883.869  
                                
  25119691.885   132004872.077                                                  
  25119694.851    98575077.765  
  26009142.659   136678967.626                                                  
  26009144.142   102065468.436  
  23146409.496   121635203.495                                                  
  23146410.693    90831487.070  
  23556822.231   123791936.436                                                  
  23556824.626    92442039.475  
 21  8 28  5  3 24.0000000  0 18G 3G 4G 7G 8G 9G16G20G27G30R 5R 7R 9
                                R15R16E 1E 4E19E21
  24569629.179   129114271.777    24569630.019   100608522.585    24569628.929  
  24569629.751    96416503.688  
  21070712.374   110727340.373    21070709.962    86281031.235    21070709.158  
  21070712.857    82686002.631  
  21391818.395   112414764.018    21391815.036    87595902.137    21391814.035  
                                
  23823416.207   125192896.649    23823416.886    97552904.271    23823415.599  
  23823415.188    93488198.279  
  20370387.160   107047107.790    20370385.570    83413320.374    20370384.712  
  20370385.445    79937767.828  
  22373871.432   117575487.168                    91617243.228    22373866.483  
                                
  24387504.148   128157198.400                    99862736.442    24387500.431  
                                
  23552952.212   123771598.751    23552951.479    96445393.759    23552950.335  
  23552950.782    92426837.956  
  23718643.067   124642310.617    23718643.138    97123874.436    23718641.995  
  23718642.870    93077049.314  
  20290940.805   108466707.238    20290939.197    84362987.180    20290938.482  
                                
  23390892.021   125213276.430    23390891.056    97388099.393    23390890.091  
                                
  22079215.586   117901778.810    22079214.281    91701378.198    22079213.531  
                                
  21193460.965   113251429.690    21193459.482    88084439.224    21193458.767  
                                
  19307823.811   103138928.953    19307821.077    80219155.786    19307821.434  
                                
  25119270.569   132002658.100                                                  
  25119273.535    98573424.477  
  26008705.386   136676669.724                                                  
  26008706.869   102063752.470  
  23146413.498   121635224.521                                                  
  23146414.678    90831502.772  
  23556866.314   123792168.067                                                  
  23556868.708    92442212.450  
 21  8 28  5  3 25.0000000  0 18G 3G 4G 7G 8G 9G16G20G27G30R 5R 7R 9
                                R15R16E 1E 4E19E21
  24570350.551   129118062.601    24570351.391   100611476.475    24570350.301  
  24570351.141    96419334.502  
  21070994.151   110728820.970    21070991.703    86282184.949    21070990.899  
  21070994.616    82687108.267  
  21391594.211   112413585.822    21391590.833    87594984.065    21391589.851  
                                
  23822897.612   125190171.230    23822898.291    97550780.577    23822897.004  
  23822896.575    93486163.043  
  20370262.077   107046450.403    20370260.469    83412808.127    20370259.611  
  20370260.344    79937276.924  
  22374395.495   117578241.154                    91619389.189    22374390.545  
                                
  24387005.227   128154576.555                    99860693.451    24387001.492  
                                
  23552615.756   123769830.738    23552615.041    96444016.088    23552613.880  
  23552614.344    92425517.690  
  23718168.465   124639816.579    23718168.555    97121931.030    23718167.411  
  23718168.269    93075186.888  
  20291443.729   108469395.600    20291442.103    84365078.125    20291441.388  
                                
  23390125.171   125209171.376    23390124.189    97384906.573    23390123.242  
                                
  22078620.172   117898599.390    22078618.868    91698905.319    22078618.117  
                                
  21194067.279   113254669.683    21194065.796    88086959.219    21194065.081  
                                
  19307761.412   103138595.673    19307758.696    80218896.572    19307759.054  
                                
  25118849.235   132000443.941                                                  
  25118852.183    98571771.049  
  26008268.024   136674371.428                                                  
  26008269.507   102062036.217  
  23146417.483   121635245.387                                                  
  23146418.663    90831518.357  
  23556910.361   123792399.639                                                  
  23556912.756    92442385.382  
 21  8 28  5  3 26.0000000  0 18G 3G 4G 7G 8G 9G16G20G27G30R 5R 7R 9
                                R15R16E 1E 4E19E21
  24571071.924   129121853.450    24571072.764   100614430.377    24571071.691  
  24571072.531    96422165.333  
  21071275.981   110730302.001    21071273.551    86283338.999    21071272.747  
  21071276.446    82688214.225  
  21391370.044   112412407.890    21391366.684    87594066.198    21391365.684  
                                
  23822378.999   125187445.979    23822379.660    97548657.002    23822378.374  
  23822377.981    93484127.971  
  20370137.066   107045793.498    20370135.457    83412296.250    20370134.600  
  20370135.350    79936786.367  
  22374919.647   117580995.656                    91621535.559    22374914.715  
                                
  24386506.395   128151955.148                    99858650.791    24386502.678  
                                
  23552279.425   123768063.240    23552278.692    96442638.819    23552277.531  
  23552277.996    92424197.799  
  23717693.918   124637322.735    23717693.989    97119987.775    23717692.828  
  23717693.685    93073324.602  
  20291946.778   108472084.618    20291945.152    84367169.584    20291944.437  
                                
  23389358.322   125205066.420    23389357.357    97381713.828    23389356.392  
                                
  22078024.848   117895420.380    22078023.561    91696432.755    22078022.775  
                                
  21194673.664   113257909.959    21194672.181    88089479.431    21194671.466  
                                
  19307699.139   103138263.061    19307696.423    80218637.871    19307696.780  
                                
  25118427.973   131998230.123                                                  
  25118430.903    98570117.867  
  26007830.715   136672073.280                                                  
  26007832.198   102060320.057  
  23146421.522   121635266.604                                                  
  23146422.701    90831534.194  
  23556954.515   123792631.660                                                  
  23556956.928    92442558.640  
 21  8 28  5  3 27.0000000  0 18G 3G 4G 7G 8G 9G16G20G27G30R 5R 7R 9
                                R15R16E 1E 4E19E21
  24571793.332   129125644.517    24571794.172   100617384.462    24571793.100  
  24571793.939    96424996.327  
  21071557.919   110731783.598    21071555.471    86284493.490    21071554.684  
  21071558.383    82689320.625  
  21391145.966   112411230.337    21391142.589    87593148.625    21391141.606  
                                
  23821860.458   125184721.106    23821861.119    97546533.727    23821859.850  
  23821859.439    93482093.172  
  20370012.179   107045137.182    20370010.571    83411784.837    20370009.713  
  20370010.428    79936296.278  
  22375443.960   117583750.795                    91623682.423    22375439.010  
                                
  24386007.671   128149334.330                    99856608.586    24386003.954  
                                
  23551943.202   123766296.385    23551942.487    96441262.045    23551941.307  
  23551941.772    92422878.401  
  23717219.406   124634829.217    23717219.495    97118044.773    23717218.334  
  23717219.191    93071462.555  
  20292449.951   108474774.433    20292448.325    84369261.662    20292447.611  
                                
  23388591.509   125200961.665    23388590.562    97378521.240    23388589.597  
                                
  22077429.613   117892241.897    22077428.326    91693960.606    22077427.558  
                                
  21195280.103   113261150.632    21195278.638    88091999.955    21195277.905  
                                
  19307637.044   103137931.269    19307634.310    80218379.811    19307634.685  
                                
  25118006.764   131996016.762                                                  
  25118009.713    98568465.043  
  26007393.424   136669775.366                                                  
  26007394.890   102058604.102  
  23146425.649   121635288.313                                                  
  23146426.829    90831550.412  
  23556998.777   123792864.253                                                  
  23557001.171    92442732.336  
 21  8 28  5  3 28.0000000  0 18G 3G 4G 7G 8G 9G16G20G27G30R 5R 7R 9
                                R15R16E 1E 4E19E21
  24572514.776   129129435.774    24572515.598   100620338.702    24572514.544  
  24572515.365    96427827.458  
  21071839.963   110733265.791    21071837.515    86285648.443    21071836.729  
  21071840.428    82690427.462  
  21390921.978   112410053.210    21390918.583    87592231.382    21390917.618  
                                
  23821341.988   125181996.629    23821342.649    97544410.762    23821341.363  
  23821340.970    93480058.677  
  20369887.400   107044481.506    20369885.809    83411273.921    20369884.951  
  20369885.666    79935806.641  
  22375968.344   117586506.615                    91625829.817    22375963.412  
                                
  24385509.053   128146714.105                    99854566.853    24385505.337  
                                
  23551607.085   123764530.196    23551606.388    96439885.798    23551605.227  
  23551605.674    92421559.483  
  23716744.965   124632336.025    23716745.037    97116102.028    23716743.893  
  23716744.733    93069600.771  
  20292953.286   108477465.072    20292951.660    84371354.381    20292950.945  
                                
  23387824.767   125196857.181    23387823.802    97375328.865    23387822.855  
                                
  22076834.503   117889064.034    22076833.216    91691488.935    22076832.430  
                                
  21195886.631   113264391.724    21195885.148    88094520.806    21195884.433  
                                
  19307575.092   103137600.371    19307572.376    80218122.447    19307572.733  
                                
  25117585.681   131993803.912                                                  
  25117588.629    98566812.588  
  26006956.205   136667477.760                                                  
  26006957.688   102056888.349  
  23146429.866   121635310.541                                                  
  23146431.046    90831567.013  
  23557043.164   123793097.460                                                  
  23557045.558    92442906.484  
 21  8 28  5  3 29.0000000  0 18G 3G 4G 7G 8G 9G16G20G27G30R 5R 7R 9
                                R15R16E 1E 4E19E21
  24573236.220   129133226.929    24573237.042   100623292.828    24573235.970  
  24573236.809    96430658.489  
  21072122.062   110734748.283    21072119.631    86286803.632    21072118.827  
  21072122.526    82691534.518  
  21390697.990   112408876.197    21390694.613    87591314.229    21390693.630  
                                
  23820823.554   125179272.231    23820824.215    97542287.848    23820822.947  
  23820822.536    93478024.213  
  20369762.692   107043826.123    20369761.083    83410763.233    20369760.244  
  20369760.958    79935317.239  
  22376492.836   117589262.801                    91627977.499    22376487.886  
                                
  24385010.490   128144094.206                    99852525.414    24385006.773  
                                
  23551271.058   123762764.360    23551270.361    96438509.813    23551269.182  
  23551269.647    92420240.836  
  23716270.543   124629842.917    23716270.614    97114159.352    23716269.489  
  23716270.328    93067739.030  
  20293456.728   108480156.197    20293455.102    84373447.479    20293454.387  
                                
  23387058.007   125192752.665    23387057.042    97372136.463    23387056.077  
                                
  22076239.446   117885886.433    22076238.142    91689017.473    22076237.391  
                                
  21196493.178   113267632.916    21196491.712    88097041.759    21196490.997  
                                
  19307513.247   103137270.008    19307510.531    80217865.497    19307510.889  
                                
  25117164.615   131991591.239                                                  
  25117167.563    98565160.262  
  26006518.986   136665180.123                                                  
  26006520.469   102055172.584  
  23146434.137   121635332.966                                                  
  23146435.316    90831583.761  
  23557087.586   123793330.954                                                  
  23557089.998    92443080.846  
 21  8 28  5  3 30.0000000  0 18G 3G 4G 7G 8G 9G16G20G27G30R 5R 7R 9
                                R15R16E 1E 4E19E21
  24573957.521   129137017.532    24573958.343   100626246.554    24573957.288  
  24573958.110    96433489.134  
  21072404.142   110736230.602    21072401.712    86287958.688    21072400.908  
  21072404.607    82692641.447  
  21390473.948   112407698.843    21390470.571    87590396.813    21390469.570  
                                
  23820305.049   125176547.449    23820305.710    97540164.644    23820304.423  
  23820304.030    93475989.478  
  20369637.948   107043170.620    20369636.358    83410252.454    20369635.482  
  20369636.215    79934827.736  
  22377017.309   117592018.917                    91630125.120    22377012.378  
                                
  24384511.908   128141474.166                    99850483.831    24384508.192  
                                
  23550935.013   123760998.432    23550934.317    96437133.765    23550933.137  
  23550933.602    92418922.124  
  23715796.049   124627349.370    23715796.120    97112216.335    23715794.977  
  23715795.834    93065876.959  
  20293960.170   108482847.388    20293958.544    84375540.632    20293957.829  
                                
  23386291.158   125188647.662    23386290.193    97368943.685    23386289.228  
                                
  22075644.354   117882708.669    22075643.050    91686545.880    22075642.299  
                                
  21197099.670   113270873.795    21197098.205    88099562.445    21197097.490  
                                
  19307451.421   103136939.740    19307448.705    80217608.627    19307449.062  
                                
  25116743.514   131989378.304                                                  
  25116746.462    98563507.746  
  26006081.677   136662882.036                                                  
  26006083.160   102053456.472  
  23146438.372   121635355.171                                                  
  23146439.551    90831600.332  
  23557132.008   123793564.304                                                  
  23557134.403    92443255.093  
 21  8 28  5  3 31.0000000  0 18G 3G 4G 7G 8G 9G16G20G27G30R 5R 7R 9
                                R15R16E 1E 4E19E21
  24574678.857   129140808.086    24574679.679   100629200.230    24574678.589  
  24574679.429    96436319.747  
  21072686.276   110737713.279    21072683.864    86289114.018    21072683.060  
  21072686.758    82693748.634  
  21390249.942   112406521.645    21390246.547    87589479.516    21390245.546  
                                
  23819786.597   125173822.875    23819787.258    97538041.597    23819785.972  
  23819785.578    93473954.865  
  20369513.276   107042515.487    20369511.685    83409741.960    20369510.828  
  20369511.542    79934338.515  
  22377541.855   117594775.453                    91632273.072    22377536.923  
                                
  24384013.416   128138854.502                    99848442.535    24384009.682  
                                
  23550599.058   123759232.912    23550598.343    96435758.038    23550597.182  
  23550597.646    92417603.725  
  23715321.537   124624855.904    23715321.608    97110273.375    23715320.465  
  23715321.305    93064014.971  
  20294463.719   108485539.171    20294462.111    84377634.238    20294461.378  
                                
  23385524.309   125184542.682    23385523.344    97365750.923    23385522.397  
                                
  22075049.316   117879531.215    22075048.011    91684074.527    22075047.243  
                                
  21197706.180   113274114.866    21197704.733    88102083.273    21197704.000  
                                
  19307389.719   103136610.063    19307386.985    80217352.211    19307387.324  
                                
  25116322.466   131987165.606                                                  
  25116325.396    98561855.407  
  26005644.351   136660583.961                                                  
  26005645.834   102051740.385  
  23146442.643   121635377.617                                                  
  23146443.822    90831617.108  
  23557176.467   123793798.006                                                  
  23557178.861    92443429.615  
 21  8 28  5  3 32.0000000  0 18G 3G 4G 7G 8G 9G16G20G27G30R 5R 7R 9
                                R15R16E 1E 4E19E21
  24575400.158   129144598.554    24575400.980   100632153.841    24575399.890  
  24575400.730    96439150.291  
  21072968.481   110739196.258    21072966.069    86290269.584    21072965.265  
  21072968.964    82694856.053  
  21390025.954   112405344.594    21390022.576    87588562.333    21390021.576  
                                
  23819268.127   125171098.357    23819268.806    97535918.596    23819267.502  
  23819267.109    93471920.333  
  20369388.675   107041860.703    20369387.067    83409231.739    20369386.209  
  20369386.942    79933849.553  
  22378066.489   117597532.388                    91634421.335    22378061.539  
                                
  24383514.960   128136235.175                    99846401.498    24383511.243  
                                
  23550263.174   123757467.815    23550262.459    96434382.635    23550261.298  
  23550261.727    92416285.624  
  23714847.079   124622362.521    23714847.132    97108330.479    23714845.989  
  23714846.828    93062153.027  
  20294967.375   108488231.520    20294965.767    84379728.283    20294965.034  
                                
  23384757.478   125180437.745    23384756.531    97362558.194    23384755.566  
                                
  22074454.331   117876354.029    22074453.026    91681603.383    22074452.258  
                                
  21198312.727   113277356.100    21198311.279    88104604.238    21198310.546  
                                
  19307328.106   103136280.971    19307325.373    80217096.248    19307325.730  
                                
  25115901.436   131984953.135                                                  
  25115904.384    98560203.237  
  26005207.042   136658285.900                                                  
  26005208.525   102050024.301  
  23146446.967   121635400.329                                                  
  23146448.146    90831634.060  
  23557220.996   123794032.037                                                  
  23557223.409    92443604.379  
 21  8 28  5  3 33.0000000  0 18G 3G 4G 7G 8G 9G16G20G27G30R 5R 7R 9
                                R15R16E 1E 4E19E21
  24576121.513   129148389.245    24576122.317   100635107.624    24576121.263  
  24576122.103    96441981.002  
  21073250.812   110740679.862    21073248.382    86291425.644    21073247.596  
  21073251.294    82695963.929  
  21389802.037   112404167.974    21389798.660    87587645.487    21389797.677  
                                
  23818749.747   125168374.277    23818750.426    97533795.927    23818749.139  
  23818748.728    93469886.113  
  20369264.199   107041206.559    20369262.609    83408722.016    20369261.751  
  20369262.466    79933361.062  
  22378591.249   117600290.027                    91636570.147    22378586.299  
                                
  24383016.646   128133616.497                    99844360.975    24383012.930  
                                
  23549927.415   123755703.381    23549926.682    96433007.751    23549925.521  
  23549925.985    92414968.025  
  23714372.656   124619869.502    23714372.728    97106387.866    23714371.602  
  23714372.442    93060291.352  
  20295471.192   108490924.726    20295469.584    84381822.999    20295468.851  
                                
  23383990.700   125176333.091    23383989.735    97359365.683    23383988.788  
                                
  22073859.471   117873177.466    22073858.149    91679132.723    22073857.398  
                                
  21198919.380   113280597.755    21198917.897    88107125.525    21198917.182  
                                
  19307266.655   103135952.752    19307263.939    80216840.965    19307264.278  
                                
  25115480.513   131982741.174                                                  
  25115483.462    98558551.448  
  26004769.805   136655988.157                                                  
  26004771.288   102048308.445  
  23146451.381   121635423.550                                                  
  23146452.578    90831651.396  
  23557265.669   123794266.696                                                  
  23557268.063    92443779.602  
 21  8 28  5  3 34.0000000  0 18G 3G 4G 7G 8G 9G16G20G27G30R 5R 7R 9
                                R15R16E 1E 4E19E21
  24576842.885   129152180.083    24576843.707   100638061.513    24576842.617  
  24576843.457    96444811.816  
  21073533.214   110742163.957    21073530.802    86292582.079    21073529.998  
  21073533.697    82697072.188  
  21389578.210   112402991.674    21389574.814    87586728.889    21389573.814  
                                
  23818231.420   125165650.466    23818232.099    97531673.490    23818230.795  
  23818230.402    93467852.120  
  20369139.813   107040552.963    20369138.223    83408212.719    20369137.383  
  20369138.098    79932872.987  
  22379116.133   117603048.232                    91638719.389    22379111.166  
                                
  24382518.440   128130998.315                    99842320.784    24382514.723  
                                
  23549591.763   123753939.534    23549591.048    96431633.337    23549589.887  
  23549590.316    92413650.880  
  23713898.305   124617376.735    23713898.376    97104445.453    23713897.233  
  23713898.073    93058429.885  
  20295975.152   108493618.655    20295973.544    84383918.277    20295972.811  
                                
  23383223.958   125172228.584    23383222.975    97356173.287    23383222.011  
                                
  22073264.683   117870001.359    22073263.378    91676662.418    22073262.592  
                                
  21199526.069   113283839.738    21199524.604    88109647.063    21199523.889  
                                
  19307205.364   103135625.279    19307202.630    80216586.264    19307202.970  
                                
  25115059.662   131980529.612                                                  
  25115062.610    98556899.968  
  26004332.604   136653690.592                                                  
  26004334.087   102046592.736  
  23146455.866   121635447.207                                                  
  23146457.045    90831669.067  
  23557310.413   123794501.872                                                  
  23557312.825    92443955.225  
 21  8 28  5  3 35.0000000  0 18G 3G 4G 7G 8G 9G16G20G27G30R 5R 7R 9
                                R15R16E 1E 4E19E21
  24577564.312   129155971.117    24577565.133   100641015.559    24577564.043  
  24577564.883    96447642.790  
  21073815.759   110743648.682    21073813.347    86293739.008    21073812.543  
  21073816.242    82698180.907  
  21389354.436   112401815.823    21389351.059    87585812.642    21389350.058  
                                
  23817713.165   125162927.078    23817713.826    97529551.376    23817712.557  
  23817712.146    93465818.437  
  20369015.570   107039899.999    20369013.980    83407703.917    20369013.104  
  20369013.837    79932385.384  
  22379641.107   117605807.145                    91640869.194    22379636.176  
                                
  24382020.341   128128380.781                    99840281.143    24382016.624  
                                
  23549256.237   123752176.374    23549255.522    96430259.448    23549254.360  
  23549254.807    92412334.232  
  23713424.025   124614884.338    23713424.079    97102503.325    23713422.935  
  23713423.775    93056568.673  
  20296479.273   108496313.440    20296477.647    84386014.218    20296476.932  
                                
  23382457.252   125168124.391    23382456.287    97352981.132    23382455.322  
                                
  22072670.020   117866825.882    22072668.697    91674192.606    22072667.947  
                                
  21200132.847   113287082.193    21200131.400    88112168.970    21200130.667  
                                
  19307144.216   103135298.699    19307141.482    80216332.254    19307141.858  
                                
  25114638.918   131978318.570                                                  
  25114641.866    98555248.867  
  26003895.456   136651393.359                                                  
  26003896.939   102044877.267  
  23146460.494   121635471.405                                                  
  23146461.655    90831687.130  
  23557355.282   123794737.670                                                  
  23557357.694    92444131.310  
 21  8 28  5  3 36.0000000  0 18G 3G 4G 7G 8G 9G16G20G27G30R 5R 7R 9
                                R15R16E 1E 4E19E21
  24578285.702   129159762.113    24578286.524   100643969.577    24578285.452  
  24578286.309    96450473.733  
  21074098.358   110745133.757    21074095.927    86294896.209    21074095.123  
  21074098.822    82699289.897  
  21389130.734   112400640.156    21389127.338    87584896.538    21389126.356  
                                
  23817194.963   125160203.863    23817195.607    97527429.391    23817194.320  
  23817193.909    93463784.884  
  20368891.380   107039247.433    20368889.790    83407195.422    20368888.950  
  20368889.665    79931898.080  
  22380166.224   117608566.495                    91643019.336    22380161.257  
                                
  24381522.314   128125763.649                    99838241.826    24381518.597  
                                
  23548920.799   123750413.642    23548920.102    96428885.886    23548918.941  
  23548919.370    92411017.908  
  23712949.746   124612392.058    23712949.817    97100561.286    23712948.692  
  23712949.513    93054707.562  
  20296983.483   108499008.798    20296981.875    84388110.608    20296981.160  
                                
  23381690.546   125164020.200    23381689.581    97349788.983    23381688.634  
                                
  22072075.428   117863650.768    22072074.106    91671723.074    22072073.337  
                                
  21200739.679   113290324.884    21200738.214    88114691.060    21200737.499  
                                
  19307083.212   103134972.735    19307080.460    80216078.729    19307080.817  
                                
  25114218.210   131976107.792                                                  
  25114221.176    98553597.964  
  26003458.308   136649096.161                                                  
  26003459.773   102043161.832  
  23146465.140   121635495.872                                                  
  23146466.319    90831705.407  
  23557400.223   123794973.837                                                  
  23557402.635    92444307.673  
 21  8 28  5  3 37.0000000  0 18G 3G 4G 7G 8G 9G16G20G27G30R 5R 7R 9
                                R15R16E 1E 4E19E21
  24579007.110   129163553.110    24579007.932   100646923.605    24579006.860  
  24579007.718    96453304.661  
  21074381.028   110746619.201    21074378.598    86296053.700    21074377.793  
  21074381.492    82700399.162  
  21388907.031   112399464.660    21388903.654    87583980.567    21388902.653  
                                
  23816676.797   125157480.865    23816677.459    97525307.583    23816676.190  
  23816675.779    93461751.453  
  20368767.280   107038595.255    20368765.689    83406687.229    20368764.850  
  20368765.564    79931411.071  
  22380691.377   117611326.294                    91645169.827    22380686.445  
                                
  24381024.375   128123146.913                    99836202.805    24381020.623  
                                
  23548585.451   123748651.350    23548584.754    96427512.669    23548583.575  
  23548584.040    92409701.920  
  23712475.502   124609899.907    23712475.591    97098619.360    23712474.448  
  23712475.287    93052846.531  
  20297487.837   108501704.744    20297486.210    84390207.455    20297485.496  
                                
  23380923.858   125159916.046    23380922.911    97346596.863    23380921.946  
                                
  22071480.890   117860475.995    22071479.567    91669253.808    22071478.799  
                                
  21201346.529   113293567.759    21201345.064    88117213.299    21201344.349  
                                
  19307022.296   103134647.383    19307019.562    80215825.676    19307019.919  
                                
  25113797.573   131973897.275                                                  
  25113800.503    98551947.251  
  26003021.160   136646799.037                                                  
  26003022.644   102041446.442  
  23146469.839   121635520.624                                                  
  23146471.019    90831723.895  
  23557445.235   123795210.389                                                  
  23557447.629    92444484.318  
 21  8 28  5  3 38.0000000  0 18G 3G 4G 7G 8G 9G16G20G27G30R 5R 7R 9
                                R15R16E 1E 4E19E21
  24579728.572   129167344.364    24579729.394   100649877.824    24579728.322  
  24579729.179    96456135.799  
  21074663.823   110748105.311    21074661.411    86297211.706    21074660.606  
  21074664.305    82701508.913  
  21388683.454   112398289.663    21388680.059    87583064.987    21388679.058  
                                
  23816158.721   125154758.286    23816159.364    97523186.100    23816158.095  
  23816157.684    93459718.359  
  20368643.322   107037943.778    20368641.714    83406179.587    20368640.856  
  20368641.571    79930924.578  
  22381216.709   117614086.838                    91647320.900    22381211.741  
                                
  24380526.526   128120530.794                    99834164.277    24380522.810  
                                
  23548250.228   123746889.780    23548249.532    96426140.019    23548248.352  
  23548248.799    92408386.464  
  23712001.330   124607408.132    23712001.383    97096677.717    23712000.257  
  23712001.097    93050985.816  
  20297992.333   108504401.577    20297990.707    84392304.994    20297989.992  
                                
  23380157.241   125155812.271    23380156.276    97343405.041    23380155.329  
                                
  22070886.477   117857301.850    22070885.154    91666785.033    22070884.368  
                                
  21201953.468   113296811.100    21201952.021    88119735.898    21201951.288  
                                
  19306961.559   103134322.944    19306958.825    80215573.336    19306959.165  
                                
  25113377.025   131971687.309                                                  
  25113379.956    98550296.965  
  26002584.102   136644502.253                                                  
  26002585.585   102039731.318  
  23146474.664   121635545.966                                                  
  23146475.843    90831742.813  
  23557490.372   123795447.601                                                  
  23557492.784    92444661.457  
 21  8 28  5  3 39.0000000  0 18G 3G 4G 7G 8G 9G16G20G27G30R 5R 7R 9
                                R15R16E 1E 4E19E21
  24580450.052   129171135.827    24580450.873   100652832.250    24580449.801  
  24580450.641    96458967.117  
  21074946.725   110749592.020    21074944.313    86298370.180    21074943.509  
  21074947.208    82702619.125  
  21388459.930   112397115.080    21388456.535    87582149.725    21388455.552  
                                
  23815640.680   125152036.081    23815641.323    97521064.881    23815640.037  
  23815639.644    93457685.545  
  20368519.472   107037292.926    20368517.864    83405672.430    20368517.006  
  20368517.739    79930438.555  
  22381742.129   117616848.063                    91649472.518    22381737.197  
                                
  24380028.821   128117915.388                    99832126.328    24380025.104  
                                
  23547915.149   123745128.894    23547914.434    96424767.925    23547913.254  
  23547913.719    92407071.550  
  23711527.229   124604916.750    23711527.300    97094736.387    23711526.156  
  23711526.996    93049125.373  
  20298496.990   108507099.228    20298495.364    84394403.137    20298494.649  
                                
  23379390.678   125151708.750    23379389.713    97340213.379    23379388.766  
                                
  22070292.153   117854128.299    22070290.849    91664316.688    22070290.080  
                                
  21202560.497   113300054.835    21202559.050    88122258.777    21202558.317  
                                
  19306900.983   103133999.358    19306898.249    80215321.633    19306898.607  
                                
  25112956.585   131969477.869                                                  
  25112959.516    98548647.052  
  26002147.097   136642205.754                                                  
  26002148.562   102038016.415  
  23146479.596   121635571.830                                                  
  23146480.757    90831762.138  
  23557535.634   123795685.435                                                  
  23557538.028    92444839.065  
 21  8 28  5  3 40.0000000  0 18G 3G 4G 7G 8G 9G16G20G27G30R 5R 7R 9
                                R15R16E 1E 4E19E21
  24581171.531   129174927.311    24581172.353   100655786.662    24581171.281  
  24581172.139    96461798.415  
  21075229.735   110751079.149    21075227.323    86299528.982    21075226.518  
  21075230.217    82703729.627  
  21388236.460   112395940.731    21388233.065    87581234.650    21388232.082  
                                
  23815122.693   125149314.086    23815123.354    97518943.848    23815122.067  
  23815121.674    93455652.885  
  20368395.693   107036642.520    20368394.085    83405165.622    20368393.245  
  20368393.942    79929952.851  
  22382267.675   117619609.784                    91651624.508    22382262.743  
                                
  24379531.204   128115300.374                    99830088.653    24379527.487  
                                
  23547580.158   123743368.495    23547579.443    96423396.197    23547578.264  
  23547578.711    92405756.962  
  23711053.181   124602425.521    23711053.253    97092795.179    23711052.091  
  23711052.931    93047265.029  
  20299001.754   108509797.520    20299000.146    84396501.814    20298999.413  
                                
  23378624.132   125147605.373    23378623.149    97337021.870    23378622.220  
                                
  22069697.937   117850955.172    22069696.614    91661848.702    22069695.846  
                                
  21203167.579   113303298.859    21203166.114    88124781.910    21203165.399  
                                
  19306840.550   103133676.467    19306837.798    80215070.495    19306838.156  
                                
  25112536.199   131967268.728                                                  
  25112539.129    98546997.358  
  26001710.128   136639909.380                                                  
  26001711.593   102036301.582  
  23146484.581   121635598.029                                                  
  23146485.761    90831781.691  
  23557580.968   123795923.683                                                  
  23557583.380    92445016.971  
 21  8 28  5  3 41.0000000  0 18G 3G 4G 7G 8G 9G16G20G27G30R 5R 7R 9
                                R15R16E 1E 4E19E21
  24581892.975   129178718.451    24581893.779   100658740.802    24581892.689  
  24581893.565    96464629.450  
  21075512.727   110752566.304    21075510.296    86300687.804    21075509.510  
  21075513.209    82704840.174  
  21388012.955   112394766.242    21388009.560    87580319.466    21388008.577  
                                
  23814604.688   125146591.963    23814605.349    97516822.720    23814604.080  
  23814603.669    93453620.123  
  20368271.933   107035992.194    20368270.342    83404658.874    20368269.485  
  20368270.199    79929467.220  
  22382793.239   117622371.622                    91653776.592    22382788.289  
                                
  24379033.605   128112685.429                    99828051.026    24379029.889  
                                
  23547245.167   123741608.213    23547244.471    96422024.552    23547243.291  
  23547243.756    92404442.472  
  23710579.063   124599934.054    23710579.116    97090853.778    23710577.972  
  23710578.794    93045404.539  
  20299506.572   108512496.091    20299504.945    84398600.699    20299504.249  
                                
  23377857.533   125143501.691    23377856.568    97333830.115    23377855.621  
                                
  22069103.702   117847782.035    22069102.380    91659380.709    22069101.594  
                                
  21203774.626   113306542.764    21203773.160    88127304.942    21203772.446  
                                
  19306780.135   103133353.847    19306777.419    80214819.569    19306777.758  
                                
  25112115.812   131965059.529                                                  
  25112118.742    98545347.631  
  26001273.088   136637612.726                                                  
  26001274.535   102034586.550  
  23146489.567   121635624.201                                                  
  23146490.746    90831801.227  
  23557626.319   123796161.980                                                  
  23557628.732    92445194.925  
 21  8 28  5  3 42.0000000  0 18G 3G 4G 7G 8G 9G16G20G27G30R 5R 7R 9
                                R15R16E 1E 4E19E21
  24582614.401   129182509.558    24582615.205   100661694.907    24582614.133  
  24582614.973    96467460.483  
  21075795.790   110754053.814    21075793.342    86301846.903    21075792.555  
  21075796.254    82705950.988  
  21387789.503   112393591.940    21387786.107    87579404.424    21387785.107  
                                
  23814086.718   125143869.974    23814087.379    97514701.686    23814086.093  
  23814085.700    93451587.467  
  20368148.261   107035342.240    20368146.653    83404152.417    20368145.795  
  20368146.510    79928981.869  
  22383318.892   117625133.906                    91655929.021    22383313.924  
                                
  24378536.060   128110070.867                    99826013.705    24378532.344  
                                
  23546910.284   123739848.372    23546909.569    96420653.244    23546908.408  
  23546908.855    92403128.302  
  23710104.979   124597442.736    23710105.069    97088912.499    23710103.907  
  23710104.747    93043544.125  
  20300011.514   108515195.255    20300009.888    84400700.047    20300009.191  
                                
  23377090.934   125139398.012    23377089.969    97330638.362    23377089.022  
                                
  22068509.539   117844609.265    22068508.217    91656913.002    22068507.449  
                                
  21204381.708   113309786.866    21204380.260    88129828.133    21204379.564  
                                
  19306719.881   103133031.878    19306717.147    80214569.146    19306717.486  
                                
  25111695.443   131962850.585                                                  
  25111698.392    98543698.101  
  26000836.065   136635316.138                                                  
  26000837.512   102032871.562  
  23146494.588   121635650.623                                                  
  23146495.750    90831820.970  
  23557671.742   123796400.657                                                  
  23557674.137    92445373.153  
 21  8 28  5  3 43.0000000  0 18G 3G 4G 7G 8G 9G16G20G27G30R 5R 7R 9
                                R15R16E 1E 4E19E21
  24583335.756   129186300.229    24583336.560   100664648.667    24583335.470  
  24583336.345    96470291.172  
  21076078.853   110755541.312    21076076.441    86303005.997    21076075.619  
  21076079.318    82707061.773  
  21387565.997   112392417.421    21387562.602    87578489.219    21387561.601  
                                
  23813568.695   125141147.731    23813569.321    97512580.450    23813568.052  
  23813567.659    93449554.638  
  20368024.572   107034692.286    20368022.981    83403645.959    20368022.106  
  20368022.838    79928496.514  
  22383844.545   117627896.220                    91658081.476    22383839.577  
                                
  24378038.551   128107456.283                    99823976.362    24378034.798  
                                
  23546575.401   123738088.554    23546574.686    96419281.964    23546573.524  
  23546573.971    92401814.150  
  23709630.843   124594951.131    23709630.932    97086970.986    23709629.771  
  23709630.575    93041683.513  
  20300516.475   108517894.613    20300514.867    84402799.543    20300514.170  
                                
  23376324.246   125135293.959    23376323.299    97327446.321    23376322.334  
                                
  22067915.376   117841436.430    22067914.036    91654445.243    22067913.286  
                                
  21204988.772   113313030.753    21204987.307    88132351.156    21204986.610  
                                
  19306659.626   103132710.111    19306656.910    80214318.883    19306657.268  
                                
  25111275.074   131960641.503                                                  
  25111278.023    98542048.464  
  26000398.953   136633019.202                                                  
  26000400.436   102031156.319  
  23146499.591   121635676.954                                                  
  23146500.771    90831840.626  
  23557717.148   123796639.301                                                  
  23557719.560    92445551.365  
 21  8 28  5  3 44.0000000  0 18G 3G 4G 7G 8G 9G16G20G27G30R 5R 7R 9
                                R15R16E 1E 4E19E21
  24584057.075   129190090.815    24584057.897   100667602.336    24584056.824  
  24584057.682    96473121.774  
  21076361.988   110757029.115    21076359.557    86304165.315    21076358.735  
  21076362.452    82708172.778  
  21387342.509   112391243.034    21387339.114    87577574.112    21387338.131  
                                
  23813050.690   125138425.636    23813051.333    97510459.347    23813050.047  
  23813049.672    93447521.910  
  20367900.954   107034042.666    20367899.346    83403139.762    20367898.506  
  20367899.203    79928011.400  
  22384370.269   117630658.936                    91660234.230    22384365.320  
                                
  24377541.059   128104842.006                    99821939.263    24377537.343  
                                
  23546240.607   123736329.123    23546239.874    96417910.966    23546238.695  
  23546239.141    92400500.268  
  23709156.706   124592459.547    23709156.778    97085029.492    23709155.652  
  23709156.474    93039822.912  
  20301021.561   108520594.493    20301019.935    84404899.445    20301019.220  
                                
  23375557.593   125131189.885    23375556.629    97324254.271    23375555.681  
                                
  22067321.267   117838263.908    22067319.945    91651977.717    22067319.159  
                                
  21205595.836   113316274.775    21205594.407    88134874.288    21205593.674  
                                
  19306599.497   103132388.891    19306596.781    80214069.047    19306597.120  
                                
  25110854.759   131958432.640                                                  
  25110857.690    98540398.980  
  25999961.877   136630722.265                                                  
  25999963.360   102029441.057  
  23146504.666   121635703.499                                                  
  23146505.828    90831860.447  
  23557762.624   123796878.262                                                  
  23557765.036    92445729.808  
 21  8 28  5  3 45.0000000  0 18G 3G 4G 7G 8G 9G16G20G27G30R 5R 7R 9
                                R15R16E 1E 4E19E21
  24584778.429   129193881.514    24584779.233   100670556.123    24584778.161  
  24584779.037    96475952.515  
  21076645.176   110758517.403    21076642.746    86305325.020    21076641.924  
  21076645.640    82709284.183  
  21387119.093   112390068.967    21387115.697    87576659.255    21387114.697  
                                
  23812532.739   125135703.827    23812533.382    97508338.456    23812532.095  
  23812531.720    93445489.399  
  20367777.425   107033393.581    20367775.853    83402633.984    20367774.995  
  20367775.692    79927526.704  
  22384896.101   117633422.221                    91662387.439    22384891.151  
                                
  24377043.693   128102228.290                    99819902.617    24377039.941  
                                
  23545905.902   123734570.264    23545905.169    96416540.429    23545903.990  
  23545904.455    92399186.854  
  23708682.605   124589968.241    23708682.677    97083088.217    23708681.533  
  23708682.355    93037962.541  
  20301526.754   108523295.096    20301525.128    84406999.914    20301524.431  
                                
  23374790.959   125127086.018    23374789.994    97321062.371    23374789.029  
                                
  22066727.247   117835091.859    22066725.925    91649510.568    22066725.139  
                                
  21206202.990   113319519.151    21206201.525    88137397.692    21206200.810  
                                
  19306539.511   103132068.425    19306536.777    80213819.794    19306537.134  
                                
  25110434.480   131956224.169                                                  
  25110437.410    98538749.819  
  25999524.818   136628425.522                                                  
  25999526.283   102027725.974  
  23146509.777   121635730.469                                                  
  23146510.956    90831880.605  
  23557808.172   123797117.733                                                  
  23557810.602    92445908.652  
 21  8 28  5  3 46.0000000  0 18G 3G 4G 7G 8G 9G16G20G27G30R 5R 7R 9
                                R15R16E 1E 4E19E21
  24585499.784   129197672.162    24585500.570   100673509.879    24585499.498  
  24585500.373    96478783.187  
  21076928.453   110760006.037    21076926.041    86306484.997    21076925.219  
  21076928.918    82710395.819  
  21386895.694   112388895.056    21386892.299    87575744.528    21386891.298  
                                
  23812014.805   125132982.135    23812015.448    97506217.669    23812014.162  
  23812013.786    93443456.984  
  20367653.986   107032744.866    20367652.378    83402128.491    20367651.538  
  20367652.253    79927042.280  
  22385422.022   117636185.940                    91664540.991    22385417.055  
                                
  24376546.362   128099614.899                    99817866.205    24376542.646  
                                
  23545571.269   123732811.814    23545570.554    96415170.207    23545569.393  
  23545569.821    92397873.723  
  23708208.558   124587477.015    23708208.612    97081147.006    23708207.468  
  23708208.290    93036102.212  
  20302032.072   108525996.263    20302030.446    84409100.822    20302029.731  
                                
  23374024.324   125122982.171    23374023.359    97317870.493    23374022.394  
                                
  22066133.281   117831920.077    22066131.941    91647043.628    22066131.172  
                                
  21206810.162   113322763.701    21206808.696    88139921.233    21206807.982  
                                
  19306479.614   103131748.520    19306476.898    80213570.981    19306477.255  
                                
  25110014.272   131954015.938                                                  
  25110017.202    98537100.809  
  25999087.760   136626128.800                                                  
  25999089.243   102026010.889  
  23146514.959   121635757.689                                                  
  23146516.120    90831900.933  
  23557853.810   123797357.563                                                  
  23557856.240    92446087.736  
 21  8 28  5  3 47.0000000  0 18G 3G 4G 7G 8G 9G16G20G27G30R 5R 7R 9
                                R15R16E 1E 4E19E21
  24586221.156   129201463.102    24586221.978   100676463.856    24586220.888  
  24586221.782    96481614.086  
  21077211.874   110761495.378    21077209.444    86307645.524    21077208.640  
  21077212.339    82711507.987  
  21386672.421   112387721.673    21386669.008    87574830.205    21386668.025  
                                
  23811496.996   125130260.962    23811497.640    97504097.274    23811496.353  
  23811495.942    93441424.937  
  20367530.690   107032096.875    20367529.082    83401623.566    20367528.224  
  20367528.939    79926558.389  
  22385948.086   117638950.419                    91666695.131    22385943.137  
                                
  24376049.193   128097002.246                    99815830.373    24376045.476  
                                
  23545236.796   123731054.141    23545236.082    96413800.590    23545234.902  
  23545235.349    92396561.175  
  23707734.564   124584986.246    23707734.636    97079206.147    23707733.492  
  23707734.314    93034242.222  
  20302537.533   108528698.374    20302535.925    84411202.470    20302535.228  
                                
  23373257.761   125118878.734    23373256.796    97314678.931    23373255.831  
                                
  22065539.440   117828749.030    22065538.099    91644577.263    22065537.331  
                                
  21207417.440   113326008.802    21207415.975    88142445.201    21207415.260  
                                
  19306419.913   103131429.575    19306417.179    80213322.913    19306417.519  
                                
  25109594.171   131951808.302                                                  
  25109597.102    98535452.254  
  25998650.791   136623832.491                                                  
  25998652.256   102024296.111  
  23146520.266   121635785.558                                                  
  23146521.445    90831921.733  
  23557899.590   123797598.097                                                  
  23557902.003    92446267.358  
 21  8 28  5  3 48.0000000  0 18G 3G 4G 7G 8G 9G16G20G27G30R 5R 7R 9
                                R15R16E 1E 4E19E21
  24586942.600   129205254.251    24586943.386   100679418.007    24586942.314  
  24586943.190    96484445.130  
  21077495.402   110762985.292    21077492.954    86308806.494    21077492.150  
  21077495.849    82712620.587  
  21386449.219   112386548.695    21386445.806    87573916.199    21386444.805  
                                
  23810979.242   125127540.150    23810979.885    97501977.168    23810978.580  
  23810978.205    93439393.167  
  20367407.483   107031449.509    20367405.875    83401119.132    20367405.035  
  20367405.750    79926074.975  
  22386474.258   117641715.559                    91668849.790    22386469.326  
                                
  24375552.148   128094390.223                    99813795.030    24375548.431  
                                
  23544902.431   123729297.125    23544901.717    96412431.487    23544900.555  
  23544901.002    92395249.120  
  23707260.660   124582495.818    23707260.713    97077265.556    23707259.570  
  23707260.392    93032382.496  
  20303043.173   108531401.311    20303041.547    84413304.757    20303040.850  
                                
  23372491.233   125114775.530    23372490.286    97311487.552    23372489.321  
                                
  22064945.706   117825578.542    22064944.383    91642111.330    22064943.597  
                                
  21208024.773   113329254.274    21208023.325    88144969.456    21208022.611  
                                
  19306360.356   103131111.516    19306357.622    80213075.536    19306357.979  
                                
  25109174.160   131949601.148                                                  
  25109177.090    98533804.057  
  25998213.857   136621536.429                                                  
  25998215.322   102022581.534  
  23146525.644   121635813.899                                                  
  23146526.824    90831942.906  
  23557945.478   123797839.217                                                  
  23557947.872    92446447.422  
 21  8 28  5  3 49.0000000  0 18G 3G 4G 7G 8G 9G16G20G27G30R 5R 7R 9
                                R15R16E 1E 4E19E21
  24587663.973   129209045.106    24587664.777   100682371.937    24587663.687  
  24587664.580    96487275.983  
  21077778.948   110764475.319    21077776.517    86309967.566    21077775.731  
  21077779.412    82713733.272  
  21386225.981   112385375.649    21386222.568    87573002.137    21386221.567  
                                
  23810461.469   125124819.268    23810462.094    97499857.005    23810460.825  
  23810460.450    93437361.335  
  20367284.312   107030802.281    20367282.721    83400614.791    20367281.882  
  20367282.578    79925591.640  
  22387000.482   117644480.916                    91671004.608    22386995.551  
                                
  24375055.121   128091778.379                    99811759.841    24375051.386  
                                
  23544568.138   123727540.294    23544567.405    96411062.535    23544566.226  
  23544566.672    92393937.210  
  23706786.738   124580005.293    23706786.791    97075324.894    23706785.648  
  23706786.452    93030522.679  
  20303548.884   108534104.615    20303547.276    84415407.362    20303546.543  
                                
  23371724.688   125110672.147    23371723.723    97308296.062    23371722.758  
                                
  22064352.007   117822408.223    22064350.667    91639645.538    22064349.881  
                                
  21208632.105   113332499.710    21208630.658    88147493.712    21208629.943  
                                
  19306300.906   103130793.860    19306298.154    80212828.503    19306298.511  
                                
  25108754.166   131947394.017                                                  
  25108757.115    98532155.870  
  25997776.924   136619240.214                                                  
  25997778.371   102020866.815  
  23146531.059   121635842.295                                                  
  23146532.238    90831964.102  
  23557991.401   123798080.479                                                  
  23557993.814    92446627.570  
 21  8 28  5  3 50.0000000  0 18G 3G 4G 7G 8G 9G16G20G27G30R 5R 7R 9
                                R15R16E 1E 4E19E21
  24588385.417   129212836.291    24588386.203   100685326.102    24588385.131  
  24588386.006    96490107.051  
  21078062.618   110765966.043    21078060.188    86311129.170    21078059.384  
  21078063.065    82714846.484  
  21386002.868   112384203.125    21385999.455    87572088.482    21385998.455  
                                
  23809943.785   125122098.888    23809944.429    97497737.225    23809943.142  
  23809942.767    93435329.884  
  20367161.301   107030155.781    20367159.693    83400111.030    20367158.835  
  20367159.568    79925108.871  
  22387526.868   117647247.038                    91673160.031    22387521.918  
                                
  24374558.237   128089167.204                    99809725.164    24374554.502  
                                
  23544233.969   123725784.256    23544233.254    96409694.195    23544232.075  
  23544232.504    92392625.880  
  23706312.851   124577515.167    23706312.923    97073384.534    23706311.779  
  23706312.601    93028663.187  
  20304054.756   108536808.803    20304053.148    84417510.615    20304052.415  
                                
  23370958.214   125106569.105    23370957.249    97305104.805    23370956.284  
                                
  22063758.398   117819238.492    22063757.076    91637180.194    22063756.308  
                                
  21209239.545   113335745.653    21209238.097    88150018.337    21209237.383  
                                
  19306241.616   103130477.186    19306238.864    80212582.200    19306239.240  
                                
  25108334.262   131945187.482                                                  
  25108337.210    98530508.133  
  25997340.008   136616944.361                                                  
  25997341.474   102019152.381  
  23146536.580   121635871.308                                                  
  23146537.742    90831985.774  
  23558037.432   123798322.433                                                  
  23558039.826    92446808.256  
 21  8 28  5  3 51.0000000  0 18G 3G 4G 7G 8G 9G16G20G27G30R 5R 7R 9
                                R15R16E 1E 4E19E21
  24589106.878   129216627.698    24589107.682   100688280.445    24589106.610  
  24589107.486    96492938.303  
  21078346.396   110767457.417    21078343.984    86312291.276    21078343.180  
  21078346.879    82715960.179  
  21385779.827   112383031.066    21385776.432    87571175.191    21385775.431  
                                
  23809426.191   125119378.939    23809426.834    97495617.780    23809425.548  
  23809425.173    93433298.760  
  20367038.398   107029509.956    20367036.790    83399607.792    20367035.950  
  20367036.665    79924626.603  
  22388053.379   117650013.871                    91675316.002    22388048.429  
                                
  24374061.460   128086556.692                    99807691.003    24374057.744  
                                
  23543899.925   123724028.916    23543899.211    96408326.398    23543898.049  
  23543898.478    92391315.072  
  23705839.072   124575025.440    23705839.143    97071444.485    23705838.000  
  23705838.804    93026803.982  
  20304560.789   108539513.857    20304559.181    84419614.547    20304558.466  
                                
  23370191.794   125102466.391    23370190.829    97301913.803    23370189.864  
                                
  22063164.932   117816069.398    22063163.592    91634715.348    22063162.824  
                                
  21209847.074   113338992.088    21209845.608    88152543.342    21209844.894  
                                
  19306182.488   103130161.412    19306179.772    80212336.605    19306180.111  
                                
  25107914.483   131942981.490                                                  
  25107917.413    98528860.806  
  25996903.200   136614648.847                                                  
  25996904.665   102017438.212  
  23146542.209   121635900.879                                                  
  23146543.370    90832007.860  
  23558083.588   123798565.044                                                  
  23558086.018    92446989.429  
 21  8 28  5  3 52.0000000  0 18G 3G 4G 7G 8G 9G16G20G27G30R 5R 7R 9
                                R15R16E 1E 4E19E21
  24589828.358   129220419.040    24589829.162   100691234.745    24589828.090  
  24589828.966    96495769.503  
  21078630.264   110768949.112    21078627.851    86313453.638    21078627.047  
  21078630.746    82717074.096  
  21385556.804   112381859.153    21385553.409    87570262.012    21385552.408  
                                
  23808908.615   125116659.101    23808909.258    97493498.428    23808907.972  
  23808907.596    93431267.710  
  20366915.567   107028864.486    20366913.976    83399104.826    20366913.119  
  20366913.815    79924144.590  
  22388579.979   117652781.112                    91677472.287    22388575.011  
                                
  24373564.755   128083946.553                    99805657.131    24373561.038  
                                
  23543565.971   123722274.001    23543565.257    96406958.932    23543564.095  
  23543564.542    92390004.580  
  23705365.328   124572535.792    23705365.382    97069504.500    23705364.220  
  23705365.042    93024944.830  
  20305066.947   108542219.460    20305065.303    84421718.905    20305064.606  
                                
  23369425.374   125098363.692    23369424.409    97298722.815    23369423.462  
                                
  22062571.538   117812900.639    22062570.198    91632250.760    22062569.411  
                                
  21210454.638   113342238.706    21210453.173    88155068.491    21210452.476  
                                
  19306123.484   103129846.193    19306120.750    80212091.433    19306121.108  
                                
  25107494.740   131940775.715                                                  
  25107497.670    98527213.636  
  25996466.374   136612353.355                                                  
  25996467.839   102015724.035  
  23146547.873   121635930.687                                                  
  23146549.053    90832030.113  
  23558129.833   123798807.990                                                  
  23558132.245    92447170.850  
 21  8 28  5  3 53.0000000  0 18G 3G 4G 7G 8G 9G16G20G27G30R 5R 7R 9
                                R15R16E 1E 4E19E21
  24590549.820   129224210.342    24590550.624   100694188.999    24590549.534  
  24590550.427    96498600.674  
  21078914.202   110770441.147    21078911.772    86314616.258    21078910.986  
  21078914.649    82718188.278  
  21385333.834   112380687.398    21385330.439    87569348.957    21385329.438  
                                
  23808391.074   125113939.396    23808391.700    97491379.173    23808390.431  
  23808390.038    93429236.770  
  20366792.806   107028219.380    20366791.216    83398602.148    20366790.358  
  20366791.055    79923662.857  
  22389106.651   117655548.763                    91679628.894    22389101.683  
                                
  24373068.139   128081336.734                    99803623.503    24373064.405  
                                
  23543232.107   123720519.465    23543231.392    96405591.756    23543230.212  
  23543230.659    92388694.385  
  23704891.567   124570046.236    23704891.621    97067564.585    23704890.477  
  23704891.281    93023085.743  
  20305573.176   108544925.647    20305571.550    84423823.713    20305570.853  
                                
  23368658.953   125094261.029    23368657.988    97295531.850    23368657.041  
                                
  22061978.197   117809732.208    22061976.857    91629786.423    22061976.071  
                                
  21211062.221   113345485.481    21211060.773    88157593.757    21211060.076  
                                
  19306064.588   103129531.526    19306061.836    80211846.692    19306062.193  
                                
  25107075.050   131938570.178                                                  
  25107077.963    98525566.644  
  25996029.566   136610057.894                                                  
  25996031.013   102014009.892  
  23146553.609   121635960.777                                                  
  23146554.789    90832052.581  
  23558176.131   123799051.282                                                  
  23558178.544    92447352.527  
 21  8 28  5  3 54.0000000  0 18G 3G 4G 7G 8G 9G16G20G27G30R 5R 7R 9
                                R15R16E 1E 4E19E21
  24591271.317   129228001.772    24591272.122   100697143.349    24591271.031  
  24591271.925    96501431.915  
  21079198.213   110771933.716    21079195.782    86315779.296    21079194.978  
  21079198.677    82719302.859  
  21385110.918   112379516.001    21385107.523    87568436.180    21385106.522  
                                
  23807873.605   125111220.060    23807874.231    97489260.203    23807872.944  
  23807872.587    93427206.095  
  20366670.153   107027574.849    20366668.563    83398099.911    20366667.723  
  20366668.420    79923181.549  
  22389633.429   117658317.037                    91681786.001    22389628.480  
                                
  24372571.631   128078727.510                    99801590.306    24372567.914  
                                
  23542898.349   123718765.560    23542897.634    96404225.088    23542896.473  
  23542896.902    92387384.664  
  23704417.877   124567556.978    23704417.948    97065624.916    23704416.787  
  23704417.609    93021226.891  
  20306079.567   108547632.588    20306077.958    84425929.109    20306077.244  
                                
  23367892.587   125090158.570    23367891.622    97292341.046    23367890.657  
                                
  22061384.928   117806564.290    22061383.587    91627322.481    22061382.819  
                                
  21211669.893   113348732.606    21211668.427    88160119.296    21211667.730  
                                
  19306005.817   103129217.625    19306003.083    80211602.549    19306003.440  
                                
  25106655.414   131936365.087                                                  
  25106658.362    98523919.985  
  25995592.811   136607762.665                                                  
  25995594.258   102012295.921  
  23146559.417   121635991.298                                                  
  23146560.578    90832075.372  
  23558222.537   123799295.114                                                  
  23558224.949    92447534.607  
 21  8 28  5  3 55.0000000  0 18G 3G 4G 7G 8G 9G16G20G27G30R 5R 7R 9
                                R15R16E 1E 4E19E21
  24591992.797   129231793.209    24591993.601   100700097.717    24591992.511  
  24591993.422    96504263.196  
  21079482.330   110773426.702    21079479.918    86316942.662    21079479.096  
  21079482.795    82720417.744  
  21384888.074   112378344.825    21384884.643    87567523.575    21384883.660  
                                
  23807356.154   125108500.921    23807356.797    97487141.386    23807355.511  
  23807355.136    93425175.575  
  20366547.572   107026930.755    20366545.999    83397598.020    20366545.142  
  20366545.839    79922700.570  
  22390160.315   117661085.797                    91683943.477    22390155.348  
                                
  24372075.193   128076118.718                    99799557.472    24372071.477  
                                
  23542564.681   123717012.121    23542563.966    96402858.773    23542562.804  
  23542563.251    92386075.278  
  23703944.223   124565067.882    23703944.276    97063685.367    23703943.151  
  23703943.937    93019368.148  
  20306586.082   108550340.181    20306584.456    84428035.015    20306583.759  
                                
  23367126.220   125086056.176    23367125.273    97289150.298    23367124.308  
                                
  22060791.747   117803396.735    22060790.407    91624858.828    22060789.621  
                                
  21212277.582   113351979.969    21212276.117    88162645.023    21212275.420  
                                
  19305947.188   103128904.423    19305944.454    80211358.947    19305944.812  
                                
  25106235.867   131934160.298                                                  
  25106238.815    98522273.554  
  25995156.039   136605467.530                                                  
  25995157.504   102010582.021  
  23146565.296   121636022.168                                                  
  23146566.457    90832098.414  
  23558269.014   123799539.378                                                  
  23558271.427    92447717.003  
 21  8 28  5  3 56.0000000  0 18G 3G 4G 7G 8G 9G16G20G27G30R 5R 7R 9
                                R15R16E 1E 4E19E21
  24592714.348   129235584.936    24592715.152   100703052.305    24592714.062  
  24592714.974    96507094.676  
  21079766.573   110774920.333    21079764.142    86318106.530    21079763.320  
  21079767.019    82721533.116  
  21384665.283   112377174.121    21384661.870    87566611.341    21384660.869  
                                
  23806838.828   125105782.272    23806839.453    97485022.968    23806838.167  
  23806837.810    93423145.402  
  20366425.133   107026287.339    20366423.561    83397096.664    20366422.703  
  20366423.400    79922220.106  
  22390687.326   117663855.274                    91686101.511    22390682.359  
                                
  24371578.881   128073510.604                    99797525.177    24371575.164  
                                
  23542231.155   123715259.411    23542230.441    96401493.026    23542229.261  
  23542229.690    92384766.438  
  23703470.622   124562579.174    23703470.694    97061746.107    23703469.550  
  23703470.336    93017509.699  
  20307092.776   108553048.680    20307091.150    84430141.625    20307090.435  
                                
  23366359.925   125081954.132    23366358.978    97285959.817    23366358.013  
                                
  22060198.710   117800229.828    22060197.352    91622395.680    22060196.584  
                                
  21212885.379   113355227.822    21212883.914    88165171.128    21212883.199  
                                
  19305888.721   103128592.148    19305885.987    80211116.069    19305886.344  
                                
  25105816.409   131931956.054                                                  
  25105819.340    98520627.532  
  25994719.373   136603172.748                                                  
  25994720.821   102008868.389  
  23146571.264   121636053.599                                                  
  23146572.426    90832121.898  
  23558315.635   123799784.290                                                  
  23558318.029    92447899.898  
 21  8 28  5  3 57.0000000  0 18G 3G 4G 7G 8G 9G16G20G27G30R 5R 7R 9
                                R15R16E 1E 4E19E21
  24593435.899   129239376.763    24593436.703   100706006.973    24593435.631  
  24593436.525    96509926.233  
  21080050.869   110776414.469    21080048.456    86319270.795    21080047.652  
  21080051.351    82722648.869  
  21384442.581   112376003.748    21384439.150    87565699.362    21384438.149  
                                
  23806321.538   125103063.907    23806322.163    97482904.764    23806320.877  
  23806320.519    93421115.468  
  20366302.820   107025644.472    20366301.230    83396595.724    20366300.390  
  20366301.087    79921740.038  
  22391214.445   117666625.334                    91688260.002    22391209.495  
                                
  24371082.676   128070903.015                    99795493.296    24371078.942  
                                
  23541897.737   123713507.275    23541897.005    96400127.730    23541895.825  
  23541896.272    92383458.040  
  23702997.093   124560090.723    23702997.147    97059807.055    23702996.003  
  23702996.807    93015651.447  
  20307599.577   108555757.936    20307597.969    84432248.822    20307597.272  
                                
  23365593.683   125077852.306    23365592.718    97282769.510    23365591.753  
                                
  22059605.745   117797063.448    22059604.387    91619932.936    22059603.618  
                                
  21213493.212   113358476.018    21213491.782    88167697.503    21213491.068  
                                
  19305830.414   103128280.678    19305827.680    80210873.810    19305828.038  
                                
  25105397.041   131929752.222                                                  
  25105399.972    98518981.811  
  25994282.708   136600878.156                                                  
  25994284.173   102007154.897  
  23146577.339   121636085.458                                                  
  23146578.501    90832145.687  
  23558362.326   123800029.721                                                  
  23558364.721    92448083.177  
 21  8 28  5  3 58.0000000  0 18G 3G 4G 7G 8G 9G16G20G27G30R 5R 7R 9
                                R15R16E 1E 4E19E21
  24594157.486   129243168.642    24594158.272   100708961.677    24594157.200  
  24594158.094    96512757.838  
  21080335.290   110777909.069    21080332.878    86320435.418    21080332.056  
  21080335.755    82723764.968  
  21384219.897   112374833.669    21384216.502    87564787.610    21384215.501  
                                
  23805804.301   125100345.819    23805804.926    97480786.784    23805803.640  
  23805803.282    93419085.726  
  20366180.560   107025002.080    20366178.988    83396095.159    20366178.130  
  20366178.827    79921260.332  
  22391741.688   117669395.941                    91690418.921    22391736.721  
                                
  24370586.543   128068295.878                    99793461.759    24370582.826  
                                
  23541564.408   123711755.706    23541563.694    96398762.873    23541562.514  
  23541562.943    92382150.041  
  23702523.582   124557602.484    23702523.653    97057868.165    23702522.492  
  23702523.314    93013793.359  
  20308106.539   108558467.873    20308104.913    84434356.553    20308104.216  
                                
  23364827.442   125073750.618    23364826.495    97279579.306    23364825.530  
                                
  22059012.850   117793897.522    22059011.510    91617470.548    22059010.742  
                                
  21214101.134   113361724.512    21214099.705    88170224.107    21214098.972  
                                
  19305772.233   103127969.880    19305769.499    80210632.083    19305769.856  
                                
  25104977.727   131927548.753                                                  
  25104980.657    98517336.366  
  25993846.096   136598583.728                                                  
  25993847.561   102005441.526  
  23146583.469   121636117.708                                                  
  23146584.630    90832169.778  
  23558409.108   123800275.628                                                  
  23558411.520    92448266.811  
 21  8 28  5  3 59.0000000  0 18G 3G 4G 7G 8G 9G16G20G27G30R 5R 7R 9
                                R15R16E 1E 4E19E21
  24594878.912   129246959.820    24594879.716   100711915.861    24594878.644  
  24594879.538    96515588.921  
  21080619.658   110779403.343    21080617.227    86321599.776    21080616.423  
  21080620.104    82724880.807  
  21383997.142   112373663.074    21383993.747    87563875.457    21383992.746  
                                
  23805286.975   125097627.181    23805287.600    97478668.350    23805286.314  
  23805285.956    93417055.551  
  20366058.264   107024359.403    20366056.692    83395594.372    20366055.834  
  20366056.531    79920780.405  
  22392268.860   117672166.292                    91692577.629    22392263.892  
                                
  24370090.374   128065688.471                    99791430.024    24370086.657  
                                
  23541231.044   123710003.849    23541230.329    96397397.795    23541229.168  
  23541229.579    92380841.834  
  23702049.981   124555113.676    23702050.053    97055928.831    23702048.909  
  23702049.713    93011934.818  
  20308613.466   108561177.649    20308611.839    84436464.129    20308611.143  
                                
  23364061.093   125069648.209    23364060.128    97276388.532    23364059.181  
                                
  22058419.938   117790731.228    22058418.580    91615007.853    22058417.794  
                                
  21214708.949   113364972.457    21214707.519    88172750.261    21214706.805  
                                
  19305714.033   103127659.007    19305711.317    80210390.265    19305711.657  
                                
  25104558.341   131925344.862                                                  
  25104561.289    98515690.592  
  25993409.377   136596288.667                                                  
  25993410.843   102003727.671  
  23146589.544   121636149.550                                                  
  23146590.706    90832193.543  
  23558455.853   123800521.218                                                  
  23558458.265    92448450.193  
 21  8 28  5  4  0.0000000  0 18G 3G 4G 7G 8G 9G16G20G27G30R 5R 7R 9
                                R15R16E 1E 4E19E21
  24595600.338   129250750.793    24595601.125   100714869.858    24595600.052  
  24595600.946    96518419.831  
  21080904.025   110780897.787    21080901.595    86322764.280    21080900.809  
  21080904.508    82725996.794  
  21383774.387   112372492.481    21383770.992    87562963.307    21383769.991  
                                
  23804769.613   125094908.503    23804770.238    97476549.901    23804768.952  
  23804768.595    93415025.391  
  20365936.005   107023716.926    20365934.432    83395093.740    20365933.574  
  20365934.271    79920300.640  
  22392796.086   117674936.898                    91694736.536    22392791.136  
                                
  24369594.240   128063081.246                    99789398.413    24369590.524  
                                
  23540897.733   123708252.265    23540897.018    96396032.915    23540895.839  
  23540896.286    92379533.838  
  23701576.381   124552624.817    23701576.452    97053989.454    23701575.291  
  23701576.113    93010076.247  
  20309120.481   108563887.849    20309118.837    84438572.055    20309118.140  
                                
  23363294.708   125065545.657    23363293.743    97273197.655    23363292.779  
                                
  22057827.008   117787565.105    22057825.668    91612545.312    22057824.882  
                                
  21215316.782   113368220.415    21215315.316    88175276.448    21215314.619  
                                
  19305655.923   103127348.573    19305653.189    80210148.816    19305653.547  
                                
  25104138.955   131923141.024                                                  
  25104141.903    98514044.882  
  25992972.623   136593993.476                                                  
  25992974.088   102002013.732  
  23146595.602   121636181.485                                                  
  23146596.781    90832217.391  
  23558502.634   123800766.993                                                  
  23558505.046    92448633.731  
 21  8 28  5  4  1.0000000  0 18G 3G 4G 7G 8G 9G16G20G27G30R 5R 7R 9
                                R15R16E 1E 4E19E21
  24596321.729   129254541.716    24596322.533   100717823.822    24596321.443  
  24596322.336    96521250.720  
  21081188.464   110782392.598    21081186.052    86323929.065    21081185.248  
  21081188.947    82727113.054  
  21383551.685   112371322.085    21383548.254    87562051.313    21383547.289  
                                
  23804252.287   125092190.018    23804252.912    97474431.599    23804251.626  
  23804251.268    93412995.354  
  20365813.834   107023074.849    20365812.226    83394593.424    20365811.386  
  20365812.101    79919821.164  
  22393323.400   117677707.957                    91696895.800    22393318.451  
                                
  24369098.178   128060474.434                    99787367.132    24369094.462  
                                
  23540564.512   123706501.136    23540563.797    96394668.401    23540562.617  
  23540563.046    92378226.167  
  23701102.780   124550136.047    23701102.852    97052050.153    23701101.690  
  23701102.494    93008217.754  
  20309627.568   108566598.604    20309625.942    84440680.422    20309625.245  
                                
  23362528.306   125061443.164    23362527.341    97270006.828    23362526.412  
                                
  22057234.168   117784399.328    22057232.828    91610083.041    22057232.041  
                                
  21215924.614   113371468.569    21215923.185    88177802.790    21215922.452  
                                
  19305597.920   103127038.747    19305595.186    80209907.840    19305595.544  
                                
  25103719.640   131920937.482                                                  
  25103722.589    98512399.373  
  25992535.868   136591698.341                                                  
  25992537.333   102000299.837  
  23146601.731   121636213.709                                                  
  23146602.892    90832241.461  
  23558549.469   123801013.143                                                  
  23558551.863    92448817.544  
 21  8 28  5  4  2.0000000  0 18G 3G 4G 7G 8G 9G16G20G27G30R 5R 7R 9
                                R15R16E 1E 4E19E21
  24597043.030   129258332.266    24597043.834   100720777.495    24597042.762  
  24597043.655    96524081.339  
  21081472.939   110783887.459    21081470.527    86325093.885    21081469.723  
  21081473.422    82728229.337  
  21383328.930   112370151.534    21383325.535    87561139.197    21383324.534  
                                
  23803734.961   125089471.372    23803735.586    97472313.187    23803734.300  
  23803733.942    93410965.198  
  20365691.664   107022432.841    20365690.073    83394093.154    20365689.216  
  20365689.912    79919341.743  
  22393850.733   117680479.121                    91699055.151    22393845.783  
                                
  24368602.134   128057867.678                    99785335.896    24368598.418  
                                
  23540231.290   123704750.091    23540230.575    96393303.949    23540229.414  
  23540229.843    92376918.576  
  23700629.126   124547647.042    23700629.197    97050110.671    23700628.036  
  23700628.822    93006359.103  
  20310134.745   108569309.633    20310133.101    84442788.994    20310132.404  
                                
  23361761.886   125057340.406    23361760.939    97266815.796    23361759.974  
                                
  22056641.309   117781233.539    22056639.951    91607620.765    22056639.201  
                                
  21216532.447   113374716.610    21216531.000    88180329.044    21216530.285  
                                
  19305539.989   103126729.213    19305537.237    80209667.094    19305537.595  
                                
  25103300.326   131918733.867                                                  
  25103303.239    98510753.817  
  25992099.042   136589402.931                                                  
  25992100.507   101998585.731  
  23146607.860   121636245.894                                                  
  23146609.021    90832265.486  
  23558596.303   123801259.334                                                  
  23558598.734    92449001.391  
 21  8 28  5  4  3.0000000  0 18G 3G 4G 7G 8G 9G16G20G27G30R 5R 7R 9
                                R15R16E 1E 4E19E21
  24597764.384   129262122.981    24597765.188   100723731.301    24597764.116  
  24597765.010    96526912.076  
  21081757.503   110785382.848    21081755.091    86326259.128    21081754.287  
  21081757.968    82729346.024  
  21383106.246   112368981.343    21383102.833    87560227.358    21383101.832  
                                
  23803217.688   125086753.075    23803218.296    97470195.036    23803217.027  
  23803216.652    93408935.299  
  20365569.600   107021791.406    20365568.028    83393593.335    20365567.170  
  20365567.867    79918862.753  
  22394378.191   117683250.901                    91701214.975    22394373.223  
                                
  24368106.197   128055261.492                    99783305.106    24368102.463  
                                
  23539898.194   123702999.649    23539897.479    96391939.965    23539896.299  
  23539896.764    92375611.447  
  23700155.543   124545158.351    23700155.597    97048171.438    23700154.453  
  23700155.257    93004500.669  
  20310642.028   108572021.439    20310640.402    84444898.178    20310639.705  
                                
  23360995.501   125053237.892    23360994.554    97263624.952    23360993.589  
                                
  22056048.576   117778068.280    22056047.200    91605158.895    22056046.432  
                                
  21217140.333   113377965.044    21217138.904    88182855.604    21217138.189  
                                
  19305482.183   103126420.467    19305479.431    80209426.959    19305479.806  
                                
  25102881.047   131916530.686                                                  
  25102883.996    98509108.586  
  25991662.287   136587107.761                                                  
  25991663.752   101996871.806  
  23146614.078   121636278.528                                                  
  23146615.240    90832289.864  
  23558643.263   123801506.081                                                  
  23558645.693    92449185.649  
 21  8 28  5  4  4.0000000  0 18G 3G 4G 7G 8G 9G16G20G27G30R 5R 7R 9
                                R15R16E 1E 4E19E21
  24598485.792   129265913.992    24598486.579   100726685.336    24598485.507  
  24598486.418    96529743.008  
  21082042.175   110786878.882    21082039.762    86327424.876    21082038.958  
  21082042.657    82730463.203  
  21382883.669   112367811.625    21382880.239    87559315.901    21382879.238  
                                
  23802700.487   125084035.192    23802701.077    97468077.216    23802699.808  
  23802699.469    93406905.739  
  20365447.662   107021150.651    20365446.090    83393094.048    20365445.232  
  20365445.929    79918384.272  
  22394905.792   117686023.412                    91703375.378    22394900.824  
                                
  24367610.368   128052655.948                    99781274.817    24367606.651  
                                
  23539565.240   123701249.972    23539564.525    96390576.588    23539563.364  
  23539563.793    92374304.871  
  23699682.050   124542670.103    23699682.086    97046232.552    23699680.942  
  23699681.746    93002642.564  
  20311149.491   108574734.143    20311147.883    84447008.059    20311147.168  
                                
  23360229.170   125049135.705    23360228.223    97260434.359    23360227.258  
                                
  22055455.950   117774903.690    22055454.574    91602697.561    22055453.806  
                                
  21217748.345   113381213.974    21217746.897    88185382.557    21217746.182  
                                
  19305424.555   103126112.649    19305421.821    80209187.547    19305422.179  
                                
  25102461.929   131914328.060                                                  
  25102464.842    98507463.779  
  25991225.604   136584812.940                                                  
  25991227.051   101995158.145  
  23146620.386   121636311.737                                                  
  23146621.547    90832314.670  
  23558690.348   123801753.481                                                  
  23558692.743    92449370.405  
 21  8 28  5  4  5.0000000  0 18G 3G 4G 7G 8G 9G16G20G27G30R 5R 7R 9
                                R15R16E 1E 4E19E21
  24599207.219   129269705.071    24599208.023   100729639.421    24599206.915  
  24599207.844    96532574.017  
  21082326.971   110788375.442    21082324.559    86328591.029    21082323.755  
  21082327.454    82731580.760  
  21382661.129   112366642.247    21382657.716    87558404.702    21382656.715  
                                
  23802183.340   125081317.664    23802183.965    97465959.671    23802182.679  
  23802182.322    93404876.416  
  20365325.831   107020510.437    20365324.259    83392595.184    20365323.383  
  20365324.098    79917906.192  
  22395433.482   117688796.504                    91705536.233    22395428.514  
                                
  24367114.663   128050050.995                    99779244.976    24367110.946  
                                
  23539232.394   123699500.859    23539231.679    96389213.647    23539230.500  
  23539230.946    92372998.721  
  23699208.610   124540182.096    23699208.646    97044293.850    23699207.502  
  23699208.306    93000784.632  
  20311657.096   108577447.584    20311655.488    84449118.514    20311654.773  
                                
  23359462.893   125045033.711    23359461.928    97257243.925    23359460.963  
                                
  22054863.395   117771739.585    22054862.037    91600236.591    22054861.269  
                                
  21218356.392   113384463.232    21218354.944    88187909.757    21218354.230  
                                
  19305367.071   103125805.603    19305364.337    80208948.738    19305364.694  
                                
  25102042.847   131912125.847                                                  
  25102045.778    98505819.267  
  25990788.939   136582518.316                                                  
  25990790.404   101993444.631  
  23146626.801   121636345.395                                                  
  23146627.962    90832339.804  
  23558737.522   123802001.412                                                  
  23558739.917    92449555.548  
 21  8 28  5  4  6.0000000  0 18G 3G 4G 7G 8G 9G16G20G27G30R 5R 7R 9
                                R15R16E 1E 4E19E21
  24599928.591   129273495.944    24599929.395   100732593.350    24599928.305  
  24599929.216    96535404.862  
  21082611.803   110789872.175    21082609.391    86329757.314    21082608.587  
  21082612.268    82732698.446  
  21382438.624   112365472.876    21382435.193    87557493.503    21382434.192  
                                
  23801666.228   125078600.115    23801666.854    97463842.098    23801665.567  
  23801665.210    93402847.065  
  20365204.036   107019870.434    20365202.463    83392096.480    20365201.624  
  20365202.303    79917428.261  
  22395961.226   117691569.857                    91707697.290    22395956.276  
                                
  24366618.994   128047446.184                    99777215.242    24366615.278  
                                
  23538899.601   123697752.010    23538898.868    96387850.914    23538897.707  
  23538898.154    92371692.758  
  23698735.152   124537694.015    23698735.188    97042355.083    23698734.045  
  23698734.849    92998926.641  
  20312164.773   108580161.414    20312163.147    84451229.272    20312162.450  
                                
  23358696.580   125040931.533    23358695.615    97254053.342    23358694.650  
                                
  22054270.894   117768575.627    22054269.518    91597775.737    22054268.750  
                                
  21218964.421   113387712.464    21218962.991    88190436.942    21218962.295  
                                
  19305309.675   103125498.993    19305306.923    80208710.265    19305307.281  
                                
  25101623.801   131909923.702                                                  
  25101626.731    98504174.808  
  25990352.273   136580223.565                                                  
  25990353.739   101991731.019  
  23146633.234   121636379.138                                                  
  23146634.377    90832364.998  
  23558784.750   123802249.526                                                  
  23558787.162    92449740.821  
 21  8 28  5  4  7.0000000  0 18G 3G 4G 7G 8G 9G16G20G27G30R 5R 7R 9
                                R15R16E 1E 4E19E21
  24600650.017   129277287.040    24600650.803   100735547.449    24600649.731  
  24600650.642    96538235.875  
  21082896.725   110791369.519    21082894.313    86330924.075    21082893.509  
  21082897.208    82733816.590  
  21382216.154   112364303.929    21382212.741    87556582.634    21382211.741  
                                
  23801149.170   125075882.965    23801149.778    97461724.830    23801148.491  
  23801148.152    93400818.036  
  20365082.384   107019231.076    20365080.793    83391598.279    20365079.935  
  20365080.650    79916950.814  
  22396489.112   117694343.900                    91709858.884    22396484.145  
                                
  24366123.433   128044842.058                    99775186.071    24366119.716  
                                
  23538566.933   123696003.848    23538566.219    96386488.710    23538565.039  
  23538565.486    92370387.317  
  23698261.731   124535206.287    23698261.784    97040416.596    23698260.658  
  23698261.427    92997068.928  
  20312672.629   108582876.100    20312670.985    84453340.695    20312670.288  
                                
  23357930.303   125036829.653    23357929.356    97250862.988    23357928.391  
                                
  22053678.500   117765412.276    22053677.142    91595315.353    22053676.356  
                                
  21219572.575   113390962.125    21219571.128    88192964.456    21219570.413  
                                
  19305252.441   103125193.256    19305249.707    80208472.464    19305250.064  
                                
  25101204.826   131907722.082                                                  
  25101207.774    98502530.742  
  25989915.662   136577929.123                                                  
  25989917.109   101990017.635  
  23146639.756   121636413.421                                                  
  23146640.917    90832390.592  
  23558832.067   123802498.262                                                  
  23558834.480    92449926.561  
 21  8 28  5  4  8.0000000  0 18G 3G 4G 7G 8G 9G16G20G27G30R 5R 7R 9
                                R15R16E 1E 4E19E21
  24601371.461   129281078.194    24601372.229   100738501.600    24601371.157  
  24601372.069    96541066.928  
  21083181.736   110792867.311    21083179.324    86332091.184    21083178.520  
  21083182.218    82734935.082  
  21381993.774   112363135.253    21381990.343    87555671.979    21381989.343  
                                
  23800632.148   125073166.077    23800632.756    97459607.776    23800631.469  
  23800631.129    93398789.197  
  20364960.803   107018592.194    20364959.230    83391100.447    20364958.372  
  20364959.069    79916473.738  
  22397017.088   117697118.453                    91712020.878    22397012.121  
                                
  24365627.978   128042238.375                    99773157.231    24365624.244  
                                
  23538234.373   123694256.237    23538233.658    96385126.931    23538232.479  
  23538232.908    92369082.274  
  23697788.362   124532718.758    23697788.434    97038478.257    23697787.272  
  23697788.076    92995211.363  
  20313180.591   108585591.461    20313178.947    84455452.640    20313178.250  
                                
  23357164.061   125032727.905    23357163.096    97247672.740    23357162.149  
                                
  22053086.196   117762249.368    22053084.838    91592855.308    22053084.052  
                                
  21220180.747   113394212.084    21220179.318    88195492.200    21220178.603  
                                
  19305195.349   103124888.215    19305192.597    80208235.212    19305192.955  
                                
  25100785.940   131905520.803                                                  
  25100788.871    98500886.944  
  25989479.068   136575634.822                                                  
  25989480.515   101988304.369  
  23146646.350   121636448.074                                                  
  23146647.511    90832416.474  
  23558879.492   123802747.446                                                  
  23558881.904    92450112.654  
 21  8 28  5  4  9.0000000  0 18G 3G 4G 7G 8G 9G16G20G27G30R 5R 7R 9
                                R15R16E 1E 4E19E21
  24602092.905   129284869.437    24602093.691   100741455.815    24602092.601  
  24602093.530    96543898.042  
  21083466.872   110794365.602    21083464.460    86333258.684    21083463.638  
  21083467.337    82736053.929  
  21381771.430   112361966.891    21381768.017    87554761.567    21381767.016  
                                
  23800115.215   125070449.491    23800115.840    97457490.965    23800114.536  
  23800114.197    93396760.579  
  20364839.329   107017953.860    20364837.757    83390603.046    20364836.899  
  20364837.596    79915997.056  
  22397545.189   117699893.599                    91714183.329    22397540.222  
                                
  24365132.613   128039635.237                    99771128.817    24365128.861  
                                
  23537901.938   123692509.137    23537901.205    96383765.549    23537900.026  
  23537900.473    92367777.632  
  23697315.065   124530231.478    23697315.101    97036540.133    23697313.975  
  23697314.744    92993353.994  
  20313688.679   108588307.526    20313687.053    84457565.137    20313686.356  
                                
  23356397.855   125028626.354    23356396.908    97244482.654    23356395.961  
                                
  22052493.963   117759086.942    22052492.605    91590395.644    22052491.819  
                                
  21220789.009   113397462.402    21220787.562    88198020.232    21220786.865  
                                
  19305138.383   103124583.964    19305135.631    80207998.572    19305136.006  
                                
  25100367.126   131903319.934                                                  
  25100370.056    98499243.430  
  25989042.510   136573340.714                                                  
  25989043.975   101986591.232  
  23146653.015   121636483.141                                                  
  23146654.176    90832442.660  
  23558927.005   123802997.150                                                  
  23558929.418    92450299.117  
 21  8 28  5  4 10.0000000  0 18G 3G 4G 7G 8G 9G16G20G27G30R 5R 7R 9
                                R15R16E 1E 4E19E21
  24602814.385   129288660.786    24602815.171   100744410.101    24602814.099  
  24602815.010    96546729.259  
  21083752.079   110795864.416    21083749.667    86334426.586    21083748.863  
  21083752.562    82737173.167  
  21381549.193   112360798.877    21381545.762    87553851.422    21381544.761  
                                
  23799598.300   125067733.172    23799598.925    97455374.344    23799597.621  
  23799597.281    93394732.173  
  20364717.963   107017316.061    20364716.372    83390106.060    20364715.515  
  20364716.211    79915520.777  
  22398073.398   117702669.341                    91716346.238    22398068.430  
                                
  24364637.338   128037032.602                    99769100.787    24364633.621  
                                
  23537569.592   123690762.679    23537568.859    96382404.673    23537567.680  
  23537568.127    92366473.459  
  23696841.787   124527744.466    23696841.858    97034602.194    23696840.696  
  23696841.483    92991496.809  
  20314196.910   108591024.329    20314195.284    84459678.206    20314194.587  
                                
  23355631.703   125024525.022    23355630.738    97241292.731    23355629.791  
                                
  22051901.837   117755925.005    22051900.479    91587936.360    22051899.693  
                                
  21221397.324   113400713.083    21221395.895    88200548.540    21221395.162  
                                
  19305081.577   103124280.486    19305078.807    80207762.536    19305079.183  
                                
  25099948.401   131901119.474                                                  
  25099951.332    98497600.229  
  25988605.987   136571046.817                                                  
  25988607.453   101984878.255  
  23146659.769   121636518.648                                                  
  23146660.931    90832469.175  
  23558974.626   123803247.373                                                  
  23558977.039    92450485.974  
 21  8 28  5  4 11.0000000  0 18G 3G 4G 7G 8G 9G16G20G27G30R 5R 7R 9
                                R15R16E 1E 4E19E21
  24603535.811   129292451.932    24603536.615   100747364.238    24603535.525  
  24603536.454    96549560.305  
  21084037.341   110797363.402    21084034.910    86335594.630    21084034.124  
  21084037.823    82738292.544  
  21381326.920   112359630.855    21381323.489    87552941.277    21381322.489  
                                
  23799081.421   125065016.861    23799082.028    97453257.736    23799080.742  
  23799080.402    93392703.755  
  20364596.632   107016678.470    20364595.042    83389609.233    20364594.202  
  20364594.881    79915044.654  
  22398601.660   117705445.308                    91718509.328    22398596.692  
                                
  24364142.116   128034430.198                    99767072.940    24364138.381  
                                
  23537237.282   123689016.465    23537236.567    96381043.989    23537235.370  
  23537235.816    92365169.462  
  23696368.525   124525257.389    23696368.561    97032664.212    23696367.418  
  23696368.204    92989639.583  
  20314705.230   108593741.528    20314703.586    84461791.581    20314702.889  
                                
  23354865.497   125020423.548    23354864.532    97238102.699    23354863.603  
                                
  22051309.747   117752763.244    22051308.389    91585477.212    22051307.603  
                                
  21222005.639   113403963.732    21222004.192    88203076.820    21222003.495  
                                
  19305024.825   103123977.440    19305022.091    80207526.836    19305022.449  
                                
  25099529.676   131898919.089                                                  
  25099532.607    98495957.095  
  25988169.465   136568752.786                                                  
  25988170.894   101983165.184  
  23146666.542   121636554.254                                                  
  23146667.703    90832495.768  
  23559022.265   123803497.785                                                  
  23559024.678    92450672.974  
 21  8 28  5  4 12.0000000  0 18G 3G 4G 7G 8G 9G16G20G27G30R 5R 7R 9
                                R15R16E 1E 4E19E21
  24604257.290   129296243.306    24604258.077   100750318.556    24604257.004  
  24604257.916    96552391.535  
  21084322.691   110798862.997    21084320.296    86336763.142    21084319.475  
  21084323.173    82739412.371  
  21381104.719   112358463.271    21381101.306    87552031.471    21381100.305  
                                
  23798564.577   125062300.959    23798565.202    97451141.460    23798563.898  
  23798563.576    93390675.648  
  20364475.409   107016041.519    20364473.836    83389112.910    20364472.996  
  20364473.675    79914569.010  
  22399130.029   117708221.971                    91720672.957    22399125.079  
                                
  24363647.036   128031828.451                    99765045.603    24363643.302  
                                
  23536905.114   123687270.932    23536904.400    96379683.836    23536903.220  
  23536903.667    92363865.983  
  23695895.336   124522770.681    23695895.372    97030726.523    23695894.210  
  23695895.014    92987782.619  
  20315213.693   108596459.596    20315212.085    84463905.634    20315211.388  
                                
  23354099.381   125016322.368    23354098.416    97234912.892    23354097.451  
                                
  22050717.764   117749602.092    22050716.388    91583018.536    22050715.638  
                                
  21222614.026   113407214.801    21222612.596    88205605.429    21222611.882  
                                
  19304968.270   103123675.239    19304965.536    80207291.790    19304965.875  
                                
  25099111.059   131896719.230                                                  
  25099114.007    98494314.332  
  25987732.996   136566459.065                                                  
  25987734.426   101981452.339  
  23146673.403   121636590.389                                                  
  23146674.565    90832522.752  
  23559070.047   123803748.818                                                  
  23559072.459    92450860.431  
 21  8 28  5  4 13.0000000  0 18G 3G 4G 7G 8G 9G16G20G27G30R 5R 7R 9
                                R15R16E 1E 4E19E21
  24604978.752   129300034.602    24604979.556   100753272.813    24604978.466  
  24604979.395    96555222.687  
  21084608.095   110800362.896    21084605.701    86337931.897    21084604.879  
  21084608.577    82740532.434  
  21380882.571   112357295.800    21380879.122    87551121.756    21380878.158  
                                
  23798047.787   125059585.168    23798048.377    97449025.252    23798047.108  
  23798046.768    93388647.624  
  20364354.274   107015404.899    20364352.702    83388616.842    20364351.844  
  20364352.541    79914093.619  
  22399658.487   117710999.010                    91722836.883    22399653.538  
                                
  24363152.011   128029226.998                    99763018.487    24363148.258  
                                
  23536573.019   123685525.792    23536572.304    96378323.984    23536571.124  
  23536571.589    92362562.795  
  23695422.128   124520284.024    23695422.164    97028788.868    23695421.003  
  23695421.807    92985925.711  
  20315722.263   108599178.184    20315720.655    84466020.086    20315719.940  
                                
  23353333.228   125012221.146    23353332.263    97231723.059    23353331.299  
                                
  22050125.835   117746441.217    22050124.477    91580560.078    22050123.708  
                                
  21223222.448   113410466.023    21223221.019    88208134.160    21223220.304  
                                
  19304911.786   103123373.562    19304909.052    80207057.153    19304909.409  
                                
  25098692.477   131894519.556                                                  
  25098695.407    98492671.732  
  25987296.492   136564165.348                                                  
  25987297.957   101979739.495  
  23146680.337   121636626.767                                                  
  23146681.498    90832549.916  
  23559117.864   123804000.168                                                  
  23559120.295    92451048.128  
 21  8 28  5  4 14.0000000  0 18G 3G 4G 7G 8G 9G16G20G27G30R 5R 7R 9
                                R15R16E 1E 4E19E21
  24605700.178   129303825.748    24605700.982   100756226.959    24605699.892  
  24605700.821    96558053.739  
  21084893.588   110801863.077    21084891.176    86339100.872    21084890.372  
  21084894.071    82741652.695  
  21380660.424   112356128.433    21380656.993    87550212.126    21380655.992  
                                
  23797531.033   125056869.456    23797531.622    97446909.120    23797530.336  
  23797529.996    93386619.660  
  20364233.194   107014768.602    20364231.604    83388121.029    20364230.746  
  20364231.443    79913618.460  
  22400186.999   117713776.410                    91725001.100    22400182.050  
                                
  24362657.021   128026625.880                    99760991.651    24362653.269  
                                
  23536240.994   123683780.978    23536240.279    96376964.405    23536239.100  
  23536239.547    92361259.875  
  23694948.921   124517797.407    23694948.975    97026851.251    23694947.813  
  23694948.599    92984068.837  
  20316230.941   108601897.279    20316229.297    84468134.936    20316228.600  
                                
  23352567.076   125008119.882    23352566.129    97228533.185    23352565.164  
                                
  22049533.941   117743280.634    22049532.583    91578101.842    22049531.815  
                                
  21223830.889   113413717.379    21223829.477    88210662.980    21223828.744  
                                
  19304855.409   103123072.402    19304852.657    80206822.919    19304853.014  
                                
  25098273.913   131892320.066                                                  
  25098276.843    98491029.265  
  25986860.023   136561871.586                                                  
  25986861.470   101978026.635  
  23146687.288   121636663.322                                                  
  23146688.449    90832577.215  
  23559165.753   123804251.806                                                  
  23559168.166    92451236.046  
 21  8 28  5  4 15.0000000  0 18G 3G 4G 7G 8G 9G16G20G27G30R 5R 7R 9
                                R15R16E 1E 4E19E21
  24606421.694   129307617.322    24606422.498   100759181.444    24606421.390  
  24606422.301    96560885.114  
  21085179.225   110803364.071    21085176.794    86340270.482    21085176.008  
  21085179.707    82742773.567  
  21380438.383   112354961.708    21380434.970    87549302.990    21380433.969  
                                
  23797014.350   125054154.334    23797014.922    97444793.445    23797013.653  
  23797013.331    93384592.151  
  20364112.256   107014133.141    20364110.684    83387625.869    20364109.844  
  20364110.523    79913143.923  
  22400715.708   117716554.710                    91727166.009    22400710.740  
                                
  24362162.192   128024025.592                    99758965.461    24362158.440  
                                
  23535909.149   123682037.088    23535908.416    96375605.532    23535907.254  
  23535907.701    92359957.615  
  23694475.839   124515311.349    23694475.892    97024914.070    23694474.731  
  23694475.535    92982212.365  
  20316739.779   108604617.407    20316738.153    84470250.591    20316737.456  
                                
  23351801.013   125004019.147    23351800.048    97225343.725    23351799.101  
                                
  22048942.226   117740120.829    22048940.851    91575644.216    22048940.082  
                                
  21224439.454   113416969.406    21224438.042    88213192.335    21224437.327  
                                
  19304799.211   103122772.306    19304796.477    80206589.514    19304796.834  
                                
  25097855.510   131890121.302                                                  
  25097858.422    98489387.328  
  25986423.626   136559578.356                                                  
  25986425.073   101976314.160  
  23146694.382   121636700.627                                                  
  23146695.543    90832605.073  
  23559213.785   123804504.262                                                  
  23559216.216    92451424.568  
 21  8 28  5  4 16.0000000  0 18G 3G 4G 7G 8G 9G16G20G27G30R 5R 7R 9
                                R15R16E 1E 4E19E21
  24607143.263   129311409.220    24607144.067   100762136.176    24607142.959  
  24607143.870    96563716.732  
  21085465.004   110804865.781    21085462.574    86341440.645    21085461.770  
  21085465.469    82743894.969  
  21380216.468   112353795.514    21380213.055    87548394.267    21380212.054  
                                
  23796497.774   125051439.732    23796498.364    97442678.182    23796497.060  
  23796496.738    93382565.018  
  20363991.480   107013498.423    20363989.907    83387131.281    20363989.049  
  20363989.728    79912669.950  
  22401244.542   117719333.774                    91729331.515    22401239.592  
                                
  24361667.524   128021426.025                    99756939.819    24361663.771  
                                
  23535577.446   123680293.967    23535576.713    96374247.256    23535575.552  
  23535575.999    92358655.934  
  23694002.845   124512825.739    23694002.863    97022977.228    23694001.720  
  23694002.524    92980356.241  
  20317248.814   108607338.463    20317247.188    84472366.970    20317246.491  
                                
  23351035.040   124999918.780    23351034.075    97222154.553    23351033.110  
                                
  22048350.619   117736961.704    22048349.261    91573187.121    22048348.492  
                                
  21225048.126   113420221.950    21225046.715    88215722.091    21225045.982  
                                
  19304743.227   103122473.183    19304740.493    80206356.865    19304740.833  
                                
  25097437.214   131887923.142                                                  
  25097440.144    98487745.845  
  25985987.318   136557285.507                                                  
  25985988.765   101974601.970  
  23146701.601   121636738.549                                                  
  23146702.762    90832633.398  
  23559261.978   123804757.444                                                  
  23559264.390    92451613.630  
 21  8 28  5  4 17.0000000  0 18G 3G 4G 7G 8G 9G16G20G27G30R 5R 7R 9
                                R15R16E 1E 4E19E21
  24607864.814   129315200.979    24607865.582   100765090.794    24607864.510  
  24607865.421    96566548.239  
  21085750.801   110806367.752    21085748.389    86342611.010    21085747.585  
  21085751.284    82745016.571  
  21379994.588   112352629.399    21379991.139    87547485.606    21379990.139  
                                
  23795981.181   125048725.191    23795981.788    97440562.955    23795980.502  
  23795980.180    93380537.932  
  20363870.757   107012864.007    20363869.184    83386636.931    20363868.308  
  20363869.023    79912196.193  
  22401773.447   117722113.175                    91731497.285    22401768.479  
                                
  24361172.891   128018826.750                    99754914.402    24361169.175  
                                
  23535245.797   123678551.183    23535245.082    96372889.240    23535243.903  
  23535244.349    92357354.516  
  23693529.870   124510340.173    23693529.906    97021040.428    23693528.745  
  23693529.549    92978500.125  
  20317757.938   108610060.009    20317756.312    84474483.726    20317755.615  
                                
  23350269.048   124995818.353    23350268.083    97218965.334    23350267.119  
                                
  22047759.083   117733802.854    22047757.707    91570730.235    22047756.938  
                                
  21225656.817   113423474.562    21225655.405    88218251.903    21225654.672  
                                
  19304687.333   103122174.590    19304684.599    80206124.624    19304684.938  
                                
  25097018.953   131885725.143                                                  
  25097021.866    98486104.482  
  25985550.992   136554992.626                                                  
  25985552.439   101972889.757  
  23146708.873   121636776.671                                                  
  23146710.017    90832661.861  
  23559310.189   123805010.886                                                  
  23559312.637    92451802.889  
 21  8 28  5  4 18.0000000  0 18G 3G 4G 7G 8G 9G16G20G27G30R 5R 7R 9
                                R15R16E 1E 4E19E21
  24608586.311   129318992.489    24608587.098   100768045.215    24608586.008  
  24608586.937    96569379.555  
  21086036.634   110807869.860    21086034.240    86343781.478    21086033.435  
  21086037.116    82746138.269  
  21379772.655   112351463.241    21379769.224    87546576.909    21379768.241  
                                
  23795464.641   125046010.624    23795465.249    97438447.703    23795463.962  
  23795463.622    93378510.800  
  20363750.069   107012229.761    20363748.479    83386142.714    20363747.621  
  20363748.318    79911722.566  
  22402302.388   117724892.819                    91733663.244    22402297.420  
                                
  24360678.295   128016227.673                    99752889.152    24360674.560  
                                
  23534914.219   123676808.646    23534913.505    96371531.415    23534912.325  
  23534912.754    92356053.259  
  23693056.842   124507854.478    23693056.877    97019103.516    23693055.716  
  23693056.520    92976643.936  
  20318267.134   108612781.942    20318265.490    84476600.781    20318264.793  
                                
  23349503.021   124991717.759    23349502.056    97215775.978    23349501.109  
                                
  22047167.547   117730644.138    22047166.189    91568273.456    22047165.402  
                                
  21226265.507   113426727.159    21226264.060    88220781.698    21226263.363  
                                
  19304631.510   103121876.422    19304628.776    80205892.715    19304629.134  
                                
  25096600.693   131883527.191                                                  
  25096603.606    98484463.157  
  25985114.666   136552699.601                                                  
  25985116.096   101971177.414  
  23146716.128   121636814.851                                                  
  23146717.290    90832690.372  
  23559358.471   123805264.493                                                  
  23559360.883    92451992.262  
 21  8 28  5  4 19.0000000  0 18G 3G 4G 7G 8G 9G16G20G27G30R 5R 7R 9
                                R15R16E 1E 4E19E21
  24609307.809   129322783.940    24609308.577   100770999.601    24609307.505  
  24609308.416    96572210.842  
  21086322.556   110809372.304    21086320.144    86344952.213    21086319.340  
  21086323.039    82747260.228  
  21379550.775   112350297.241    21379547.362    87545668.344    21379546.361  
                                
  23794948.083   125043296.139    23794948.691    97436332.529    23794947.404  
  23794947.083    93376483.752  
  20363629.435   107011595.882    20363627.863    83385648.777    20363627.023  
  20363627.702    79911249.217  
  22402831.400   117727672.825                    91735829.470    22402826.451  
                                
  24360183.770   128013628.853                    99750864.118    24360180.053  
                                
  23534582.695   123675066.488    23534581.981    96370173.902    23534580.801  
  23534581.230    92354752.306  
  23692583.849   124505368.874    23692583.884    97017166.696    23692582.723  
  23692583.527    92974787.822  
  20318776.419   108615504.431    20318774.810    84478718.281    20318774.096  
                                
  23348736.994   124987617.159    23348736.047    97212586.632    23348735.082  
                                
  22046576.082   117727485.717    22046574.706    91565816.915    22046573.920  
                                
  21226874.215   113429979.924    21226872.804    88223311.629    21226872.071  
                                
  19304575.812   103121578.838    19304573.061    80205661.256    19304573.436  
                                
  25096182.487   131881329.465                                                  
  25096185.399    98482821.989  
  25984678.287   136550406.567                                                  
  25984679.752   101969465.092  
  23146723.454   121636853.286                                                  
  23146724.598    90832719.065  
  23559406.789   123805518.422                                                  
  23559409.219    92452181.894  
 21  8 28  5  4 20.0000000  0 18G 3G 4G 7G 8G 9G16G20G27G30R 5R 7R 9
                                R15R16E 1E 4E19E21
  24610029.217   129326575.024    24610030.003   100773953.689    24610028.931  
  24610029.860    96575041.859  
  21086608.461   110810874.783    21086606.066    86346122.975    21086605.244  
  21086608.943    82748382.205  
  21379328.878   112349131.091    21379325.447    87544759.656    21379324.446  
                                
  23794431.508   125040581.486    23794432.080    97434217.218    23794430.811  
  23794430.489    93374456.594  
  20363508.819   107010962.053    20363507.247    83385154.882    20363506.407  
  20363507.086    79910775.907  
  22403360.449   117730452.962                    91737995.816    22403355.481  
                                
  24359689.262   128011030.178                    99748839.181    24359685.528  
                                
  23534251.189   123673324.441    23534250.474    96368816.470    23534249.295  
  23534249.742    92353451.448  
  23692110.802   124502883.062    23692110.838    97015229.702    23692109.676  
  23692110.480    92972931.538  
  20319285.793   108618227.204    20319284.167    84480835.991    20319283.470  
                                
  23347970.913   124983516.313    23347969.966    97209397.085    23347969.019  
                                
  22045984.617   117724327.313    22045983.259    91563360.382    22045982.473  
                                
  21227482.906   113433232.545    21227481.458    88225841.440    21227480.762  
                                
  19304520.168   103121281.534    19304517.399    80205430.022    19304517.774  
                                
  25095764.244   131879131.669                                                  
  25095767.175    98481180.788  
  25984241.907   136548113.287                                                  
  25984243.355   101967752.576  
  23146730.745   121636891.666                                                  
  23146731.889    90832747.734  
  23559455.107   123805772.396                                                  
  23559457.537    92452371.556  
 21  8 28  5  4 21.0000000  0 18G 3G 4G 7G 8G 9G16G20G27G30R 5R 7R 9
                                R15R16E 1E 4E19E21
  24610750.572   129330365.768    24610751.376   100776907.508    24610750.286  
  24610751.215    96577872.597  
  21086894.383   110812377.296    21086891.971    86347293.761    21086891.149  
  21086894.865    82749504.218  
  21379106.944   112347964.800    21379103.496    87543850.858    21379102.495  
                                
  23793914.896   125037866.690    23793915.486    97432101.793    23793914.199  
  23793913.896    93372429.309  
  20363388.239   107010328.309    20363386.667    83384661.056    20363385.791  
  20363386.506    79910302.659  
  22403889.497   117733233.217                    91740162.251    22403884.547  
                                
  24359194.755   128008431.551                    99746814.284    24359191.020  
                                
  23533919.701   123671582.517    23533918.986    96367459.133    23533917.807  
  23533918.236    92352150.663  
  23691637.719   124500397.041    23691637.755    97013292.554    23691636.594  
  23691637.398    92971075.101  
  20319795.185   108620950.239    20319793.559    84482953.910    20319792.844  
                                
  23347204.797   124979415.166    23347203.832    97206207.306    23347202.867  
                                
  22045393.153   117721168.970    22045391.795    91560903.888    22045391.026  
                                
  21228091.560   113436485.014    21228090.131    88228371.138    21228089.416  
                                
  19304464.560   103120984.517    19304461.808    80205199.011    19304462.165  
                                
  25095346.020   131876933.829                                                  
  25095348.932    98479539.542  
  25983805.456   136545819.725                                                  
  25983806.886   101966039.860  
  23146738.036   121636930.013                                                  
  23146739.179    90832776.377  
  23559503.460   123806026.428                                                  
  23559505.872    92452561.259  
 21  8 28  5  4 22.0000000  0 18G 3G 4G 7G 8G 9G16G20G27G30R 5R 7R 9
                                R15R16E 1E 4E19E21
  24611471.944   129334156.530    24611472.730   100779861.351    24611471.640  
  24611472.570    96580703.356  
  21087180.394   110813880.248    21087177.982    86348464.896    21087177.196  
  21087180.877    82750626.539  
  21378885.047   112346798.777    21378881.616    87542942.271    21378880.633  
                                
  23793398.321   125035152.114    23793398.928    97429986.541    23793397.624  
  23793397.302    93370402.188  
  20363267.731   107009695.028    20363266.140    83384167.591    20363265.283  
  20363265.997    79909829.744  
  22404418.670   117736013.968                    91742329.067    22404413.702  
                                
  24358700.355   128005833.405                    99744789.748    24358696.602  
                                
  23533588.338   123669841.098    23533587.587    96366102.179    23533586.408  
  23533586.873    92350850.253  
  23691164.673   124497911.190    23691164.726    97011355.530    23691163.565  
  23691164.351    92969218.780  
  20320304.703   108623673.928    20320303.077    84485072.332    20320302.380  
                                
  23346438.698   124975314.126    23346437.733    97203017.609    23346436.768  
                                
  22044801.759   117718011.014    22044800.401    91558447.702    22044799.633  
                                
  21228700.251   113439737.730    21228698.821    88230901.031    21228698.107  
                                
  19304409.076   103120688.186    19304406.343    80204968.529    19304406.682  
                                
  25094927.849   131874736.311                                                  
  25094930.779    98477898.534  
  25983369.023   136543526.301                                                  
  25983370.489   101964327.231  
  23146745.416   121636968.722                                                  
  23146746.559    90832805.269  
  23559551.867   123806280.901                                                  
  23559554.315    92452751.279  
 21  8 28  5  4 23.0000000  0 18G 3G 4G 7G 8G 9G16G20G27G30R 5R 7R 9
                                R15R16E 1E 4E19E21
  24612193.334   129337947.523    24612194.139   100782815.374    24612193.049  
  24612193.978    96583534.295  
  21087466.495   110815383.824    21087464.101    86349636.514    21087463.279  
  21087466.978    82751749.350  
  21378663.239   112345633.193    21378659.826    87542034.026    21378658.825  
                                
  23792881.852   125032438.008    23792882.442    97427871.641    23792881.156  
  23792880.834    93368375.423  
  20363147.347   107009062.411    20363145.757    83383674.647    20363144.917  
  20363145.596    79909357.342  
  22404947.968   117738795.429                    91744496.435    22404943.001  
                                
  24358206.062   128003235.905                    99742765.717    24358202.327  
                                
  23533257.082   123668100.418    23533256.349    96364745.810    23533255.188  
  23533255.634    92349550.386  
  23690691.716   124495425.736    23690691.751    97009418.817    23690690.590  
  23690691.376    92967362.759  
  20320814.381   108626398.462    20320812.755    84487191.416    20320812.058  
                                
  23345672.635   124971213.380    23345671.670    97199828.141    23345670.705  
                                
  22044210.509   117714853.666    22044209.133    91555991.985    22044208.347  
                                
  21229309.031   113442990.907    21229307.619    88233431.282    21229306.904  
                                
  19304353.772   103120392.746    19304351.020    80204738.745    19304351.377  
                                
  25094509.767   131872539.331                                                  
  25094512.698    98476257.938  
  25982932.680   136541233.200                                                  
  25982934.109   101962614.853  
  23146752.885   121637007.982                                                  
  23146754.028    90832834.591  
  23559600.435   123806536.021                                                  
  23559602.865    92452941.793  
 21  8 28  5  4 24.0000000  0 18G 3G 4G 7G 8G 9G16G20G27G30R 5R 7R 9
                                R15R16E 1E 4E19E21
  24612914.778   129341738.704    24612915.582   100785769.534    24612914.475  
  24612915.422    96586365.371  
  21087752.739   110816887.975    21087750.327    86350808.578    21087749.541  
  21087753.240    82752872.573  
  21378441.502   112344468.006    21378438.089    87541126.081    21378437.088  
                                
  23792365.456   125029724.271    23792366.027    97425757.025    23792364.741  
  23792364.419    93366348.918  
  20363027.071   107008430.410    20363025.498    83383182.176    20363024.658  
  20363025.337    79908885.388  
  22405477.392   117741577.544                    91746664.312    22405472.424  
                                
  24357711.894   128000639.041                    99740742.169    24357708.159  
                                
  23532925.969   123666360.372    23532925.218    96363389.914    23532924.057  
  23532924.504    92348250.981  
  23690218.812   124492940.596    23690218.830    97007482.339    23690217.668  
  23690218.472    92965506.972  
  20321324.202   108629123.790    20321322.576    84489311.113    20321321.879  
                                
  23344906.608   124967112.914    23344905.679    97196638.890    23344904.714  
                                
  22043619.330   117711696.891    22043617.972    91553536.739    22043617.204  
                                
  21229917.918   113446244.521    21229916.488    88235961.866    21229915.773  
                                
  19304298.610   103120098.154    19304295.876    80204509.618    19304296.234  
                                
  25094091.793   131870342.832                                                  
  25094094.724    98474617.691  
  25982496.354   136538940.380                                                  
  25982497.801   101960902.678  
  23146760.443   121637047.740                                                  
  23146761.605    90832864.272  
  23559649.075   123806791.718                                                  
  23559651.523    92453132.733  
 21  8 28  5  4 25.0000000  0 18G 3G 4G 7G 8G 9G16G20G27G30R 5R 7R 9
                                R15R16E 1E 4E19E21
  24613636.240   129345530.062    24613637.044   100788723.838    24613635.954  
  24613636.883    96589196.575  
  21088039.072   110818392.693    21088036.660    86351981.085    21088035.874  
  21088039.573    82753996.239  
  21378219.854   112343303.206    21378216.442    87540218.445    21378215.441  
                                
  23791849.112   125027010.910    23791849.684    97423642.715    23791848.380  
  23791848.094    93364322.715  
  20362906.919   107007799.011    20362905.347    83382690.179    20362904.489  
  20362905.168    79908413.891  
  22406006.922   117744360.311                    91748832.700    22406001.973  
                                
  24357217.816   127998042.718                    99738719.071    24357214.099  
                                
  23532594.963   123664620.987    23532594.230    96362034.555    23532593.051  
  23532593.498    92346952.085  
  23689745.962   124490455.784    23689745.997    97005546.120    23689744.836  
  23689745.622    92963651.439  
  20321834.184   108631849.887    20321832.576    84491431.414    20321831.861  
                                
  23344140.670   124963012.693    23344139.705    97193449.830    23344138.758  
                                
  22043028.277   117708540.668    22043026.919    91551081.896    22043026.150  
                                
  21230526.840   113449498.530    21230525.429    88238492.762    21230524.732  
                                
  19304243.627   103119804.391    19304240.875    80204281.133    19304241.233  
                                
  25093673.908   131868146.790                                                  
  25093676.821    98472977.801  
  25982060.100   136536647.810                                                  
  25982061.529   101959190.700  
  23146768.091   121637087.989                                                  
  23146769.253    90832894.339  
  23559697.839   123807047.995                                                  
  23559700.287    92453324.113  
 21  8 28  5  4 26.0000000  0 18G 3G 4G 7G 8G 9G16G20G27G30R 5R 7R 9
                                R15R16E 1E 4E19E21
  24614357.684   129349321.281    24614358.488   100791678.033    24614357.398  
  24614358.327    96592027.674  
  21088325.477   110819897.683    21088323.065    86353153.805    21088322.261  
  21088325.960    82755120.085  
  21377998.225   112342138.491    21377994.794    87539310.873    21377993.811  
                                
  23791332.787   125024297.613    23791333.359    97421528.449    23791332.072  
  23791331.768    93362296.550  
  20362786.822   107007167.882    20362785.231    83382198.390    20362784.391  
  20362785.070    79907942.593  
  22406536.524   117747143.380                    91751001.323    22406531.575  
                                
  24356723.809   127995446.696                    99736696.197    24356720.092  
                                
  23532264.029   123662881.921    23532263.296    96360679.439    23532262.117  
  23532262.563    92345653.437  
  23689273.130   124487970.990    23689273.147    97003609.924    23689271.986  
  23689272.790    92961795.905  
  20322344.255   108634576.463    20322342.629    84493552.081    20322341.932  
                                
  23343374.715   124958912.440    23343373.750    97190260.744    23343372.785  
                                
  22042437.259   117705384.701    22042435.901    91548627.253    22042435.132  
                                
  21231135.817   113452752.616    21231134.369    88241023.718    21231133.672  
                                
  19304188.734   103119511.147    19304186.000    80204053.055    19304186.357  
                                
  25093256.023   131865950.919                                                  
  25093258.954    98471338.018  
  25981623.827   136534355.193                                                  
  25981625.257   101957478.679  
  23146775.793   121637128.408                                                  
  23146776.954    90832924.516  
  23559746.658   123807304.536                                                  
  23559749.106    92453515.682  
 21  8 28  5  4 27.0000000  0 18G 3G 4G 7G 8G 9G16G20G27G30R 5R 7R 9
                                R15R16E 1E 4E19E21
  24615079.110   129353112.336    24615079.896   100794632.100    24615078.824  
  24615079.753    96594858.663  
  21088611.900   110821402.909    21088609.487    86354326.705    21088608.701  
  21088612.400    82756244.121  
  21377776.596   112340973.847    21377773.165    87538403.362    21377772.182  
                                
  23790816.461   125021584.360    23790817.051    97419414.233    23790815.747  
  23790815.443    93360270.424  
  20362666.778   107006537.037    20362665.187    83381706.822    20362664.347  
  20362665.026    79907471.510  
  22407066.198   117749926.787                    91753170.218    22407061.230  
                                
  24356229.837   127992850.959                    99734673.568    24356226.120  
                                
  23531933.166   123661143.167    23531932.433    96359324.566    23531931.254  
  23531931.683    92344355.021  
  23688800.262   124485486.178    23688800.297    97001673.711    23688799.154  
  23688799.922    92959940.375  
  20322854.398   108637303.531    20322852.772    84495673.139    20322852.075  
                                
  23342608.741   124954812.153    23342607.776    97187071.639    23342606.811  
                                
  22041846.312   117702228.951    22041844.936    91546172.783    22041844.150  
                                
  21231744.775   113456006.777    21231743.345    88243554.737    21231742.649  
                                
  19304133.929   103119218.387    19304131.195    80203825.352    19304131.535  
                                
  25092838.192   131863755.183                                                  
  25092841.122    98469698.350  
  25981187.537   136532062.520                                                  
  25981188.985   101955766.616  
  23146783.530   121637169.004                                                  
  23146784.674    90832954.832  
  23559795.547   123807561.335                                                  
  23559797.959    92453707.448  
 21  8 28  5  4 28.0000000  0 18G 3G 4G 7G 8G 9G16G20G27G30R 5R 7R 9
                                R15R16E 1E 4E19E21
  24615800.608   129356903.705    24615801.376   100797586.411    24615800.304  
  24615801.215    96597689.878  
  21088898.465   110822908.838    21088896.071    86355500.159    21088895.267  
  21088898.966    82757368.675  
  21377555.073   112339809.724    21377551.625    87537496.259    21377550.642  
                                
  23790300.243   125018871.636    23790300.815    97417300.422    23790299.546  
  23790299.243    93358244.684  
  20362546.858   107005906.937    20362545.286    83381215.838    20362544.446  
  20362545.125    79907000.977  
  22407596.015   117752710.962                    91755339.703    22407591.047  
                                
  24355736.009   127990255.930                    99732651.471    24355732.292  
                                
  23531602.446   123659405.193    23531601.696    96357970.300    23531600.516  
  23531600.981    92343057.194  
  23688327.501   124483001.827    23688327.519    96999737.856    23688326.393  
  23688327.161    92958085.184  
  20323364.737   108640031.548    20323363.093    84497794.930    20323362.396  
                                
  23341842.839   124950712.255    23341841.874    97183882.832    23341840.909  
                                
  22041255.455   117699073.900    22041254.097    91543718.854    22041253.311  
                                
  21232353.841   113459261.469    21232352.429    88246086.164    21232351.714  
                                
  19304079.304   103118926.563    19304076.552    80203598.378    19304076.909  
                                
  25092420.485   131861560.051                                                  
  25092423.398    98468059.139  
  25980751.337   136529770.241                                                  
  25980752.784   101954054.851  
  23146791.357   121637210.221                                                  
  23146792.518    90832985.611  
  23559844.544   123807818.839                                                  
  23559846.974    92453899.744  
 21  8 28  5  4 29.0000000  0 18G 3G 4G 7G 8G 9G16G20G27G30R 5R 7R 9
                                R15R16E 1E 4E19E21
  24616522.087   129360695.209    24616522.891   100800540.829    24616521.784  
  24616522.731    96600521.190  
  21089185.138   110824415.284    21089182.726    86356674.013    21089181.922  
  21089185.620    82758493.625  
  21377333.605   112338645.940    21377330.174    87536589.409    21377329.173  
                                
  23789784.096   125016159.237    23789784.668    97415186.883    23789783.382  
  23789783.078    93356219.207  
  20362427.065   107005277.381    20362425.492    83380725.272    20362424.634  
  20362425.313    79906530.862  
  22408125.938   117755495.736                    91757509.656    22408120.971  
                                
  24355242.306   127987661.461                    99730629.793    24355238.571  
                                
  23531271.833   123657667.841    23531271.101    96356616.513    23531269.921  
  23531270.350    92341759.812  
  23687854.812   124480517.770    23687854.829    96997802.229    23687853.686  
  23687854.472    92956230.202  
  20323875.201   108642760.338    20323873.575    84499917.343    20323872.878  
                                
  23341076.973   124946612.534    23341076.008    97180694.185    23341075.061  
                                
  22040664.723   117695919.388    22040663.329    91541265.380    22040662.561  
                                
  21232962.978   113462516.546    21232961.566    88248617.944    21232960.834  
                                
  19304024.803   103118635.517    19304022.069    80203372.039    19304022.409  
                                
  25092002.833   131859365.336                                                  
  25092005.745    98466420.230  
  25980315.154   136527478.178                                                  
  25980316.601   101952343.248  
  23146799.273   121637251.869                                                  
  23146800.434    90833016.724  
  23559893.630   123808076.868                                                  
  23559896.060    92454092.426  
 21  8 28  5  4 30.0000000  0 18G 3G 4G 7G 8G 9G16G20G27G30R 5R 7R 9
                                R15R16E 1E 4E19E21
  24617243.549   129364486.601    24617244.353   100803495.175    24617243.245  
  24617244.192    96603352.431  
  21089471.882   110825922.033    21089469.452    86357848.103    21089468.648  
  21089472.365    82759618.790  
  21377112.172   112337482.290    21377108.723    87535682.673    21377107.758  
                                
  23789267.968   125013446.906    23789268.522    97413073.382    23789267.235  
  23789266.949    93354193.769  
  20362307.324   107004648.147    20362305.752    83380234.967    20362304.894  
  20362305.573    79906060.982  
  22408655.933   117758280.885                    91759679.900    22408650.966  
                                
  24354748.674   127985067.329                    99728608.390    24354744.921  
                                
  23530941.292   123655930.850    23530940.542    96355263.020    23530939.362  
  23530939.827    92340462.715  
  23687382.104   124478033.739    23687382.122    96995866.625    23687380.979  
  23687381.765    92954375.254  
  20324385.755   108645489.627    20324384.147    84502040.126    20324383.432  
                                
  23340311.089   124942512.756    23340310.142    97177505.473    23340309.177  
                                
  22040074.027   117692765.127    22040072.633    91538812.070    22040071.883  
                                
  21233572.133   113465771.710    21233570.721    88251149.740    21233569.989  
                                
  19303970.428   103118345.047    19303967.676    80203146.121    19303968.051  
                                
  25091585.234   131857170.823                                                  
  25091588.146    98464781.475  
  25979878.989   136525186.104                                                  
  25979880.436   101950631.632  
  23146807.278   121637293.756                                                  
  23146808.422    90833047.994  
  23559942.788   123808335.211                                                  
  23559945.236    92454285.344  
 21  8 28  5  4 31.0000000  0 18G 3G 4G 7G 8G 9G16G20G27G30R 5R 7R 9
                                R15R16E 1E 4E19E21
  24617965.011   129368277.897    24617965.797   100806449.429    24617964.725  
  24617965.654    96606183.591  
  21089758.626   110827429.071    21089756.232    86359022.421    21089755.428  
  21089759.127    82760744.187  
  21376890.739   112336318.743    21376887.326    87534776.016    21376886.325  
                                
  23788751.821   125010734.677    23788752.375    97410959.958    23788751.106  
  23788750.802    93352168.425  
  20362187.655   107004019.262    20362186.083    83379744.925    20362185.225  
  20362185.904    79905591.358  
  22409186.000   117761066.405                    91761850.439    22409181.033  
                                
  24354255.078   127982473.485                    99726587.201    24354251.343  
                                
  23530610.822   123654194.237    23530610.072    96353909.813    23530608.893  
  23530609.357    92339165.896  
  23686909.415   124475549.746    23686909.415    96993931.046    23686908.289  
  23686909.058    92952520.333  
  20324896.434   108648219.432    20324894.808    84504163.308    20324894.093  
                                
  23339545.222   124938412.944    23339544.257    97174316.731    23339543.292  
                                
  22039483.384   117689611.151    22039482.008    91536358.980    22039481.222  
                                
  21234181.306   113469026.977    21234179.894    88253681.617    21234179.179  
                                
  19303916.159   103118055.138    19303913.408    80202920.640    19303913.765  
                                
  25091167.688   131854976.510                                                  
  25091170.583    98463142.869  
  25979442.824   136522894.018                                                  
  25979444.271   101948920.018  
  23146815.266   121637335.845                                                  
  23146816.409    90833079.432  
  23559992.017   123808593.859                                                  
  23559994.447    92454478.495  
 21  8 28  5  4 32.0000000  0 18G 3G 4G 7G 8G 9G16G20G27G30R 5R 7R 9
                                R15R16E 1E 4E19E21
  24618686.509   129372069.295    24618687.277   100809403.768    24618686.205  
  24618687.116    96609014.804  
  21090045.531   110828936.603    21090043.119    86360197.121    21090042.297  
  21090045.996    82761869.930  
  21376669.395   112335155.501    21376665.964    87533869.594    21376664.981  
                                
  23788235.781   125008022.772    23788236.335    97408846.780    23788235.049  
  23788234.781    93350143.272  
  20362068.076   107003390.883    20362066.503    83379255.278    20362065.664  
  20362066.325    79905122.107  
  22409716.174   117763852.464                    91764021.397    22409711.206  
                                
  24353761.589   127979880.169                    99724566.433    24353757.854  
                                
  23530280.478   123652458.206    23530279.709    96352557.059    23530278.530  
  23530278.995    92337869.489  
  23686436.780   124473066.011    23686436.797    96991995.673    23686435.636  
  23686436.422    92950665.587  
  20325407.220   108650949.936    20325405.612    84506287.030    20325404.897  
                                
  23338779.356   124934313.310    23338778.409    97171128.129    23338777.444  
                                
  22038892.849   117686457.659    22038891.455    91533906.267    22038890.687  
                                
  21234790.550   113472282.580    21234789.120    88256213.752    21234788.424  
                                
  19303862.034   103117766.005    19303859.282    80202695.754    19303859.640  
                                
  25090750.179   131852782.591                                                  
  25090753.109    98461504.537  
  25979006.695   136520602.132                                                  
  25979008.142   101947208.529  
  23146823.360   121637378.347                                                  
  23146824.504    90833111.163  
  23560041.336   123808853.003                                                  
  23560043.766    92454671.996  
 21  8 28  5  4 33.0000000  0 18G 3G 4G 7G 8G 9G16G20G27G30R 5R 7R 9
                                R15R16E 1E 4E19E21
  24619407.970   129375860.570    24619408.739   100812358.006    24619407.667  
  24619408.578    96611845.977  
  21090332.454   110830444.455    21090330.042    86361372.066    21090329.238  
  21090332.937    82762995.930  
  21376448.069   112333992.403    21376444.621    87532963.283    21376443.638  
                                
  23787719.742   125005310.960    23787720.278    97406733.675    23787718.991  
  23787718.723    93348118.238  
  20361948.568   107002762.861    20361946.995    83378765.906    20361946.138  
  20361946.817    79904653.136  
  22410246.419   117766638.919                    91766192.656    22410241.452  
                                
  24353268.154   127977287.200                    99722545.944    24353264.419  
                                
  23529950.169   123650722.544    23529949.436    96351204.598    23529948.257  
  23529948.704    92336573.393  
  23685964.144   124470582.338    23685964.162    96990060.338    23685963.000  
  23685963.769    92948810.912  
  20325918.131   108653680.953    20325916.505    84508411.153    20325915.808  
                                
  23338013.525   124930213.702    23338012.560    97167939.543    23338011.613  
                                
  22038302.349   117683304.459    22038300.955    91531453.778    22038300.187  
                                
  21235399.830   113475538.331    21235398.401    88258746.001    21235397.686  
                                
  19303808.016   103117477.444    19303805.264    80202471.318    19303805.622  
                                
  25090332.722   131850588.888                                                  
  25090335.653    98459866.391  
  25978570.565   136518310.248                                                  
  25978572.013   101945497.062  
  23146831.491   121637421.102                                                  
  23146832.634    90833143.094  
  23560090.690   123809112.470                                                  
  23560093.138    92454865.765  
 21  8 28  5  4 34.0000000  0 18G 3G 4G 7G 8G 9G16G20G27G30R 5R 7R 9
                                R15R16E 1E 4E19E21
  24620129.450   129379652.065    24620130.254   100815312.404    24620129.146  
  24620130.093    96614677.249  
  21090619.484   110831952.867    21090617.090    86362547.452    21090616.286  
  21090619.985    82764122.328  
  21376226.815   112332829.690    21376223.366    87532057.268    21376222.384  
                                
  23787203.774   125002599.544    23787204.310    97404620.874    23787203.041  
  23787202.755    93346093.473  
  20361829.167   107002135.426    20361827.595    83378276.998    20361826.755  
  20361827.434    79904184.593  
  22410776.772   117769426.006                    91768364.414    22410771.822  
                                
  24352774.844   127974694.752                    99720525.856    24352771.109  
                                
  23529620.021   123648987.508    23529619.288    96349852.619    23529618.109  
  23529618.556    92335277.751  
  23685491.580   124468098.970    23685491.598    96988125.240    23685490.436  
  23685491.222    92946956.429  
  20326429.167   108656412.746    20326427.541    84510535.878    20326426.844  
                                
  23337247.731   124926114.291    23337246.766    97164751.135    23337245.819  
                                
  22037711.957   117680151.835    22037710.581    91529001.737    22037709.812  
                                
  21236009.164   113478794.482    21236007.752    88261278.523    21236007.019  
                                
  19303754.141   103117189.659    19303751.371    80202247.487    19303751.729  
                                
  25089915.373   131848395.640                                                  
  25089918.286    98458228.574  
  25978134.490   136516018.626                                                  
  25978135.919   101943785.772  
  23146839.710   121637464.326                                                  
  23146840.872    90833175.368  
  23560140.205   123809372.503                                                  
  23560142.617    92455059.941  
 21  8 28  5  4 35.0000000  0 18G 3G 4G 7G 8G 9G16G20G27G30R 5R 7R 9
                                R15R16E 1E 4E19E21
  24620850.983   129383443.757    24620851.769   100818266.966    24620850.697  
  24620851.609    96617508.705  
  21090906.640   110833461.875    21090904.245    86363723.300    21090903.423  
  21090907.122    82765249.193  
  21376005.632   112331667.408    21376002.202    87531151.594    21376001.201  
                                
  23786687.877   124999888.554    23786688.431    97402508.408    23786687.145  
  23786686.877    93344069.032  
  20361709.891   107001508.630    20361708.337    83377788.586    20361707.461  
  20361708.140    79903716.533  
  22411307.285   117772213.767                    91770536.691    22411302.318  
                                
  24352281.677   127972103.039                    99718506.318    24352277.942  
                                
  23529289.998   123647253.190    23529289.247    96348501.198    23529288.068  
  23529288.533    92333982.637  
  23685019.069   124465615.957    23685019.087    96986190.431    23685017.925  
  23685018.712    92945102.235  
  20326940.364   108659145.379    20326938.720    84512661.256    20326938.041  
                                
  23336481.989   124922015.248    23336481.042    97161562.991    23336480.077  
                                
  22037121.689   117676999.795    22037120.313    91526550.148    22037119.527  
                                
  21236618.587   113482051.036    21236617.157    88263811.396    21236616.442  
                                
  19303700.409   103116902.703    19303697.675    80202024.297    19303698.032  
                                
  25089498.096   131846202.891                                                  
  25089501.027    98456591.141  
  25977698.468   136513727.286                                                  
  25977699.897   101942074.715  
  23146848.055   121637508.073                                                  
  23146849.199    90833208.038  
  23560189.774   123809633.144                                                  
  23560192.222    92455254.586  
 21  8 28  5  4 36.0000000  0 18G 3G 4G 7G 8G 9G16G20G27G30R 5R 7R 9
                                R15R16E 1E 4E19E21
  24621572.481   129387235.194    24621573.249   100821221.328    24621572.177  
  24621573.106    96620339.998  
  21091193.848   110834971.094    21091191.436    86364899.310    21091190.650  
  21091194.331    82766376.208  
  21375784.450   112330505.134    21375781.037    87530245.926    21375780.036  
                                
  23786172.016   124997177.567    23786172.553    97400395.957    23786171.266  
  23786170.980    93342044.585  
  20361590.669   107000882.082    20361589.097    83377300.364    20361588.239  
  20361588.918    79903248.656  
  22411837.835   117775001.824                    91772709.203    22411832.867  
                                
  24351788.509   127969511.510                    99716486.952    24351784.793  
                                
  23528960.011   123645519.133    23528959.278    96347149.990    23528958.081  
  23528958.545    92332687.736  
  23684546.541   124463132.897    23684546.576    96984255.579    23684545.415  
  23684546.183    92943248.013  
  20327451.651   108661878.440    20327450.007    84514786.969    20327449.310  
                                
  23335716.248   124917916.056    23335715.283    97158374.730    23335714.318  
                                
  22036531.422   117673847.910    22036530.064    91524098.680    22036529.277  
                                
  21237227.992   113485307.611    21237226.580    88266344.290    21237225.883  
                                
  19303646.802   103116616.189    19303644.032    80201801.453    19303644.390  
                                
  25089080.872   131844010.262                                                  
  25089083.785    98454953.786  
  25977262.410   136511435.854                                                  
  25977263.857   101940363.586  
  23146856.382   121637551.943                                                  
  23146857.526    90833240.809  
  23560239.414   123809894.011                                                  
  23560241.862    92455449.385  
 21  8 28  5  4 37.0000000  0 18G 3G 4G 7G 8G 9G16G20G27G30R 5R 7R 9
                                R15R16E 1E 4E19E21
  24622293.943   129391026.481    24622294.711   100824175.580    24622293.639  
  24622294.568    96623171.154  
  21091481.075   110836480.524    21091478.681    86366075.490    21091477.877  
  21091481.558    82767503.380  
  21375563.285   112329342.905    21375559.872    87529340.295    21375558.871  
                                
  23785656.102   124994466.580    23785656.674    97398283.499    23785655.369  
  23785655.083    93340020.160  
  20361471.483   107000255.765    20361469.928    83376812.325    20361469.071  
  20361469.750    79902780.958  
  22412368.437   117777790.146                    91774881.924    22412363.452  
                                
  24351295.414   127966920.225                    99714467.775    24351291.661  
                                
  23528630.077   123643785.388    23528629.344    96345799.015    23528628.165  
  23528628.630    92331393.045  
  23684074.048   124460649.823    23684074.066    96982320.714    23684072.904  
  23684073.691    92941393.763  
  20327963.009   108664611.965    20327961.365    84516913.048    20327960.668  
                                
  23334950.453   124913816.738    23334949.488    97155186.372    23334948.523  
                                
  22035941.226   117670696.219    22035939.850    91521647.364    22035939.064  
                                
  21237837.433   113488564.239    21237836.021    88268877.226    21237835.324  
                                
  19303593.231   103116330.145    19303590.497    80201578.975    19303590.836  
                                
  25088663.648   131841817.745                                                  
  25088666.543    98453316.519  
  25976826.352   136509144.334                                                  
  25976827.800   101938652.384  
  23146864.763   121637595.966                                                  
  23146865.906    90833273.674  
  23560289.107   123810155.097                                                  
  23560291.538    92455644.352  
 21  8 28  5  4 38.0000000  0 18G 3G 4G 7G 8G 9G16G20G27G30R 5R 7R 9
                                R15R16E 1E 4E19E21
  24623015.351   129394817.615    24623016.137   100827129.719    24623015.065  
  24623015.994    96626002.176  
  21091768.373   110837990.178    21091765.943    86367251.846    21091765.157  
  21091768.856    82768630.709  
  21375342.138   112328180.714    21375338.707    87528434.694    21375337.706  
                                
  23785140.241   124991755.619    23785140.777    97396171.062    23785139.509  
  23785139.223    93337995.725  
  20361352.350   106999629.709    20361350.778    83376324.489    20361349.938  
  20361350.599    79902313.436  
  22412899.076   117780578.779                    91777054.885    22412894.126  
                                
  24350802.354   127964329.207                    99712448.811    24350798.601  
                                
  23528300.215   123642051.918    23528299.482    96344448.261    23528298.303  
  23528298.750    92330098.578  
  23683601.520   124458166.704    23683601.537    96980385.816    23683600.376  
  23683601.162    92939539.488  
  20328474.456   108667345.958    20328472.830    84519039.485    20328472.133  
                                
  23334184.640   124909717.336    23334183.676    97151997.948    23334182.728  
                                
  22035351.065   117667544.788    22035349.690    91519196.253    22035348.903  
                                
  21238446.874   113491820.901    21238445.462    88271410.180    21238444.765  
                                
  19303539.784   103116044.612    19303537.032    80201356.893    19303537.390  
                                
  25088246.442   131839625.346                                                  
  25088249.355    98451679.335  
  25976390.294   136506852.724                                                  
  25976391.724   101936941.105  
  23146873.179   121637640.123                                                  
  23146874.323    90833306.645  
  23560338.819   123810416.404                                                  
  23560341.267    92455839.475  
 21  8 28  5  4 39.0000000  0 18G 3G 4G 7G 8G 9G16G20G27G30R 5R 7R 9
                                R15R16E 1E 4E19E21
  24623736.830   129398608.960    24623737.617   100830084.017    24623736.527  
  24623737.456    96628833.382  
  21092055.743   110839500.459    21092053.348    86368428.686    21092052.544  
  21092056.243    82769758.519  
  21375121.062   112327018.966    21375117.631    87527529.440    21375116.631  
                                
  23784624.416   124989045.057    23784624.988    97394058.945    23784623.683  
  23784623.415    93335971.637  
  20361233.342   106999004.319    20361231.770    83375837.175    20361230.912  
  20361231.591    79901846.427  
  22413429.875   117783368.101                    91779228.392    22413424.908  
                                
  24350309.401   127961738.831                    99710430.369    24350305.666  
                                
  23527970.496   123640319.191    23527969.745    96343098.100    23527968.566  
  23527969.030    92328804.675  
  23683129.080   124455683.958    23683129.080    96978451.218    23683127.919  
  23683128.723    92937685.503  
  20328986.064   108670080.817    20328984.420    84521166.597    20328983.723  
                                
  23333418.899   124905618.269    23333417.934    97148809.785    23333416.987  
                                
  22034760.995   117664393.929    22034759.619    91516745.585    22034758.850  
                                
  21239056.422   113495078.043    21239054.992    88273943.513    21239054.278  
                                
  19303486.499   103115759.974    19303483.747    80201135.506    19303484.104  
                                
  25087829.362   131837433.500                                                  
  25087832.256    98450042.550  
  25975954.254   136504561.457                                                  
  25975955.702   101935230.089  
  23146881.685   121637684.836                                                  
  23146882.846    90833340.029  
  23560388.692   123810678.377                                                  
  23560391.122    92456035.093  
 21  8 28  5  4 40.0000000  0 18G 3G 4G 7G 8G 9G16G20G27G30R 5R 7R 9
                                R15R16E 1E 4E19E21
  24624458.292   129402400.256    24624459.079   100833038.273    24624457.988  
  24624458.918    96631664.556  
  21092343.220   110841011.101    21092340.825    86369605.810    21092340.021  
  21092343.720    82770886.592  
  21374900.022   112325857.402    21374896.591    87526624.326    21374895.591  
                                
  23784108.680   124986334.677    23784109.216    97391946.968    23784107.912  
  23784107.662    93333947.648  
  20361114.406   106998379.314    20361112.834    83375350.155    20361111.994  
  20361112.655    79901379.704  
  22413960.764   117786157.864                    91781402.228    22413955.796  
                                
  24349816.556   127959148.855                    99708412.203    24349812.803  
                                
  23527640.848   123638586.878    23527640.080    96341748.252    23527638.900  
  23527639.365    92327511.062  
  23682656.641   124453201.339    23682656.659    96976516.712    23682655.498  
  23682656.284    92935831.603  
  20329497.779   108672816.261    20329496.171    84523294.167    20329495.474  
                                
  23332653.158   124901519.212    23332652.211    97145621.631    23332651.246  
                                
  22034171.013   117661243.430    22034169.637    91514295.200    22034168.869  
                                
  21239665.988   113498335.355    21239664.558    88276476.975    21239663.844  
                                
  19303433.338   103115475.968    19303430.569    80200914.615    19303430.926  
                                
  25087412.299   131835241.890                                                  
  25087415.193    98448405.966  
  25975518.250   136502270.219                                                  
  25975519.698   101933519.100  
  23146890.244   121637729.812                                                  
  23146891.370    90833373.631  
  23560438.600   123810940.684                                                  
  23560441.030    92456230.977  
 21  8 28  5  4 41.0000000  0 18G 3G 4G 7G 8G 9G16G20G27G30R 5R 7R 9
                                R15R16E 1E 4E19E21
  24625179.808   129406191.821    24625180.558   100835992.754    24625179.486  
  24625180.415    96634495.902  
  21092630.822   110842522.377    21092628.409    86370783.428    21092627.623  
  21092631.304    82772015.142  
  21374679.072   112324696.303    21374675.641    87525719.571    21374674.640  
                                
  23783592.980   124983624.735    23783593.516    97389835.318    23783592.230  
  23783591.962    93331923.996  
  20360995.595   106997754.990    20360994.040    83374863.671    20360993.201  
  20360993.844    79900913.483  
  22414491.760   117788948.325                    91783576.615    22414486.810  
                                
  24349323.799   127956559.541                    99706394.568    24349320.065  
                                
  23527311.343   123636855.295    23527310.575    96340398.967    23527309.395  
  23527309.860    92326217.997  
  23682184.292   124450719.106    23682184.292    96974582.509    23682183.130  
  23682183.934    92933977.990  
  20330009.673   108675552.553    20330008.047    84525422.387    20330007.350  
                                
  23331887.488   124897420.515    23331886.541    97142433.757    23331885.576  
                                
  22033581.157   117658093.573    22033579.763    91511845.309    22033578.994  
                                
  21240275.625   113501593.147    21240274.214    88279010.814    21240273.499  
                                
  19303380.321   103115192.872    19303377.587    80200694.427    19303377.927  
                                
  25086995.343   131833050.822                                                  
  25086998.255    98446769.777  
  25975082.318   136499979.333                                                  
  25975083.747   101931808.374  
  23146898.910   121637775.366                                                  
  23146900.054    90833407.642  
  23560488.633   123811203.658                                                  
  23560491.081    92456427.349  
 21  8 28  5  4 42.0000000  0 18G 3G 4G 7G 8G 9G16G20G27G30R 5R 7R 9
                                R15R16E 1E 4E19E21
  24625901.287   129409983.243    24625902.038   100838947.106    24625900.966  
  24625901.895    96637327.156  
  21092918.459   110844033.915    21092916.029    86371961.251    21092915.225  
  21092918.924    82773143.896  
  21374458.139   112323535.282    21374454.708    87524814.880    21374453.708  
                                
  23783077.316   124980914.892    23783077.852    97387723.754    23783076.566  
  23783076.315    93329900.406  
  20360876.855   106997130.950    20360875.265    83374377.404    20360874.425  
  20360875.104    79900447.484  
  22415022.827   117791739.123                    91785751.259    22415017.877  
                                
  24348831.150   127953970.507                    99704377.125    24348827.416  
                                
  23526981.874   123635124.041    23526981.124    96339049.942    23526979.944  
  23526980.409    92324925.191  
  23681711.924   124448236.889    23681711.942    96972648.318    23681710.780  
  23681711.567    92932124.390  
  20330521.620   108678289.292    20330520.012    84527550.960    20330519.297  
                                
  23331121.818   124893321.765    23331120.854    97139245.840    23331119.906  
                                
  22032991.318   117654943.931    22032989.942    91509395.589    22032989.156  
                                
  21240885.281   113504850.999    21240883.887    88281544.699    21240883.154  
                                
  19303327.429   103114910.263    19303324.677    80200474.621    19303325.034  
                                
  25086578.423   131830859.922                                                  
  25086581.335    98445133.720  
  25974646.349   136497688.389                                                  
  25974647.797   101930097.608  
  23146907.613   121637821.108                                                  
  23146908.774    90833441.794  
  23560538.720   123811466.890                                                  
  23560541.150    92456623.922  
 21  8 28  5  4 43.0000000  0 18G 3G 4G 7G 8G 9G16G20G27G30R 5R 7R 9
                                R15R16E 1E 4E19E21
  24626622.803   129413774.838    24626623.589   100841901.591    24626622.481  
  24626623.428    96640158.553  
  21093206.186   110845546.027    21093203.774    86373139.521    21093202.988  
  21093206.669    82774273.078  
  21374237.278   112322374.670    21374233.847    87523910.506    21374232.864  
                                
  23782561.705   124978205.392    23782562.224    97385612.456    23782560.955  
  23782560.687    93327877.098  
  20360758.205   106996507.515    20360756.650    83373891.613    20360755.793  
  20360756.472    79899981.936  
  22415554.020   117794530.573                    91787926.419    22415549.052  
                                
  24348338.591   127951382.065                    99702360.150    24348334.856  
                                
  23526652.566   123633393.447    23526651.797    96337701.425    23526650.618  
  23526651.101    92323632.866  
  23681239.646   124445754.991    23681239.646    96970714.372    23681238.484  
  23681239.270    92930271.034  
  20331033.746   108681026.840    20331032.120    84529680.171    20331031.424  
                                
  23330356.184   124889223.299    23330355.237    97136058.142    23330354.272  
                                
  22032401.587   117651794.864    22032400.211    91506946.315    22032399.460  
                                
  21241495.025   113508109.254    21241493.596    88284078.899    21241492.899  
                                
  19303274.662   103114628.458    19303271.928    80200255.442    19303272.267  
                                
  25086161.610   131828669.497                                                  
  25086164.523    98443498.013  
  25974210.452   136495397.726                                                  
  25974211.882   101928387.059  
  23146916.404   121637867.332                                                  
  23146917.548    90833476.324  
  23560588.914   123811730.702                                                  
  23560591.362    92456820.929  
 21  8 28  5  4 44.0000000  0 18G 3G 4G 7G 8G 9G16G20G27G30R 5R 7R 9
                                R15R16E 1E 4E19E21
  24627344.336   129417566.498    24627345.104   100844856.117    24627344.014  
  24627344.961    96642989.970  
  21093494.021   110847058.612    21093491.626    86374318.160    21093490.822  
  21093494.503    82775402.599  
  21374016.471   112321214.342    21374013.040    87523006.359    21374012.057  
                                
  23782046.148   124975496.172    23782046.684    97383501.382    23782045.380  
  23782045.130    93325853.990  
  20360639.662   106995884.569    20360638.107    83373406.203    20360637.250  
  20360637.929    79899516.756  
  22416085.301   117797322.554                    91790101.986    22416080.352  
                                
  24347846.103   127948794.160                    99700343.615    24347842.368  
                                
  23526323.347   123631663.390    23526322.579    96336353.318    23526321.399  
  23526321.882    92322340.939  
  23680767.403   124443273.342    23680767.421    96968780.613    23680766.260  
  23680767.046    92928417.829  
  20331545.980   108683765.060    20331544.354    84531809.870    20331543.657  
                                
  23329590.586   124885124.923    23329589.621    97132870.506    23329588.656  
                                
  22031811.963   117648646.250    22031810.587    91504497.374    22031809.818  
                                
  21242104.806   113511367.750    21242103.412    88286613.264    21242102.679  
                                
  19303222.055   103114347.322    19303219.285    80200036.753    19303219.643  
                                
  25085744.851   131826479.425                                                  
  25085747.763    98441862.587  
  25973774.591   136493107.225                                                  
  25973776.021   101926676.615  
  23146925.285   121637913.951                                                  
  23146926.429    90833511.133  
  23560639.215   123811994.982                                                  
  23560641.663    92457018.288  
 21  8 28  5  4 45.0000000  0 18G 3G 4G 7G 8G 9G16G20G27G30R 5R 7R 9
                                R15R16E 1E 4E19E21
  24628065.816   129421357.905    24628066.602   100847810.449    24628065.530  
  24628066.459    96645821.204  
  21093781.908   110848571.341    21093779.496    86375496.908    21093778.692  
  21093782.373    82776532.223  
  21373795.663   112320053.973    21373792.232    87522102.176    21373791.232  
                                
  23781530.627   124972786.913    23781531.163    97381390.269    23781529.859  
  23781529.591    93323830.811  
  20360521.172   106995261.818    20360519.582    83372920.942    20360518.742  
  20360519.403    79899051.699  
  22416616.655   117800114.743                    91792277.721    22416611.705  
                                
  24347353.668   127946206.393                    99698327.176    24347349.934  
                                
  23525994.164   123629933.579    23525993.413    96335005.416    23525992.234  
  23525992.699    92321049.166  
  23680295.143   124440791.544    23680295.161    96966846.749    23680293.981  
  23680294.750    92926564.538  
  20332058.303   108686503.698    20332056.677    84533939.917    20332055.980  
                                
  23328824.934   124881026.373    23328823.969    97129682.743    23328823.022  
                                
  22031222.374   117645497.756    22031220.962    91502048.548    22031220.212  
                                
  21242714.604   113514626.283    21242713.192    88289147.681    21242712.478  
                                
  19303169.502   103114066.636    19303166.751    80199818.444    19303167.108  
                                
  25085328.109   131824289.416                                                  
  25085331.040    98440227.173  
  25973338.694   136490816.553                                                  
  25973340.124   101924966.042  
  23146934.166   121637960.636                                                  
  23146935.327    90833545.980  
  23560689.552   123812259.423                                                  
  23560691.982    92457215.746  
 21  8 28  5  4 46.0000000  0 18G 3G 4G 7G 8G 9G16G20G27G30R 5R 7R 9
                                R15R16E 1E 4E19E21
  24628787.313   129425149.385    24628788.099   100850764.854    24628787.009  
  24628787.939    96648652.514  
  21094069.832   110850084.536    21094067.438    86376676.021    21094066.633  
  21094070.332    82777662.213  
  21373574.909   112318893.909    21373571.478    87521198.232    21373570.478  
                                
  23781015.088   124970077.906    23781015.642    97379279.347    23781014.337  
  23781014.087    93321807.867  
  20360402.754   106994639.586    20360401.182    83372436.084    20360400.342  
  20360401.003    79898587.045  
  22417148.115   117802907.507                    91794453.896    22417143.148  
                                
  24346861.323   127943619.137                    99696311.129    24346857.588  
                                
  23525665.106   123628204.297    23525664.337    96333657.919    23525663.158  
  23525663.623    92319757.835  
  23679822.918   124438310.002    23679822.936    96964913.077    23679821.757  
  23679822.543    92924711.440  
  20332570.751   108689243.043    20332569.142    84536070.516    20332568.428  
                                
  23328059.318   124876927.985    23328058.353    97126495.110    23328057.424  
                                
  22030632.839   117642349.738    22030631.463    91499600.085    22030630.677  
                                
  21243324.456   113517885.119    21243323.026    88291682.329    21243322.312  
                                
  19303117.110   103113786.690    19303114.341    80199600.708    19303114.698  
                                
  25084911.440   131822099.778                                                  
  25084914.352    98438592.062  
  25972902.833   136488526.061                                                  
  25972904.262   101923255.608  
  23146943.118   121638007.710                                                  
  23146944.262    90833581.144  
  23560739.979   123812524.350                                                  
  23560742.409    92457413.591  
 21  8 28  5  4 47.0000000  0 18G 3G 4G 7G 8G 9G16G20G27G30R 5R 7R 9
                                R15R16E 1E 4E19E21
  24629508.775   129428940.690    24629509.561   100853719.117    24629508.453  
  24629509.400    96651483.674  
  21094357.827   110851597.937    21094355.433    86377855.290    21094354.628  
  21094358.327    82778792.348  
  21373354.155   112317733.860    21373350.742    87520294.295    21373349.742  
                                
  23780499.584   124967368.923    23780500.103    97377168.449    23780498.834  
  23780498.566    93319784.932  
  20360284.390   106994017.553    20360282.835    83371951.383    20360281.978  
  20360282.657    79898122.549  
  22417679.594   117805700.501                    91796630.255    22417674.644  
                                
  24346369.031   127941032.130                    99694295.280    24346365.315  
                                
  23525336.083   123626475.294    23525335.315    96332310.646    23525334.136  
  23525334.618    92318466.705  
  23679350.676   124435828.380    23679350.676    96962979.348    23679349.514  
  23679350.282    92922858.296  
  20333083.270   108691982.777    20333081.662    84538201.418    20333080.947  
                                
  23327293.684   124872829.489    23327292.719    97123307.387    23327291.772  
                                
  22030043.358   117639201.903    22030041.964    91497151.764    22030041.196  
                                
  21243934.290   113521143.962    21243932.878    88294216.989    21243932.163  
                                
  19303064.790   103113507.188    19303062.020    80199383.311    19303062.378  
                                
  25084494.770   131819910.233                                                  
  25084497.682    98436957.015  
  25972466.936   136486235.445                                                  
  25972468.365   101921545.096  
  23146952.107   121638054.916                                                  
  23146953.232    90833616.393  
  23560790.405   123812789.475                                                  
  23560792.853    92457611.578  
 21  8 28  5  4 48.0000000  0 18G 3G 4G 7G 8G 9G16G20G27G30R 5R 7R 9
                                R15R16E 1E 4E19E21
  24630230.255   129432731.991    24630231.023   100856673.373    24630229.933  
  24630230.880    96654314.867  
  21094645.911   110853111.775    21094643.517    86379034.904    21094642.713  
  21094646.394    82779922.811  
  21373133.473   112316574.066    21373130.024    87519390.560    21373129.023  
                                
  23779984.152   124964660.201    23779984.671    97375057.762    23779983.384  
  23779983.134    93317762.183  
  20360166.115   106993396.019    20360164.542    83371467.071    20360163.703  
  20360164.364    79897658.421  
  22418211.179   117808494.019                    91798807.022    22418206.229  
                                
  24345876.829   127938445.543                    99692279.748    24345873.094  
                                
  23525007.150   123624746.830    23525006.400    96330963.800    23525005.221  
  23525005.685    92317175.969  
  23678878.469   124433346.981    23678878.487    96961045.793    23678877.325  
  23678878.111    92921005.299  
  20333595.932   108694723.140    20333594.288    84540332.814    20333593.591  
                                
  23326528.086   124868731.155    23326527.121    97120119.795    23326526.174  
                                
  22029453.948   117636054.509    22029452.555    91494703.795    22029451.786  
                                
  21244544.177   113524403.055    21244542.766    88296751.837    21244542.069  
                                
  19303012.577   103113228.373    19303009.825    80199166.457    19303010.182  
                                
  25084078.171   131817721.029                                                  
  25084081.084    98435322.224  
  25972031.075   136483944.982                                                  
  25972032.486   101919834.681  
  23146961.166   121638102.475                                                  
  23146962.292    90833651.910  
  23560840.939   123813055.051                                                  
  23560843.369    92457809.900  
 21  8 28  5  4 49.0000000  0 18G 3G 4G 7G 8G 9G16G20G27G30R 5R 7R 9
                                R15R16E 1E 4E19E21
  24630951.770   129436523.695    24630952.556   100859627.945    24630951.484  
  24630952.413    96657146.296  
  21094934.103   110854626.326    21094931.709    86380215.076    21094930.904  
  21094934.603    82781053.814  
  21372912.862   112315414.815    21372909.431    87518487.245    21372908.448  
                                
  23779468.774   124961951.981    23779469.310    97372947.476    23779468.024  
  23779467.773    93315739.828  
  20360047.965   106992775.234    20360046.410    83370983.342    20360045.571  
  20360046.232    79897194.843  
  22418742.908   117811288.339                    91800984.412    22418737.958  
                                
  24345384.770   127935859.754                    99690264.836    24345381.035  
                                
  23524678.378   123623019.156    23524677.628    96329617.554    23524676.448  
  23524676.931    92315885.818  
  23678406.369   124430866.034    23678406.369    96959112.585    23678405.208  
  23678405.976    92919152.650  
  20334108.755   108697464.452    20334107.129    84542464.934    20334106.432  
                                
  23325762.541   124864633.254    23325761.594    97116932.523    23325760.647  
                                
  22028864.664   117632907.815    22028863.288    91492256.369    22028862.502  
                                
  21245154.190   113527662.734    21245152.761    88299287.157    21245152.046  
                                
  19302960.560   103112950.544    19302957.808    80198950.373    19302958.165  
                                
  25083661.698   131815532.462                                                  
  25083664.611    98433687.904  
  25971595.285   136481654.923                                                  
  25971596.715   101918124.572  
  23146970.315   121638150.679                                                  
  23146971.459    90833687.908  
  23560891.615   123813321.367                                                  
  23560894.063    92458008.772  
 21  8 28  5  4 50.0000000  0 18G 3G 4G 7G 8G 9G16G20G27G30R 5R 7R 9
                                R15R16E 1E 4E19E21
  24631673.321   129440315.363    24631674.072   100862582.494    24631673.000  
  24631673.929    96659977.743  
  21095222.402   110856141.311    21095220.007    86381395.586    21095219.203  
  21095222.902    82782185.132  
  21372692.322   112314255.826    21372688.874    87517584.143    21372687.873  
                                
  23778953.485   124959244.023    23778954.003    97370837.383    23778952.699  
  23778952.449    93313717.660  
  20359929.940   106992154.915    20359928.368    83370499.979    20359927.528  
  20359928.189    79896731.618  
  22419274.743   117814083.164                    91803162.200    22419269.794  
                                
  24344892.800   127933274.400                    99688250.272    24344889.065  
                                
  23524349.713   123621291.999    23524348.963    96328271.719    23524347.784  
  23524348.230    92314596.047  
  23677934.287   124428385.272    23677934.287    96957179.528    23677933.126  
  23677933.894    92917300.144  
  20334621.685   108700206.421    20334620.059    84544597.577    20334619.363  
                                
  23324997.050   124860535.436    23324996.103    97113745.331    23324995.138  
                                
  22028275.486   117629761.560    22028274.093    91489809.282    22028273.324  
                                
  21245764.239   113530922.656    21245762.809    88301822.654    21245762.112  
                                
  19302908.686   103112673.387    19302905.916    80198734.804    19302906.292  
                                
  25083245.296   131813344.214                                                  
  25083248.191    98432053.826  
  25971159.531   136479365.003                                                  
  25971160.961   101916414.567  
  23146979.553   121638199.238                                                  
  23146980.697    90833724.172  
  23560942.381   123813588.114                                                  
  23560944.829    92458207.962  
 21  8 28  5  4 51.0000000  0 18G 3G 4G 7G 8G 9G16G20G27G30R 5R 7R 9
                                R15R16E 1E 4E19E21
  24632394.765   129444106.667    24632395.551   100865536.755    24632394.461  
  24632395.408    96662808.921  
  21095510.701   110857656.343    21095508.306    86382576.131    21095507.502  
  21095511.201    82783316.491  
  21372471.729   112313096.678    21372468.298    87516680.916    21372467.316  
                                
  23778438.160   124956535.932    23778438.643    97368727.185    23778437.374  
  23778437.124    93311695.389  
  20359811.915   106991534.660    20359810.343    83370016.664    20359809.503  
  20359810.164    79896268.448  
  22419806.615   117816878.085                    91805340.063    22419801.629  
                                
  24344400.848   127930689.127                    99686235.776    24344397.095  
                                
  23524021.066   123619564.938    23524020.316    96326925.962    23524019.136  
  23524019.583    92313306.380  
  23677462.170   124425904.307    23677462.170    96955246.307    23677461.008  
  23677461.795    92915447.476  
  20335134.687   108702948.659    20335133.061    84546730.431    20335132.364  
                                
  23324231.487   124856437.308    23324230.540    97110557.898    23324229.575  
                                
  22027686.273   117626615.320    22027684.897    91487362.209    22027684.147  
                                
  21246374.251   113534182.430    21246372.840    88304358.036    21246372.125  
                                
  19302856.848   103112396.490    19302854.078    80198519.444    19302854.436  
                                
  25082828.876   131811155.917                                                  
  25082831.789    98430419.705  
  25970723.723   136477074.819                                                  
  25970725.153   101914704.364  
  23146988.792   121638247.768                                                  
  23146989.935    90833760.408  
  23560993.147   123813854.906                                                  
  23560995.595    92458407.196  
 21  8 28  5  4 52.0000000  0 18G 3G 4G 7G 8G 9G16G20G27G30R 5R 7R 9
                                R15R16E 1E 4E19E21
  24633116.209   129447897.784    24633116.978   100868490.865    24633115.887  
  24633116.835    96665639.943  
  21095799.053   110859171.569    21095796.659    86383756.826    21095795.855  
  21095799.536    82784447.985  
  21372251.172   112311937.559    21372247.723    87515777.708    21372246.723  
                                
  23777922.800   124953827.826    23777923.318    97366616.975    23777922.031  
  23777921.781    93309673.102  
  20359693.926   106990914.635    20359692.354    83369533.529    20359691.496  
  20359692.175    79895805.439  
  22420338.504   117819673.273                    91807518.129    22420333.554  
                                
  24343908.931   127928104.060                    99684221.427    24343905.179  
                                
  23523692.473   123617838.144    23523691.704    96325580.413    23523690.525  
  23523690.990    92312016.902  
  23676990.052   124423423.290    23676990.052    96953313.051    23676988.891  
  23676989.677    92913594.772  
  20335647.761   108705691.354    20335646.134    84548863.640    20335645.438  
                                
  23323465.907   124852339.066    23323464.942    97107370.377    23323463.995  
                                
  22027097.131   117623469.250    22027095.738    91484915.265    22027094.969  
                                
  21246984.282   113537442.207    21246982.870    88306893.420    21246982.138  
                                
  19302805.082   103112120.043    19302802.330    80198304.434    19302802.687  
                                
  25082412.475   131808967.699                                                  
  25082415.387    98428785.651  
  25970287.898   136474784.508                                                  
  25970289.310   101912994.076  
  23146998.048   121638296.398                                                  
  23146999.191    90833796.727  
  23561043.949   123814121.908                                                  
  23561046.397    92458606.572  
 21  8 28  5  4 53.0000000  0 18G 3G 4G 7G 8G 9G16G20G27G30R 5R 7R 9
                                R15R16E 1E 4E19E21
  24633837.653   129451688.998    24633838.404   100871445.064    24633837.331  
  24633838.261    96668471.035  
  21096087.477   110860687.259    21096085.065    86384937.887    21096084.278  
  21096087.977    82785579.835  
  21372030.632   112310778.730    21372027.202    87514874.723    21372026.201  
                                
  23777407.529   124951119.993    23777408.047    97364506.971    23777406.742  
  23777406.492    93307651.019  
  20359576.026   106990295.114    20359574.454    83369050.786    20359573.614  
  20359574.275    79895342.812  
  22420870.519   117822469.001                    91809696.623    22420865.569  
                                
  24343417.087   127925519.506                    99682207.498    24343413.370  
                                
  23523363.987   123616111.955    23523363.218    96324235.332    23523362.039  
  23523362.503    92310727.852  
  23676517.971   124420942.495    23676517.971    96951379.971    23676516.809  
  23676517.578    92911742.233  
  20336160.977   108708434.765    20336159.333    84550997.406    20336158.636  
                                
  23322700.344   124848240.995    23322699.397    97104182.990    23322698.432  
                                
  22026508.043   117620323.621    22026506.667    91482468.667    22026505.899  
                                
  21247594.348   113540702.318    21247592.954    88309429.065    21247592.240  
                                
  19302753.476   103111844.347    19302750.724    80198090.002    19302751.081  
                                
  25081996.144   131806779.877                                                  
  25081999.057    98427151.885  
  25969852.090   136472494.385                                                  
  25969853.538   101911283.911  
  23147007.375   121638345.436                                                  
  23147008.519    90833833.343  
  23561094.857   123814389.380                                                  
  23561097.288    92458806.312  
 21  8 28  5  4 54.0000000  0 18G 3G 4G 7G 8G 9G16G20G27G30R 5R 7R 9
                                R15R16E 1E 4E19E21
  24634559.061   129455479.967    24634559.830   100874399.055    24634558.740  
  24634559.687    96671301.952  
  21096375.954   110862203.163    21096373.542    86386119.104    21096372.756  
  21096376.437    82786711.837  
  21371810.129   112309619.934    21371806.698    87513971.763    21371805.697  
                                
  23776892.240   124948412.146    23776892.758    97362396.978    23776891.453  
  23776891.221    93305628.947  
  20359458.180   106989675.843    20359456.625    83368568.239    20359455.768  
  20359456.429    79894880.370  
  22421402.587   117825265.000                    91811875.321    22421397.637  
                                
  24342925.313   127922935.173                    99680193.727    24342921.579  
                                
  23523035.554   123614386.029    23523034.786    96322890.458    23523033.588  
  23523034.071    92309439.014  
  23676045.889   124418461.677    23676045.889    96949446.871    23676044.728  
  23676045.496    92909889.677  
  20336674.247   108711178.584    20336672.620    84553131.486    20336671.924  
                                
  23321934.782   124844142.837    23321933.817    97100995.525    23321932.870  
                                
  22025919.009   117617178.198    22025917.633    91480022.225    22025916.865  
                                
  21248204.468   113543962.458    21248203.039    88311964.720    21248202.324  
                                
  19302701.959   103111569.111    19302699.190    80197875.932    19302699.547  
                                
  25081579.850   131804592.151                                                  
  25081582.744    98425518.201  
  25969416.265   136470204.142                                                  
  25969417.712   101909573.684  
  23147016.739   121638394.599                                                  
  23147017.882    90833870.068  
  23561145.802   123814657.066                                                  
  23561148.232    92459006.217  
 21  8 28  5  4 55.0000000  0 18G 3G 4G 7G 8G 9G16G20G27G30R 5R 7R 9
                                R15R16E 1E 4E19E21
  24635280.416   129459270.811    24635281.202   100877352.966    24635280.094  
  24635281.059    96674132.766  
  21096664.468   110863719.298    21096662.038    86387300.509    21096661.269  
  21096664.950    82787844.014  
  21371589.625   112308461.185    21371586.194    87513068.844    21371585.193  
                                
  23776376.969   124945704.351    23776377.469    97360287.008    23776376.164  
  23776375.950    93303606.893  
  20359340.387   106989056.847    20359338.833    83368085.905    20359337.993  
  20359338.654    79894418.128  
  22421934.708   117828061.318                    91814054.272    22421929.741  
                                
  24342433.576   127920351.133                    99678180.185    24342429.859  
                                
  23522707.157   123612660.407    23522706.407    96321545.823    23522705.227  
  23522705.692    92308150.408  
  23675573.789   124415980.839    23675573.789    96947513.757    23675572.628  
  23675573.414    92908037.105  
  20337187.624   108713922.837    20337185.997    84555265.907    20337185.301  
                                
  23321169.184   124840044.583    23321168.237    97097807.992    23321167.290  
                                
  22025330.028   117614033.001    22025328.634    91477575.963    22025327.866  
                                
  21248814.552   113547222.641    21248813.123    88314500.420    21248812.426  
                                
  19302650.514   103111294.346    19302647.745    80197662.226    19302648.102  
                                
  25081163.537   131802404.558                                                  
  25081166.468    98423884.604  
  25968980.457   136467913.843                                                  
  25968981.869   101907863.398  
  23147026.138   121638443.922                                                  
  23147027.281    90833906.888  
  23561196.782   123814924.996                                                  
  23561199.230    92459206.292  
 21  8 28  5  4 56.0000000  0 18G 3G 4G 7G 8G 9G16G20G27G30R 5R 7R 9
                                R15R16E 1E 4E19E21
  24636001.842   129463061.825    24636002.592   100880307.001    24636001.520  
  24636002.449    96676963.725  
  21096953.088   110865236.029    21096950.676    86388482.375    21096949.890  
  21096953.571    82788976.640  
  21371369.211   112307302.853    21371365.762    87512166.249    21371364.761  
                                
  23775861.769   124942996.973    23775862.287    97358177.374    23775860.983  
  23775860.750    93301585.145  
  20359222.720   106988438.459    20359221.147    83367604.044    20359220.308  
  20359220.969    79893956.352  
  22422466.955   117830858.290                    91816233.731    22422462.005  
                                
  24341941.963   127917767.703                    99676167.134    24341938.246  
                                
  23522378.921   123610935.467    23522378.153    96320201.715    23522376.973  
  23522377.438    92306862.306  
  23675101.743   124413500.326    23675101.743    96945580.894    23675100.600  
  23675101.368    92906184.789  
  20337701.144   108716667.887    20337699.517    84557400.941    20337698.821  
                                
  23320403.657   124835946.592    23320402.710    97094620.663    23320401.745  
                                
  22024741.137   117610888.389    22024739.743    91475130.158    22024738.974  
                                
  21249424.726   113550483.235    21249423.296    88317036.438    21249422.599  
                                
  19302599.248   103111020.453    19302596.479    80197449.200    19302596.836  
                                
  25080747.367   131800217.467                                                  
  25080750.262    98422251.389  
  25968544.668   136465623.832                                                  
  25968546.097   101906153.320  
  23147035.608   121638493.757                                                  
  23147036.734    90833944.108  
  23561247.888   123815193.531                                                  
  23561250.318    92459406.823  
 21  8 28  5  4 57.0000000  0 18G 3G 4G 7G 8G 9G16G20G27G30R 5R 7R 9
                                R15R16E 1E 4E19E21
  24636723.268   129466853.036    24636724.054   100883261.193    24636722.946  
  24636723.893    96679794.819  
  21097241.798   110866753.333    21097239.404    86389664.687    21097238.617  
  21097242.298    82790109.691  
  21371148.850   112306144.925    21371145.419    87511263.966    21371144.418  
                                
  23775346.659   124940289.986    23775347.159    97356068.043    23775345.872  
  23775345.640    93299563.689  
  20359105.160   106987820.687    20359103.605    83367122.666    20359102.729  
  20359103.408    79893495.028  
  22422999.327   117833655.920                    91818413.700    22422994.377  
                                
  24341450.493   127915184.895                    99674154.552    24341446.741  
                                
  23522050.810   123609211.212    23522050.059    96318858.135    23522048.880  
  23522049.327    92305574.704  
  23674629.805   124411020.157    23674629.805    96943648.295    23674628.625  
  23674629.412    92904332.712  
  20338214.806   108719413.736    20338213.198    84559536.602    20338212.484  
                                
  23319638.166   124831848.838    23319637.201    97091433.521    23319636.254  
                                
  22024152.352   117607744.352    22024150.976    91472684.799    22024150.190  
                                
  21250034.971   113553744.253    21250033.559    88319572.785    21250032.844  
                                
  19302548.125   103110747.403    19302545.355    80197236.828    19302545.731  
                                
  25080331.269   131798030.851                                                  
  25080334.164    98420618.533  
  25968108.949   136463334.097                                                  
  25968110.379   101904443.455  
  23147045.204   121638544.101                                                  
  23147046.330    90833981.697  
  23561299.083   123815462.652                                                  
  23561301.548    92459607.788  
