     2.11           OBSERVATION DATA    M (MIXED)           RINEX VERSION / TYPE
CONVBIN 2.4.3                           20210901 005027 UTC PGM / RUN BY / DATE 
log: logs/21_08_31_20_18_56_gast_SW.rtcm                    COMMENT             
format: RTCM 3, station ID: 1433                            COMMENT             
1433                                                        MARKER NAME         
                                                            MARKER NUMBER       
                                                            OBSERVER / AGENCY   
                    SWFT                                    REC # / TYPE / VERS 
                    NULL                                    ANT # / TYPE        
   806881.1263 -5205381.2503  3584328.6176                  APPROX POSITION XYZ 
        0.0000        0.0000        0.0000                  ANTENNA: DELTA H/E/N
     1     1                                                WAVELENGTH FACT L1/2
     5    C1    L1    P2    L2    C2                        # / TYPES OF OBSERV 
  2021     8    31    20    19    1.0000000     GPS         TIME OF FIRST OBS   
  2021     8    31    20    49    0.0000000     GPS         TIME OF LAST OBS    
                                                            END OF HEADER       
 21  8 31 20 19  1.0000000  0 17G10G15G18G23G24G27G32C19C21C22C34C35
                                E 3E 5E 9E15E36
  22624594.892   118892994.012    22624598.376    92643877.383                  
  22077216.685   116016553.146    22077217.686    90402507.817                  
  20178530.481   106038891.903    20178531.553    82627709.621                  
  20763224.997   109111483.225    20763226.033    85021936.625                  
  20796428.983   109285922.457    20796432.485    85157849.270                  
  24303880.301   127717689.169    24303884.196    99520262.220                  
  23716536.505   124631174.479    23716541.223    97115184.242                  
                 120814791.983                   120814791.983    23201212.663  
                 131396064.735                   131396064.735    25233236.159  
                 116816471.918                   116816471.918    22433371.580  
                 134858753.394                   134858753.394    25898211.907  
                 126031885.689                   126031885.689    24203104.944  
  25716479.423   135140969.009                                                  
  23506989.761   123530047.036                                                  
  23971421.947   125970644.878                                                  
  26392866.454   138695391.767                                                  
  24862118.442   130651241.063                                                  
 21  8 31 20 19  2.0000000  0 17G10G15G18G23G24G27G32C19C21C22C34C35
                                E 3E 5E 9E15E36
  22624184.101   118890835.247    22624187.585    92642195.226                  
  22077760.994   116019413.593    22077761.994    90404736.738                  
  20178697.020   106039767.062    20178698.092    82628391.567                  
  20763058.958   109110610.661    20763059.994    85021256.702                  
  20796275.363   109285115.137    20796278.848    85157220.188                  
  24303831.268   127717431.469    24303835.164    99520061.414                  
  23716013.032   124628423.619    23716017.768    97113040.712                  
                 120816423.464                   120816423.464    23201525.961  
                 131394128.092                   131394128.092    25232864.234  
                 116816148.911                   116816148.911    22433309.556  
                 134856765.691                   134856765.691    25897830.171  
                 126034851.214                   126034851.214    24203674.447  
  25716160.318   135139292.065                                                  
  23507051.248   123530370.101                                                  
  23971812.581   125972697.606                                                  
  26392393.782   138692907.812                                                  
  24862581.839   130653676.253                                                  
 21  8 31 20 19  3.0000000  0 17G10G15G18G23G24G27G32C19C21C22C34C35
                                E 3E 5E 9E15E36
  22623773.292   118888676.526    22623776.777    92640513.110                  
  22078305.356   116022274.199    22078306.356    90406965.777                  
  20178863.666   106040642.845    20178864.756    82629073.993                  
  20762892.955   109109738.308    20762893.973    85020576.949                  
  20796121.868   109284308.513    20796125.335    85156591.650                  
  24303782.343   127717174.358    24303786.220    99519861.066                  
  23715489.595   124625672.984    23715494.313    97110897.363                  
                 120818055.009                   120818055.009    23201839.276  
                 131392191.531                   131392191.531    25232492.343  
                 116815826.055                   116815826.055    22433247.569  
                 134854778.409                   134854778.409    25897448.560  
                 126037816.915                   126037816.915    24204243.951  
  25715841.249   135137615.327                                                  
  23507112.753   123530693.371                                                  
  23972203.198   125974750.347                                                  
  26391921.147   138690424.086                                                  
  24863045.308   130656111.749                                                  
 21  8 31 20 19  4.0000000  0 17G10G15G18G23G24G27G32C19C21C22C34C35
                                E 3E 5E 9E15E36
  22623362.519   118886517.855    22623366.004    92638831.028                  
  22078849.735   116025134.964    22078850.736    90409194.946                  
  20179030.438   106041519.250    20179031.546    82629756.906                  
  20762727.005   109108866.173    20762728.024    85019897.363                  
  20795968.498   109283502.570    20795971.983    85155963.644                  
  24303733.525   127716917.852    24303737.420    99519661.196                  
  23714966.211   124622922.587    23714970.947    97108754.198                  
                 120819686.618                   120819686.618    23202152.628  
                 131390255.048                   131390255.048    25232120.453  
                 116815503.348                   116815503.348    22433185.581  
                 134852791.543                   134852791.543    25897067.003  
                 126040782.787                   126040782.787    24204813.544  
  25715522.197   135135938.780                                                  
  23507174.312   123531016.850                                                  
  23972593.815   125976803.129                                                  
  26391448.565   138687940.583                                                  
  24863508.813   130658547.543                                                  
 21  8 31 20 19  5.0000000  0 17G10G15G18G23G24G27G32C19C21C22C34C35
                                E 3E 5E 9E15E36
  22622951.746   118884359.245    22622955.248    92637148.993                  
  22079394.169   116027995.895    22079395.152    90411424.243                  
  20179197.335   106042396.277    20179198.443    82630440.304                  
  20762561.073   109107994.251    20762562.092    85019217.941                  
  20795815.254   109282697.316    20795818.738    85155336.176                  
  24303684.814   127716661.930    24303688.727    99519461.774                  
  23714442.881   124620172.419    23714447.599    97106611.215                  
                 120821318.288                   120821318.288    23202465.961  
                 131388318.641                   131388318.641    25231748.599  
                 116815180.792                   116815180.792    22433123.647  
                 134850805.096                   134850805.096    25896685.517  
                 126043748.833                   126043748.833    24205383.137  
  25715203.199   135134262.433                                                  
  23507235.925   123531340.543                                                  
  23972984.468   125978855.931                                                  
  26390976.001   138685457.300                                                  
  24863972.407   130660983.634                                                  
 21  8 31 20 19  6.0000000  0 17G10G15G18G23G24G27G32C19C21C22C34C35
                                E 3E 5E 9E15E36
  22622540.973   118882200.689    22622544.475    92635467.000                  
  22079938.602   116030856.979    22079939.603    90413653.657                  
  20179364.339   106043273.927    20179365.446    82631124.187                  
  20762395.195   109107122.547    20762396.214    85018538.696                  
  20795662.152   109281892.737    20795665.636    85154709.227                  
  24303636.246   127716406.589    24303640.123    99519262.804                  
  23713919.587   124617422.515    23713924.304    97104468.433                  
                 120822950.025                   120822950.025    23202779.312  
                 131386382.312                   131386382.312    25231376.745  
                 116814858.387                   116814858.387    22433061.713  
                 134848819.065                   134848819.065    25896304.121  
                 126046715.051                   126046715.051    24205952.766  
  25714884.255   135132586.314                                                  
  23507297.537   123531664.433                                                  
  23973375.102   125980908.762                                                  
  26390503.472   138682974.223                                                  
  24864436.036   130663420.054                                                  
 21  8 31 20 19  7.0000000  0 17G10G15G18G23G24G27G32C19C21C22C34C35
                                E 3E 5E 9E15E36
  22622130.236   118880042.179    22622133.720    92633785.047                  
  22080483.071   116033718.225    22080484.072    90415883.199                  
  20179531.485   106044152.204    20179532.575    82631808.559                  
  20762229.353   109106251.063    20762230.371    85017859.613                  
  20795509.175   109281088.833    20795512.660    85154082.808                  
  24303587.767   127716151.852    24303591.663    99519064.308                  
  23713396.346   124614672.837    23713401.064    97102325.829                  
                 120824581.820                   120824581.820    23203092.699  
                 131384446.062                   131384446.062    25231004.908  
                 116814536.130                   116814536.130    22432999.833  
                 134846833.453                   134846833.453    25895922.796  
                 126049681.440                   126049681.440    24206522.448  
  25714565.347   135130910.406                                                  
  23507359.221   123531988.520                                                  
  23973765.755   125982961.615                                                  
  26390030.997   138680491.348                                                  
  24864899.720   130665856.773                                                  
 21  8 31 20 19  8.0000000  0 17G10G15G18G23G24G27G32C19C21C22C34C35
                                E 3E 5E 9E15E36
  22621719.498   118877883.719    22621722.983    92632103.132                  
  22081027.594   116036579.667    22081028.595    90418112.895                  
  20179698.722   106045031.101    20179699.812    82632493.413                  
  20762063.564   109105379.778    20762064.583    85017180.696                  
  20795356.341   109280285.660    20795359.826    85153456.961                  
  24303539.396   127715897.735    24303543.291    99518866.297                  
  23712873.123   124611923.344    23712877.841    97100183.367                  
                 120826213.678                   120826213.678    23203406.086  
                 131382509.890                   131382509.890    25230633.072  
                 116814214.025                   116814214.025    22432937.988  
                 134844848.262                   134844848.262    25895541.560  
                 126052648.004                   126052648.004    24207092.148  
  25714246.438   135129234.546                                                  
  23507420.941   123532312.888                                                  
  23974156.407   125985014.475                                                  
  26389558.594   138678008.784                                                  
  24865363.457   130668293.712                                                  
 21  8 31 20 19  9.0000000  0 17G10G15G18G23G24G27G32C19C21C22C34C35
                                E 3E 5E 9E15E36
  22621308.761   118875725.317    22621312.245    92630421.261                  
  22081572.135   116039441.254    22081573.135    90420342.700                  
  20179866.101   106045910.626    20179867.173    82633178.755                  
  20761897.793   109104508.728    20761898.847    85016501.949                  
  20795203.615   109279483.132    20795207.099    85152831.617                  
  24303491.167   127715644.196    24303495.063    99518668.729                  
  23712349.954   124609174.121    23712354.672    97098041.117                  
                 120827845.601                   120827845.601    23203719.455  
                 131380573.794                   131380573.794    25230261.253  
                 116813892.067                   116813892.067    22432876.161  
                 134842863.484                   134842863.484    25895160.396  
                 126055614.742                   126055614.742    24207661.866  
  25713927.583   135127558.999                                                  
  23507482.696   123532637.405                                                  
  23974547.060   125987067.383                                                  
  26389086.208   138675526.382                                                  
  24865827.265   130670731.015                                                  
 21  8 31 20 19 10.0000000  0 17G10G15G18G23G24G27G32C19C21C22C34C35
                                E 3E 5E 9E15E36
  22620898.041   118873566.966    22620901.526    92628739.427                  
  22082116.729   116042303.016    22082117.712    90422572.640                  
  20180033.587   106046790.769    20180034.677    82633864.581                  
  20761732.076   109103637.883    20761733.112    85015823.376                  
  20795051.031   109278681.306    20795054.516    85152206.813                  
  24303443.028   127715391.235    24303446.923    99518471.617                  
  23711826.856   124606425.133    23711831.556    97095899.055                  
                 120829477.591                   120829477.591    23204032.878  
                 131378637.776                   131378637.776    25229889.488  
                 116813570.261                   116813570.261    22432814.352  
                 134840879.124                   134840879.124    25894779.339  
                 126058581.649                   126058581.649    24208231.620  
  25713608.782   135125883.629                                                  
  23507544.505   123532962.152                                                  
  23974937.713   125989120.312                                                  
  26388613.859   138673044.196                                                  
  24866291.127   130673168.617                                                  
 21  8 31 20 19 11.0000000  0 17G10G15G18G23G24G27G32C19C21C22C34C35
                                E 3E 5E 9E15E36
  22620487.340   118871408.659    22620490.824    92627057.633                  
  22082661.323   116045164.930    22082662.324    90424802.703                  
  20180201.181   106047671.527    20180202.289    82634550.888                  
  20761566.412   109102767.250    20761567.448    85015144.956                  
  20794898.573   109277880.152    20794902.057    85151582.539                  
  24303394.996   127715138.878    24303398.891    99518274.978                  
  23711303.776   124603676.370    23711308.494    97093757.160                  
                 120831109.636                   120831109.636    23204346.300  
                 131376701.837                   131376701.837    25229517.705  
                 116813248.607                   116813248.607    22432752.579  
                 134838895.184                   134838895.184    25894398.336  
                 126061548.731                   126061548.731    24208801.428  
  25713289.999   135124208.452                                                  
  23507606.314   123533287.101                                                  
  23975328.383   125991173.266                                                  
  26388141.562   138670562.254                                                  
  24866755.042   130675606.519                                                  
 21  8 31 20 19 12.0000000  0 17G10G15G18G23G24G27G32C19C21C22C34C35
                                E 3E 5E 9E15E36
  22620076.620   118869250.413    22620080.123    92625375.883                  
  22083205.953   116048027.015    22083206.954    90427032.899                  
  20180368.899   106048552.906    20180370.007    82635237.677                  
  20761400.784   109101896.843    20761401.803    85014466.719                  
  20794746.257   109277079.687    20794749.742    85150958.800                  
  24303347.107   127714887.108    24303350.985    99518078.793                  
  23710780.732   124600927.843    23710785.468    97091615.453                  
                 120832741.751                   120832741.751    23204659.723  
                 131374765.977                   131374765.977    25229145.940  
                 116812927.097                   116812927.097    22432690.842  
                 134836911.659                   134836911.659    25894017.422  
                 126064515.984                   126064515.984    24209371.253  
  25712971.251   135122533.489                                                  
  23507668.194   123533612.261                                                  
  23975719.036   125993226.233                                                  
  26387669.302   138668080.515                                                  
  24867219.012   130678044.711                                                  
 21  8 31 20 19 13.0000000  0 17G10G15G18G23G24G27G32C19C21C22C34C35
                                E 3E 5E 9E15E36
  22619665.936   118867092.214    22619669.421    92623694.168                  
  22083750.619   116050889.259    22083751.637    90429263.214                  
  20180536.743   106049434.910    20180537.833    82635924.948                  
  20761235.174   109101026.653    20761236.228    85013788.649                  
  20794594.067   109276279.906    20794597.551    85150335.597                  
  24303299.307   127714635.946    24303303.185    99517883.082                  
  23710257.760   124598179.562    23710262.477    97089473.937                  
                 120834373.927                   120834373.927    23204973.164  
                 131372830.192                   131372830.192    25228774.175  
                 116812605.742                   116812605.742    22432629.122  
                 134834928.559                   134834928.559    25893636.580  
                 126067483.411                   126067483.411    24209941.114  
  25712652.557   135120858.711                                                  
  23507730.128   123533937.633                                                  
  23976109.724   125995279.238                                                  
  26387197.077   138665599.016                                                  
  24867683.052   130680483.208                                                  
 21  8 31 20 19 14.0000000  0 17G10G15G18G23G24G27G32C19C21C22C34C35
                                E 3E 5E 9E15E36
  22619255.253   118864934.065    22619258.737    92622012.496                  
  22084295.320   116053751.672    22084296.339    90431493.669                  
  20180704.694   106050317.530    20180705.802    82636612.702                  
  20761069.635   109100156.677    20761070.654    85013110.745                  
  20794442.001   109275480.823    20794445.504    85149712.937                  
  24303251.615   127714385.358    24303255.493    99517687.820                  
  23709734.823   124595431.489    23709739.540    97087332.582                  
                 120836006.163                   120836006.163    23205286.622  
                 131370894.485                   131370894.485    25228402.464  
                 116812284.535                   116812284.535    22432567.438  
                 134832945.871                   134832945.871    25893255.827  
                 126070451.007                   126070451.007    24210511.028  
  25712333.899   135119184.119                                                  
  23507792.080   123534263.207                                                  
  23976500.394   125997332.266                                                  
  26386724.924   138663117.720                                                  
  24868147.147   130682921.999                                                  
 21  8 31 20 19 15.0000000  0 17G10G15G18G23G24G27G32C19C21C22C34C35
                                E 3E 5E 9E15E36
  22618844.587   118862775.969    22618848.053    92620330.860                  
  22084840.057   116056614.241    22084841.058    90433724.242                  
  20180872.788   106051200.817    20180873.878    82637300.996                  
  20760904.115   109099286.915    20760905.169    85012433.009                  
  20794290.079   109274682.445    20794293.563    85149090.836                  
  24303204.048   127714135.341    24303207.943    99517492.980                  
  23709211.939   124592683.724    23709216.639    97085191.492                  
                 120837638.464                   120837638.464    23205600.080  
                 131368958.854                   131368958.854    25228030.734  
                 116811963.479                   116811963.479    22432505.772  
                 134830963.603                   134830963.603    25892875.163  
                 126073418.778                   126073418.778    24211080.943  
  25712015.276   135117509.743                                                  
  23507854.086   123534589.078                                                  
  23976891.083   125999385.276                                                  
  26386252.789   138660636.741                                                  
  24868611.277   130685361.074                                                  
 21  8 31 20 19 16.0000000  0 17G10G15G18G23G24G27G32C19C21C22C34C35
                                E 3E 5E 9E15E36
  22618433.921   118860617.926    22618437.405    92618649.270                  
  22085384.812   116059476.981    22085385.813    90435954.941                  
  20181040.971   106052084.688    20181042.079    82637989.726                  
  20760738.665   109098417.371    20760739.684    85011755.442                  
  20794138.282   109273884.730    20794141.766    85148469.237                  
  24303156.588   127713885.945    24303160.483    99517298.648                  
  23708689.074   124589936.141    23708693.791    97083050.520                  
                 120839270.832                   120839270.832    23205913.557  
                 131367023.305                   131367023.305    25227659.041  
                 116811642.575                   116811642.575    22432444.160  
                 134828981.753                   134828981.753    25892494.553  
                 126076386.723                   126076386.723    24211650.911  
  25711696.672   135115835.546                                                  
  23507916.091   123534915.083                                                  
  23977281.789   126001438.343                                                  
  26385780.707   138658155.891                                                  
  24869075.478   130687800.458                                                  
 21  8 31 20 19 17.0000000  0 17G10G15G18G23G24G27G32C19C21C22C34C35
                                E 3E 5E 9E15E36
  22618023.255   118858459.939    22618026.739    92616967.719                  
  22085929.621   116062339.878    22085930.622    90438185.773                  
  20181209.279   106052969.180    20181210.387    82638678.941                  
  20760573.216   109097548.043    20760574.252    85011078.044                  
  20793986.591   109273087.693    20793990.076    85147848.172                  
  24303109.235   127713637.153    24303113.148    99517104.782                  
  23708166.280   124587188.793    23708170.997    97080909.730                  
                 120840903.258                   120840903.258    23206227.069  
                 131365087.831                   131365087.831    25227287.347  
                 116811321.815                   116811321.815    22432382.565  
                 134827000.322                   134827000.322    25892114.032  
                 126079354.836                   126079354.836    24212220.897  
  25711378.138   135114161.552                                                  
  23507978.186   123535241.294                                                  
  23977672.459   126003491.450                                                  
  26385308.643   138655675.278                                                  
  24869539.733   130690240.153                                                  
 21  8 31 20 19 18.0000000  0 17G10G15G18G23G24G27G32C19C21C22C34C35
                                E 3E 5E 9E15E36
  22617612.625   118856302.007    22617616.091    92615286.214                  
  22086474.447   116065202.941    22086475.448    90440416.730                  
  20181377.713   106053854.292    20181378.821    82639368.641                  
  20760407.838   109096678.933    20760408.875    85010400.813                  
  20793835.062   109272291.357    20793838.547    85147227.648                  
  24303062.007   127713388.937    24303065.902    99516911.367                  
  23707643.522   124584441.671    23707648.221    97078769.117                  
                 120842535.751                   120842535.751    23206540.563  
                 131363152.439                   131363152.439    25226915.672  
                 116811001.210                   116811001.210    22432321.006  
                 134825019.309                   134825019.309    25891733.618  
                 126082323.122                   126082323.122    24212790.937  
  25711059.623   135112487.754                                                  
  23508040.299   123535567.710                                                  
  23978063.166   126005544.569                                                  
  26384836.633   138653194.874                                                  
  24870004.060   130692680.152                                                  
 21  8 31 20 19 19.0000000  0 17G10G15G18G23G24G27G32C19C21C22C34C35
                                E 3E 5E 9E15E36
  22617201.995   118854144.122    22617205.479    92613604.745                  
  22087019.274   116068066.152    22087020.292    90442647.800                  
  20181546.271   106054740.038    20181547.361    82640058.832                  
  20760242.496   109095810.040    20760243.515    85009723.753                  
  20793683.658   109271495.693    20793687.142    85146607.652                  
  24303014.886   127713141.328    24303018.782    99516718.425                  
  23707120.799   124581694.796    23707125.516    97076628.695                  
                 120844168.305                   120844168.305    23206854.075  
                 131361217.122                   131361217.122    25226544.014  
                 116810680.754                   116810680.754    22432259.465  
                 134823038.715                   134823038.715    25891353.258  
                 126085291.579                   126085291.579    24213360.995  
  25710741.143   135110814.153                                                  
  23508102.465   123535894.344                                                  
  23978453.854   126007597.735                                                  
  26384364.676   138650714.699                                                  
  24870468.440   130695120.445                                                  
 21  8 31 20 19 20.0000000  0 17G10G15G18G23G24G27G32C19C21C22C34C35
                                E 3E 5E 9E15E36
  22616791.382   118851986.290    22616794.867    92611923.320                  
  22087564.172   116070929.540    22087565.173    90444879.011                  
  20181714.937   106055626.400    20181716.045    82640749.499                  
  20760077.208   109094941.358    20760078.226    85009046.860                  
  20793532.379   109270700.715    20793535.863    85145988.192                  
  24302967.873   127712894.312    24302971.786    99516525.945                  
  23706598.112   124578948.140    23706602.848    97074488.448                  
                 120845800.917                   120845800.917    23207167.605  
                 131359281.878                   131359281.878    25226172.374  
                 116810360.448                   116810360.448    22432197.942  
                 134821058.535                   134821058.535    25890972.987  
                 126088260.207                   126088260.207    24213931.106  
  25710422.700   135109140.755                                                  
  23508164.667   123536221.194                                                  
  23978844.578   126009650.907                                                  
  26383892.756   138648234.747                                                  
  24870932.856   130697561.035                                                  
 21  8 31 20 19 21.0000000  0 17G10G15G18G23G24G27G32C19C21C22C34C35
                                E 3E 5E 9E15E36
  22616380.752   118849828.517    22616384.237    92610241.941                  
  22088109.088   116073793.083    22088110.106    90447110.339                  
  20181883.728   106056513.378    20181884.818    82641440.653                  
  20759911.937   109094072.902    20759912.956    85008370.142                  
  20793381.225   109269906.425    20793384.691    85145369.262                  
  24302920.984   127712647.886    24302924.880    99516333.927                  
  23706075.497   124576201.725    23706080.214    97072348.387                  
                 120847433.598                   120847433.598    23207481.135  
                 131357346.718                   131357346.718    25225800.734  
                 116810040.294                   116810040.294    22432136.455  
                 134819078.778                   134819078.778    25890592.806  
                 126091229.007                   126091229.007    24214501.217  
  25710104.292   135107467.538                                                  
  23508226.887   123536548.239                                                  
  23979235.284   126011704.117                                                  
  26383420.888   138645755.014                                                  
  24871397.361   130700001.939                                                  
 21  8 31 20 19 22.0000000  0 17G10G15G18G23G24G27G32C19C21C22C34C35
                                E 3E 5E 9E15E36
  22615970.158   118847670.785    22615973.642    92608560.591                  
  22088654.039   116076656.785    22088655.040    90449341.797                  
  20182052.644   106057400.978    20182053.716    82642132.285                  
  20759746.702   109093204.649    20759747.739    85007693.578                  
  20793230.196   109269112.833    20793233.698    85144750.878                  
  24302874.221   127712402.056    24302878.099    99516142.371                  
  23705552.917   124573455.537    23705557.617    97070208.500                  
                 120849066.344                   120849066.344    23207794.700  
                 131355411.634                   131355411.634    25225429.112  
                 116809720.285                   116809720.285    22432075.004  
                 134817099.441                   134817099.441    25890212.678  
                 126094197.981                   126094197.981    24215071.382  
  25709785.937   135105794.533                                                  
  23508289.161   123536875.500                                                  
  23979626.008   126013757.339                                                  
  26382949.039   138643275.505                                                  
  24871861.902   130702443.124                                                  
 21  8 31 20 19 23.0000000  0 17G10G15G18G23G24G27G32C19C21C22C34C35
                                E 3E 5E 9E15E36
  22615559.563   118845513.108    22615563.048    92606879.284                  
  22089199.009   116079520.657    22089200.027    90451573.383                  
  20182221.667   106058289.194    20182222.757    82642824.402                  
  20759581.521   109092336.621    20759582.557    85007017.195                  
  20793079.327   109268319.907    20793082.794    85144133.016                  
  24302827.547   127712156.821    24302831.443    99515951.276                  
  23705030.373   124570709.591    23705035.109    97068068.804                  
                 120850699.148                   120850699.148    23208108.266  
                 131353476.625                   131353476.625    25225057.525  
                 116809400.427                   116809400.427    22432013.588  
                 134815120.519                   134815120.519    25889832.640  
                 126097167.124                   126097167.124    24215641.582  
  25709467.600   135104121.712                                                  
  23508351.488   123537202.961                                                  
  23980016.714   126015810.593                                                  
  26382477.261   138640796.219                                                  
  24872326.497   130704884.617                                                  
 21  8 31 20 19 24.0000000  0 17G10G15G18G23G24G27G32C19C21C22C34C35
                                E 3E 5E 9E15E36
  22615148.987   118843355.487    22615152.454    92605198.024                  
  22089744.014   116082384.688    22089745.015    90453805.093                  
  20182390.797   106059178.048    20182391.905    82643517.015                  
  20759416.375   109091468.814    20759417.412    85006340.980                  
  20792928.567   109267527.676    20792932.033    85143515.691                  
  24302780.981   127711912.173    24302784.876    99515760.642                  
  23704507.901   124567963.890    23704512.601    97065929.296                  
                 120852332.016                   120852332.016    23208421.831  
                 131351541.695                   131351541.695    25224685.939  
                 116809080.720                   116809080.720    22431952.172  
                 134813142.019                   134813142.019    25889452.709  
                 126100136.439                   126100136.439    24216211.801  
  25709149.317   135102449.103                                                  
  23508413.833   123537530.636                                                  
  23980407.438   126017863.862                                                  
  26382005.501   138638317.156                                                  
  24872791.163   130707326.413                                                  
 21  8 31 20 19 25.0000000  0 17G10G15G18G23G24G27G32C19C21C22C34C35
                                E 3E 5E 9E15E36
  22614738.428   118841197.917    22614741.895    92603516.800                  
  22090289.055   116085248.883    22090290.056    90456036.938                  
  20182560.053   106060067.517    20182561.160    82644210.110                  
  20759251.301   109090601.218    20759252.320    85005664.933                  
  20792777.949   109266736.126    20792781.415    85142898.903                  
  24302734.539   127711668.118    24302738.435    99515570.469                  
  23703985.447   124565218.417    23703990.164    97063789.972                  
                 120853964.951                   120853964.951    23208735.415  
                 131349606.843                   131349606.843    25224314.389  
                 116808761.165                   116808761.165    22431890.827  
                 134811163.934                   134811163.934    25889072.813  
                 126103105.925                   126103105.925    24216782.055  
  25708831.052   135100776.664                                                  
  23508476.214   123537858.529                                                  
  23980798.180   126019917.175                                                  
  26381533.794   138635838.322                                                  
  24873255.882   130709768.505                                                  
 21  8 31 20 19 26.0000000  0 17G10G15G18G23G24G27G32C19C21C22C34C35
                                E 3E 5E 9E15E36
  22614327.834   118839040.396    22614331.318    92601835.612                  
  22090834.114   116088113.242    22090835.132    90458268.901                  
  20182729.433   106060957.609    20182730.541    82644903.688                  
  20759086.245   109089733.845    20759087.264    85004989.056                  
  20792627.438   109265945.269    20792630.922    85142282.653                  
  24302688.223   127711424.661    24302692.118    99515380.762                  
  23703463.046   124562473.176    23703467.745    97061650.825                  
                 120855597.941                   120855597.941    23209049.016  
                 131347672.070                   131347672.070    25223942.820  
                 116808441.755                   116808441.755    22431829.483  
                 134809186.269                   134809186.269    25888693.043  
                 126106075.583                   126106075.583    24217352.363  
  25708512.858   135099104.442                                                  
  23508538.666   123538186.618                                                  
  23981188.922   126021970.505                                                  
  26381062.124   138633359.699                                                  
  24873720.638   130712210.893                                                  
 21  8 31 20 19 27.0000000  0 17G10G15G18G23G24G27G32C19C21C22C34C35
                                E 3E 5E 9E15E36
  22613917.293   118836882.933    22613920.778    92600154.478                  
  22091379.226   116090977.759    22091380.245    90460500.993                  
  20182898.939   106061848.325    20182900.046    82645597.751                  
  20758921.225   109088866.680    20758922.243    85004313.343                  
  20792477.088   109265155.098    20792480.554    85141666.934                  
  24302641.995   127711181.798    24302645.909    99515191.520                  
  23702940.681   124559728.175    23702945.380    97059511.864                  
                 120857231.000                   120857231.000    23209362.635  
                 131345737.376                   131345737.376    25223571.287  
                 116808122.496                   116808122.496    22431768.157  
                 134807209.028                   134807209.028    25888313.326  
                 126109045.409                   126109045.409    24217922.688  
  25708194.683   135097432.423                                                  
  23508601.136   123538514.929                                                  
  23981579.664   126024023.856                                                  
  26380590.507   138630881.319                                                  
  24874185.483   130714653.587                                                  
 21  8 31 20 19 28.0000000  0 17G10G15G18G23G24G27G32C19C21C22C34C35
                                E 3E 5E 9E15E36
  22613506.752   118834725.524    22613510.237    92598473.379                  
  22091924.356   116093842.429    22091925.357    90462733.204                  
  20183068.551   106062739.655    20183069.641    82646292.296                  
  20758756.240   109087999.727    20758757.277    85003637.797                  
  20792326.845   109264365.617    20792330.312    85141051.754                  
  24302595.893   127710939.521    24302599.807    99515002.726                  
  23702418.351   124556983.395    23702423.086    97057373.078                  
                 120858864.121                   120858864.121    23209676.255  
                 131343802.754                   131343802.754    25223199.755  
                 116807803.391                   116807803.391    22431706.884  
                 134805232.200                   134805232.200    25887933.699  
                 126112015.410                   126112015.410    24218493.032  
  25707876.543   135095760.580                                                  
  23508663.660   123538843.441                                                  
  23981970.406   126026077.230                                                  
  26380118.925   138628403.140                                                  
  24874650.363   130717096.571                                                  
 21  8 31 20 19 29.0000000  0 17G10G15G18G23G24G27G32C19C21C22C34C35
                                E 3E 5E 9E15E36
  22613096.211   118832568.164    22613099.696    92596792.320                  
  22092469.522   116096707.279    22092470.523    90464965.551                  
  20183238.271   106063631.610    20183239.379    82646987.323                  
  20758591.327   109087133.008    20758592.345    85002962.429                  
  20792176.745   109263576.802    20792180.212    85140437.095                  
  24302549.916   127710697.840    24302553.794    99514814.405                  
  23701896.093   124554238.867    23701900.793    97055234.485                  
                 120860497.306                   120860497.306    23209989.892  
                 131341868.213                   131341868.213    25222828.240  
                 116807484.429                   116807484.429    22431645.647  
                 134803255.793                   134803255.793    25887554.143  
                 126114985.579                   126114985.579    24219063.447  
  25707558.438   135094088.942                                                  
  23508726.201   123539172.161                                                  
  23982361.166   126028130.640                                                  
  26379647.379   138625925.192                                                  
  24875115.297   130719539.863                                                  
 21  8 31 20 19 30.0000000  0 17G10G15G18G23G24G27G32C19C21C22C34C35
                                E 3E 5E 9E15E36
  22612685.706   118830410.864    22612689.173    92595111.304                  
  22093014.724   116099572.289    22093015.725    90467198.027                  
  20183408.134   106064524.190    20183409.242    82647682.840                  
  20758426.414   109086266.489    20758427.432    85002287.222                  
  20792026.753   109262788.694    20792030.237    85139822.985                  
  24302504.047   127710456.745    24302507.924    99514626.542                  
  23701373.871   124551494.547    23701378.588    97053096.054                  
                 120862130.552                   120862130.552    23210303.547  
                 131339933.749                   131339933.749    25222456.761  
                 116807165.621                   116807165.621    22431584.427  
                 134801279.805                   134801279.805    25887174.676  
                 126117955.918                   126117955.918    24219633.862  
  25707240.352   135092417.497                                                  
  23508788.796   123539501.098                                                  
  23982751.908   126030184.050                                                  
  26379175.887   138623447.461                                                  
  24875580.303   130721983.454                                                  
 21  8 31 20 19 31.0000000  0 17G10G15G18G23G24G27G32C19C21C22C34C35
                                E 3E 5E 9E15E36
  22612275.183   118828253.607    22612278.668    92593430.327                  
  22093559.944   116102437.458    22093560.945    90469430.622                  
  20183578.104   106065417.386    20183579.194    82648378.835                  
  20758261.554   109085400.196    20758262.608    85001612.188                  
  20791876.921   109262001.270    20791880.405    85139209.405                  
  24302458.266   127710216.264    24302462.162    99514439.152                  
  23700851.702   124548750.486    23700856.402    97050957.829                  
                 120863763.859                   120863763.859    23210617.202  
                 131337999.362                   131337999.362    25222085.282  
                 116806846.964                   116806846.964    22431523.226  
                 134799304.239                   134799304.239    25886795.281  
                 126120926.430                   126120926.430    24220204.312  
  25706922.337   135090746.253                                                  
  23508851.445   123539830.234                                                  
  23983142.668   126032237.509                                                  
  26378704.431   138620969.968                                                  
  24876045.362   130724427.336                                                  
 21  8 31 20 19 32.0000000  0 17G10G15G18G23G24G27G32C19C21C22C34C35
                                E 3E 5E 9E15E36
  22611864.678   118826096.400    22611868.163    92591749.387                  
  22094105.199   116105302.786    22094106.200    90471663.347                  
  20183748.200   106066311.205    20183749.307    82649075.317                  
  20758096.766   109084534.114    20758097.784    85000937.319                  
  20791727.196   109261214.524    20791730.699    85138596.359                  
  24302412.629   127709976.356    24302416.506    99514252.210                  
  23700329.552   124546006.647    23700334.251    97048819.778                  
                 120865397.230                   120865397.230    23210930.875  
                 131336065.054                   131336065.054    25221713.820  
                 116806528.456                   116806528.456    22431462.042  
                 134797329.089                   134797329.089    25886415.976  
                 126123897.114                   126123897.114    24220774.799  
  25706604.340   135089075.199                                                  
  23508914.094   123540159.594                                                  
  23983533.445   126034290.980                                                  
  26378233.028   138618492.694                                                  
  24876510.475   130726871.532                                                  
 21  8 31 20 19 33.0000000  0 17G10G15G18G23G24G27G32C19C21C22C34C35
                                E 3E 5E 9E15E36
  22611454.191   118823939.249    22611457.676    92590068.492                  
  22094650.472   116108168.286    22094651.473    90473896.200                  
  20183918.402   106067205.645    20183919.492    82649772.286                  
  20757931.996   109083668.249    20757933.014    85000262.622                  
  20791577.615   109260428.465    20791581.099    85137983.845                  
  24302367.081   127709737.045    24302370.976    99514065.735                  
  23699807.455   124543263.055    23699812.172    97046681.909                  
                 120867030.668                   120867030.668    23211244.565  
                 131334130.825                   131334130.825    25221342.359  
                 116806210.098                   116806210.098    22431400.912  
                 134795354.360                   134795354.360    25886036.759  
                 126126867.964                   126126867.964    24221345.321  
  25706286.396   135087404.347                                                  
  23508976.814   123540489.153                                                  
  23983924.205   126036344.475                                                  
  26377761.661   138616015.636                                                  
  24876975.641   130729316.016                                                  
 21  8 31 20 19 34.0000000  0 17G10G15G18G23G24G27G32C19C21C22C34C35
                                E 3E 5E 9E15E36
  22611043.704   118821782.153    22611047.188    92588387.636                  
  22095195.799   116111033.937    22095196.800    90476129.176                  
  20184088.712   106068100.708    20184089.820    82650469.735                  
  20757767.261   109082802.610    20757768.298    84999588.093                  
  20791428.176   109259643.095    20791431.661    85137371.866                  
  24302321.657   127709498.337    24302325.535    99513879.726                  
  23699285.411   124540519.695    23699290.129    97044544.231                  
                 120868664.164                   120868664.164    23211558.256  
                 131332196.668                   131332196.668    25220970.916  
                 116805891.886                   116805891.886    22431339.800  
                 134793380.047                   134793380.047    25885657.596  
                 126129838.989                   126129838.989    24221915.879  
  25705968.488   135085733.687                                                  
  23509039.588   123540818.918                                                  
  23984314.983   126038397.999                                                  
  26377290.348   138613538.800                                                  
  24877440.879   130731760.790                                                  
 21  8 31 20 19 35.0000000  0 17G10G15G18G23G24G27G32C19C21C22C34C35
                                E 3E 5E 9E15E36
  22610633.235   118819625.102    22610636.719    92586706.821                  
  22095741.144   116113899.763    22095742.163    90478362.285                  
  20184259.182   106068996.395    20184260.254    82651167.671                  
  20757602.580   109081937.180    20757603.599    84998913.734                  
  20791278.863   109258858.426    20791282.347    85136760.438                  
  24302276.342   127709260.218    24302280.237    99513694.179                  
  23698763.421   124537776.567    23698768.121    97042406.730                  
                 120870297.726                   120870297.726    23211871.964  
                 131330262.593                   131330262.593    25220599.508  
                 116805573.828                   116805573.828    22431278.724  
                 134791406.155                   134791406.155    25885278.541  
                 126132810.179                   126132810.179    24222486.455  
  25705650.598   135084063.223                                                  
  23509102.362   123541148.893                                                  
  23984705.760   126040451.547                                                  
  26376819.035   138611062.196                                                  
  24877906.153   130734205.875                                                  
 21  8 31 20 19 36.0000000  0 17G10G15G18G23G24G27G32C19C21C22C34C35
                                E 3E 5E 9E15E36
  22610222.783   118817468.118    22610226.268    92585026.055                  
  22096286.524   116116765.745    22096287.543    90480595.520                  
  20184429.742   106069892.708    20184430.832    82651866.098                  
  20757437.935   109081071.969    20757438.954    84998239.542                  
  20791129.656   109258074.430    20791133.159    85136149.532                  
  24302231.133   127709022.686    24302235.046    99513509.089                  
  23698241.467   124535033.677    23698246.167    97040269.413                  
                 120871931.350                   120871931.350    23212185.673  
                 131328328.594                   131328328.594    25220228.100  
                 116805255.919                   116805255.919    22431217.684  
                 134789432.689                   134789432.689    25884899.557  
                 126135781.543                   126135781.543    24223057.084  
  25705332.762   135082392.964                                                  
  23509165.207   123541479.077                                                  
  23985096.538   126042505.130                                                  
  26376347.793   138608585.809                                                  
  24878371.498   130736651.266                                                  
 21  8 31 20 19 37.0000000  0 17G10G15G18G23G24G27G32C19C21C22C34C35
                                E 3E 5E 9E15E36
  22609812.314   118815311.169    22609815.798    92583345.315                  
  22096831.941   116119631.879    22096832.941    90482828.867                  
  20184600.427   106070789.639    20184601.517    82652565.009                  
  20757273.344   109080206.973    20757274.362    84997565.524                  
  20790980.593   109257291.123    20790984.095    85135539.160                  
  24302186.067   127708785.753    24302189.945    99513324.468                  
  23697719.567   124532291.021    23697724.266    97038132.286                  
                 120873565.038                   120873565.038    23212499.417  
                 131326394.673                   131326394.673    25219856.728  
                 116804938.158                   116804938.158    22431156.643  
                 134787459.632                   134787459.632    25884520.662  
                 126138753.074                   126138753.074    24223627.731  
  25705014.961   135080722.887                                                  
  23509228.053   123541809.482                                                  
  23985487.316   126044558.724                                                  
  26375876.605   138606109.648                                                  
  24878836.896   130739096.940                                                  
 21  8 31 20 19 38.0000000  0 17G10G15G18G23G24G27G32C19C21C22C34C35
                                E 3E 5E 9E15E36
  22609401.880   118813154.276    22609405.365    92581664.622                  
  22097377.375   116122498.184    22097378.375    90485062.351                  
  20184771.219   106071687.190    20184772.327    82653264.394                  
  20757108.752   109079342.200    20757109.806    84996891.672                  
  20790831.672   109256508.508    20790835.157    85134929.331                  
  24302141.073   127708549.407    24302144.986    99513140.302                  
  23697197.684   124529548.594    23697202.383    97035995.327                  
                 120875198.790                   120875198.790    23212813.162  
                 131324460.827                   131324460.827    25219485.339  
                 116804620.547                   116804620.547    22431095.656  
                 134785487.000                   134785487.000    25884141.821  
                 126141724.778                   126141724.778    24224198.414  
  25704697.179   135079053.016                                                  
  23509290.987   123542140.082                                                  
  23985878.111   126046612.345                                                  
  26375405.452   138603633.707                                                  
  24879302.367   130741542.926                                                  
 21  8 31 20 19 39.0000000  0 17G10G15G18G23G24G27G32C19C21C22C34C35
                                E 3E 5E 9E15E36
  22608991.447   118810997.442    22608994.913    92579983.969                  
  22097922.845   116125364.647    22097923.863    90487295.957                  
  20184942.118   106072585.360    20184943.226    82653964.265                  
  20756944.232   109078477.632    20756945.286    84996217.985                  
  20790682.877   109255726.571    20790686.362    85134320.032                  
  24302096.222   127708313.656    24302100.117    99512956.602                  
  23696675.855   124526806.402    23696680.554    97033858.559                  
                 120876832.603                   120876832.603    23213126.924  
                 131322527.063                   131322527.063    25219113.985  
                 116804303.086                   116804303.086    22431034.687  
                 134783514.789                   134783514.789    25883763.087  
                 126144696.649                   126144696.649    24224769.133  
  25704379.468   135077383.335                                                  
  23509353.940   123542470.898                                                  
  23986268.925   126048665.995                                                  
  26374934.335   138601157.995                                                  
  24879767.855   130743989.203                                                  
 21  8 31 20 19 40.0000000  0 17G10G15G18G23G24G27G32C19C21C22C34C35
                                E 3E 5E 9E15E36
  22608581.013   118808840.661    22608584.498    92578303.363                  
  22098468.332   116128231.274    22098469.369    90489529.692                  
  20185113.161   106073484.156    20185114.269    82654664.629                  
  20756779.765   109077613.285    20756780.802    84995544.468                  
  20790534.225   109254945.327    20790537.691    85133711.273                  
  24302051.460   127708078.504    24302055.355    99512773.362                  
  23696154.079   124524064.441    23696158.779    97031721.969                  
                 120878466.477                   120878466.477    23213440.704  
                 131320593.374                   131320593.374    25218742.613  
                 116803985.772                   116803985.772    22430973.753  
                 134781542.997                   134781542.997    25883384.424  
                 126147668.691                   126147668.691    24225339.905  
  25704061.756   135075713.854                                                  
  23509416.928   123542801.915                                                  
  23986659.702   126050719.657                                                  
  26374463.254   138598682.503                                                  
  24880233.432   130746435.782                                                  
 21  8 31 20 19 41.0000000  0 17G10G15G18G23G24G27G32C19C21C22C34C35
                                E 3E 5E 9E15E36
  22608170.615   118806683.929    22608174.082    92576622.793                  
  22099013.873   116131098.063    22099014.874    90491763.554                  
  20185284.328   106074383.570    20185285.418    82655365.469                  
  20756615.335   109076749.160    20756616.353    84994871.122                  
  20790385.679   109254164.767    20790389.164    85133103.044                  
  24302006.841   127707843.933    24302010.719    99512590.582                  
  23695632.340   124521322.716    23695637.039    97029585.559                  
                 120880100.415                   120880100.415    23213754.484  
                 131318659.762                   131318659.762    25218371.294  
                 116803668.613                   116803668.613    22430912.838  
                 134779571.621                   134779571.621    25883005.833  
                 126150640.908                   126150640.908    24225910.678  
  25703744.099   135074044.564                                                  
  23509479.952   123543133.150                                                  
  23987050.516   126052773.343                                                  
  26373992.245   138596207.234                                                  
  24880699.063   130748882.651                                                  
 21  8 31 20 19 42.0000000  0 17G10G15G18G23G24G27G32C19C21C22C34C35
                                E 3E 5E 9E15E36
  22607760.200   118804527.259    22607763.684    92574942.268                  
  22099559.433   116133965.011    22099560.451    90493997.539                  
  20185455.585   106075283.609    20185456.675    82656066.796                  
  20756450.940   109075885.250    20756451.958    84994197.949                  
  20790237.277   109253384.887    20790240.762    85132495.348                  
  24301962.311   127707609.969    24301966.207    99512408.273                  
  23695110.653   124518581.234    23695115.353    97027449.344                  
                 120881734.417                   120881734.417    23214068.264  
                 131316726.230                   131316726.230    25217999.976  
                 116803351.602                   116803351.602    22430851.958  
                 134777600.669                   134777600.669    25882627.332  
                 126153613.284                   126153613.284    24226481.503  
  25703426.495   135072375.476                                                  
  23509543.012   123543464.587                                                  
  23987441.311   126054827.063                                                  
  26373521.253   138593732.194                                                  
  24881164.748   130751329.828                                                  
 21  8 31 20 19 43.0000000  0 17G10G15G18G23G24G27G32C19C21C22C34C35
                                E 3E 5E 9E15E36
  22607349.820   118802370.636    22607353.304    92573261.790                  
  22100105.045   116136832.122    22100106.046    90496231.645                  
  20185626.984   106076184.271    20185628.074    82656768.613                  
  20756286.580   109075021.553    20756287.599    84993524.937                  
  20790089.000   109252605.706    20790092.485    85131888.191                  
  24301917.907   127707376.578    24301921.802    99512226.409                  
  23694589.021   124515839.984    23694593.720    97025313.305                  
                 120883368.480                   120883368.480    23214382.080  
                 131314792.774                   131314792.774    25217628.676  
                 116803034.739                   116803034.739    22430791.114  
                 134775630.137                   134775630.137    25882248.919  
                 126156585.835                   126156585.835    24227052.347  
  25703108.926   135070706.585                                                  
  23509606.143   123543796.238                                                  
  23987832.142   126056880.805                                                  
  26373050.315   138591257.371                                                  
  24881630.486   130753777.296                                                  
 21  8 31 20 19 44.0000000  0 17G10G15G18G23G24G27G32C19C21C22C34C35
                                E 3E 5E 9E15E36
  22606939.440   118800214.066    22606942.924    92571581.343                  
  22100650.658   116139699.398    22100651.677    90498465.886                  
  20185798.473   106077085.557    20185799.581    82657470.914                  
  20756122.257   109074158.086    20756123.293    84992852.105                  
  20789940.866   109251827.203    20789944.332    85131281.565                  
  24301873.592   127707143.797    24301877.505    99512045.019                  
  23694067.424   124513098.977    23694072.124    97023177.453                  
                 120885002.610                   120885002.610    23214695.896  
                 131312859.394                   131312859.394    25217257.393  
                 116802718.024                   116802718.024    22430730.306  
                 134773660.022                   134773660.022    25881870.579  
                 126159558.558                   126159558.558    24227623.227  
  25702791.358   135069037.887                                                  
  23509669.275   123544128.095                                                  
  23988222.956   126058934.578                                                  
  26372579.413   138588782.786                                                  
  24882096.278   130756225.075                                                  
 21  8 31 20 19 45.0000000  0 17G10G15G18G23G24G27G32C19C21C22C34C35
                                E 3E 5E 9E15E36
  22606529.060   118798057.552    22606532.544    92569900.942                  
  22101196.324   116142566.824    22101197.325    90500700.246                  
  20185970.123   106077987.457    20185971.213    82658173.691                  
  20755958.005   109073294.821    20755959.023    84992179.429                  
  20789792.839   109251049.395    20789796.323    85130675.481                  
  24301829.419   127706911.606    24301833.315    99511864.089                  
  23693545.863   124510358.187    23693550.563    97021041.778                  
                 120886636.798                   120886636.798    23215009.711  
                 131310926.095                   131310926.095    25216886.128  
                 116802401.461                   116802401.461    22430669.498  
                 134771690.327                   134771690.327    25881492.327  
                 126162531.449                   126162531.449    24228194.142  
  25702473.861   135067369.383                                                  
  23509732.477   123544460.160                                                  
  23988613.787   126060988.360                                                  
  26372108.564   138586308.415                                                  
  24882562.141   130758673.136                                                  
 21  8 31 20 19 46.0000000  0 17G10G15G18G23G24G27G32C19C21C22C34C35
                                E 3E 5E 9E15E36
  22606118.698   118795901.087    22606122.182    92568220.583                  
  22101742.009   116145434.417    22101743.027    90502934.732                  
  20186141.862   106078889.985    20186142.952    82658876.957                  
  20755793.753   109072431.776    20755794.771    84991506.929                  
  20789644.955   109250272.268    20789648.439    85130069.930                  
  24301785.337   127706680.008    24301789.232    99511683.625                  
  23693024.356   124507617.644    23693029.037    97018906.294                  
                 120888271.049                   120888271.049    23215323.563  
                 131308992.866                   131308992.866    25216514.864  
                 116802085.046                   116802085.046    22430608.743  
                 134769721.056                   134769721.056    25881114.147  
                 126165504.509                   126165504.509    24228765.075  
  25702156.400   135065701.079                                                  
  23509795.698   123544792.434                                                  
  23989004.618   126063042.172                                                  
  26371637.733   138583834.270                                                  
  24883028.040   130761121.508                                                  
 21  8 31 20 19 47.0000000  0 17G10G15G18G23G24G27G32C19C21C22C34C35
                                E 3E 5E 9E15E36
  22605708.335   118793744.667    22605711.820    92566540.257                  
  22102287.729   116148302.177    22102288.711    90505169.348                  
  20186313.727   106079793.132    20186314.817    82659580.710                  
  20755629.554   109071568.952    20755630.608    84990834.598                  
  20789497.196   109249495.825    20789500.698    85129464.907                  
  24301741.379   127706448.996    24301745.274    99511503.618                  
  23692502.884   124504877.333    23692507.584    97016770.984                  
                 120889905.368                   120889905.368    23215637.414  
                 131307059.721                   131307059.721    25216143.617  
                 116801768.785                   116801768.785    22430548.006  
                 134767752.204                   134767752.204    25880736.039  
                 126168477.734                   126168477.734    24229336.062  
  25701838.957   135064032.965                                                  
  23509858.972   123545124.921                                                  
  23989395.432   126065096.025                                                  
  26371166.956   138581360.343                                                  
  24883493.993   130763570.167                                                  
 21  8 31 20 19 48.0000000  0 17G10G15G18G23G24G27G32C19C21C22C34C35
                                E 3E 5E 9E15E36
  22605297.991   118791588.308    22605301.476    92564859.980                  
  22102833.466   116151170.090    22102834.485    90507404.087                  
  20186485.698   106080696.907    20186486.806    82660284.950                  
  20755465.427   109070706.347    20755466.446    84990162.441                  
  20789349.580   109248720.077    20789353.082    85128860.431                  
  24301697.546   127706218.589    24301701.442    99511324.078                  
  23691981.466   124502137.257    23691986.165    97014635.867                  
                 120891539.745                   120891539.745    23215951.284  
                 131305126.652                   131305126.652    25215772.406  
                 116801452.667                   116801452.667    22430487.305  
                 134765783.770                   134765783.770    25880358.019  
                 126171451.134                   126171451.134    24229907.085  
  25701521.567   135062365.054                                                  
  23509922.282   123545457.617                                                  
  23989786.281   126067149.877                                                  
  26370696.232   138578886.652                                                  
  24883960.017   130766019.137                                                  
 21  8 31 20 19 49.0000000  0 17G10G15G18G23G24G27G32C19C21C22C34C35
                                E 3E 5E 9E15E36
  22604887.683   118789432.005    22604891.131    92563179.742                  
  22103379.240   116154038.164    22103380.259    90509638.945                  
  20186657.795   106081601.292    20186658.903    82660989.668                  
  20755301.318   109069843.960    20755302.337    84989490.448                  
  20789202.107   109247945.019    20789205.573    85128256.489                  
  24301653.803   127705988.763    24301657.698    99511144.993                  
  23691460.101   124499397.430    23691464.783    97012500.934                  
                 120893174.186                   120893174.186    23216265.153  
                 131303193.659                   131303193.659    25215401.177  
                 116801136.703                   116801136.703    22430426.622  
                 134763815.759                   134763815.759    25879980.072  
                 126174424.700                   126174424.700    24230478.125  
  25701204.214   135060697.348                                                  
  23509985.646   123545790.513                                                  
  23990177.112   126069203.757                                                  
  26370225.562   138576413.171                                                  
  24884426.095   130768468.398                                                  
 21  8 31 20 19 50.0000000  0 17G10G15G18G23G24G27G32C19C21C22C34C35
                                E 3E 5E 9E15E36
  22604477.356   118787275.745    22604480.823    92561499.542                  
  22103925.031   116156906.399    22103926.068    90511873.934                  
  20186830.016   106082506.308    20186831.124    82661694.876                  
  20755137.245   109068981.786    20755138.281    84988818.625                  
  20789054.741   109247170.641    20789058.225    85127653.078                  
  24301610.184   127705759.547    24301614.080    99510966.379                  
  23690938.755   124496657.811    23690943.454    97010366.171                  
                 120894808.691                   120894808.691    23216579.058  
                 131301260.747                   131301260.747    25215030.002  
                 116800820.890                   116800820.890    22430365.957  
                 134761848.163                   134761848.163    25879602.213  
                 126177398.434                   126177398.434    24231049.201  
  25700886.896   135059029.816                                                  
  23510049.027   123546123.617                                                  
  23990567.979   126071257.671                                                  
  26369754.892   138573939.927                                                  
  24884892.244   130770917.952                                                  
 21  8 31 20 19 51.0000000  0 17G10G15G18G23G24G27G32C19C21C22C34C35
                                E 3E 5E 9E15E36
  22604067.048   118785119.551    22604070.514    92559819.386                  
  22104470.877   116159774.796    22104471.895    90514109.046                  
  20187002.363   106083411.935    20187003.453    82662400.554                  
  20754973.225   109068119.833    20754974.261    84988146.973                  
  20788907.518   109246396.956    20788911.003    85127050.207                  
  24301566.673   127705530.907    24301570.587    99510788.219                  
  23690417.480   124493918.454    23690422.179    97008231.605                  
                 120896443.254                   120896443.254    23216892.963  
                 131299327.896                   131299327.896    25214658.808  
                 116800505.222                   116800505.222    22430305.345  
                 134759880.991                   134759880.991    25879224.444  
                 126180372.300                   126180372.300    24231620.295  
  25700569.595   135057362.497                                                  
  23510112.462   123546456.947                                                  
  23990958.828   126073311.606                                                  
  26369284.293   138571466.905                                                  
  24885358.447   130773367.812                                                  
 21  8 31 20 19 52.0000000  0 17G10G15G18G23G24G27G32C19C21C22C34C35
                                E 3E 5E 9E15E36
  22603656.739   118782963.392    22603660.224    92558139.266                  
  22105016.757   116162643.352    22105017.776    90516344.284                  
  20187174.817   106084318.198    20187175.925    82663106.733                  
  20754809.241   109067258.089    20754810.260    84987475.488                  
  20788760.420   109245623.961    20788763.905    85126447.875                  
  24301523.287   127705302.868    24301527.183    99510610.527                  
  23689896.240   124491179.328    23689900.940    97006097.225                  
                 120898077.887                   120898077.887    23217206.869  
                 131297395.132                   131297395.132    25214287.633  
                 116800189.708                   116800189.708    22430244.769  
                 134757914.241                   134757914.241    25878846.765  
                 126183346.374                   126183346.374    24232191.443  
  25700252.367   135055695.376                                                  
  23510175.915   123546790.470                                                  
  23991349.678   126075365.567                                                  
  26368813.748   138568994.104                                                  
  24885824.685   130775817.968                                                  
 21  8 31 20 19 53.0000000  0 17G10G15G18G23G24G27G32C19C21C22C34C35
                                E 3E 5E 9E15E36
  22603246.449   118780807.297    22603249.915    92556459.192                  
  22105562.656   116165512.074    22105563.674    90518579.653                  
  20187347.396   106085225.074    20187348.504    82663813.390                  
  20754645.293   109066396.576    20754646.311    84986804.173                  
  20788613.448   109244851.632    20788616.914    85125846.058                  
  24301480.009   127705075.419    24301483.904    99510433.294                  
  23689375.037   124488440.425    23689379.736    97003963.020                  
                 120899712.578                   120899712.578    23217520.792  
                 131295462.452                   131295462.452    25213916.476  
                 116799874.340                   116799874.340    22430184.193  
                 134755947.910                   134755947.910    25878469.139  
                 126186320.617                   126186320.617    24232762.608  
  25699935.156   135054028.433                                                  
  23510239.422   123547124.199                                                  
  23991740.545   126077419.546                                                  
  26368343.239   138566521.527                                                  
  24886290.995   130778268.423                                                  
 21  8 31 20 19 54.0000000  0 17G10G15G18G23G24G27G32C19C21C22C34C35
                                E 3E 5E 9E15E36
  22602836.158   118778651.255    22602839.642    92554779.160                  
  22106108.572   116168380.961    22106109.609    90520815.149                  
  20187520.082   106086132.567    20187521.172    82664520.528                  
  20754481.398   109065535.271    20754482.417    84986133.031                  
  20788466.618   109244080.007    20788470.102    85125244.794                  
  24301436.837   127704848.565    24301440.715    99510256.523                  
  23688853.887   124485701.755    23688858.586    97001828.989                  
                 120901347.336                   120901347.336    23217834.732  
                 131293529.848                   131293529.848    25213545.336  
                 116799559.120                   116799559.120    22430123.653  
                 134753982.001                   134753982.001    25878091.602  
                 126189295.024                   126189295.024    24233333.827  
  25699617.980   135052361.698                                                  
  23510302.982   123547458.133                                                  
  23992131.394   126079473.554                                                  
  26367872.765   138564049.172                                                  
  24886757.359   130780719.172                                                  
 21  8 31 20 19 55.0000000  0 17G10G15G18G23G24G27G32C19C21C22C34C35
                                E 3E 5E 9E15E36
  22602425.903   118776495.266    22602429.352    92553099.173                  
  22106654.560   116171250.024    22106655.561    90523050.778                  
  20187692.894   106087040.688    20187694.002    82665228.152                  
  20754317.539   109064674.183    20754318.558    84985462.051                  
  20788319.895   109243309.063    20788323.380    85124644.056                  
  24301393.773   127704622.305    24301397.686    99510080.218                  
  23688332.772   124482963.327    23688337.472    96999695.152                  
                 120902982.152                   120902982.152    23218148.673  
                 131291597.317                   131291597.317    25213174.214  
                 116799244.054                   116799244.054    22430063.166  
                 134752016.513                   134752016.513    25877714.154  
                 126192269.601                   126192269.601    24233905.064  
  25699300.859   135050695.152                                                  
  23510366.560   123547792.288                                                  
  23992522.279   126081527.577                                                  
  26367402.328   138561577.054                                                  
  24887223.776   130783170.219                                                  
 21  8 31 20 19 56.0000000  0 17G10G15G18G23G24G27G32C19C21C22C34C35
                                E 3E 5E 9E15E36
  22602015.612   118774339.329    22602019.097    92551419.218                  
  22107200.548   116174119.237    22107201.567    90525286.528                  
  20187865.812   106087949.425    20187866.920    82665936.261                  
  20754153.716   109063813.313    20754154.734    84984791.243                  
  20788173.334   109242538.808    20788176.818    85124043.860                  
  24301350.833   127704396.634    24301354.729    99509904.368                  
  23687811.711   124480225.138    23687816.429    96997561.500                  
                 120904617.035                   120904617.035    23218462.632  
                 131289664.867                   131289664.867    25212803.128  
                 116798929.137                   116798929.137    22430002.679  
                 134750051.441                   134750051.441    25877336.779  
                 126195244.350                   126195244.350    24234476.319  
  25698983.755   135049028.813                                                  
  23510430.173   123548126.645                                                  
  23992913.146   126083581.641                                                  
  26366931.944   138559105.160                                                  
  24887690.265   130785621.570                                                  
 21  8 31 20 19 57.0000000  0 17G10G15G18G23G24G27G32C19C21C22C34C35
                                E 3E 5E 9E15E36
  22601605.375   118772183.437    22601608.860    92549739.304                  
  22107746.554   116176988.649    22107747.573    90527522.450                  
  20188038.856   106088858.796    20188039.964    82666644.864                  
  20753989.946   109062952.663    20753990.983    84984120.609                  
  20788026.879   109241769.246    20788030.381    85123444.199                  
  24301308.001   127704171.591    24301311.879    99509729.024                  
  23687290.704   124477487.224    23687295.386    96995428.081                  
                 120906252.000                   120906252.000    23218776.626  
                 131287732.461                   131287732.461    25212432.042  
                 116798614.368                   116798614.368    22429942.228  
                 134748086.729                   134748086.729    25876959.492  
                 126198219.239                   126198219.239    24235047.645  
  25698666.705   135047362.648                                                  
  23510493.859   123548461.219                                                  
  23993304.013   126085635.749                                                  
  26366461.595   138556633.495                                                  
  24888156.771   130788073.222                                                  
 21  8 31 20 19 58.0000000  0 17G10G15G18G23G24G27G32C19C21C22C34C35
                                E 3E 5E 9E15E36
  22601195.138   118770027.600    22601198.605    92548059.429                  
  22108292.614   116179858.179    22108293.632    90529758.444                  
  20188212.025   106089768.777    20188213.115    82667353.938                  
  20753826.195   109062092.227    20753827.249    84983450.137                  
  20787880.585   109241000.374    20787884.052    85122845.077                  
  24301265.277   127703947.103    24301269.172    99509554.098                  
  23686769.715   124474749.495    23686774.397    96993294.788                  
                 120907887.008                   120907887.008    23219090.603  
                 131285800.163                   131285800.163    25212060.956  
                 116798299.747                   116798299.747    22429881.813  
                 134746122.503                   134746122.503    25876582.295  
                 126201194.320                   126201194.320    24235618.953  
  25698349.673   135045696.700                                                  
  23510557.562   123548795.990                                                  
  23993694.897   126087689.843                                                  
  26365991.300   138554162.038                                                  
  24888623.385   130790525.159                                                  
 21  8 31 20 19 59.0000000  0 17G10G15G18G23G24G27G32C19C21C22C34C35
                                E 3E 5E 9E15E36
  22600784.901   118767871.826    22600788.386    92546379.604                  
  22108838.691   116182727.876    22108839.728    90531994.570                  
  20188385.318   106090679.384    20188386.426    82668063.504                  
  20753662.514   109061232.017    20753663.533    84982779.844                  
  20787734.399   109240232.179    20787737.883    85122246.489                  
  24301222.677   127703723.207    24301226.554    99509379.636                  
  23686248.797   124472012.024    23686253.479    96991161.699                  
                 120909522.077                   120909522.077    23219404.598  
                 131283867.946                   131283867.946    25211689.906  
                 116797985.277                   116797985.277    22429821.416  
                 134744158.699                   134744158.699    25876205.151  
                 126204169.569                   126204169.569    24236190.333  
  25698032.694   135044030.934                                                  
  23510621.300   123549130.977                                                  
  23994085.800   126089743.977                                                  
  26365521.041   138551690.821                                                  
  24889090.017   130792977.407                                                  
 21  8 31 20 20  0.0000000  0 17G10G15G18G23G24G27G32C19C21C22C34C35
                                E 3E 5E 9E15E36
  22600374.682   118765716.098    22600378.167    92544699.821                  
  22109384.822   116185597.725    22109385.841    90534230.816                  
  20188558.719   106091590.612    20188559.827    82668773.552                  
  20753498.852   109060372.021    20753499.888    84982109.719                  
  20787588.338   109239464.680    20787591.822    85121648.433                  
  24301180.184   127703499.908    24301184.080    99509205.636                  
  23685727.898   124469274.762    23685732.597    96989028.765                  
                 120911157.210                   120911157.210    23219718.592  
                 131281935.804                   131281935.804    25211318.838  
                 116797670.956                   116797670.956    22429761.054  
                 134742195.314                   134742195.314    25875828.115  
                 126207144.987                   126207144.987    24236761.749  
  25697715.751   135042365.380                                                  
  23510685.075   123549466.159                                                  
  23994476.685   126091798.126                                                  
  26365050.818   138549219.813                                                  
  24889556.720   130795429.937                                                  
 21  8 31 20 20  1.0000000  0 17G10G15G18G23G24G27G32C19C21C22C34C35
                                E 3E 5E 9E15E36
  22599964.481   118763560.434    22599967.948    92543020.081                  
  22109930.953   116188467.739    22109931.972    90536467.188                  
  20188732.245   106092502.468    20188733.335    82669484.089                  
  20753335.261   109059512.242    20753336.280    84981439.762                  
  20787442.419   109238697.865    20787445.904    85121050.919                  
  24301137.799   127703277.201    24301141.694    99509032.098                  
  23685207.051   124466537.746    23685211.769    96986896.032                  
                 120912792.407                   120912792.407    23220032.640  
                 131280003.738                   131280003.738    25210947.805  
                 116797356.786                   116797356.786    22429700.729  
                 134740232.347                   134740232.347    25875451.132  
                 126210120.574                   126210120.574    24237333.165  
  25697398.844   135040700.015                                                  
  23510748.921   123549801.566                                                  
  23994867.588   126093852.302                                                  
  26364580.648   138546749.046                                                  
  24890023.477   130797882.784                                                  
 21  8 31 20 20  2.0000000  0 17G10G15G18G23G24G27G32C19C21C22C34C35
                                E 3E 5E 9E15E36
  22599554.280   118761404.818    22599557.746    92541340.382                  
  22110477.138   116191337.894    22110478.156    90538703.672                  
  20188905.861   106093414.932    20188906.987    82670195.098                  
  20753171.688   109058652.681    20753172.707    84980769.973                  
  20787296.644   109237931.739    20787300.128    85120453.938                  
  24301095.539   127703055.086    24301099.416    99508859.020                  
  23684686.276   124463800.977    23684690.958    96984763.489                  
                 120914427.668                   120914427.668    23220346.652  
                 131278071.751                   131278071.751    25210576.773  
                 116797042.761                   116797042.761    22429640.421  
                 134738269.804                   134738269.804    25875074.256  
                 126213096.332                   126213096.332    24237904.616  
  25697081.973   135039034.839                                                  
  23510812.785   123550137.170                                                  
  23995258.473   126095906.501                                                  
  26364110.514   138544278.493                                                  
  24890490.305   130800335.915                                                  
 21  8 31 20 20  3.0000000  0 17G10G15G18G23G24G27G32C19C21C22C34C35
                                E 3E 5E 9E15E36
  22599144.078   118759249.251    22599147.563    92539660.720                  
  22111023.340   116194208.221    22111024.359    90540940.289                  
  20189079.619   106094328.030    20189080.727    82670906.602                  
  20753008.169   109057793.339    20753009.187    84980100.354                  
  20787150.975   109237166.297    20787154.460    85119857.487                  
  24301053.386   127702833.568    24301057.281    99508686.410                  
  23684165.519   124461064.437    23684170.219    96982631.118                  
                 120916062.987                   120916062.987    23220660.718  
                 131276139.839                   131276139.839    25210205.776  
                 116796728.890                   116796728.890    22429580.148  
                 134736307.684                   134736307.684    25874697.452  
                 126216072.253                   126216072.253    24238476.121  
  25696765.137   135037369.874                                                  
  23510876.684   123550472.992                                                  
  23995649.393   126097960.723                                                  
  26363640.416   138541808.168                                                  
  24890957.187   130802789.343                                                  
 21  8 31 20 20  4.0000000  0 17G10G15G18G23G24G27G32C19C21C22C34C35
                                E 3E 5E 9E15E36
  22598733.895   118757093.737    22598737.379    92537981.101                  
  22111569.578   116197078.711    22111570.597    90543177.032                  
  20189253.503   106095241.747    20189254.593    82671618.585                  
  20752844.667   109056934.212    20752845.703    84979430.907                  
  20787005.432   109236401.544    20787008.917    85119261.578                  
  24301011.340   127702612.630    24301015.235    99508514.249                  
  23683644.816   124458328.122    23683649.516    96980498.927                  
                 120917698.370                   120917698.370    23220974.784  
                 131274208.008                   131274208.008    25209834.798  
                 116796415.168                   116796415.168    22429519.894  
                 134734345.982                   134734345.982    25874320.720  
                 126219048.343                   126219048.343    24239047.662  
  25696448.337   135035705.097                                                  
  23510940.620   123550809.012                                                  
  23996040.296   126100014.960                                                  
  26363170.371   138539338.067                                                  
  24891424.104   130805243.079                                                  
 21  8 31 20 20  5.0000000  0 17G10G15G18G23G24G27G32C19C21C22C34C35
                                E 3E 5E 9E15E36
  22598323.747   118754938.285    22598327.196    92536301.528                  
  22112115.852   116199949.367    22112116.853    90545413.907                  
  20189427.493   106096156.086    20189428.601    82672331.061                  
  20752681.219   109056075.313    20752682.255    84978761.633                  
  20786860.068   109235637.493    20786863.534    85118666.212                  
  24300969.419   127702392.288    24300973.297    99508342.554                  
  23683124.166   124455592.051    23683128.866    96978366.926                  
                 120919333.820                   120919333.820    23221288.832  
                 131272276.254                   131272276.254    25209463.819  
                 116796101.594                   116796101.594    22429459.675  
                 134732384.704                   134732384.704    25873944.077  
                 126222024.599                   126222024.599    24239619.220  
  25696131.573   135034040.522                                                  
  23511004.609   123551145.253                                                  
  23996431.217   126102069.241                                                  
  26362700.380   138536868.200                                                  
  24891891.093   130807697.114                                                  
 21  8 31 20 20  6.0000000  0 17G10G15G18G23G24G27G32C19C21C22C34C35
                                E 3E 5E 9E15E36
  22597913.582   118752782.883    22597917.048    92534621.991                  
  22112662.144   116202820.164    22112663.162    90547650.892                  
  20189601.591   106097071.038    20189602.699    82673044.009                  
  20752517.825   109055216.638    20752518.861    84978092.535                  
  20786714.775   109234874.093    20786718.259    85118071.355                  
  24300927.606   127702172.539    24300931.483    99508171.323                  
  23682603.552   124452856.215    23682608.234    96976235.110                  
                 120920969.328                   120920969.328    23221602.916  
                 131270344.574                   131270344.574    25209092.858  
                 116795788.168                   116795788.168    22429399.475  
                 134730423.843                   134730423.843    25873567.523  
                 126225001.023                   126225001.023    24240190.797  
  25695814.863   135032376.168                                                  
  23511068.616   123551481.676                                                  
  23996822.137   126104123.534                                                  
  26362230.425   138534398.548                                                  
  24892358.136   130810151.422                                                  
 21  8 31 20 20  7.0000000  0 17G10G15G18G23G24G27G32C19C21C22C34C35
                                E 3E 5E 9E15E36
  22597503.416   118750627.539    22597506.901    92532942.507                  
  22113208.471   116205691.114    22113209.472    90549887.993                  
  20189775.832   106097986.612    20189776.940    82673757.446                  
  20752354.466   109054358.180    20752355.502    84977423.609                  
  20786569.642   109234111.374    20786573.127    85117477.031                  
  24300885.899   127701953.392    24300889.777    99508000.554                  
  23682082.974   124450120.611    23682087.656    96974103.468                  
                 120922604.903                   120922604.903    23221917.018  
                 131268412.974                   131268412.974    25208721.915  
                 116795474.893                   116795474.893    22429339.328  
                 134728463.406                   134728463.406    25873191.040  
                 126227977.618                   126227977.618    24240762.427  
  25695498.206   135030712.036                                                  
  23511132.676   123551818.301                                                  
  23997213.058   126106177.851                                                  
  26361760.505   138531929.128                                                  
  24892825.232   130812606.027                                                  
 21  8 31 20 20  8.0000000  0 17G10G15G18G23G24G27G32C19C21C22C34C35
                                E 3E 5E 9E15E36
  22597093.286   118748472.243    22597096.753    92531263.056                  
  22113754.835   116208562.267    22113755.853    90552125.255                  
  20189950.180   106098902.823    20189951.288    82674471.374                  
  20752191.143   109053499.892    20752192.162    84976754.813                  
  20786424.635   109233349.433    20786428.138    85116883.312                  
  24300844.300   127701734.843    24300848.196    99507830.259                  
  23681562.467   124447385.259    23681567.131    96971972.027                  
                 120924240.536                   120924240.536    23222231.120  
                 131266481.449                   131266481.449    25208350.972  
                 116795161.767                   116795161.767    22429279.198  
                 134726503.390                   134726503.390    25872814.647  
                 126230954.374                   126230954.374    24241334.075  
  25695181.513   135029047.940                                                  
  23511196.808   123552155.211                                                  
  23997603.996   126108232.188                                                  
  26361290.639   138529459.942                                                  
  24893292.400   130815060.980                                                  
 21  8 31 20 20  9.0000000  0 17G10G15G18G23G24G27G32C19C21C22C34C35
                                E 3E 5E 9E15E36
  22596683.156   118746316.999    22596686.623    92529583.645                  
  22114301.216   116211433.542    22114302.234    90554362.610                  
  20190124.635   106099819.645    20190125.743    82675185.778                  
  20752027.856   109052641.859    20752028.875    84976086.219                  
  20786279.771   109232588.105    20786283.256    85116290.070                  
  24300802.826   127701516.875    24300806.722    99507660.414                  
  23681041.979   124444650.130    23681046.660    96969840.762                  
                 120925876.233                   120925876.233    23222545.239  
                 131264550.005                   131264550.005    25207980.082  
                 116794848.789                   116794848.789    22429219.105  
                 134724543.796                   134724543.796    25872438.325  
                 126233931.301                   126233931.301    24241905.776  
  25694864.928   135027384.161                                                  
  23511260.940   123552492.271                                                  
  23997994.917   126110286.548                                                  
  26360820.791   138526990.967                                                  
  24893759.603   130817516.183                                                  
 21  8 31 20 20 10.0000000  0 17G10G15G18G23G24G27G32C19C21C22C34C35
                                E 3E 5E 9E15E36
  22596273.045   118744161.793    22596276.493    92527904.266                  
  22114847.633   116214304.988    22114848.651    90556600.103                  
  20190299.234   106100737.085    20190300.341    82675900.667                  
  20751864.623   109051784.044    20751865.659    84975417.789                  
  20786135.032   109231827.484    20786138.516    85115697.378                  
  24300761.459   127701299.500    24300765.355    99507491.031                  
  23680521.543   124441915.239    23680526.243    96967709.676                  
                 120927511.997                   120927511.997    23222859.377  
                 131262618.634                   131262618.634    25207609.175  
                 116794535.965                   116794535.965    22429159.011  
                 134722584.624                   134722584.624    25872062.075  
                 126236908.394                   126236908.394    24242477.495  
  25694548.342   135025720.557                                                  
  23511325.125   123552829.536                                                  
  23998385.855   126112340.935                                                  
  26360351.015   138524522.222                                                  
  24894226.878   130819971.701                                                  
 21  8 31 20 20 11.0000000  0 17G10G15G18G23G24G27G32C19C21C22C34C35
                                E 3E 5E 9E15E36
  22595862.915   118742006.655    22595866.399    92526224.938                  
  22115394.103   116217176.589    22115395.104    90558837.712                  
  20190473.939   106101655.151    20190475.047    82676616.047                  
  20751701.425   109050926.442    20751702.461    84974749.528                  
  20785990.418   109231067.550    20785993.902    85115105.222                  
  24300720.218   127701082.723    24300724.095    99507322.114                  
  23680001.162   124439180.585    23680005.843    96965578.782                  
                 120929147.820                   120929147.820    23223173.514  
                 131260687.339                   131260687.339    25207238.286  
                 116794223.284                   116794223.284    22429098.953  
                 134720625.871                   134720625.871    25871685.914  
                 126239885.655                   126239885.655    24243049.233  
  25694231.792   135024057.147                                                  
  23511389.347   123553167.012                                                  
  23998776.794   126114395.336                                                  
  26359881.274   138522053.708                                                  
  24894694.207   130822427.511                                                  
 21  8 31 20 20 12.0000000  0 17G10G15G18G23G24G27G32C19C21C22C34C35
                                E 3E 5E 9E15E36
  22595452.821   118739851.570    22595456.305    92524545.653                  
  22115940.574   116220048.358    22115941.574    90561075.454                  
  20190648.752   106102573.839    20190649.860    82677331.903                  
  20751538.281   109050069.064    20751539.299    84974081.441                  
  20785845.947   109230308.306    20785849.414    85114513.601                  
  24300679.083   127700866.539    24300682.961    99507153.661                  
  23679480.816   124436446.157    23679485.497    96963448.063                  
                 120930783.706                   120930783.706    23223487.687  
                 131258756.125                   131258756.125    25206867.414  
                 116793910.756                   116793910.756    22429038.967  
                 134718667.542                   134718667.542    25871309.843  
                 126242863.083                   126242863.083    24243621.041  
  25693915.296   135022393.940                                                  
  23511453.604   123553504.702                                                  
  23999167.732   126116449.773                                                  
  26359411.569   138519585.417                                                  
  24895161.571   130824883.612                                                  
 21  8 31 20 20 13.0000000  0 17G10G15G18G23G24G27G32C19C21C22C34C35
                                E 3E 5E 9E15E36
  22595042.744   118737696.546    22595046.193    92522866.413                  
  22116487.080   116222920.282    22116488.098    90563313.312                  
  20190823.707   106103493.149    20190824.797    82678048.251                  
  20751375.154   109049211.903    20751376.173    84973413.523                  
  20785701.601   109229549.754    20785705.085    85113922.523                  
  24300638.038   127700650.946    24300641.934    99506985.664                  
  23678960.523   124433711.979    23678965.205    96961317.535                  
                 120932419.656                   120932419.656    23223801.842  
                 131256824.989                   131256824.989    25206496.560  
                 116793598.380                   116793598.380    22428978.963  
                 134716709.637                   134716709.637    25870933.843  
                 126245840.676                   126245840.676    24244192.832  
  25693598.836   135020730.927                                                  
  23511517.897   123553842.592                                                  
  23999558.707   126118504.230                                                  
  26358941.917   138517117.355                                                  
  24895629.025   130827340.015                                                  
 21  8 31 20 20 14.0000000  0 17G10G15G18G23G24G27G32C19C21C22C34C35
                                E 3E 5E 9E15E36
  22594632.668   118735541.558    22594636.117    92521187.204                  
  22117033.622   116225792.356    22117034.640    90565551.294                  
  20190998.752   106104413.078    20190999.860    82678765.079                  
  20751212.099   109048354.953    20751213.118    84972745.770                  
  20785557.380   109228791.883    20785560.865    85113331.972                  
  24300597.136   127700435.944    24300601.013    99506818.128                  
  23678440.267   124430978.027    23678444.948    96959187.183                  
                 120934055.667                   120934055.667    23224116.016  
                 131254893.926                   131254893.926    25206125.725  
                 116793286.150                   116793286.150    22428918.995  
                 134714752.149                   134714752.149    25870557.915  
                 126248818.437                   126248818.437    24244764.695  
  25693282.411   135019068.113                                                  
  23511582.243   123554180.702                                                  
  23999949.663   126120558.708                                                  
  26358472.301   138514649.517                                                  
  24896096.514   130829796.724                                                  
 21  8 31 20 20 15.0000000  0 17G10G15G18G23G24G27G32C19C21C22C34C35
                                E 3E 5E 9E15E36
  22594222.574   118733386.684    22594226.059    92519508.102                  
  22117580.181   116228664.556    22117581.200    90567789.351                  
  20191173.922   106105333.626    20191175.012    82679482.382                  
  20751049.062   109047498.220    20751050.081    84972078.188                  
  20785413.284   109228034.648    20785416.769    85112741.899                  
  24300556.341   127700221.577    24300560.219    99506651.114                  
  23677920.064   124428244.312    23677924.745    96957057.025                  
                 120935691.742                   120935691.742    23224430.224  
                 131252962.942                   131252962.942    25205754.907  
                 116792974.067                   116792974.067    22428859.062  
                 134712795.085                   134712795.085    25870182.093  
                 126251796.362                   126251796.362    24245336.575  
  25692966.040   135017405.492                                                  
  23511646.625   123554518.950                                                  
  24000340.619   126122613.203                                                  
  26358002.721   138512181.965                                                  
  24896564.075   130832253.805                                                  
 21  8 31 20 20 16.0000000  0 17G10G15G18G23G24G27G32C19C21C22C34C35
                                E 3E 5E 9E15E36
  22593812.516   118731231.815    22593816.000    92517828.984                  
  22118126.777   116231536.949    22118127.796    90570027.582                  
  20191349.217   106106254.805    20191350.325    82680200.187                  
  20750886.079   109046641.716    20750887.098    84971410.780                  
  20785269.314   109227278.147    20785272.816    85112152.418                  
  24300515.635   127700007.753    24300519.549    99506484.497                  
  23677399.879   124425510.833    23677404.560    96954927.038                  
                 120937327.878                   120937327.878    23224744.416  
                 131251032.036                   131251032.036    25205384.089  
                 116792662.133                   116792662.133    22428799.165  
                 134710838.442                   134710838.442    25869806.343  
                 126254774.458                   126254774.458    24245908.509  
  25692649.687   135015743.075                                                  
  23511711.043   123554857.468                                                  
  24000731.576   126124667.734                                                  
  26357533.195   138509714.578                                                  
  24897031.672   130834711.118                                                  
 21  8 31 20 20 17.0000000  0 17G10G15G18G23G24G27G32C19C21C22C34C35
                                E 3E 5E 9E15E36
  22593402.475   118729076.997    22593405.942    92516149.907                  
  22118673.426   116234409.504    22118674.445    90572265.934                  
  20191524.638   106107176.597    20191525.745    82680918.469                  
  20750723.114   109045785.421    20750724.132    84970743.539                  
  20785125.504   109226522.348    20785128.988    85111563.481                  
  24300475.055   127699794.527    24300478.968    99506318.343                  
  23676879.765   124422777.594    23676884.447    96952797.241                  
                 120938964.079                   120938964.079    23225058.642  
                 131249101.203                   131249101.203    25205013.288  
                 116792350.350                   116792350.350    22428739.304  
                 134708882.222                   134708882.222    25869430.665  
                 126257752.720                   126257752.720    24246480.442  
  25692333.387   135014080.856                                                  
  23511775.478   123555196.206                                                  
  24001122.532   126126722.285                                                  
  26357063.722   138507247.429                                                  
  24897499.340   130837168.704                                                  
 21  8 31 20 20 18.0000000  0 17G10G15G18G23G24G27G32C19C21C22C34C35
                                E 3E 5E 9E15E36
  22592992.435   118726922.235    22592995.901    92514470.871                  
  22119220.075   116237282.218    22119221.094    90574504.410                  
  20191700.165   106108099.012    20191701.255    82681637.231                  
  20750560.220   109044929.351    20750561.238    84970076.472                  
  20784981.819   109225767.229    20784985.303    85110975.081                  
  24300434.599   127699581.891    24300438.495    99506152.652                  
  23676359.687   124420044.583    23676364.369    96950667.625                  
                 120940600.343                   120940600.343    23225372.851  
                 131247170.452                   131247170.452    25204642.506  
                 116792038.719                   116792038.719    22428679.442  
                 134706926.425                   134706926.425    25869055.076  
                 126260731.145                   126260731.145    24247052.412  
  25692017.106   135012418.820                                                  
  23511839.986   123555535.132                                                  
  24001513.524   126128776.863                                                  
  26356594.267   138504780.488                                                  
  24897967.061   130839626.607                                                  
 21  8 31 20 20 19.0000000  0 17G10G15G18G23G24G27G32C19C21C22C34C35
                                E 3E 5E 9E15E36
  22592582.412   118724767.525    22592585.879    92512791.874                  
  22119766.760   116240155.075    22119767.779    90576743.000                  
  20191875.800   106109022.046    20191876.925    82682356.480                  
  20750397.361   109044073.496    20750398.380    84969409.574                  
  20784838.241   109225012.806    20784841.726    85110387.214                  
  24300394.269   127699369.850    24300398.146    99505987.426                  
  23675839.663   124417311.817    23675844.344    96948538.199                  
                 120942236.668                   120942236.668    23225687.096  
                 131245239.779                   131245239.779    25204271.742  
                 116791727.235                   116791727.235    22428619.617  
                 134704971.051                   134704971.051    25868679.559  
                 126263709.738                   126263709.738    24247624.417  
  25691700.860   135010756.992                                                  
  23511904.529   123555874.281                                                  
  24001904.498   126130831.464                                                  
  26356124.866   138502313.794                                                  
  24898434.837   130842084.788                                                  
 21  8 31 20 20 20.0000000  0 17G10G15G18G23G24G27G32C19C21C22C34C35
                                E 3E 5E 9E15E36
  22592172.408   118722612.871    22592175.856    92511112.925                  
  22120313.481   116243028.097    22120314.499    90578981.718                  
  20192051.577   106109945.704    20192052.685    82683076.212                  
  20750234.539   109043217.860    20750235.557    84968742.843                  
  20784694.825   109224259.064    20784698.291    85109799.887                  
  24300354.028   127699158.394    24300357.905    99505822.657                  
  23675319.674   124414579.282    23675324.356    96946408.953                  
                 120943873.060                   120943873.060    23226001.358  
                 131243309.175                   131243309.175    25203900.978  
                 116791415.897                   116791415.897    22428559.845  
                 134703016.095                   134703016.095    25868304.148  
                 126266688.497                   126266688.497    24248196.458  
  25691384.667   135009095.352                                                  
  23511969.107   123556213.641                                                  
  24002295.473   126132886.094                                                  
  26355655.518   138499847.314                                                  
  24898902.683   130844543.281                                                  
 21  8 31 20 20 21.0000000  0 17G10G15G18G23G24G27G32C19C21C22C34C35
                                E 3E 5E 9E15E36
  22591762.385   118720458.261    22591765.852    92509434.011                  
  22120860.237   116245901.286    22120861.256    90581220.562                  
  20192227.462   106110869.991    20192228.552    82683796.433                  
  20750071.752   109042362.442    20750072.788    84968076.281                  
  20784551.515   109223506.017    20784554.999    85109213.095                  
  24300313.894   127698947.531    24300317.772    99505658.348                  
  23674799.739   124411846.993    23674804.421    96944279.900                  
                 120945509.507                   120945509.507    23226315.621  
                 131241378.656                   131241378.656    25203530.249  
                 116791104.716                   116791104.716    22428500.073  
                 134701061.563                   134701061.563    25867928.774  
                 126269667.422                   126269667.422    24248768.535  
  25691068.493   135007433.914                                                  
  23512033.722   123556553.198                                                  
  24002686.465   126134940.730                                                  
  26355186.206   138497381.062                                                  
  24899370.566   130847002.067                                                  
 21  8 31 20 20 22.0000000  0 17G10G15G18G23G24G27G32C19C21C22C34C35
                                E 3E 5E 9E15E36
  22591352.380   118718303.710    22591355.865    92507755.140                  
  22121407.011   116248774.624    22121408.048    90583459.532                  
  20192403.454   106111794.888    20192404.562    82684517.132                  
  20749909.019   109041507.236    20749910.037    84967409.886                  
  20784408.348   109222753.654    20784411.815    85108626.836                  
  24300273.885   127698737.266    24300277.781    99505494.505                  
  23674279.840   124409114.931    23674284.522    96942151.020                  
                 120947146.024                   120947146.024    23226629.901  
                 131239448.210                   131239448.210    25203159.520  
                 116790793.675                   116790793.675    22428440.337  
                 134699107.454                   134699107.454    25867553.524  
                 126272646.512                   126272646.512    24249340.648  
  25690752.354   135005772.664                                                  
  23512098.354   123556892.969                                                  
  24003077.457   126136995.407                                                  
  26354716.912   138494915.043                                                  
  24899838.520   130849461.149                                                  
 21  8 31 20 20 23.0000000  0 17G10G15G18G23G24G27G32C19C21C22C34C35
                                E 3E 5E 9E15E36
  22590942.393   118716149.211    22590945.860    92506076.310                  
  22121953.821   116251648.121    22121954.840    90585698.618                  
  20192579.571   106112720.413    20192580.679    82685238.320                  
  20749746.321   109040652.255    20749747.340    84966743.667                  
  20784265.307   109222001.968    20784268.773    85108041.109                  
  24300233.984   127698527.596    24300237.879    99505331.124                  
  23673759.976   124406383.100    23673764.658    96940022.325                  
                 120948782.597                   120948782.597    23226944.182  
                 131237517.845                   131237517.845    25202788.827  
                 116790482.790                   116790482.790    22428380.637  
                 134697153.765                   134697153.765    25867178.346  
                 126275625.768                   126275625.768    24249912.778  
  25690436.287   135004111.616                                                  
  23512163.058   123557232.943                                                  
  24003468.449   126139050.097                                                  
  26354247.707   138492449.255                                                  
  24900306.528   130851920.519                                                  
 21  8 31 20 20 24.0000000  0 17G10G15G18G23G24G27G32C19C21C22C34C35
                                E 3E 5E 9E15E36
  22590532.424   118713994.777    22590535.909    92504397.532                  
  22122500.667   116254521.786    22122501.686    90587937.833                  
  20192755.813   106113646.566    20192756.921    82685959.996                  
  20749583.660   109039797.491    20749584.678    84966077.620                  
  20784122.408   109221250.981    20784125.875    85107455.927                  
  24300194.207   127698318.517    24300198.085    99505168.203                  
  23673240.184   124403651.516    23673244.866    96937893.820                  
                 120950419.239                   120950419.239    23227258.480  
                 131235587.550                   131235587.550    25202418.117  
                 116790172.051                   116790172.051    22428320.972  
                 134695200.499                   134695200.499    25866803.222  
                 126278605.190                   126278605.190    24250484.944  
  25690120.220   135002450.766                                                  
  23512227.797   123557573.133                                                  
  24003859.441   126141104.818                                                  
  26353778.520   138489983.685                                                  
  24900774.589   130854380.203                                                  
 21  8 31 20 20 25.0000000  0 17G10G15G18G23G24G27G32C19C21C22C34C35
                                E 3E 5E 9E15E36
  22590122.455   118711840.382    22590125.922    92502718.785                  
  22123047.549   116257395.602    22123048.567    90590177.168                  
  20192932.181   106114573.329    20192933.288    82686682.149                  
  20749421.034   109038942.944    20749422.052    84965411.742                  
  20783979.617   109220500.681    20783983.101    85106871.277                  
  24300154.520   127698110.030    24300158.416    99505005.746                  
  23672720.428   124400920.155    23672725.092    96935765.489                  
                 120952055.942                   120952055.942    23227572.796  
                 131233657.339                   131233657.339    25202047.442  
                 116789861.461                   116789861.461    22428261.325  
                 134693247.660                   134693247.660    25866428.205  
                 126281584.778                   126281584.778    24251057.146  
  25689804.224   135000790.105                                                  
  23512292.554   123557913.520                                                  
  24004250.469   126143159.554                                                  
  26353309.387   138487518.337                                                  
  24901242.704   130856840.172                                                  
 21  8 31 20 20 26.0000000  0 17G10G15G18G23G24G27G32C19C21C22C34C35
                                E 3E 5E 9E15E36
  22589712.504   118709686.050    22589715.953    92501040.083                  
  22123594.448   116260269.578    22123595.466    90592416.632                  
  20193108.655   106115500.715    20193109.763    82687404.789                  
  20749258.479   109038088.621    20749259.498    84964746.031                  
  20783836.986   109219751.079    20783840.453    85106287.172                  
  24300114.958   127697902.142    24300118.854    99504843.755                  
  23672200.708   124398189.052    23672205.371    96933637.355                  
                 120953692.707                   120953692.707    23227887.112  
                 131231727.204                   131231727.204    25201676.785  
                 116789551.024                   116789551.024    22428201.696  
                 134691295.240                   134691295.240    25866053.259  
                 126284564.532                   126284564.532    24251629.384  
  25689488.246   134999129.642                                                  
  23512357.383   123558254.116                                                  
  24004641.461   126145214.307                                                  
  26352840.271   138485053.221                                                  
  24901710.854   130859300.428                                                  
 21  8 31 20 20 27.0000000  0 17G10G15G18G23G24G27G32C19C21C22C34C35
                                E 3E 5E 9E15E36
  22589302.553   118707531.766    22589306.020    92499361.422                  
  22124141.365   116263143.711    22124142.384    90594656.214                  
  20193285.255   106116428.720    20193286.362    82688127.910                  
  20749095.943   109037234.514    20749096.961    84964080.495                  
  20783694.463   109219002.167    20783697.947    85105703.606                  
  24300075.521   127697694.829    24300079.399    99504682.210                  
  23671681.041   124395458.160    23671685.722    96931509.390                  
                 120955329.532                   120955329.532    23228201.464  
                 131229797.141                   131229797.141    25201306.145  
                 116789240.730                   116789240.730    22428142.121  
                 134689343.241                   134689343.241    25865678.403  
                 126287544.448                   126287544.448    24252201.639  
  25689172.304   134997469.378                                                  
  23512422.248   123558594.929                                                  
  24005032.453   126147269.096                                                  
  26352371.227   138482588.335                                                  
  24902179.094   130861760.993                                                  
 21  8 31 20 20 28.0000000  0 17G10G15G18G23G24G27G32C19C21C22C34C35
                                E 3E 5E 9E15E36
  22588892.620   118705377.538    22588896.086    92497682.805                  
  22124688.318   116266017.995    22124689.336    90596895.918                  
  20193461.961   106117357.346    20193463.051    82688851.515                  
  20748933.442   109036380.622    20748934.478    84963415.125                  
  20783552.083   109218253.929    20783555.567    85105120.561                  
  24300036.174   127697488.130    24300040.087    99504521.148                  
  23671161.427   124392727.515    23671166.073    96929381.616                  
                 120956966.421                   120956966.421    23228515.798  
                 131227867.160                   131227867.160    25200935.506  
                 116788930.590                   116788930.590    22428082.563  
                 134687391.667                   134687391.667    25865303.618  
                 126290524.536                   126290524.536    24252773.948  
  25688856.397   134995809.302                                                  
  23512487.112   123558935.935                                                  
  24005423.481   126149323.882                                                  
  26351902.219   138480123.659                                                  
  24902647.387   130864221.848                                                  
 21  8 31 20 20 29.0000000  0 17G10G15G18G23G24G27G32C19C21C22C34C35
                                E 3E 5E 9E15E36
  22588482.687   118703223.356    22588486.153    92496004.219                  
  22125235.324   116268892.454    22125236.343    90599135.750                  
  20193638.793   106118286.595    20193639.901    82689575.601                  
  20748770.994   109035526.941    20748772.013    84962749.921                  
  20783409.827   109217506.381    20783413.294    85104538.059                  
  24299996.951   127697281.999    24300000.847    99504360.527                  
  23670641.814   124389997.102    23670646.496    96927254.026                  
                 120958603.374                   120958603.374    23228830.168  
                 131225937.255                   131225937.255    25200564.885  
                 116788620.598                   116788620.598    22428023.024  
                 134685440.517                   134685440.517    25864928.922  
                 126293504.784                   126293504.784    24253346.257  
  25688540.526   134994149.419                                                  
  23512552.066   123559277.141                                                  
  24005814.509   126151378.724                                                  
  26351433.246   138477659.221                                                  
  24903115.717   130866682.987                                                  
 21  8 31 20 20 30.0000000  0 17G10G15G18G23G24G27G32C19C21C22C34C35
                                E 3E 5E 9E15E36
  22588072.771   118701069.242    22588076.238    92494325.687                  
  22125782.349   116271767.055    22125783.367    90601375.700                  
  20193815.732   106119216.469    20193816.840    82690300.180                  
  20748608.601   109034673.495    20748609.619    84962084.898                  
  20783267.697   109216759.532    20783271.182    85103956.098                  
  24299957.836   127697076.488    24299961.731    99504200.386                  
  23670122.308   124387266.932    23670126.954    96925126.621                  
                 120960240.392                   120960240.392    23229144.537  
                 131224007.425                   131224007.425    25200194.281  
                 116788310.755                   116788310.755    22427963.520  
                 134683489.786                   134683489.786    25864554.298  
                 126296485.200                   126296485.200    24253918.620  
  25688224.691   134992489.733                                                  
  23512617.020   123559618.567                                                  
  24006205.536   126153433.571                                                  
  26350964.328   138475195.007                                                  
  24903584.117   130869144.435                                                  
 21  8 31 20 20 31.0000000  0 17G10G15G18G23G24G27G32C19C21C22C34C35
                                E 3E 5E 9E15E36
  22587662.856   118698915.181    22587666.340    92492647.200                  
  22126329.373   116274641.825    22126330.392    90603615.777                  
  20193992.814   106120146.962    20193993.922    82691025.237                  
  20748446.225   109033820.257    20748447.261    84961420.040                  
  20783125.692   109216013.363    20783129.176    85103374.668                  
  24299918.846   127696871.552    24299922.741    99504040.695                  
  23669602.802   124384536.997    23669607.484    96922999.402                  
                 120961877.470                   120961877.470    23229458.925  
                 131222077.671                   131222077.671    25199823.677  
                 116788001.060                   116788001.060    22427904.052  
                 134681539.480                   134681539.480    25864179.763  
                 126299465.782                   126299465.782    24254491.000  
  25687908.928   134990830.241                                                  
  23512682.045   123559960.187                                                  
  24006596.564   126155488.436                                                  
  26350495.444   138472731.024                                                  
  24904052.572   130871606.185                                                  
 21  8 31 20 20 32.0000000  0 17G10G15G18G23G24G27G32C19C21C22C34C35
                                E 3E 5E 9E15E36
  22587252.976   118696761.164    22587256.443    92490968.749                  
  22126876.451   116277516.745    22126877.488    90605855.976                  
  20194170.003   106121078.089    20194171.093    82691750.793                  
  20748283.903   109032967.242    20748284.921    84960755.351                  
  20782983.848   109215267.890    20782987.314    85102793.780                  
  24299879.963   127696667.212    24299883.858    99503881.469                  
  23669083.367   124381807.300    23669088.049    96920872.367                  
                 120963514.609                   120963514.609    23229773.313  
                 131220147.995                   131220147.995    25199453.128  
                 116787691.513                   116787691.513    22427844.602  
                 134679589.598                   134679589.598    25863805.300  
                 126302446.525                   126302446.525    24255063.435  
  25687593.164   134989170.949                                                  
  23512747.089   123560302.023                                                  
  24006987.592   126157543.328                                                  
  26350026.597   138470267.267                                                  
  24904521.080   130874068.216                                                  
 21  8 31 20 20 33.0000000  0 17G10G15G18G23G24G27G32C19C21C22C34C35
                                E 3E 5E 9E15E36
  22586843.079   118694607.197    22586846.563    92489290.331                  
  22127423.583   116280391.836    22127424.601    90608096.304                  
  20194347.300   106122009.820    20194348.408    82692476.817                  
  20748121.616   109032114.451    20748122.635    84960090.835                  
  20782842.128   109214523.101    20782845.595    85102213.425                  
  24299841.205   127696463.452    24299845.082    99503722.700                  
  23668563.968   124379077.835    23668568.614    96918745.511                  
                 120965151.813                   120965151.813    23230087.718  
                 131218218.398                   131218218.398    25199082.560  
                 116787382.117                   116787382.117    22427785.205  
                 134677640.138                   134677640.138    25863430.944  
                 126305427.433                   126305427.433    24255635.887  
  25687277.437   134987511.853                                                  
  23512812.186   123560644.072                                                  
  24007378.638   126159598.246                                                  
  26349557.803   138467803.735                                                  
  24904989.659   130876530.544                                                  
 21  8 31 20 20 34.0000000  0 17G10G15G18G23G24G27G32C19C21C22C34C35
                                E 3E 5E 9E15E36
  22586433.199   118692453.285    22586436.683    92487611.961                  
  22127970.715   116283267.070    22127971.733    90610336.746                  
  20194524.721   106122942.177    20194525.811    82693203.329                  
  20747959.383   109031261.870    20747960.402    84959426.489                  
  20782700.516   109213779.007    20782704.001    85101633.614                  
  24299802.518   127696260.289    24299806.414    99503564.386                  
  23668044.605   124376348.589    23668049.251    96916618.828                  
                 120966789.083                   120966789.083    23230402.141  
                 131216288.879                   131216288.879    25198711.992  
                 116787072.867                   116787072.867    22427725.808  
                 134675691.102                   134675691.102    25863056.642  
                 126308408.509                   126308408.509    24256208.374  
  25686961.762   134985852.953                                                  
  23512877.300   123560986.313                                                  
  24007769.684   126161653.187                                                  
  26349089.063   138465340.424                                                  
  24905458.274   130878993.171                                                  
 21  8 31 20 20 35.0000000  0 17G10G15G18G23G24G27G32C19C21C22C34C35
                                E 3E 5E 9E15E36
  22586023.337   118690299.441    22586026.822    92485933.641                  
  22128517.882   116286142.466    22128518.900    90612577.312                  
  20194702.268   106123875.144    20194703.358    82693930.316                  
  20747797.186   109030409.513    20747798.205    84958762.312                  
  20782559.065   109213035.603    20782562.532    85101054.335                  
  24299763.975   127696057.727    24299767.888    99503406.546                  
  23667525.278   124373619.602    23667529.959    96914492.347                  
                 120968426.411                   120968426.411    23230716.583  
                 131214359.433                   131214359.433    25198341.478  
                 116786763.771                   116786763.771    22427666.448  
                 134673742.485                   134673742.485    25862682.429  
                 126311389.751                   126311389.751    24256780.880  
  25686646.124   134984194.241                                                  
  23512942.469   123561328.769                                                  
  24008160.711   126163708.149                                                  
  26348620.341   138462877.342                                                  
  24905926.961   130881456.095                                                  
 21  8 31 20 20 36.0000000  0 17G10G15G18G23G24G27G32C19C21C22C34C35
                                E 3E 5E 9E15E36
  22585613.475   118688145.644    22585616.960    92484255.355                  
  22129065.085   116289018.011    22129066.103    90614817.997                  
  20194879.922   106124808.747    20194881.012    82694657.797                  
  20747635.025   109029557.366    20747636.061    84958098.305                  
  20782417.721   109212292.876    20782421.206    85100475.585                  
  24299725.539   127695855.755    24299729.434    99503249.165                  
  23667006.022   124370890.841    23667010.686    96912366.042                  
                 120970063.801                   120970063.801    23231031.024  
                 131212430.066                   131212430.066    25197970.964  
                 116786454.820                   116786454.820    22427607.122  
                 134671794.292                   134671794.292    25862308.305  
                 126314371.154                   126314371.154    24257353.439  
  25686330.521   134982535.724                                                  
  23513007.673   123561671.425                                                  
  24008551.775   126165763.126                                                  
  26348151.672   138460414.501                                                  
  24906395.701   130883919.306                                                  
 21  8 31 20 20 37.0000000  0 17G10G15G18G23G24G27G32C19C21C22C34C35
                                E 3E 5E 9E15E36
  22585203.632   118685991.894    22585207.116    92482577.113                  
  22129612.324   116291893.726    22129613.342    90617058.812                  
  20195057.701   106125742.964    20195058.809    82695385.758                  
  20747472.917   109028705.446    20747473.936    84957434.473                  
  20782276.520   109211550.857    20782280.005    85099897.390                  
  24299687.227   127695654.372    24299691.123    99503092.241                  
  23666486.802   124368162.329    23666491.465    96910239.929                  
                 120971701.254                   120971701.254    23231345.483  
                 131210500.776                   131210500.776    25197600.467  
                 116786146.020                   116786146.020    22427547.815  
                 134669846.527                   134669846.527    25861934.235  
                 126317352.722                   126317352.722    24257926.016  
  25686014.937   134980877.417                                                  
  23513072.912   123562014.292                                                  
  24008942.821   126167818.129                                                  
  26347683.057   138457951.879                                                  
  24906864.477   130886382.831                                                  
 21  8 31 20 20 38.0000000  0 17G10G15G18G23G24G27G32C19C21C22C34C35
                                E 3E 5E 9E15E36
  22584793.823   118683838.208    22584797.272    92480898.914                  
  22130159.580   116294769.594    22130160.599    90619299.746                  
  20195235.605   106126677.806    20195236.695    82696114.204                  
  20747310.845   109027853.746    20747311.864    84956770.806                  
  20782135.444   109210809.515    20782138.929    85099319.726                  
  24299649.023   127695453.583    24299652.919    99502935.784                  
  23665967.617   124365434.043    23665972.299    96908113.997                  
                 120973338.775                   120973338.775    23231659.942  
                 131208571.563                   131208571.563    25197229.989  
                 116785837.366                   116785837.366    22427488.544  
                 134667899.178                   134667899.178    25861560.272  
                 126320334.452                   126320334.452    24258498.611  
  25685699.423   134979219.292                                                  
  23513138.206   123562357.370                                                  
  24009333.884   126169873.155                                                  
  26347214.477   138455489.487                                                  
  24907333.342   130888846.632                                                  
 21  8 31 20 20 39.0000000  0 17G10G15G18G23G24G27G32C19C21C22C34C35
                                E 3E 5E 9E15E36
  22584383.979   118681684.566    22584387.464    92479220.754                  
  22130706.855   116297645.621    22130707.874    90621540.810                  
  20195413.598   106127613.267    20195414.706    82696843.133                  
  20747148.809   109027002.257    20747149.827    84956107.313                  
  20781994.493   109210068.863    20781997.978    85098742.593                  
  24299610.927   127695253.392    24299614.822    99502779.789                  
  23665448.504   124362706.004    23665453.168    96905988.249                  
                 120974976.350                   120974976.350    23231974.419  
                 131206642.425                   131206642.425    25196859.492  
                 116785528.866                   116785528.866    22427429.308  
                 134665952.257                   134665952.257    25861186.398  
                 126323316.352                   126323316.352    24259071.278  
  25685383.928   134977561.376                                                  
  23513203.517   123562700.656                                                  
  24009724.948   126171928.202                                                  
  26346745.934   138453027.323                                                  
  24907802.243   130891310.750                                                  
 21  8 31 20 20 40.0000000  0 17G10G15G18G23G24G27G32C19C21C22C34C35
                                E 3E 5E 9E15E36
  22583974.171   118679530.981    22583977.638    92477542.633                  
  22131254.183   116300521.812    22131255.220    90623781.993                  
  20195591.734   106128549.347    20195592.842    82697572.550                  
  20746986.826   109026150.997    20746987.845    84955443.988                  
  20781853.703   109209328.898    20781857.188    85098165.996                  
  24299572.937   127695053.784    24299576.833    99502624.253                  
  23664929.391   124359978.196    23664934.073    96903862.692                  
                 120976613.993                   120976613.993    23232288.914  
                 131204713.366                   131204713.366    25196489.032  
                 116785220.512                   116785220.512    22427370.072  
                 134664005.762                   134664005.762    25860812.578  
                 126326298.414                   126326298.414    24259643.944  
  25685068.468   134975903.641                                                  
  23513268.900   123563044.148                                                  
  24010116.011   126173983.276                                                  
  26346277.462   138450565.374                                                  
  24908271.198   130893775.147                                                  
 21  8 31 20 20 41.0000000  0 17G10G15G18G23G24G27G32C19C21C22C34C35
                                E 3E 5E 9E15E36
  22583564.363   118677377.456    22583567.848    92475864.566                  
  22131801.547   116303398.161    22131802.566    90626023.302                  
  20195769.978   106129486.050    20195771.086    82698302.446                  
  20746824.861   109025299.948    20746825.898    84954780.836                  
  20781713.021   109208589.626    20781716.505    85097589.942                  
  24299535.055   127694854.764    24299538.968    99502469.173                  
  23664410.368   124357250.618    23664415.031    96901737.304                  
                 120978251.699                   120978251.699    23232603.426  
                 131202784.382                   131202784.382    25196118.607  
                 116784912.308                   116784912.308    22427310.908  
                 134662059.684                   134662059.684    25860438.866  
                 126329280.642                   126329280.642    24260216.664  
  25684753.044   134974246.097                                                  
  23513334.301   123563387.840                                                  
  24010507.075   126176038.367                                                  
  26345809.007   138448103.665                                                  
  24908740.224   130896239.843                                                  
 21  8 31 20 20 42.0000000  0 17G10G15G18G23G24G27G32C19C21C22C34C35
                                E 3E 5E 9E15E36
  22583154.573   118675223.979    22583158.039    92474186.535                  
  22132348.929   116306274.669    22132349.947    90628264.734                  
  20195948.364   106130423.374    20195949.454    82699032.829                  
  20746662.968   109024449.117    20746663.986    84954117.853                  
  20781572.463   109207851.040    20781575.947    85097014.423                  
  24299497.315   127694656.349    24299501.193    99502314.563                  
  23663891.362   124354523.274    23663896.043    96899612.105                  
                 120979889.464                   120979889.464    23232917.939  
                 131200855.477                   131200855.477    25195748.182  
                 116784604.250                   116784604.250    22427251.743  
                 134660114.036                   134660114.036    25860065.224  
                 126332263.030                   126332263.030    24260789.402  
  25684437.656   134972588.774                                                  
  23513399.737   123563731.751                                                  
  24010898.156   126178093.493                                                  
  26345340.607   138445642.188                                                  
  24909209.286   130898704.833                                                  
 21  8 31 20 20 43.0000000  0 17G10G15G18G23G24G27G32C19C21C22C34C35
                                E 3E 5E 9E15E36
  22582744.800   118673070.564    22582748.267    92472508.546                  
  22132896.346   116309151.320    22132897.365    90630506.281                  
  20196126.840   106131361.324    20196127.948    82699763.698                  
  20746501.092   109023598.511    20746502.129    84953455.043                  
  20781432.066   109207113.149    20781435.515    85096439.441                  
  24299459.665   127694458.511    24299463.561    99502160.401                  
  23663372.427   124351796.177    23663377.073    96897487.097                  
                 120981527.298                   120981527.298    23233232.452  
                 131198926.645                   131198926.645    25195377.757  
                 116784296.343                   116784296.343    22427192.597  
                 134658168.803                   134658168.803    25859691.654  
                 126335245.581                   126335245.581    24261362.158  
  25684122.321   134970931.626                                                  
  23513465.227   123564075.859                                                  
  24011289.238   126180148.637                                                  
  26344872.242   138443180.928                                                  
  24909678.419   130901170.130                                                  
 21  8 31 20 20 44.0000000  0 17G10G15G18G23G24G27G32C19C21C22C34C35
                                E 3E 5E 9E15E36
  22582335.028   118670917.195    22582338.477    92470830.599                  
  22133443.782   116312028.136    22133444.800    90632747.958                  
  20196305.441   106132299.895    20196306.531    82700495.051                  
  20746339.253   109022748.128    20746340.307    84952792.407                  
  20781291.758   109206375.933    20781295.243    85095864.987                  
  24299422.140   127694261.284    24299426.018    99502006.718                  
  23662853.493   124349069.320    23662858.175    96895362.278                  
                 120983165.188                   120983165.188    23233547.000  
                 131196997.893                   131196997.893    25195007.368  
                 116783988.585                   116783988.585    22427133.504  
                 134656224.001                   134656224.001    25859318.174  
                 126338228.300                   126338228.300    24261934.967  
  25683807.022   134969274.684                                                  
  23513530.735   123564420.176                                                  
  24011680.337   126182203.802                                                  
  26344403.912   138440719.909                                                  
  24910147.606   130903635.715                                                  
 21  8 31 20 20 45.0000000  0 17G10G15G18G23G24G27G32C19C21C22C34C35
                                E 3E 5E 9E15E36
  22581925.256   118668763.882    22581928.722    92469152.693                  
  22133991.235   116314905.110    22133992.254    90634989.749                  
  20196484.167   106133239.083    20196485.257    82701226.888                  
  20746177.484   109021897.957    20746178.521    84952129.934                  
  20781151.594   109205639.413    20781155.078    85095291.078                  
  24299384.723   127694064.644    24299388.600    99501853.492                  
  23662334.648   124346342.692    23662339.312    96893237.628                  
                 120984803.144                   120984803.144    23233861.566  
                 131195069.218                   131195069.218    25194636.979  
                 116783680.977                   116783680.977    22427074.429  
                 134654279.621                   134654279.621    25858944.783  
                 126341211.182                   126341211.182    24262507.795  
  25683491.741   134967617.930                                                  
  23513596.296   123564764.700                                                  
  24012071.419   126184258.981                                                  
  26343935.637   138438259.110                                                  
  24910616.864   130906101.597                                                  
 21  8 31 20 20 46.0000000  0 17G10G15G18G23G24G27G32C19C21C22C34C35
                                E 3E 5E 9E15E36
  22581515.501   118666610.625    22581518.985    92467474.827                  
  22134538.742   116317782.237    22134539.760    90637231.673                  
  20196663.000   106134178.896    20196664.108    82701959.202                  
  20746015.734   109021048.003    20746016.788    84951467.632                  
  20781011.572   109204903.589    20781015.057    85094717.708                  
  24299347.394   127693868.590    24299351.308    99501700.723                  
  23661815.839   124343616.302    23661820.503    96891113.173                  
                 120986441.162                   120986441.162    23234176.115  
                 131193140.618                   131193140.618    25194266.626  
                 116783373.516                   116783373.516    22427015.372  
                 134652335.665                   134652335.665    25858571.463  
                 126344194.230                   126344194.230    24263080.658  
  25683176.514   134965961.375                                                  
  23513661.893   123565109.431                                                  
  24012462.518   126186314.186                                                  
  26343467.415   138435798.540                                                  
  24911086.141   130908567.772                                                  
 21  8 31 20 20 47.0000000  0 17G10G15G18G23G24G27G32C19C21C22C34C35
                                E 3E 5E 9E15E36
  22581105.764   118664457.420    22581109.249    92465797.013                  
  22135086.285   116320659.520    22135087.303    90639473.706                  
  20196841.958   106135119.325    20196843.066    82702692.009                  
  20745854.037   109020198.275    20745855.074    84950805.508                  
  20780871.693   109204168.451    20780875.160    85094144.871                  
  24299310.227   127693673.132    24299314.104    99501548.418                  
  23661297.066   124340890.155    23661301.711    96888988.907                  
                 120988079.243                   120988079.243    23234490.699  
                 131191212.094                   131191212.094    25193896.255  
                 116783066.208                   116783066.208    22426956.368  
                 134650392.134                   134650392.134    25858198.215  
                 126347177.438                   126347177.438    24263653.556  
  25682861.322   134964305.028                                                  
  23513727.544   123565454.363                                                  
  24012853.617   126188369.418                                                  
  26342999.228   138433338.199                                                  
  24911555.506   130911034.243                                                  
 21  8 31 20 20 48.0000000  0 17G10G15G18G23G24G27G32C19C21C22C34C35
                                E 3E 5E 9E15E36
  22580696.045   118662304.281    22580699.494    92464119.239                  
  22135633.845   116323536.963    22135634.864    90641715.868                  
  20197021.042   106136060.379    20197022.132    82703425.298                  
  20745692.394   109019348.761    20745693.413    84950143.551                  
  20780731.940   109203434.017    20780735.424    85093572.587                  
  24299273.149   127693478.262    24299277.026    99501396.571                  
  23660778.346   124338164.243    23660782.992    96886864.820                  
                 120989717.386                   120989717.386    23234805.301  
                 131189283.648                   131189283.648    25193525.919  
                 116782759.042                   116782759.042    22426897.383  
                 134648449.024                   134648449.024    25857825.074  
                 126350160.812                   126350160.812    24264226.473  
  25682546.166   134962648.858                                                  
  23513793.213   123565799.513                                                  
  24013244.716   126190424.676                                                  
  26342531.078   138430878.089                                                  
  24912024.926   130913501.020                                                  
 21  8 31 20 20 49.0000000  0 17G10G15G18G23G24G27G32C19C21C22C34C35
                                E 3E 5E 9E15E36
  22580286.327   118660151.176    22580289.775    92462441.495                  
  22136181.423   116326414.554    22136182.442    90643958.144                  
  20197200.232   106137002.055    20197201.340    82704159.071                  
  20745530.787   109018499.470    20745531.805    84949481.762                  
  20780592.293   109202700.258    20780595.778    85093000.825                  
  24299236.160   127693283.978    24299240.055    99501245.181                  
  23660259.662   124335438.558    23660264.325    96884740.909                  
                 120991355.589                   120991355.589    23235119.903  
                 131187355.281                   131187355.281    25193155.601  
                 116782452.031                   116782452.031    22426838.415  
                 134646506.336                   134646506.336    25857452.005  
                 126353144.349                   126353144.349    24264799.443  
  25682231.046   134960992.899                                                  
  23513858.935   123566144.859                                                  
  24013635.816   126192479.949                                                  
  26342062.981   138428418.200                                                  
  24912494.381   130915968.078                                                  
 21  8 31 20 20 50.0000000  0 17G10G15G18G23G24G27G32C19C21C22C34C35
                                E 3E 5E 9E15E36
  22579876.608   118657998.130    22579880.056    92460763.797                  
  22136729.037   116329292.312    22136730.056    90646200.551                  
  20197379.548   106137944.351    20197380.656    82704893.328                  
  20745369.197   109017650.399    20745370.216    84948820.148                  
  20780452.808   109201967.189    20780456.274    85092429.606                  
  24299199.296   127693090.292    24299203.191    99501094.257                  
  23659741.013   124332713.112    23659745.677    96882617.188                  
                 120992993.860                   120992993.860    23235434.505  
                 131185426.989                   131185426.989    25192785.284  
                 116782145.165                   116782145.165    22426779.483  
                 134644564.076                   134644564.076    25857079.007  
                 126356128.048                   126356128.048    24265372.413  
  25681915.961   134959337.122                                                  
  23513924.693   123566490.414                                                  
  24014026.933   126194535.249                                                  
  26341594.920   138425958.551                                                  
  24912963.907   130918435.430                                                  
 21  8 31 20 20 51.0000000  0 17G10G15G18G23G24G27G32C19C21C22C34C35
                                E 3E 5E 9E15E36
  22579466.907   118655845.149    22579470.356    92459086.152                  
  22137276.687   116332170.222    22137277.724    90648443.078                  
  20197558.989   106138887.265    20197560.079    82705628.062                  
  20745207.679   109016801.542    20745208.697    84948158.704                  
  20780313.447   109201234.812    20780316.914    85091858.921                  
  24299162.557   127692897.200    24299166.453    99500943.793                  
  23659222.418   124329987.908    23659227.100    96880493.652                  
                 120994632.191                   120994632.191    23235749.143  
                 131183498.793                   131183498.793    25192415.002  
                 116781838.445                   116781838.445    22426720.587  
                 134642622.242                   134642622.242    25856706.098  
                 126359111.907                   126359111.907    24265945.437  
  25681600.913   134957681.550                                                  
  23513990.505   123566836.174                                                  
  24014418.068   126196590.572                                                  
  26341126.894   138423499.122                                                  
  24913433.487   130920903.081                                                  
 21  8 31 20 20 52.0000000  0 17G10G15G18G23G24G27G32C19C21C22C34C35
                                E 3E 5E 9E15E36
  22579057.224   118653692.217    22579060.672    92457408.543                  
  22137824.355   116335048.288    22137825.391    90650685.729                  
  20197738.519   106139830.802    20197739.645    82706363.285                  
  20745046.179   109015952.902    20745047.197    84947497.426                  
  20780174.194   109200503.116    20780177.678    85091288.771                  
  24299125.926   127692704.691    24299129.821    99500793.786                  
  23658703.877   124327262.938    23658708.541    96878370.305                  
                 120996270.581                   120996270.581    23236063.763  
                 131181570.656                   131181570.656    25192044.720  
                 116781531.878                   116781531.878    22426661.726  
                 134640680.831                   134640680.831    25856333.261  
                 126362095.932                   126362095.932    24266518.497  
  25681285.900   134956026.163                                                  
  23514056.316   123567182.146                                                  
  24014809.167   126198645.903                                                  
  26340658.940   138421039.922                                                  
  24913903.121   130923371.023                                                  
 21  8 31 20 20 53.0000000  0 17G10G15G18G23G24G27G32C19C21C22C34C35
                                E 3E 5E 9E15E36
  22578647.523   118651539.239    22578650.971    92455730.895                  
  22138372.040   116337926.501    22138373.059    90652928.536                  
  20197918.192   106140774.820    20197919.318    82707098.847                  
  20744884.714   109015104.465    20744885.733    84946836.324                  
  20780035.084   109199772.083    20780038.568    85090719.144                  
  24299089.383   127692512.523    24299093.279    99500644.026                  
  23658185.354   124324538.038    23658190.018    96876247.005                  
                 120997909.000                   120997909.000    23236378.400  
                 131179642.449                   131179642.449    25191674.420  
                 116781225.454                   116781225.454    22426602.848  
                 134638739.562                   134638739.562    25855960.495  
                 126365079.960                   126365079.960    24267091.556  
  25680970.922   134954370.891                                                  
  23514122.199   123567528.202                                                  
  24015200.249   126200701.344                                                  
  26340191.004   138418580.746                                                  
  24914372.772   130925839.225                                                  
 21  8 31 20 20 54.0000000  0 17G10G15G18G23G24G27G32C19C21C22C34C35
                                E 3E 5E 9E15E36
  22578237.840   118649386.407    22578241.324    92454053.366                  
  22138919.780   116340804.887    22138920.798    90655171.429                  
  20198097.972   106141719.601    20198099.098    82707835.040                  
  20744723.303   109014256.266    20744724.322    84946175.390                  
  20779896.098   109199041.767    20779899.583    85090150.070                  
  24299052.984   127692321.214    24299056.862    99500494.957                  
  23657666.902   124321813.535    23657671.566    96874124.015                  
                 120999547.523                   120999547.523    23236693.056  
                 131177714.468                   131177714.468    25191304.174  
                 116780919.191                   116780919.191    22426544.041  
                 134636799.005                   134636799.005    25855587.819  
                 126368064.317                   126368064.317    24267664.687  
  25680655.981   134952715.906                                                  
  23514188.118   123567874.591                                                  
  24015591.366   126202756.746                                                  
  26339723.122   138416122.019                                                  
  24914842.549   130928307.765                                                  
 21  8 31 20 20 55.0000000  0 17G10G15G18G23G24G27G32C19C21C22C34C35
                                E 3E 5E 9E15E36
  22577828.174   118647233.628    22577831.659    92452375.878                  
  22139467.555   116343683.413    22139468.573    90657414.437                  
  20198277.895   106142665.001    20198279.003    82708571.715                  
  20744561.946   109013408.284    20744562.965    84945514.629                  
  20779757.256   109198312.151    20779760.741    85089581.539                  
  24299016.674   127692130.475    24299020.588    99500346.329                  
  23657148.504   124319089.281    23657153.168    96872001.222                  
                 121001186.108                   121001186.108    23237007.712  
                 131175786.563                   131175786.563    25190933.946  
                 116780613.075                   116780613.075    22426485.234  
                 134634858.867                   134634858.867    25855215.232  
                 126371048.836                   126371048.836    24268237.818  
  25680341.075   134951061.117                                                  
  23514254.073   123568221.187                                                  
  24015982.501   126204812.148                                                  
  26339255.275   138413663.511                                                  
  24915312.343   130930776.602                                                  
 21  8 31 20 20 56.0000000  0 17G10G15G18G23G24G27G32C19C21C22C34C35
                                E 3E 5E 9E15E36
  22577418.545   118645080.914    22577421.994    92450698.436                  
  22140015.365   116346562.104    22140016.366    90659657.571                  
  20198457.926   106143611.008    20198459.034    82709308.864                  
  20744400.624   109012560.525    20744401.643    84944854.035                  
  20779618.557   109197583.220    20779622.041    85089013.538                  
  24298980.508   127691940.352    24298984.403    99500198.179                  
  23656630.123   124316365.250    23656634.805    96869878.599                  
                 121002824.757                   121002824.757    23237322.403  
                 131173858.740                   131173858.740    25190563.717  
                 116780307.110                   116780307.110    22426426.480  
                 134632919.157                   134632919.157    25854842.734  
                 126374033.518                   126374033.518    24268811.003  
  25680026.223   134949406.534                                                  
  23514320.063   123568567.983                                                  
  24016373.636   126206867.582                                                  
  26338787.482   138411205.239                                                  
  24915782.191   130933245.738                                                  
 21  8 31 20 20 57.0000000  0 17G10G15G18G23G24G27G32C19C21C22C34C35
                                E 3E 5E 9E15E36
  22577008.898   118642928.238    22577012.364    92449021.031                  
  22140563.176   116349440.954    22140564.194    90661900.828                  
  20198638.063   106144557.644    20198639.171    82710046.504                  
  20744239.339   109011712.980    20744240.357    84944193.610                  
  20779479.982   109196854.978    20779483.467    85088446.079                  
  24298944.412   127691750.790    24298948.325    99500050.468                  
  23656111.797   124313641.457    23656116.478    96867756.167                  
                 121004463.469                   121004463.469    23237637.094  
                 131171930.989                   131171930.989    25190193.507  
                 116780001.288                   116780001.288    22426367.763  
                 134630979.871                   134630979.871    25854470.326  
                 126377018.366                   126377018.366    24269384.223  
  25679711.406   134947752.128                                                  
  23514386.107   123568914.985                                                  
  24016764.789   126208923.040                                                  
  26338319.724   138408747.186                                                  
  24916252.129   130935715.161                                                  
 21  8 31 20 20 58.0000000  0 17G10G15G18G23G24G27G32C19C21C22C34C35
                                E 3E 5E 9E15E36
  22576599.286   118640775.638    22576602.735    92447343.676                  
  22141111.040   116352319.956    22141112.059    90664144.208                  
  20198818.326   106145504.910    20198819.434    82710784.629                  
  20744078.106   109010865.652    20744079.125    84943533.355                  
  20779341.533   109196127.425    20779345.000    85087879.157                  
  24298908.478   127691561.832    24298912.373    99499903.226                  
  23655593.541   124310917.902    23655598.205    96865633.918                  
                 121006102.243                   121006102.243    23237951.804  
                 131170003.314                   131170003.314    25189823.315  
                 116779695.621                   116779695.621    22426309.045  
                 134629041.007                   134629041.007    25854097.953  
                 126380003.374                   126380003.374    24269957.462  
  25679396.608   134946097.938                                                  
  23514452.169   123569262.203                                                  
  24017155.924   126210978.516                                                  
  26337852.021   138406289.369                                                  
  24916722.084   130938184.887                                                  
 21  8 31 20 20 59.0000000  0 17G10G15G18G23G24G27G32C19C21C22C34C35
                                E 3E 5E 9E15E36
  22576189.657   118638623.074    22576193.123    92445666.360                  
  22141658.922   116355199.113    22141659.941    90666387.703                  
  20198998.696   106146452.793    20198999.822    82711523.239                  
  20743916.892   109010018.550    20743917.929    84942873.278                  
  20779203.227   109195400.562    20779206.694    85087312.770                  
  24298872.632   127691373.470    24298876.528    99499756.453                  
  23655075.304   124308194.590    23655079.968    96863511.855                  
                 121007741.074                   121007741.074    23238266.548  
                 131168075.711                   131168075.711    25189453.140  
                 116779390.095                   116779390.095    22426250.381  
                 134627102.564                   134627102.564    25853725.724  
                 126382988.539                   126382988.539    24270530.718  
  25679081.863   134944443.933                                                  
  23514518.284   123569609.618                                                  
  24017547.059   126213034.026                                                  
  26337384.335   138403831.765                                                  
  24917192.093   130940654.903                                                  
 21  8 31 20 21  0.0000000  0 17G10G15G18G23G24G27G32C19C21C22C34C35
                                E 3E 5E 9E15E36
  22575780.063   118636470.571    22575783.511    92443989.082                  
  22142206.840   116358078.429    22142207.859    90668631.323                  
  20199179.209   106147401.289    20199180.299    82712262.329                  
  20743755.767   109009171.668    20743756.786    84942213.370                  
  20779065.046   109194674.392    20779068.495    85086746.921                  
  24298836.894   127691185.700    24298840.808    99499610.136                  
  23654557.120   124305471.513    23654561.784    96861389.981                  
                 121009379.970                   121009379.970    23238581.258  
                 131166148.184                   131166148.184    25189082.983  
                 116779084.718                   116779084.718    22426191.735  
                 134625164.543                   134625164.543    25853353.548  
                 126385973.867                   126385973.867    24271104.028  
  25678767.136   134942790.116                                                  
  23514584.417   123569957.239                                                  
  24017938.212   126215089.546                                                  
  26336916.720   138401374.411                                                  
  24917662.191   130943125.204                                                  
 21  8 31 20 21  1.0000000  0 17G10G15G18G23G24G27G32C19C21C22C34C35
                                E 3E 5E 9E15E36
  22575370.451   118634318.117    22575373.918    92442311.848                  
  22142754.794   116360957.880    22142755.794    90670875.054                  
  20199359.793   106148350.407    20199360.919    82713001.899                  
  20743594.642   109008324.997    20743595.661    84941553.624                  
  20778926.972   109193948.902    20778930.456    85086181.605                  
  24298801.281   127690998.512    24298805.177    99499464.278                  
  23654038.972   124302748.673    23654043.636    96859268.290                  
                 121011018.927                   121011018.927    23238896.003  
                 131164220.736                   131164220.736    25188712.826  
                 116778779.489                   116778779.489    22426133.125  
                 134623226.949                   134623226.949    25852981.443  
                 126388959.360                   126388959.360    24271677.355  
  25678452.480   134941136.499                                                  
  23514650.604   123570305.053                                                  
  24018329.383   126217145.083                                                  
  26336449.142   138398917.268                                                  
  24918132.343   130945595.804                                                  
 21  8 31 20 21  2.0000000  0 17G10G15G18G23G24G27G32C19C21C22C34C35
                                E 3E 5E 9E15E36
  22574960.875   118632165.726    22574964.342    92440634.660                  
  22143302.765   116363837.501    22143303.784    90673118.910                  
  20199540.538   106149300.150    20199541.664    82713741.956                  
  20743433.589   109007478.559    20743434.571    84940894.062                  
  20778789.059   109193224.105    20778792.543    85085616.832                  
  24298765.775   127690811.925    24298769.689    99499318.883                  
  23653520.878   124300026.065    23653525.542    96857146.782                  
                 121012657.945                   121012657.945    23239210.766  
                 131162293.363                   131162293.363    25188342.705  
                 116778474.409                   116778474.409    22426074.514  
                 134621289.780                   134621289.780    25852609.428  
                 126391945.010                   126391945.010    24272250.719  
  25678137.842   134939483.075                                                  
  23514716.845   123570653.091                                                  
  24018720.536   126219200.644                                                  
  26335981.599   138396460.366                                                  
  24918602.513   130948066.695                                                  
 21  8 31 20 21  3.0000000  0 17G10G15G18G23G24G27G32C19C21C22C34C35
                                E 3E 5E 9E15E36
  22574551.299   118630013.384    22574554.766    92438957.509                  
  22143850.772   116366717.272    22143851.809    90675362.889                  
  20199721.373   106150250.515    20199722.499    82714482.503                  
  20743272.535   109006632.331    20743273.554    84940234.664                  
  20778651.253   109192500.001    20778654.737    85085052.590                  
  24298730.377   127690625.931    24298734.272    99499173.952                  
  23653002.837   124297303.698    23653007.501    96855025.457                  
                 121014297.026                   121014297.026    23239525.546  
                 131160366.066                   131160366.066    25187972.584  
                 116778169.477                   116778169.477    22426015.957  
                 134619353.036                   134619353.036    25852237.502  
                 126394930.830                   126394930.830    24272824.118  
  25677823.240   134937829.845                                                  
  23514783.103   123571001.322                                                  
  24019111.706   126221256.233                                                  
  26335514.127   138394003.684                                                  
  24919072.772   130950537.888                                                  
 21  8 31 20 21  4.0000000  0 17G10G15G18G23G24G27G32C19C21C22C34C35
                                E 3E 5E 9E15E36
  22574141.741   118627861.098    22574145.208    92437280.407                  
  22144398.797   116369597.207    22144399.816    90677606.993                  
  20199902.368   106151201.508    20199903.476    82715223.534                  
  20743111.553   109005786.327    20743112.572    84939575.442                  
  20778513.608   109191776.589    20778517.074    85084488.895                  
  24298695.103   127690440.523    24298698.999    99499029.481                  
  23652484.832   124294581.566    23652489.496    96852904.317                  
                 121015936.172                   121015936.172    23239840.327  
                 131158438.847                   131158438.847    25187602.481  
                 116777864.696                   116777864.696    22425957.436  
                 134617416.716                   134617416.716    25851865.648  
                 126397916.806                   126397916.806    24273397.535  
  25677508.674   134936176.811                                                  
  23514849.397   123571349.761                                                  
  24019502.859   126223311.835                                                  
  26335046.656   138391547.234                                                  
  24919543.085   130953009.368                                                  
 21  8 31 20 21  5.0000000  0 17G10G15G18G23G24G27G32C19C21C22C34C35
                                E 3E 5E 9E15E36
  22573732.183   118625708.868    22573735.632    92435603.343                  
  22144946.876   116372477.301    22144947.895    90679851.224                  
  20200083.435   106152153.103    20200084.561    82715965.039                  
  20742950.607   109004940.546    20742951.625    84938916.391                  
  20778376.088   109191053.864    20778379.554    85083925.735                  
  24298659.937   127690255.715    24298663.833    99498885.472                  
  23651966.880   124291859.674    23651971.544    96850783.363                  
                 121017575.379                   121017575.379    23240155.108  
                 131156511.704                   131156511.704    25187232.378  
                 116777560.063                   116777560.063    22425898.933  
                 134615480.820                   134615480.820    25851493.883  
                 126400902.945                   126400902.945    24273971.005  
  25677194.144   134934523.983                                                  
  23514915.763   123571698.415                                                  
  24019894.048   126225367.454                                                  
  26334579.256   138389091.018                                                  
  24920013.469   130955481.139                                                  
 21  8 31 20 21  6.0000000  0 17G10G15G18G23G24G27G32C19C21C22C34C35
                                E 3E 5E 9E15E36
  22573322.643   118623556.694    22573326.092    92433926.324                  
  22145494.973   116375357.544    22145495.991    90682095.567                  
  20200264.645   106153105.337    20200265.753    82716707.035                  
  20742789.696   109004094.993    20742790.715    84938257.519                  
  20778238.675   109190331.804    20778242.159    85083363.094                  
  24298624.878   127690071.487    24298628.774    99498741.918                  
  23651448.965   124289138.020    23651453.628    96848662.594                  
                 121019214.650                   121019214.650    23240469.924  
                 131154584.639                   131154584.639    25186862.328  
                 116777255.579                   116777255.579    22425840.466  
                 134613545.352                   134613545.352    25851122.171  
                 126403889.246                   126403889.246    24274544.494  
  25676879.684   134932871.396                                                  
  23514982.146   123572047.250                                                  
  24020285.219   126227423.109                                                  
  26334111.891   138386635.029                                                  
  24920483.889   130957953.210                                                  
 21  8 31 20 21  7.0000000  0 17G10G15G18G23G24G27G32C19C21C22C34C35
                                E 3E 5E 9E15E36
  22572913.103   118621404.578    22572916.552    92432249.355                  
  22146043.105   116378237.928    22146044.123    90684340.020                  
  20200445.980   106154058.190    20200447.087    82717449.521                  
  20742628.839   109003249.672    20742629.858    84937598.828                  
  20778101.405   109189610.438    20778104.872    85082800.987                  
  24298589.944   127689887.855    24298593.840    99498598.829                  
  23650931.102   124286416.613    23650935.766    96846542.019                  
                 121020853.982                   121020853.982    23240784.741  
                 131152657.648                   131152657.648    25186492.261  
                 116776951.240                   116776951.240    22425782.016  
                 134611610.306                   134611610.306    25850750.585  
                 126406875.708                   126406875.708    24275118.018  
  25676565.243   134931219.034                                                  
  23515048.565   123572396.300                                                  
  24020676.407   126229478.778                                                  
  26333644.598   138384179.274                                                  
  24920954.344   130960425.562                                                  
 21  8 31 20 21  8.0000000  0 17G10G15G18G23G24G27G32C19C21C22C34C35
                                E 3E 5E 9E15E36
  22572503.581   118619252.492    22572507.047    92430572.407                  
  22146591.237   116381118.497    22146592.256    90686584.617                  
  20200627.422   106155011.649    20200628.512    82718192.477                  
  20742468.018   109002404.495    20742469.037    84936940.246                  
  20777964.278   109188889.843    20777967.763    85082239.485                  
  24298555.118   127689704.807    24298559.013    99498456.196                  
  23650413.276   124283695.423    23650417.940    96844421.613                  
                 121022493.374                   121022493.374    23241099.557  
                 131150730.734                   131150730.734    25186122.193  
                 116776647.052                   116776647.052    22425723.602  
                 134609675.684                   134609675.684    25850379.052  
                 126409862.333                   126409862.333    24275691.560  
  25676250.784   134929566.605                                                  
  23515115.020   123572745.590                                                  
  24021067.578   126231534.456                                                  
  26333177.323   138381723.733                                                  
  24921424.871   130962898.234                                                  
 21  8 31 20 21  9.0000000  0 17G10G15G18G23G24G27G32C19C21C22C34C35
                                E 3E 5E 9E15E36
  22572094.059   118617100.482    22572097.525    92428895.511                  
  22147139.441   116383999.199    22147140.459    90688829.321                  
  20200808.989   106155965.732    20200810.079    82718935.914                  
  20742307.233   109001559.594    20742308.251    84936281.882                  
  20777827.277   109188169.876    20777830.761    85081678.469                  
  24298520.398   127689522.352    24298524.294    99498314.019                  
  23649895.503   124280974.482    23649900.167    96842301.399                  
                 121024132.831                   121024132.831    23241414.391  
                 131148803.899                   131148803.899    25185752.179  
                 116776343.012                   116776343.012    22425665.224  
                 134607741.489                   134607741.489    25850007.627  
                 126412849.117                   126412849.117    24276265.138  
  25675936.414   134927914.581                                                  
  23515181.529   123573095.051                                                  
  24021458.785   126233590.172                                                  
  26332710.084   138379268.431                                                  
  24921895.452   130965371.184                                                  
 21  8 31 20 21 10.0000000  0 17G10G15G18G23G24G27G32C19C21C22C34C35
                                E 3E 5E 9E15E36
  22571684.554   118614948.519    22571688.021    92427218.659                  
  22147687.645   116386880.067    22147688.663    90691074.153                  
  20200990.645   106156920.443    20200991.753    82719679.845                  
  20742146.501   109000714.908    20742147.519    84935623.684                  
  20777690.418   109187450.605    20777693.884    85081118.003                  
  24298485.804   127689340.493    24298489.699    99498172.308                  
  23649377.766   124278253.773    23649382.412    96840181.371                  
                 121025772.352                   121025772.352    23241729.261  
                 131146877.140                   131146877.140    25185382.165  
                 116776039.121                   116776039.121    22425606.864  
                 134605807.719                   134605807.719    25849636.237  
                 126415836.067                   126415836.067    24276838.769  
  25675622.081   134926262.719                                                  
  23515248.055   123573444.722                                                  
  24021849.955   126235645.906                                                  
  26332242.899   138376813.357                                                  
  24922366.122   130967844.428                                                  
 21  8 31 20 21 11.0000000  0 17G10G15G18G23G24G27G32C19C21C22C34C35
                                E 3E 5E 9E15E36
  22571275.068   118612796.617    22571278.516    92425541.855                  
  22148235.884   116389761.091    22148236.903    90693319.103                  
  20201172.445   106157875.773    20201173.553    82720424.258                  
  20741985.823   108999870.441    20741986.823    84934965.660                  
  20777553.684   109186732.031    20777557.133    85080558.073                  
  24298451.299   127689159.232    24298455.194    99498031.065                  
  23648860.083   124275533.304    23648864.746    96838061.528                  
                 121027411.934                   121027411.934    23242044.114  
                 131144950.456                   131144950.456    25185012.152  
                 116775735.378                   116775735.378    22425548.522  
                 134603874.374                   134603874.374    25849264.954  
                 126418823.175                   126418823.175    24277412.400  
  25675307.782   134924611.059                                                  
  23515314.635   123573794.609                                                  
  24022241.162   126237701.669                                                  
  26331775.767   138374358.511                                                  
  24922836.828   130970317.969                                                  
 21  8 31 20 21 12.0000000  0 17G10G15G18G23G24G27G32C19C21C22C34C35
                                E 3E 5E 9E15E36
  22570865.581   118610644.769    22570869.048    92423865.090                  
  22148784.159   116392642.264    22148785.178    90695564.173                  
  20201354.351   106158831.722    20201355.477    82721169.156                  
  20741825.162   108999026.200    20741826.181    84934307.808                  
  20777417.057   109186014.145    20777420.542    85079998.684                  
  24298416.919   127688978.570    24298420.814    99497890.292                  
  23648342.435   124272813.071    23648347.099    96835941.863                  
                 121029051.577                   121029051.577    23242359.001  
                 131143023.848                   131143023.848    25184642.173  
                 116775431.789                   116775431.789    22425490.215  
                 134601941.453                   134601941.453    25848893.779  
                 126421810.445                   126421810.445    24277986.085  
  25674993.520   134922959.586                                                  
  23515381.269   123574144.700                                                  
  24022632.368   126239757.447                                                  
  26331308.652   138371903.901                                                  
  24923307.552   130972791.809                                                  
 21  8 31 20 21 13.0000000  0 17G10G15G18G23G24G27G32C19C21C22C34C35
                                E 3E 5E 9E15E36
  22570456.112   118608492.982    22570459.579    92422188.371                  
  22149332.452   116395523.593    22149333.489    90697809.364                  
  20201536.401   106159788.300    20201537.509    82721914.539                  
  20741664.538   108998182.176    20741665.556    84933650.130                  
  20777280.574   109185296.945    20777284.058    85079439.824                  
  24298382.664   127688798.500    24298386.559    99497749.976                  
  23647824.841   124270093.086    23647829.505    96833822.399                  
                 121030691.284                   121030691.284    23242673.872  
                 131141097.322                   131141097.322    25184272.195  
                 116775128.343                   116775128.343    22425431.962  
                 134600008.960                   134600008.960    25848522.657  
                 126424797.878                   126424797.878    24278559.788  
  25674679.275   134921308.319                                                  
  23515447.920   123574494.991                                                  
  24023023.575   126241813.254                                                  
  26330841.592   138369449.523                                                  
  24923778.383   130975265.945                                                  
 21  8 31 20 21 14.0000000  0 17G10G15G18G23G24G27G32C19C21C22C34C35
                                E 3E 5E 9E15E36
  22570046.662   118606341.230    22570050.128    92420511.683                  
  22149880.799   116398405.075    22149881.818    90700054.672                  
  20201718.540   106160745.484    20201719.666    82722660.395                  
  20741503.984   108997338.358    20741505.003    84932992.614                  
  20777144.233   109184580.438    20777147.718    85078881.507                  
  24298348.498   127688618.997    24298352.394    99497610.105                  
  23647307.282   124267373.316    23647311.946    96831703.098                  
                 121032331.055                   121032331.055    23242988.777  
                 131139170.862                   131139170.862    25183902.253  
                 116774825.048                   116774825.048    22425373.709  
                 134598076.891                   134598076.891    25848151.625  
                 126427785.474                   126427785.474    24279133.527  
  25674365.102   134919657.237                                                  
  23515514.625   123574845.481                                                  
  24023414.782   126243869.070                                                  
  26330374.603   138366995.367                                                  
  24924249.231   130977740.363                                                  
 21  8 31 20 21 15.0000000  0 17G10G15G18G23G24G27G32C19C21C22C34C35
                                E 3E 5E 9E15E36
  22569637.193   118604189.540    22569640.660    92418835.044                  
  22150429.164   116401286.712    22150430.182    90702300.102                  
  20201900.804   106161703.297    20201901.912    82723406.747                  
  20741343.467   108996494.777    20741344.468    84932335.273                  
  20777008.035   109183864.626    20777011.502    85078323.730                  
  24298314.458   127688440.101    24298318.353    99497470.706                  
  23646789.778   124264653.796    23646794.441    96829583.995                  
                 121033970.887                   121033970.887    23243303.701  
                 131137244.489                   131137244.489    25183532.328  
                 116774521.898                   116774521.898    22425315.474  
                 134596145.247                   134596145.247    25847780.664  
                 126430773.226                   126430773.226    24279707.283  
  25674050.947   134918006.355                                                  
  23515581.366   123575196.192                                                  
  24023806.006   126245924.909                                                  
  26329907.632   138364541.449                                                  
  24924720.187   130980215.083                                                  
 21  8 31 20 21 16.0000000  0 17G10G15G18G23G24G27G32C19C21C22C34C35
                                E 3E 5E 9E15E36
  22569227.760   118602037.914    22569231.227    92417158.452                  
  22150977.546   116404168.505    22150978.565    90704545.652                  
  20202083.193   106162661.726    20202084.301    82724153.574                  
  20741182.967   108995651.405    20741183.986    84931678.103                  
  20776871.945   109183149.495    20776875.412    85077766.489                  
  24298280.542   127688261.804    24298284.438    99497331.773                  
  23646272.326   124261934.504    23646276.955    96827465.067                  
                 121035610.780                   121035610.780    23243618.625  
                 131135318.187                   131135318.187    25183162.386  
                 116774218.900                   116774218.900    22425257.292  
                 134594214.027                   134594214.027    25847409.792  
                 126433761.142                   126433761.142    24280281.075  
  25673736.827   134916355.675                                                  
  23515648.142   123575547.105                                                  
  24024197.212   126247980.775                                                  
  26329440.714   138362087.760                                                  
  24925191.143   130982690.082                                                  
 21  8 31 20 21 17.0000000  0 17G10G15G18G23G24G27G32C19C21C22C34C35
                                E 3E 5E 9E15E36
  22568818.345   118599886.382    22568821.794    92415481.953                  
  22151525.964   116407050.406    22151526.983    90706791.269                  
  20202265.707   106163620.786    20202266.815    82724900.892                  
  20741022.521   108994808.227    20741023.540    84931021.062                  
  20776735.997   109182435.060    20776739.464    85077209.789                  
  24298246.716   127688084.144    24298250.612    99497193.367                  
  23645754.893   124259215.359    23645759.557    96825346.195                  
                 121037250.737                   121037250.737    23243933.566  
                 131133391.960                   131133391.960    25182792.479  
                 116773916.046                   116773916.046    22425199.146  
                 134592283.235                   134592283.235    25847038.992  
                 126436749.215                   126436749.215    24280854.921  
  25673422.743   134914705.118                                                  
  23515714.955   123575898.121                                                  
  24024588.437   126250036.714                                                  
  26328973.832   138359634.294                                                  
  24925662.189   130985165.559                                                  
 21  8 31 20 21 18.0000000  0 17G10G15G18G23G24G27G32C19C21C22C34C35
                                E 3E 5E 9E15E36
  22568408.912   118597734.868    22568412.379    92413805.446                  
  22152074.400   116409932.504    22152075.419    90709037.059                  
  20202448.329   106164580.474    20202449.437    82725648.696                  
  20740862.111   108993965.312    20740863.148    84930364.246                  
  20776600.175   109181721.332    20776603.642    85076653.637                  
  24298213.015   127687907.035    24298216.928    99497055.360                  
  23645237.513   124256496.554    23645242.177    96823227.648                  
                 121038890.758                   121038890.758    23244248.526  
                 131131465.814                   131131465.814    25182422.573  
                 116773613.347                   116773613.347    22425141.018  
                 134590352.867                   134590352.867    25846668.300  
                 126439737.453                   126439737.453    24281428.785  
  25673108.695   134913054.819                                                  
  23515781.803   123576249.433                                                  
  24024979.661   126252092.618                                                  
  26328507.004   138357181.051                                                  
  24926133.288   130987641.153                                                  
 21  8 31 20 21 19.0000000  0 17G10G15G18G23G24G27G32C19C21C22C34C35
                                E 3E 5E 9E15E36
  22567999.497   118595583.407    22568002.964    92412128.989                  
  22152622.872   116412814.769    22152623.909    90711282.980                  
  20202631.057   106165540.778    20202632.183    82726396.989                  
  20740701.755   108993122.612    20740702.773    84929707.598                  
  20776464.495   109181008.290    20776467.962    85076098.020                  
  24298179.421   127687730.508    24298183.317    99496917.801                  
  23644720.205   124253777.993    23644724.851    96821109.289                  
                 121040530.840                   121040530.840    23244563.485  
                 131129539.741                   131129539.741    25182052.702  
                 116773310.794                   116773310.794    22425082.908  
                 134588422.926                   134588422.926    25846297.678  
                 126442725.851                   126442725.851    24282002.666  
  25672794.701   134911404.720                                                  
  23515848.704   123576600.962                                                  
  24025370.903   126254148.551                                                  
  26328040.194   138354728.043                                                  
  24926604.422   130990117.039                                                  
 21  8 31 20 21 20.0000000  0 17G10G15G18G23G24G27G32C19C21C22C34C35
                                E 3E 5E 9E15E36
  22567590.100   118593431.996    22567593.566    92410452.563                  
  22153171.398   116415697.184    22153172.416    90713529.015                  
  20202813.929   106166501.696    20202815.037    82727145.754                  
  20740541.434   108992280.132    20740542.452    84929051.118                  
  20776328.941   109180295.923    20776332.408    85075542.929                  
  24298145.953   127687554.581    24298149.866    99496780.718                  
  23644202.915   124251059.664    23644207.579    96818991.113                  
                 121042170.983                   121042170.983    23244878.444  
                 131127613.746                   131127613.746    25181682.813  
                 116773008.386                   116773008.386    22425024.834  
                 134586493.411                   134586493.411    25845927.146  
                 126445714.407                   126445714.407    24282576.601  
  25672480.742   134909754.806                                                  
  23515915.642   123576952.688                                                  
  24025762.146   126256204.493                                                  
  26327573.455   138352275.273                                                  
  24927075.628   130992593.226                                                  
 21  8 31 20 21 21.0000000  0 17G10G15G18G23G24G27G32C19C21C22C34C35
                                E 3E 5E 9E15E36
  22567180.721   118591280.652    22567184.187    92408776.195                  
  22153719.923   116418579.751    22153720.959    90715775.172                  
  20202996.908   106167463.238    20202998.016    82727895.008                  
  20740381.166   108991437.872    20740382.185    84928394.812                  
  20776193.494   109179584.249    20776196.978    85074988.382                  
  24298112.573   127687379.222    24298116.487    99496644.079                  
  23643685.678   124248341.575    23643690.342    96816873.124                  
                 121043811.187                   121043811.187    23245193.422  
                 131125687.827                   131125687.827    25181312.960  
                 116772706.131                   116772706.131    22424966.778  
                 134584564.325                   134584564.325    25845556.668  
                 126448703.125                   126448703.125    24283150.537  
  25672166.801   134908105.097                                                  
  23515982.597   123577304.620                                                  
  24026153.388   126258260.453                                                  
  26327106.752   138349822.731                                                  
  24927546.888   130995069.707                                                  
 21  8 31 20 21 22.0000000  0 17G10G15G18G23G24G27G32C19C21C22C34C35
                                E 3E 5E 9E15E36
  22566771.341   118589129.340    22566774.808    92407099.851                  
  22154268.502   116421462.456    22154269.521    90718021.440                  
  20203179.994   106168425.388    20203181.102    82728644.742                  
  20740220.935   108990595.817    20740221.936    84927738.672                  
  20776058.225   109178873.273    20776061.674    85074434.380                  
  24298079.337   127687204.461    24298083.232    99496507.902                  
  23643168.495   124245623.716    23643173.141    96814755.320                  
                 121045451.458                   121045451.458    23245508.417  
                 131123761.984                   131123761.984    25180943.143  
                 116772404.023                   116772404.023    22424908.775  
                 134582635.661                   134582635.661    25845186.278  
                 126451692.003                   126451692.003    24283724.525  
  25671852.914   134906455.570                                                  
  23516049.624   123577656.751                                                  
  24026544.612   126260316.439                                                  
  26326640.102   138347370.413                                                  
  24928018.201   130997546.460                                                  
 21  8 31 20 21 23.0000000  0 17G10G15G18G23G24G27G32C19C21C22C34C35
                                E 3E 5E 9E15E36
  22566361.980   118586978.090    22566365.446    92405423.559                  
  22154817.081   116424345.329    22154818.117    90720267.837                  
  20203363.205   106169388.163    20203364.313    82729394.960                  
  20740060.739   108989753.997    20740061.758    84927082.711                  
  20775923.046   109178162.970    20775926.513    85073880.903                  
  24298046.208   127687030.292    24298050.103    99496372.191                  
  23642651.348   124242906.097    23642655.994    96812637.700                  
                 121047091.788                   121047091.788    23245823.448  
                 131121836.219                   131121836.219    25180573.308  
                 116772102.062                   116772102.062    22424850.772  
                 134580707.422                   134580707.422    25844815.979  
                 126454681.044                   126454681.044    24284298.532  
  25671539.062   134904806.249                                                  
  23516116.668   123578009.093                                                  
  24026935.855   126262372.448                                                  
  26326173.488   138344918.335                                                  
  24928489.586   131000023.528                                                  
 21  8 31 20 21 24.0000000  0 17G10G15G18G23G24G27G32C19C21C22C34C35
                                E 3E 5E 9E15E36
  22565952.618   118584826.902    22565956.085    92403747.308                  
  22155365.714   116427228.363    22155366.732    90722514.359                  
  20203546.541   106170351.566    20203547.667    82730145.664                  
  20739900.579   108988912.392    20739901.598    84926426.914                  
  20775788.028   109177453.376    20775791.494    85073327.973                  
  24298013.168   127686856.723    24298017.063    99496236.941                  
  23642134.236   124240188.712    23642138.900    96810520.262                  
                 121048732.184                   121048732.184    23246138.461  
                 131119910.530                   131119910.530    25180203.508  
                 116771800.253                   116771800.253    22424792.823  
                 134578779.610                   134578779.610    25844445.786  
                 126457670.248                   126457670.248    24284872.574  
  25671225.247   134903157.118                                                  
  23516183.766   123578361.649                                                  
  24027327.115   126264428.493                                                  
  26325706.892   138342466.486                                                  
  24928961.007   131002500.877                                                  
 21  8 31 20 21 25.0000000  0 17G10G15G18G23G24G27G32C19C21C22C34C35
                                E 3E 5E 9E15E36
  22565543.257   118582675.766    22565546.723    92402071.099                  
  22155914.382   116430111.561    22155915.401    90724761.005                  
  20203729.984   106171315.582    20203731.092    82730896.843                  
  20739740.473   108988071.003    20739741.491    84925771.293                  
  20775653.117   109176744.454    20775656.583    85072775.566                  
  24297980.235   127686683.722    24297984.149    99496102.136                  
  23641617.196   124237471.572    23641621.842    96808403.012                  
                 121050372.641                   121050372.641    23246453.474  
                 131117984.919                   131117984.919    25179833.709  
                 116771498.589                   116771498.589    22424734.891  
                 134576852.223                   134576852.223    25844075.647  
                 126460659.605                   126460659.605    24285446.652  
  25670911.467   134901508.190                                                  
  23516250.882   123578714.411                                                  
  24027718.357   126266484.538                                                  
  26325240.386   138340014.869                                                  
  24929432.481   131004978.535                                                  
 21  8 31 20 21 26.0000000  0 17G10G15G18G23G24G27G32C19C21C22C34C35
                                E 3E 5E 9E15E36
  22565133.931   118580524.683    22565137.398    92400394.933                  
  22156463.068   116432994.927    22156464.087    90727007.781                  
  20203913.535   106172280.223    20203914.661    82731648.512                  
  20739580.420   108987229.843    20739581.438    84925115.840                  
  20775518.349   109176036.225    20775521.815    85072223.704                  
  24297947.446   127686511.332    24297951.341    99495967.804                  
  23641100.173   124234754.666    23641104.837    96806285.942                  
                 121052013.159                   121052013.159    23246768.540  
                 131116059.378                   131116059.378    25179463.927  
                 116771197.074                   116771197.074    22424676.996  
                 134574925.263                   134574925.263    25843705.580  
                 126463649.126                   126463649.126    24286020.784  
  25670597.722   134899859.464                                                  
  23516318.034   123579067.366                                                  
  24028109.617   126268540.618                                                  
  26324773.897   138337563.489                                                  
  24929904.027   131007456.477                                                  
 21  8 31 20 21 27.0000000  0 17G10G15G18G23G24G27G32C19C21C22C34C35
                                E 3E 5E 9E15E36
  22564724.605   118578373.653    22564728.054    92398718.805                  
  22157011.772   116435878.445    22157012.809    90729254.680                  
  20204097.246   106173245.481    20204098.354    82732400.660                  
  20739420.403   108986388.901    20739421.403    84924460.562                  
  20775383.723   109175328.727    20775387.172    85071672.402                  
  24297914.745   127686339.526    24297918.659    99495833.929                  
  23640583.223   124232037.997    23640587.886    96804169.058                  
                 121053653.741                   121053653.741    23247083.607  
                 131114133.919                   131114133.919    25179094.163  
                 116770895.706                   116770895.706    22424619.118  
                 134572998.730                   134572998.730    25843335.620  
                 126466638.804                   126466638.804    24286594.916  
  25670283.996   134898210.918                                                  
  23516385.258   123579420.539                                                  
  24028500.877   126270596.721                                                  
  26324307.462   138335112.333                                                  
  24930375.626   131009934.710                                                  
 21  8 31 20 21 28.0000000  0 17G10G15G18G23G24G27G32C19C21C22C34C35
                                E 3E 5E 9E15E36
  22564315.298   118576222.682    22564318.764    92397042.726                  
  22157560.512   116438762.113    22157561.549    90731501.692                  
  20204281.047   106174211.363    20204282.155    82733153.294                  
  20739260.403   108985548.176    20739261.422    84923805.454                  
  20775249.223   109174621.886    20775252.672    85071121.617                  
  24297882.152   127686168.304    24297886.066    99495700.511                  
  23640066.308   124229321.567    23640070.953    96802052.363                  
                 121055294.387                   121055294.387    23247398.656  
                 131112208.535                   131112208.535    25178724.400  
                 116770594.493                   116770594.493    22424561.276  
                 134571072.622                   134571072.622    25842965.713  
                 126469628.644                   126469628.644    24287169.083  
  25669970.341   134896562.582                                                  
  23516452.499   123579773.911                                                  
  24028892.155   126272652.839                                                  
  26323841.063   138332661.414                                                  
  24930847.261   131012413.242                                                  
 21  8 31 20 21 29.0000000  0 17G10G15G18G23G24G27G32C19C21C22C34C35
                                E 3E 5E 9E15E36
  22563905.972   118574071.761    22563909.439    92395366.684                  
  22158109.306   116441645.939    22158110.324    90733748.825                  
  20204464.955   106175177.859    20204466.081    82733906.410                  
  20739100.458   108984707.667    20739101.476    84923150.512                  
  20775114.848   109173915.746    20775118.315    85070571.378                  
  24297849.702   127685997.686    24297853.598    99495567.562                  
  23639549.428   124226605.371    23639554.074    96799935.847                  
                 121056935.095                   121056935.095    23247713.740  
                 131110283.227                   131110283.227    25178354.654  
                 116770293.422                   116770293.422    22424503.452  
                 134569146.942                   134569146.942    25842595.913  
                 126472618.642                   126472618.642    24287743.287  
  25669656.704   134894914.429                                                  
  23516519.776   123580127.486                                                  
  24029283.415   126274708.969                                                  
  26323374.717   138330210.718                                                  
  24931318.967   131014892.061                                                  
 21  8 31 20 21 30.0000000  0 17G10G15G18G23G24G27G32C19C21C22C34C35
                                E 3E 5E 9E15E36
  22563496.700   118571920.889    22563500.149    92393690.684                  
  22158658.099   116444529.915    22158659.135    90735996.079                  
  20204649.006   106176144.980    20204650.114    82734660.013                  
  20738940.566   108983867.382    20738941.584    84922495.742                  
  20774980.598   109173210.293    20774984.065    85070021.676                  
  24297817.359   127685827.662    24297821.255    99495435.073                  
  23639032.602   124223889.415    23639037.248    96797819.520                  
                 121058575.863                   121058575.863    23248028.842  
                 131108357.997                   131108357.997    25177984.944  
                 116769992.500                   116769992.500    22424445.663  
                 134567221.683                   134567221.683    25842226.185  
                 126475608.799                   126475608.799    24288317.508  
  25669343.102   134893266.481                                                  
  23516587.106   123580481.269                                                  
  24029674.693   126276765.134                                                  
  26322908.407   138327760.245                                                  
  24931790.727   131017371.189                                                  
 21  8 31 20 21 31.0000000  0 17G10G15G18G23G24G27G32C19C21C22C34C35
                                E 3E 5E 9E15E36
  22563087.392   118569770.083    22563090.859    92392014.726                  
  22159206.946   116447414.032    22159207.965    90738243.442                  
  20204833.164   106177112.723    20204834.272    82735414.093                  
  20738780.727   108983027.320    20738781.728    84921841.149                  
  20774846.473   109172505.532    20774849.958    85069472.512                  
  24297785.124   127685658.224    24297789.019    99495303.044                  
  23638515.812   124221173.698    23638520.458    96795703.379                  
                 121060216.692                   121060216.692    23248343.945  
                 131106432.840                   131106432.840    25177615.234  
                 116769691.732                   116769691.732    22424387.893  
                 134565296.855                   134565296.855    25841856.547  
                 126478599.120                   126478599.120    24288891.764  
  25669029.537   134891618.723                                                  
  23516654.454   123580835.251                                                  
  24030065.971   126278821.320                                                  
  26322442.133   138325310.028                                                  
  24932262.541   131019850.590                                                  
 21  8 31 20 21 32.0000000  0 17G10G15G18G23G24G27G32C19C21C22C34C35
                                E 3E 5E 9E15E36
  22562678.138   118567619.337    22562681.604    92390338.821                  
  22159755.793   116450298.313    22159756.812    90740490.930                  
  20205017.447   106178081.091    20205018.537    82736168.664                  
  20738620.907   108982187.475    20738621.925    84921186.726                  
  20774712.527   109171801.470    20774715.976    85068923.890                  
  24297752.977   127685489.384    24297756.873    99495171.481                  
  23637999.076   124218458.212    23638003.722    96793587.418                  
                 121061857.586                   121061857.586    23248659.065  
                 131104507.761                   131104507.761    25177245.542  
                 116769391.106                   116769391.106    22424330.176  
                 134563372.454                   134563372.454    25841486.980  
                 126481589.597                   126481589.597    24289466.057  
  25668716.025   134889971.160                                                  
  23516721.856   123581189.436                                                  
  24030457.267   126280877.503                                                  
  26321975.912   138322860.027                                                  
  24932734.426   131022330.292                                                  
 21  8 31 20 21 33.0000000  0 17G10G15G18G23G24G27G32C19C21C22C34C35
                                E 3E 5E 9E15E36
  22562268.884   118565468.630    22562272.314    92388662.945                  
  22160304.694   116453182.743    22160305.712    90742738.540                  
  20205201.820   106179050.066    20205202.946    82736923.714                  
  20738461.122   108981347.847    20738462.141    84920532.473                  
  20774578.652   109171098.094    20774582.137    85068375.805                  
  24297720.956   127685321.117    24297724.851    99495040.363                  
  23637482.375   124215742.970    23637487.039    96791471.645                  
                 121063498.543                   121063498.543    23248974.185  
                 131102582.758                   131102582.758    25176875.885  
                 116769090.629                   116769090.629    22424272.459  
                 134561448.477                   134561448.477    25841117.502  
                 126484580.234                   126484580.234    24290040.385  
  25668402.549   134888323.793                                                  
  23516789.294   123581543.829                                                  
  24030848.545   126282933.735                                                  
  26321509.745   138320410.253                                                  
  24933206.347   131024810.286                                                  
 21  8 31 20 21 34.0000000  0 17G10G15G18G23G24G27G32C19C21C22C34C35
                                E 3E 5E 9E15E36
  22561859.611   118563317.988    22561863.078    92386987.120                  
  22160853.612   116456067.321    22160854.649    90744986.261                  
  20205386.336   106180019.675    20205387.461    82737679.249                  
  20738301.373   108980508.445    20738302.392    84919878.391                  
  20774444.939   109170395.394    20774448.423    85067828.251                  
  24297689.060   127685153.457    24297692.955    99494909.719                  
  23636965.746   124213027.965    23636970.374    96789356.059                  
                 121065139.561                   121065139.561    23249289.323  
                 131100657.831                   131100657.831    25176506.193  
                 116768790.299                   116768790.299    22424214.796  
                 134559524.931                   134559524.931    25840748.096  
                 126487571.032                   126487571.032    24290614.731  
  25668089.108   134886676.628                                                  
  23516856.785   123581898.437                                                  
  24031239.841   126284989.974                                                  
  26321043.614   138317960.725                                                  
  24933678.322   131027290.578                                                  
 21  8 31 20 21 35.0000000  0 17G10G15G18G23G24G27G32C19C21C22C34C35
                                E 3E 5E 9E15E36
  22561450.375   118561167.398    22561453.842    92385311.340                  
  22161402.566   116458952.063    22161403.603    90747234.109                  
  20205570.958   106180989.898    20205572.084    82738435.269                  
  20738141.695   108979669.266    20738142.714    84919224.483                  
  20774311.368   109169693.391    20774314.834    85067281.234                  
  24297657.289   127684986.370    24297661.184    99494779.524                  
  23636449.135   124210313.187    23636453.781    96787240.652                  
                 121066780.641                   121066780.641    23249604.479  
                 131098732.979                   131098732.979    25176136.554  
                 116768490.121                   116768490.121    22424157.132  
                 134557601.803                   134557601.803    25840378.779  
                 126490561.989                   126490561.989    24291189.113  
  25667775.685   134885029.648                                                  
  23516924.294   123582253.235                                                  
  24031631.137   126287046.241                                                  
  26320577.518   138315511.414                                                  
  24934150.368   131029771.161                                                  
 21  8 31 20 21 36.0000000  0 17G10G15G18G23G24G27G32C19C21C22C34C35
                                E 3E 5E 9E15E36
  22561041.139   118559016.864    22561044.605    92383635.597                  
  22161951.539   116461836.954    22161952.575    90749482.079                  
  20205755.724   106181960.740    20205756.832    82739191.769                  
  20737982.054   108978830.302    20737983.072    84918570.747                  
  20774177.922   109168992.091    20774181.388    85066734.766                  
  24297625.607   127684819.884    24297629.502    99494649.792                  
  23635932.577   124207598.655    23635937.223    96785125.435                  
                 121068421.784                   121068421.784    23249919.635  
                 131096808.206                   131096808.206    25175766.916  
                 116768190.089                   116768190.089    22424099.540  
                 134555679.109                   134555679.109    25840009.551  
                 126493553.106                   126493553.106    24291763.549  
  25667462.316   134883382.862                                                  
  23516991.857   123582608.242                                                  
  24032022.433   126289102.524                                                  
  26320111.476   138313062.344                                                  
  24934622.467   131032252.023                                                  
 21  8 31 20 21 37.0000000  0 17G10G15G18G23G24G27G32C19C21C22C34C35
                                E 3E 5E 9E15E36
  22560631.920   118556866.391    22560635.387    92381959.902                  
  22162500.546   116464721.992    22162501.583    90751730.151                  
  20205940.579   106182932.212    20205941.705    82739948.754                  
  20737822.447   108977991.569    20737823.466    84917917.187                  
  20774044.583   109168291.476    20774048.068    85066188.833                  
  24297594.014   127684654.000    24297597.928    99494520.527                  
  23635416.055   124204884.372    23635420.719    96783010.402                  
                 121070062.992                   121070062.992    23250234.827  
                 131094883.508                   131094883.508    25175397.295  
                 116767890.207                   116767890.207    22424041.948  
                 134553756.840                   134553756.840    25839640.395  
                 126496544.380                   126496544.380    24292337.984  
  25667148.983   134881736.290                                                  
  23517059.438   123582963.466                                                  
  24032413.747   126291158.833                                                  
  26319645.488   138310613.509                                                  
  24935094.620   131034733.196                                                  
 21  8 31 20 21 38.0000000  0 17G10G15G18G23G24G27G32C19C21C22C34C35
                                E 3E 5E 9E15E36
  22560222.720   118554715.972    22560226.186    92380284.246                  
  22163049.572   116467607.186    22163050.626    90753978.356                  
  20206125.559   106183904.304    20206126.685    82740706.226                  
  20737662.877   108977153.059    20737663.896    84917263.798                  
  20773911.405   109167591.555    20773914.872    85065643.434                  
  24297562.583   127684488.702    24297566.478    99494391.719                  
  23634899.605   124202170.324    23634904.233    96780895.558                  
                 121071704.263                   121071704.263    23250550.019  
                 131092958.886                   131092958.886    25175027.692  
                 116767590.471                   116767590.471    22423984.374  
                 134551835.000                   134551835.000    25839271.328  
                 126499535.811                   126499535.811    24292912.438  
  25666835.685   134880089.895                                                  
  23517127.072   123583318.874                                                  
  24032805.042   126293215.159                                                  
  26319179.517   138308164.894                                                  
  24935566.827   131037214.651                                                  
 21  8 31 20 21 39.0000000  0 17G10G15G18G23G24G27G32C19C21C22C34C35
                                E 3E 5E 9E15E36
  22559813.519   118552565.608    22559816.986    92378608.638                  
  22163598.634   116470492.535    22163599.688    90756226.671                  
  20206310.664   106184877.021    20206311.772    82741464.180                  
  20737503.360   108976314.766    20737504.379    84916610.574                  
  20773778.335   109166892.328    20773781.819    85065098.578                  
  24297531.223   127684323.986    24297535.118    99494263.364                  
  23634383.172   124199456.520    23634387.818    96778780.903                  
                 121073345.589                   121073345.589    23250865.228  
                 131091034.343                   131091034.343    25174658.125  
                 116767290.887                   116767290.887    22423926.836  
                 134549913.583                   134549913.583    25838902.333  
                 126502527.402                   126502527.402    24293486.962  
  25666522.424   134878443.696                                                  
  23517194.760   123583674.503                                                  
  24033196.356   126295271.500                                                  
  26318713.618   138305716.516                                                  
  24936039.088   131039696.399                                                  
 21  8 31 20 21 40.0000000  0 17G10G15G18G23G24G27G32C19C21C22C34C35
                                E 3E 5E 9E15E36
  22559404.318   118550415.297    22559407.785    92376933.066                  
  22164147.749   116473378.034    22164148.785    90758475.105                  
  20206495.877   106185850.357    20206497.003    82742222.621                  
  20737343.879   108975476.697    20737344.898    84915957.528                  
  20773645.425   109166193.792    20773648.874    85064554.262                  
  24297500.005   127684159.882    24297503.901    99494135.489                  
  23633866.793   124196742.933    23633871.439    96776666.421                  
                 121074986.986                   121074986.986    23251180.420  
                 131089109.872                   131089109.872    25174288.540  
                 116766991.450                   116766991.450    22423869.334  
                 134547992.592                   134547992.592    25838533.445  
                 126505519.156                   126505519.156    24294061.487  
  25666209.197   134876797.702                                                  
  23517262.466   123584030.331                                                  
  24033587.652   126297327.868                                                  
  26318247.737   138303268.370                                                  
  24936511.402   131042178.447                                                  
 21  8 31 20 21 41.0000000  0 17G10G15G18G23G24G27G32C19C21C22C34C35
                                E 3E 5E 9E15E36
  22558995.136   118548265.048    22558998.602    92375257.543                  
  22164696.864   116476263.694    22164697.900    90760723.667                  
  20206681.214   106186824.306    20206682.340    82742981.536                  
  20737184.434   108974638.841    20737185.452    84915304.653                  
  20773512.622   109165495.951    20773516.107    85064010.485                  
  24297468.878   127683996.351    24297472.773    99494008.056                  
  23633350.468   124194029.607    23633355.114    96774552.132                  
                 121076628.437                   121076628.437    23251495.647  
                 131087185.480                   131087185.480    25173918.973  
                 116766692.159                   116766692.159    22423811.867  
                 134546072.035                   134546072.035    25838164.592  
                 126508511.061                   126508511.061    24294636.066  
  25665896.007   134875151.890                                                  
  23517330.225   123584386.362                                                  
  24033978.984   126299384.247                                                  
  26317781.927   138300820.456                                                  
  24936983.787   131044660.779                                                  
 21  8 31 20 21 42.0000000  0 17G10G15G18G23G24G27G32C19C21C22C34C35
                                E 3E 5E 9E15E36
  22558585.989   118546114.848    22558589.437    92373582.058                  
  22165246.015   116479149.507    22165247.069    90762972.348                  
  20206866.677   106187798.878    20206867.803    82743740.942                  
  20737025.042   108973801.212    20737026.079    84914651.948                  
  20773379.963   109164798.802    20773383.411    85063467.245                  
  24297437.875   127683833.422    24297441.788    99493881.093                  
  23632834.178   124191316.507    23632838.824    96772438.031                  
                 121078269.956                   121078269.956    23251810.875  
                 131085261.163                   131085261.163    25173549.441  
                 116766393.019                   116766393.019    22423754.418  
                 134544151.897                   134544151.897    25837795.865  
                 126511503.132                   126511503.132    24295210.662  
  25665582.852   134873506.287                                                  
  23517398.002   123584742.604                                                  
  24034370.297   126301440.665                                                  
  26317316.135   138298372.777                                                  
  24937456.208   131047143.407                                                  
 21  8 31 20 21 43.0000000  0 17G10G15G18G23G24G27G32C19C21C22C34C35
                                E 3E 5E 9E15E36
  22558176.824   118543964.707    22558180.272    92371906.621                  
  22165795.201   116482035.461    22165796.238    90765221.141                  
  20207052.247   106188774.074    20207053.372    82744500.829                  
  20736865.704   108972963.799    20736866.723    84913999.419                  
  20773247.428   109164102.343    20773250.895    85062924.550                  
  24297406.979   127683671.083    24297410.893    99493754.590                  
  23632317.942   124188603.647    23632322.588    96770324.114                  
                 121079911.538                   121079911.538    23252126.138  
                 131083336.922                   131083336.922    25173179.892  
                 116766094.027                   116766094.027    22423697.005  
                 134542232.192                   134542232.192    25837427.191  
                 126514495.360                   126514495.360    24295785.276  
  25665269.734   134871860.871                                                  
  23517465.833   123585099.043                                                  
  24034761.647   126303497.094                                                  
  26316850.397   138295925.321                                                  
  24937928.683   131049626.329                                                  
 21  8 31 20 21 44.0000000  0 17G10G15G18G23G24G27G32C19C21C22C34C35
                                E 3E 5E 9E15E36
  22557767.659   118541814.634    22557771.125    92370231.237                  
  22166344.406   116484921.579    22166345.442    90767470.055                  
  20207237.942   106189749.887    20207239.067    82745261.195                  
  20736706.384   108972126.613    20736707.403    84913347.059                  
  20773115.019   109163406.585    20773118.503    85062382.394                  
  24297376.209   127683509.327    24297380.122    99493628.547                  
  23631801.741   124185891.034    23631806.405    96768210.383                  
                 121081553.179                   121081553.179    23252441.401  
                 131081412.759                   131081412.759    25172810.379  
                 116765795.184                   116765795.184    22423639.627  
                 134540312.912                   134540312.912    25837058.625  
                 126517487.745                   126517487.745    24296359.944  
  25664956.686   134870215.664                                                  
  23517533.700   123585455.693                                                  
  24035152.961   126305553.535                                                  
  26316384.713   138293478.103                                                  
  24938401.212   131052109.544                                                  
 21  8 31 20 21 45.0000000  0 17G10G15G18G23G24G27G32C19C21C22C34C35
                                E 3E 5E 9E15E36
  22557358.512   118539664.599    22557361.996    92368555.883                  
  22166893.646   116487807.832    22166894.682    90769719.078                  
  20207423.762   106190726.321    20207424.887    82746022.051                  
  20736547.117   108971289.641    20736548.136    84912694.871                  
  20772982.752   109162711.508    20772986.237    85061840.773                  
  24297345.546   127683348.161    24297349.441    99493502.956                  
  23631285.595   124183178.656    23631290.241    96766096.839                  
                 121083194.887                   121083194.887    23252756.664  
                 131079488.672                   131079488.672    25172440.883  
                 116765496.483                   116765496.483    22423582.268  
                 134538394.059                   134538394.059    25836690.148  
                 126520480.289                   126520480.289    24296934.612  
  25664643.639   134868570.635                                                  
  23517601.620   123585812.548                                                  
  24035544.292   126307610.008                                                  
  26315919.082   138291031.122                                                  
  24938873.812   131054593.044                                                  
 21  8 31 20 21 46.0000000  0 17G10G15G18G23G24G27G32C19C21C22C34C35
                                E 3E 5E 9E15E36
  22556949.400   118537514.625    22556952.867    92366880.574                  
  22167442.922   116490694.247    22167443.958    90771968.226                  
  20207609.689   106191703.375    20207610.797    82746783.388                  
  20736387.887   108970452.895    20736388.923    84912042.856                  
  20772850.629   109162017.124    20772854.095    85061299.692                  
  24297314.972   127683187.594    24297318.903    99493377.832                  
  23630769.484   124180466.513    23630774.148    96763983.481                  
                 121084836.652                   121084836.652    23253071.963  
                 131077564.655                   131077564.655    25172071.405  
                 116765197.937                   116765197.937    22423524.926  
                 134536475.633                   134536475.633    25836321.724  
                 126523472.988                   126523472.988    24297509.333  
  25664330.645   134866925.809                                                  
  23517669.558   123586169.606                                                  
  24035935.642   126309666.499                                                  
  26315453.486   138288584.367                                                  
  24939346.483   131057076.841                                                  
 21  8 31 20 21 47.0000000  0 17G10G15G18G23G24G27G32C19C21C22C34C35
                                E 3E 5E 9E15E36
  22556540.271   118535364.702    22556543.738    92365205.305                  
  22167992.198   116493580.805    22167993.234    90774217.487                  
  20207795.723   106192681.054    20207796.867    82747545.211                  
  20736228.691   108969616.374    20736229.728    84911391.020                  
  20772718.612   109161323.441    20772722.097    85060759.156                  
  24297284.541   127683027.620    24297288.436    99493253.177                  
  23630253.426   124177754.598    23630258.072    96761870.296                  
                 121086478.482                   121086478.482    23253387.244  
                 131075640.722                   131075640.722    25171701.927  
                 116764899.538                   116764899.538    22423467.620  
                 134534557.632                   134534557.632    25835953.372  
                 126526465.847                   126526465.847    24298084.108  
  25664017.687   134865281.180                                                  
  23517737.532   123586526.860                                                  
  24036326.973   126311723.013                                                  
  26314987.927   138286137.853                                                  
  24939819.172   131059560.934                                                  
 21  8 31 20 21 48.0000000  0 17G10G15G18G23G24G27G32C19C21C22C34C35
                                E 3E 5E 9E15E36
  22556131.178   118533214.837    22556134.644    92363530.083                  
  22168541.527   116496467.516    22168542.581    90776466.868                  
  20207981.883   106193659.347    20207983.026    82748307.512                  
  20736069.568   108968780.071    20736070.586    84910739.348                  
  20772586.739   109160630.441    20772590.223    85060219.152                  
  24297254.199   127682868.241    24297258.112    99493128.981                  
  23629737.423   124175042.933    23629742.069    96759757.308                  
                 121088120.375                   121088120.375    23253702.561  
                 131073716.865                   131073716.865    25171332.467  
                 116764601.285                   116764601.285    22423410.332  
                 134532640.061                   134532640.061    25835585.145  
                 126529458.866                   126529458.866    24298658.865  
  25663704.747   134863636.742                                                  
  23517805.559   123586884.332                                                  
  24036718.323   126313779.542                                                  
  26314522.403   138283691.559                                                  
  24940291.933   131062045.320                                                  
 21  8 31 20 21 49.0000000  0 17G10G15G18G23G24G27G32C19C21C22C34C35
                                E 3E 5E 9E15E36
  22555722.084   118531065.019    22555725.551    92361854.891                  
  22169090.874   116499354.400    22169091.929    90778716.399                  
  20208168.167   106194638.261    20208169.293    82749070.300                  
  20735910.462   108967943.985    20735911.480    84910087.848                  
  20772455.008   109159938.120    20772458.475    85059679.676                  
  24297223.983   127682709.470    24297227.896    99493005.270                  
  23629221.437   124172331.544    23629226.083    96757644.558                  
                 121089762.347                   121089762.347    23254017.878  
                 131071793.048                   131071793.048    25170963.025  
                 116764303.180                   116764303.180    22423353.080  
                 134530722.871                   134530722.871    25835216.972  
                 126532451.992                   126532451.992    24299233.676  
  25663391.860   134861992.485                                                  
  23517873.622   123587242.000                                                  
  24037109.654   126315836.118                                                  
  26314056.915   138281245.508                                                  
  24940764.765   131064529.988                                                  
 21  8 31 20 21 50.0000000  0 17G10G15G18G23G24G27G32C19C21C22C34C35
                                E 3E 5E 9E15E36
  22555312.991   118528915.263    22555316.458    92360179.754                  
  22169640.258   116502241.413    22169641.294    90780966.015                  
  20208354.559   106195617.792    20208355.703    82749833.566                  
  20735751.392   108967108.122    20735752.428    84909436.519                  
  20772323.385   109159246.509    20772326.852    85059140.753                  
  24297193.873   127682551.259    24297197.804    99492881.984                  
  23628705.522   124169620.354    23628710.168    96755531.945                  
                 121091404.363                   121091404.363    23254333.195  
                 131069869.339                   131069869.339    25170593.601  
                 116764005.224                   116764005.224    22423295.881  
                 134528806.156                   134528806.156    25834848.888  
                 126535445.328                   126535445.328    24299808.522  
  25663078.991   134860348.425                                                  
  23517941.721   123587599.868                                                  
  24037501.022   126317892.691                                                  
  26313591.498   138278799.683                                                  
  24941237.633   131067014.949                                                  
 21  8 31 20 21 51.0000000  0 17G10G15G18G23G24G27G32C19C21C22C34C35
                                E 3E 5E 9E15E36
  22554903.916   118526765.568    22554907.400    92358504.665                  
  22170189.676   116505128.590    22170190.713    90783215.755                  
  20208541.076   106196597.956    20208542.219    82750597.328                  
  20735592.375   108966272.479    20735593.412    84908785.371                  
  20772191.905   109158555.578    20772195.407    85058602.363                  
  24297163.871   127682393.644    24297167.802    99492759.165                  
  23628189.644   124166909.402    23628194.272    96753419.512                  
                 121093046.428                   121093046.428    23254648.547  
                 131067945.694                   131067945.694    25170224.177  
                 116763707.430                   116763707.430    22423238.682  
                 134526889.879                   134526889.879    25834480.875  
                 126538438.824                   126538438.824    24300383.405  
  25662766.194   134858704.580                                                  
  23518009.856   123587957.950                                                  
  24037892.371   126319949.284                                                  
  26313126.118   138276354.094                                                  
  24941710.555   131069500.204                                                  
 21  8 31 20 21 52.0000000  0 17G10G15G18G23G24G27G32C19C21C22C34C35
                                E 3E 5E 9E15E36
  22554494.858   118524615.917    22554498.324    92356829.610                  
  22170739.095   116508015.905    22170740.167    90785465.608                  
  20208727.718   106197578.734    20208728.861    82751361.561                  
  20735433.395   108965437.054    20735434.431    84908134.383                  
  20772060.568   109157865.352    20772064.034    85058064.520                  
  24297133.994   127682236.624    24297137.925    99492636.808                  
  23627673.801   124164198.688    23627678.447    96751307.263                  
                 121094688.569                   121094688.569    23254963.900  
                 131066022.142                   131066022.142    25169854.789  
                 116763409.773                   116763409.773    22423181.519  
                 134524974.015                   134524974.015    25834112.952  
                 126541432.473                   126541432.473    24300958.305  
  25662453.415   134857060.922                                                  
  23518078.044   123588316.234                                                  
  24038283.738   126322005.898                                                  
  26312660.772   138273908.736                                                  
  24942183.566   131071985.761                                                  
 21  8 31 20 21 53.0000000  0 17G10G15G18G23G24G27G32C19C21C22C34C35
                                E 3E 5E 9E15E36
  22554085.800   118522466.337    22554089.285    92355154.605                  
  22171288.586   116510903.388    22171289.622    90787715.586                  
  20208914.485   106198560.134    20208915.628    82752126.284                  
  20735274.468   108964601.857    20735275.504    84907483.578                  
  20771929.337   109157175.815    20771932.840    85057527.219                  
  24297104.242   127682080.192    24297108.156    99492514.905                  
  23627158.011   124161488.223    23627162.657    96749195.208                  
                 121096330.774                   121096330.774    23255279.288  
                 131064098.663                   131064098.663    25169485.400  
                 116763112.262                   116763112.262    22423124.374  
                 134523058.582                   134523058.582    25833745.118  
                 126544426.280                   126544426.280    24301533.223  
  25662140.689   134855417.466                                                  
  23518146.268   123588674.724                                                  
  24038675.106   126324062.536                                                  
  26312195.499   138271463.612                                                  
  24942656.594   131074471.603                                                  
 21  8 31 20 21 54.0000000  0 17G10G15G18G23G24G27G32C19C21C22C34C35
                                E 3E 5E 9E15E36
  22553676.760   118520316.803    22553680.245    92353479.644                  
  22171838.076   116513791.008    22171839.112    90789965.675                  
  20209101.341   106199542.156    20209102.485    82752891.491                  
  20735115.576   108963766.874    20735116.613    84906832.938                  
  20771798.268   109156486.968    20771801.735    85056990.450                  
  24297074.580   127681924.352    24297078.493    99492393.469                  
  23626642.258   124158777.984    23626646.921    96747083.333                  
                 121097973.040                   121097973.040    23255594.658  
                 131062175.259                   131062175.259    25169116.012  
                 116762814.898                   116762814.898    22423067.283  
                 134521143.578                   134521143.578    25833377.356  
                 126547420.247                   126547420.247    24302108.176  
  25661827.963   134853774.196                                                  
  23518214.527   123589033.408                                                  
  24039066.473   126326119.185                                                  
  26311730.243   138269018.724                                                  
  24943129.677   131076957.723                                                  
 21  8 31 20 21 55.0000000  0 17G10G15G18G23G24G27G32C19C21C22C34C35
                                E 3E 5E 9E15E36
  22553267.738   118518167.329    22553271.205    92351804.722                  
  22172387.602   116516678.793    22172388.656    90792215.890                  
  20209288.341   106200524.794    20209289.484    82753657.179                  
  20734956.721   108962932.120    20734957.757    84906182.476                  
  20771667.324   109155798.813    20771670.808    85056454.219                  
  24297045.042   127681769.093    24297048.955    99492272.484                  
  23626126.576   124156067.986    23626131.221    96744971.641                  
                 121099615.372                   121099615.372    23255910.047  
                 131060251.934                   131060251.934    25168746.677  
                 116762517.684                   116762517.684    22423010.191  
                 134519229.000                   134519229.000    25833009.701  
                 126550414.368                   126550414.368    24302683.184  
  25661515.309   134852131.125                                                  
  23518282.823   123589392.308                                                  
  24039457.841   126328175.855                                                  
  26311265.041   138266574.058                                                  
  24943602.849   131079444.149                                                  
 21  8 31 20 21 56.0000000  0 17G10G15G18G23G24G27G32C19C21C22C34C35
                                E 3E 5E 9E15E36
  22552858.699   118516017.910    22552862.183    92350129.848                  
  22172937.164   116519566.722    22172938.200    90794466.222                  
  20209475.447   106201508.042    20209476.573    82754423.344                  
  20734797.919   108962097.590    20734798.955    84905532.188                  
  20771536.505   109155111.360    20771539.971    85055918.534                  
  24297015.594   127681614.433    24297019.525    99492151.965                  
  23625610.911   124153358.219    23625615.575    96742860.133                  
                 121101257.763                   121101257.763    23256225.453  
                 131058328.678                   131058328.678    25168377.342  
                 116762220.614                   116762220.614    22422953.153  
                 134517314.852                   134517314.852    25832642.099  
                 126553408.645                   126553408.645    24303258.209  
  25661202.672   134850488.253                                                  
  23518351.154   123589751.402                                                  
  24039849.226   126330232.551                                                  
  26310799.875   138264129.633                                                  
  24944076.038   131081930.874                                                  
 21  8 31 20 21 57.0000000  0 17G10G15G18G23G24G27G32C19C21C22C34C35
                                E 3E 5E 9E15E36
  22552449.695   118513868.538    22552453.179    92348455.013                  
  22173486.743   116522454.809    22173487.798    90796716.675                  
  20209662.679   106202491.919    20209663.822    82755189.997                  
  20734639.152   108961263.276    20734640.207    84904882.071                  
  20771405.793   109154424.585    20771409.295    85055383.383                  
  24296986.289   127681460.360    24296990.202    99492031.901                  
  23625095.318   124150648.699    23625099.964    96740748.816                  
                 121102900.215                   121102900.215    23256540.859  
                 131056405.505                   131056405.505    25168008.007  
                 116761923.696                   116761923.696    22422896.133  
                 134515401.128                   134515401.128    25832274.587  
                 126556403.083                   126556403.083    24303833.252  
  25660890.072   134848845.566                                                  
  23518419.521   123590110.708                                                  
  24040240.593   126332289.259                                                  
  26310334.762   138261685.434                                                  
  24944549.317   131084417.883                                                  
 21  8 31 20 21 58.0000000  0 17G10G15G18G23G24G27G32C19C21C22C34C35
                                E 3E 5E 9E15E36
  22552040.708   118511719.239    22552044.175    92346780.228                  
  22174036.359   116525343.040    22174037.395    90798967.237                  
  20209850.018   106203476.415    20209851.161    82755957.132                  
  20734480.440   108960429.189    20734481.476    84904232.126                  
  20771275.242   109153738.499    20771278.744    85054848.770                  
  24296957.073   127681306.883    24296961.004    99491912.308                  
  23624579.761   124147939.414    23624584.407    96738637.683                  
                 121104542.731                   121104542.731    23256856.301  
                 131054482.406                   131054482.406    25167638.708  
                 116761626.925                   116761626.925    22422839.149  
                 134513487.837                   134513487.837    25831907.164  
                 126559397.675                   126559397.675    24304408.348  
  25660577.525   134847203.085                                                  
  23518487.941   123590470.210                                                  
  24040631.978   126334345.996                                                  
  26309869.703   138259241.467                                                  
  24945022.614   131086905.180                                                  
 21  8 31 20 21 59.0000000  0 17G10G15G18G23G24G27G32C19C21C22C34C35
                                E 3E 5E 9E15E36
  22551631.704   118509569.988    22551635.189    92345105.484                  
  22174585.992   116528231.429    22174587.064    90801217.926                  
  20210037.481   106204461.533    20210038.625    82756724.749                  
  20734321.763   108959595.321    20734322.799    84903582.357                  
  20771144.816   109153053.109    20771148.318    85054314.695                  
  24296928.000   127681154.004    24296931.913    99491793.175                  
  23624064.240   124145230.372    23624068.904    96736526.739                  
                 121106185.308                   121106185.308    23257171.742  
                 131052559.383                   131052559.383    25167269.391  
                 116761330.301                   116761330.301    22422782.182  
                 134511574.969                   134511574.969    25831539.813  
                 126562392.427                   126562392.427    24304983.445  
  25660264.995   134845560.792                                                  
  23518556.380   123590829.927                                                  
  24041023.381   126336402.754                                                  
  26309404.661   138256797.747                                                  
  24945496.000   131089392.774                                                  
 21  8 31 20 22  0.0000000  0 17G10G15G18G23G24G27G32C19C21C22C34C35
                                E 3E 5E 9E15E36
  22551222.718   118507420.789    22551226.203    92343430.781                  
  22175135.679   116531119.968    22175136.715    90803468.731                  
  20210225.053   106205447.272    20210226.196    82757492.856                  
  20734163.122   108958761.668    20734164.158    84902932.754                  
  20771014.515   109152368.417    20771018.017    85053781.165                  
  24296898.999   127681001.706    24296902.948    99491674.499                  
  23623548.755   124142521.565    23623553.418    96734415.980                  
                 121107827.946                   121107827.946    23257487.184  
                 131050636.436                   131050636.436    25166900.128  
                 116761033.827                   116761033.827    22422725.234  
                 134509662.530                   134509662.530    25831172.533  
                 126565387.333                   126565387.333    24305558.577  
  25659952.520   134843918.704                                                  
  23518624.872   123591189.843                                                  
  24041414.767   126338459.535                                                  
  26308939.673   138254354.255                                                  
  24945969.440   131091880.652                                                  
 21  8 31 20 22  1.0000000  0 17G10G15G18G23G24G27G32C19C21C22C34C35
                                E 3E 5E 9E15E36
  22550813.768   118505271.646    22550817.234    92341756.117                  
  22175685.384   116534008.660    22175686.420    90805719.657                  
  20210412.767   106206433.626    20210413.892    82758261.441                  
  20734004.516   108957928.243    20734005.553    84902283.323                  
  20770884.357   109151684.412    20770887.859    85053248.169                  
  24296870.140   127680850.001    24296874.054    99491556.280                  
  23623033.340   124139813.008    23623038.004    96732305.411                  
                 121109470.648                   121109470.648    23257802.662  
                 131048713.568                   131048713.568    25166530.847  
                 116760737.499                   116760737.499    22422668.339  
                 134507750.519                   134507750.519    25830805.360  
                 126568382.399                   126568382.399    24306133.763  
  25659640.080   134842276.798                                                  
  23518693.399   123591549.961                                                  
  24041806.152   126340516.331                                                  
  26308474.739   138251910.992                                                  
  24946442.915   131094368.835                                                  
 21  8 31 20 22  2.0000000  0 17G10G15G18G23G24G27G32C19C21C22C34C35
                                E 3E 5E 9E15E36
  22550404.799   118503122.555    22550408.284    92340081.499                  
  22176235.106   116536897.504    22176236.161    90807970.695                  
  20210600.552   106207420.595    20210601.714    82759030.501                  
  20733845.964   108957095.039    20733847.019    84901634.071                  
  20770754.342   109151001.099    20770757.826    85052715.715                  
  24296841.389   127680698.882    24296845.320    99491438.524                  
  23622517.962   124137104.673    23622522.626    96730195.016                  
                 121111113.414                   121111113.414    23258118.140  
                 131046790.769                   131046790.769    25166161.601  
                 116760441.325                   116760441.325    22422611.462  
                 134505838.941                   134505838.941    25830438.259  
                 126571377.619                   126571377.619    24306708.967  
  25659327.676   134840635.094                                                  
  23518761.981   123591910.273                                                  
  24042197.555   126342573.154                                                  
  26308009.859   138249467.964                                                  
  24946916.462   131096857.289                                                  
 21  8 31 20 22  3.0000000  0 17G10G15G18G23G24G27G32C19C21C22C34C35
                                E 3E 5E 9E15E36
  22549995.867   118500973.521    22549999.333    92338406.925                  
  22176784.865   116539786.492    22176785.919    90810221.852                  
  20210788.499   106208408.195    20210789.660    82759800.055                  
  20733687.466   108956262.055    20733688.503    84900984.992                  
  20770624.434   109150318.482    20770627.937    85052183.796                  
  24296812.745   127680548.360    24296816.658    99491321.227                  
  23622002.619   124134396.574    23622007.283    96728084.808                  
                 121112756.244                   121112756.244    23258433.617  
                 131044868.051                   131044868.051    25165792.356  
                 116760145.294                   116760145.294    22422554.620  
                 134503927.785                   134503927.785    25830071.247  
                 126574372.996                   126574372.996    24307284.207  
  25659015.307   134838993.587                                                  
  23518830.580   123592270.805                                                  
  24042588.958   126344629.985                                                  
  26307544.996   138247025.171                                                  
  24947390.063   131099346.047                                                  
 21  8 31 20 22  4.0000000  0 17G10G15G18G23G24G27G32C19C21C22C34C35
                                E 3E 5E 9E15E36
  22549586.916   118498824.548    22549590.401    92336732.393                  
  22177334.641   116542675.638    22177335.695    90812473.128                  
  20210976.552   106209396.421    20210977.696    82760570.098                  
  20733528.986   108955429.296    20733530.040    84900336.085                  
  20770494.651   109149636.554    20770498.154    85051652.426                  
  24296784.208   127680398.418    24296788.139    99491204.387                  
  23621487.348   124131688.723    23621491.994    96725974.793                  
                 121114399.129                   121114399.129    23258749.113  
                 131042945.406                   131042945.406    25165423.128  
                 116759849.411                   116759849.411    22422497.779  
                 134502017.062                   134502017.062    25829704.325  
                 126577368.527                   126577368.527    24307859.464  
  25658702.975   134837352.268                                                  
  23518899.215   123592631.534                                                  
  24042980.379   126346686.837                                                  
  26307080.205   138244582.609                                                  
  24947863.699   131101835.096                                                  
 21  8 31 20 22  5.0000000  0 17G10G15G18G23G24G27G32C19C21C22C34C35
                                E 3E 5E 9E15E36
  22549178.002   118496675.628    22549181.486    92335057.915                  
  22177884.453   116545564.934    22177885.525    90814724.528                  
  20211164.713   106210385.254    20211165.875    82761340.613                  
  20733370.559   108954596.758    20733371.595    84899687.347                  
  20770365.047   109148955.336    20770368.532    85051121.601                  
  24296755.778   127680249.076    24296759.727    99491088.011                  
  23620972.095   124128981.102    23620976.759    96723864.960                  
                 121116042.081                   121116042.081    23259064.644  
                 131041022.840                   131041022.840    25165053.918  
                 116759553.676                   116759553.676    22422440.991  
                 134500106.767                   134500106.767    25829337.456  
                 126580364.218                   126580364.218    24308434.740  
  25658390.678   134835711.146                                                  
  23518967.903   123592992.471                                                  
  24043371.782   126348743.712                                                  
  26306615.432   138242140.277                                                  
  24948337.407   131104324.430                                                  
 21  8 31 20 22  6.0000000  0 17G10G15G18G23G24G27G32C19C21C22C34C35
                                E 3E 5E 9E15E36
  22548769.087   118494526.778    22548772.553    92333383.484                  
  22178434.301   116548454.371    22178435.355    90816976.030                  
  20211353.017   106211374.714    20211354.160    82762111.626                  
  20733212.186   108953764.446    20733213.222    84899038.792                  
  20770235.533   109148274.773    20770239.017    85050591.296                  
  24296727.474   127680100.320    24296731.423    99490972.102                  
  23620456.895   124126273.730    23620461.559    96721755.320                  
                 121117685.097                   121117685.097    23259380.157  
                 131039100.347                   131039100.347    25164684.726  
                 116759258.086                   116759258.086    22422384.239  
                 134498196.899                   134498196.899    25828970.676  
                 126583360.066                   126583360.066    24309010.068  
  25658078.435   134834070.290                                                  
  23519036.627   123593353.591                                                  
  24043763.203   126350800.616                                                  
  26306150.712   138239698.188                                                  
  24948811.168   131106814.054                                                  
 21  8 31 20 22  7.0000000  0 17G10G15G18G23G24G27G32C19C21C22C34C35
                                E 3E 5E 9E15E36
  22548360.172   118492377.993    22548363.657    92331709.106                  
  22178984.184   116551343.961    22178985.238    90819227.661                  
  20211541.428   106212364.800    20211542.571    82762883.121                  
  20733053.848   108952932.380    20733054.885    84898390.429                  
  20770106.161   109147594.914    20770109.663    85050061.536                  
  24296699.277   127679952.165    24296703.226    99490856.652                  
  23619941.767   124123566.613    23619946.395    96719645.878                  
                 121119328.171                   121119328.171    23259695.706  
                 131037177.934                   131037177.934    25164315.534  
                 116758962.648                   116758962.648    22422327.505  
                 134496287.458                   134496287.458    25828604.004  
                 126586356.071                   126586356.071    24309585.415  
  25657766.245   134832429.669                                                  
  23519105.387   123593714.921                                                  
  24044154.624   126352857.550                                                  
  26305686.064   138237256.336                                                  
  24949284.983   131109303.978                                                  
 21  8 31 20 22  8.0000000  0 17G10G15G18G23G24G27G32C19C21C22C34C35
                                E 3E 5E 9E15E36
  22547951.275   118490229.208    22547954.760    92330034.726                  
  22179534.085   116554233.717    22179535.140    90821479.417                  
  20211729.946   106213355.496    20211731.107    82763655.090                  
  20732895.547   108952100.461    20732896.583    84897742.183                  
  20769976.914   109146915.821    20769980.417    85049532.371                  
  24296671.204   127679804.583    24296675.136    99490741.653                  
  23619426.639   124120859.687    23619431.303    96717536.590                  
                 121120971.312                   121120971.312    23260011.237  
                 131035255.595                   131035255.595    25163946.378  
                 116758667.361                   116758667.361    22422270.789  
                 134494378.445                   134494378.445    25828237.403  
                 126589352.230                   126589352.230    24310160.798  
  25657454.002   134830788.922                                                  
  23519174.183   123594076.501                                                  
  24044546.045   126354914.461                                                  
  26305221.416   138234814.702                                                  
  24949758.852   131111794.203                                                  
 21  8 31 20 22  9.0000000  0 17G10G15G18G23G24G27G32C19C21C22C34C35
                                E 3E 5E 9E15E36
  22547542.396   118488080.517    22547545.881    92328360.426                  
  22180084.005   116557123.609    22180085.059    90823731.281                  
  20211918.571   106214346.818    20211919.733    82764427.546                  
  20732737.281   108951268.818    20732738.317    84897094.152                  
  20769847.829   109146237.336    20769851.313    85049003.683                  
  24296643.239   127679657.590    24296647.153    99490627.118                  
  23618911.582   124118153.034    23618916.246    96715427.512                  
                 121122614.511                   121122614.511    23260326.804  
                 131033333.331                   131033333.331    25163577.222  
                 116758372.216                   116758372.216    22422214.108  
                 134492469.862                   134492469.862    25827870.856  
                 126592348.543                   126592348.543    24310736.216  
  25657141.865   134829148.621                                                  
  23519243.015   123594438.239                                                  
  24044937.466   126356971.415                                                  
  26304756.839   138232373.305                                                  
  24950232.774   131114284.708                                                  
 21  8 31 20 22 10.0000000  0 17G10G15G18G23G24G27G32C19C21C22C34C35
                                E 3E 5E 9E15E36
  22547133.517   118485931.879    22547137.002    92326686.165                  
  22180633.959   116560013.656    22180635.014    90825983.261                  
  20212107.340   106215338.758    20212108.501    82765200.484                  
  20732579.069   108950437.383    20732580.105    84896446.280                  
  20769718.832   109145559.566    20769722.334    85048475.551                  
  24296615.382   127679511.200    24296619.295    99490513.047                  
  23618396.561   124115446.622    23618401.225    96713318.617                  
                 121124257.774                   121124257.774    23260642.371  
                 131031411.140                   131031411.140    25163208.084  
                 116758077.220                   116758077.220    22422157.463  
                 134490561.710                   134490561.710    25827504.416  
                 126595345.016                   126595345.016    24311311.652  
  25656829.765   134827508.482                                                  
  23519311.900   123594800.191                                                  
  24045328.905   126359028.378                                                  
  26304292.298   138229932.144                                                  
  24950706.786   131116775.500                                                  
 21  8 31 20 22 11.0000000  0 17G10G15G18G23G24G27G32C19C21C22C34C35
                                E 3E 5E 9E15E36
  22546724.656   118483783.290    22546728.141    92325011.937                  
  22181183.968   116562903.856    22181185.022    90828235.367                  
  20212296.215   106216331.321    20212297.377    82765973.910                  
  20732420.874   108949606.171    20732421.928    84895798.585                  
  20769589.996   109144882.492    20769593.499    85047947.960                  
  24296587.649   127679365.402    24296591.562    99490399.439                  
  23617881.594   124112740.441    23617886.240    96711209.909                  
                 121125901.101                   121125901.101    23260957.956  
                 131029489.030                   131029489.030    25162838.963  
                 116757782.375                   116757782.375    22422100.837  
                 134488653.985                   134488653.985    25827138.065  
                 126598341.644                   126598341.644    24311887.142  
  25656517.683   134825868.536                                                  
  23519380.821   123595162.346                                                  
  24045720.326   126361085.380                                                  
  26303827.828   138227491.225                                                  
  24951180.797   131119266.583                                                  
 21  8 31 20 22 12.0000000  0 17G10G15G18G23G24G27G32C19C21C22C34C35
                                E 3E 5E 9E15E36
  22546315.795   118481634.758    22546319.280    92323337.758                  
  22181733.959   116565794.200    22181735.049    90830487.583                  
  20212485.216   106217324.499    20212486.377    82766747.817                  
  20732262.751   108948775.182    20732263.805    84895151.059                  
  20769461.286   109144206.099    20769464.788    85047420.903                  
  24296560.005   127679220.187    24296563.919    99490286.280                  
  23617366.662   124110034.483    23617371.326    96709101.371                  
                 121127544.490                   121127544.490    23261273.559  
                 131027566.996                   131027566.996    25162469.861  
                 116757487.675                   116757487.675    22422044.245  
                 134486746.687                   134486746.687    25826771.786  
                 126601338.425                   126601338.425    24312462.632  
  25656205.636   134824228.772                                                  
  23519449.777   123595524.704                                                  
  24046111.764   126363142.390                                                  
  26303363.359   138225050.536                                                  
  24951654.898   131121757.953                                                  
 21  8 31 20 22 13.0000000  0 17G10G15G18G23G24G27G32C19C21C22C34C35
                                E 3E 5E 9E15E36
  22545906.952   118479486.292    22545910.436    92321663.630                  
  22182284.021   116568684.702    22182285.075    90832739.922                  
  20212674.342   106218318.306    20212675.485    82767522.210                  
  20732104.664   108947944.422    20732105.700    84894503.716                  
  20769332.700   109143530.430    20769336.203    85046894.406                  
  24296532.487   127679075.563    24296536.400    99490173.586                  
  23616851.784   124107328.790    23616856.448    96706993.038                  
                 121129187.939                   121129187.939    23261589.162  
                 131025645.035                   131025645.035    25162100.758  
                 116757193.126                   116757193.126    22421987.672  
                 134484839.820                   134484839.820    25826405.596  
                 126604335.366                   126604335.366    24313038.157  
  25655893.661   134822589.214                                                  
  23519518.752   123595887.272                                                  
  24046503.203   126365199.430                                                  
  26302898.961   138222610.079                                                  
  24952129.053   131124249.625                                                  
 21  8 31 20 22 14.0000000  0 17G10G15G18G23G24G27G32C19C21C22C34C35
                                E 3E 5E 9E15E36
  22545498.144   118477337.898    22545501.629    92319989.567                  
  22182834.083   116571575.407    22182835.137    90834992.442                  
  20212863.557   106219312.723    20212864.718    82768297.083                  
  20731946.612   108947113.879    20731947.667    84893856.535                  
  20769204.258   109142855.352    20769207.760    85046368.332                  
  24296505.076   127678931.540    24296509.007    99490061.363                  
  23616336.960   124104623.319    23616341.606    96704884.879                  
                 121130831.449                   121130831.449    23261904.782  
                 131023723.152                   131023723.152    25161731.674  
                 116756898.720                   116756898.720    22421931.134  
                 134482933.383                   134482933.383    25826039.477  
                 126607332.462                   126607332.462    24313613.718  
  25655581.685   134820949.843                                                  
  23519587.797   123596250.055                                                  
  24046894.660   126367256.575                                                  
  26302434.599   138220169.832                                                  
  24952603.261   131126741.562                                                  
 21  8 31 20 22 15.0000000  0 17G10G15G18G23G24G27G32C19C21C22C34C35
                                E 3E 5E 9E15E36
  22545089.319   118475189.535    22545092.803    92318315.519                  
  22183384.181   116574466.214    22183385.253    90837245.019                  
  20213052.915   106220307.765    20213054.058    82769072.438                  
  20731788.597   108946283.560    20731789.669    84893209.535                  
  20769075.940   109142181.027    20769079.443    85045842.886                  
  24296477.772   127678788.105    24296481.703    99489949.597                  
  23615822.153   124101918.104    23615826.817    96702776.922                  
                 121132475.023                   121132475.023    23262220.420  
                 131021801.344                   131021801.344    25161362.625  
                 116756604.465                   116756604.465    22421874.633  
                 134481027.374                   134481027.374    25825673.466  
                 126610329.711                   126610329.711    24314189.315  
  25655269.764   134819310.663                                                  
  23519656.861   123596613.020                                                  
  24047286.099   126369313.641                                                  
  26301970.272   138217729.839                                                  
  24953077.523   131129233.804                                                  
 21  8 31 20 22 16.0000000  0 17G10G15G18G23G24G27G32C19C21C22C34C35
                                E 3E 5E 9E15E36
  22544680.494   118473041.231    22544683.978    92316641.516                  
  22183934.314   116577357.165    22183935.387    90839497.706                  
  20213242.380   106221303.438    20213243.542    82769848.285                  
  20731630.634   108945453.460    20731631.707    84892562.706                  
  20768947.766   109141507.433    20768951.268    85045318.008                  
  24296450.593   127678645.262    24296454.525    99489838.286                  
  23615307.418   124099213.112    23615312.082    96700669.140                  
                 121134118.659                   121134118.659    23262536.059  
                 131019879.610                   131019879.610    25160993.576  
                 116756310.356                   116756310.356    22421818.166  
                 134479121.792                   134479121.792    25825307.509  
                 126613327.118                   126613327.118    24314764.948  
  25654957.878   134817671.688                                                  
  23519725.979   123596976.199                                                  
  24047677.555   126371370.721                                                  
  26301506.017   138215290.085                                                  
  24953551.838   131131726.339                                                  
 21  8 31 20 22 17.0000000  0 17G10G15G18G23G24G27G32C19C21C22C34C35
                                E 3E 5E 9E15E36
  22544271.704   118470892.992    22544275.188    92314967.567                  
  22184484.484   116580248.275    22184485.538    90841750.523                  
  20213431.988   106222299.716    20213433.114    82770624.609                  
  20731472.726   108944623.586    20731473.780    84891916.054                  
  20768819.699   109140834.509    20768823.201    85044793.653                  
  24296423.522   127678502.999    24296427.435    99489727.437                  
  23614792.719   124096508.364    23614797.383    96698561.546                  
                 121135762.358                   121135762.358    23262851.697  
                 131017957.954                   131017957.954    25160624.545  
                 116756016.398                   116756016.398    22421761.700  
                 134477216.640                   134477216.640    25824941.640  
                 126616324.676                   126616324.676    24315340.599  
  25654646.028   134816032.902                                                  
  23519795.114   123597339.569                                                  
  24048068.994   126373427.831                                                  
  26301041.780   138212850.564                                                  
  24954026.207   131134219.164                                                  
 21  8 31 20 22 18.0000000  0 17G10G15G18G23G24G27G32C19C21C22C34C35
                                E 3E 5E 9E15E36
  22543862.914   118468744.794    22543866.399    92313293.649                  
  22185034.653   116583139.519    22185035.725    90844003.446                  
  20213621.686   106223296.621    20213622.812    82771401.421                  
  20731314.835   108943793.930    20731315.907    84891269.570                  
  20768691.774   109140162.288    20768695.277    85044269.847                  
  24296396.557   127678361.333    24296400.507    99489617.050                  
  23614278.073   124093803.856    23614282.719    96696454.140                  
                 121137406.121                   121137406.121    23263167.371  
                 131016036.370                   131016036.370    25160255.514  
                 116755722.585                   116755722.585    22421705.288  
                 134475311.922                   134475311.922    25824575.862  
                 126619322.393                   126619322.393    24315916.285  
  25654334.213   134814394.312                                                  
  23519864.321   123597703.141                                                  
  24048460.487   126375484.965                                                  
  26300577.596   138210411.277                                                  
  24954500.612   131136712.281                                                  
 21  8 31 20 22 19.0000000  0 17G10G15G18G23G24G27G32C19C21C22C34C35
                                E 3E 5E 9E15E36
  22543454.143   118466596.651    22543457.627    92311619.774                  
  22185584.876   116586030.922    22185585.948    90846256.480                  
  20213811.508   106224294.137    20213812.634    82772178.706                  
  20731157.016   108942964.493    20731158.052    84890623.258                  
  20768563.993   109139490.745    20768567.495    85043746.570                  
  24296369.718   127678220.257    24296373.632    99489507.120                  
  23613763.463   124091099.585    23613768.127    96694346.923                  
                 121139049.946                   121139049.946    23263483.064  
                 131014114.868                   131014114.868    25159886.518  
                 116755428.923                   116755428.923    22421648.875  
                 134473407.628                   134473407.628    25824210.154  
                 126622320.265                   126622320.265    24316491.971  
  25654022.434   134812755.915                                                  
  23519933.545   123598066.910                                                  
  24048851.943   126377542.110                                                  
  26300113.466   138207972.211                                                  
  24954975.106   131139205.687                                                  
