     2.11           OBSERVATION DATA    M (MIXED)           RINEX VERSION / TYPE
CONVBIN 2.4.3                           20210831 165202 UTC PGM / RUN BY / DATE 
log: logs/21_08_31_06_47_44_al50_SNAL.rtcm                  COMMENT             
format: RTCM 3, station ID: 1544                            COMMENT             
1544                                                        MARKER NAME         
                                                            MARKER NUMBER       
                                                            OBSERVER / AGENCY   
495503              LEICA GRX1200+GNSS  8.20                REC # / TYPE / VERS 
                    GPPNULLANTENNA                          ANT # / TYPE        
   232974.8899 -5339225.5416  3469567.0549                  APPROX POSITION XYZ 
        0.0000        0.0000        0.0000                  ANTENNA: DELTA H/E/N
     1     1                                                WAVELENGTH FACT L1/2
     7    C1    L1    C2    L2    P2    C5    L5            # / TYPES OF OBSERV 
  2021     8    31     6    47   51.0000000     GPS         TIME OF FIRST OBS   
  2021     8    31     7    17   47.0000000     GPS         TIME OF LAST OBS    
                                                            END OF HEADER       
 21  8 31  6 47 51.0000000  0 13G 4G 7G 8G 9G16G21G27G30R 1R 2R12R21
                                R22
  23207163.691   121954468.285    23207160.475    95029440.624    23207160.046  
  23207162.923    91069891.797  
  20845471.732   109543693.156    20845466.836    85358699.431    20845466.228  
                                
  20560210.524   108044635.568    20560208.630    84190612.711    20560207.593  
  20560205.985    80682663.803  
  21607976.768   113550684.444    21607974.105    88481037.448    21607973.212  
  21607972.979    84794326.971  
  24819649.903   130428140.305                   101632294.980    24819644.471  
                                
  22816467.225   119901344.620                    93429593.524    22816461.167  
                                
  22390963.349   117665306.696    22390960.061    91687235.281    22390959.311  
  22390958.346    87866928.782  
  23074077.692   121255096.342    23074075.709    94484480.085    23074075.030  
  23074074.118    90547622.664  
  22523495.069   120400988.738                    93645241.049    22523501.449  
                                
  21877138.343   116740601.658                    90798258.247    21877141.274  
                                
  21643678.629   115616646.502                    89924070.395    21643681.434  
                                
  20217305.135   108186883.463                    84145358.055    20217306.118  
                                
  21478888.230   114655763.071                    89176710.822    21478889.623  
                                
 21  8 31  6 47 52.0000000  0 13G 4G 7G 8G 9G16G21G27G30R 1R 2R12R21
                                R22
  23207836.406   121958003.389    23207833.208    95032195.247    23207832.779  
  23207835.620    91072531.652  
  20845139.922   109541949.616    20845135.026    85357340.825    20845134.436  
                                
  20560461.566   108045954.694    20560459.654    84191640.601    20560458.600  
  20560457.009    80683648.871  
  21608401.514   113552916.462    21608398.834    88482776.680    21608397.941  
  21608397.708    84795993.738  
  24820200.037   130431031.417                   101634547.776    24820194.605  
                                
  22816045.302   119899127.312                    93427865.750    22816039.244  
                                
  22391537.552   117668324.260    22391534.282    91689586.634    22391533.514  
  22391532.603    87869182.155  
  23073525.968   121252197.125    23073524.003    94482220.946    23073523.341  
  23073522.412    90545457.662  
  22524150.594   120404492.955                    93647966.556    22524156.974  
                                
  21877170.722   116740774.491                    90798392.670    21877173.652  
                                
  21643300.002   115614623.994                    89922497.330    21643302.808  
                                
  20217171.957   108186170.739                    84144803.714    20217172.940  
                                
  21478149.739   114651820.968                    89173644.744    21478151.150  
                                
 21  8 31  6 47 53.0000000  0 13G 4G 7G 8G 9G16G21G27G30R 1R 2R12R21
                                R22
  23208509.193   121961538.774    23208505.959    95034950.100    23208505.548  
  23208508.389    91075171.721  
  20844808.237   109540206.506    20844803.323    85355982.556    20844802.733  
                                
  20560712.715   108047274.565    20560710.821    84192669.072    20560709.784  
  20560708.158    80684634.486  
  21608826.350   113555149.108    21608823.706    88484516.402    21608822.794  
  21608822.562    84797660.971  
  24820750.242   130433922.627                   101636800.674    24820744.810  
                                
  22815623.432   119896910.419                    93426138.300    22815617.374  
                                
  22392111.863   117671342.334    22392108.611    91691938.369    22392107.842  
  22392106.949    87871435.914  
  23072974.316   121249298.113    23072972.314    94479961.973    23072971.671  
  23072970.742    90543292.815  
  22524806.227   120407997.566                    93650692.362    22524812.552  
                                
  21877203.297   116740948.301                    90798527.855    21877206.227  
                                
  21642921.411   115612601.632                    89920924.382    21642924.217  
                                
  20217038.940   108185459.057                    84144250.182    20217039.941  
                                
  21477411.373   114647879.416                    89170579.100    21477412.767  
                                
 21  8 31  6 47 54.0000000  0 13G 4G 7G 8G 9G16G21G27G30R 1R 2R12R21
                                R22
  23209181.998   121965074.373    23209178.763    95037705.110    23209178.334  
  23209181.193    91077811.928  
  20844476.606   109538463.726    20844471.692    85354624.545    20844471.102  
                                
  20560964.007   108048595.058    20560962.095    84193698.032    20560961.059  
  20560959.450    80685620.564  
  21609251.294   113557382.270    21609248.667    88486256.531    21609247.756  
  21609247.505    84799328.588  
  24821300.394   130436813.810                   101639053.555    24821294.979  
                                
  22815201.616   119894693.857                    93424411.109    22815195.612  
                                
  22392686.263   117674360.802    22392683.028    91694290.419    22392682.242  
  22392681.384    87873689.956  
  23072422.699   121246399.206    23072420.680    94477703.090    23072420.019  
  23072419.107    90541128.056  
  22525461.877   120411502.443                    93653418.384    22525468.203  
                                
  21877236.015   116741123.019                    90798663.743    21877238.964  
                                
  21642542.838   115610579.392                    89919351.529    21642545.626  
                                
  20216906.119   108184748.329                    84143697.393    20216907.120  
                                
  21476673.078   114643938.282                    89167513.775    21476674.508  
                                
 21  8 31  6 47 55.0000000  0 13G 4G 7G 8G 9G16G21G27G30R 1R 2R12R21
                                R22
  23209854.820   121968610.111    23209851.586    95040460.228    23209851.175  
  23209854.034    91080452.265  
  20844145.028   109536721.215    20844140.096    85353266.747    20844139.507  
                                
  20561215.388   108049916.114    20561213.494    84194727.431    20561212.458  
  20561210.814    80686607.067  
  21609676.344   113559615.905    21609673.717    88487997.025    21609672.806  
  21609672.538    84800996.566  
  24821850.545   130439704.907                   101641306.356    24821845.059  
                                
  22814779.871   119892477.574                    93422684.138    22814773.831  
                                
  22393260.716   117677379.613    22393257.499    91696642.746    22393256.695  
  22393255.873    87875944.265  
  23071871.082   121243500.400    23071869.045    94475444.281    23071868.384  
  23071867.473    90538963.358  
  22526117.527   120415007.546                    93656144.581    22526123.906  
                                
  21877268.912   116741298.554                    90798800.268    21877271.878  
                                
  21642164.265   115608557.146                    89917778.671    21642167.052  
                                
  20216773.478   108184038.510                    84143145.316    20216774.478  
                                
  21475934.909   114639997.553                    89164448.766    21475936.303  
                                
 21  8 31  6 47 56.0000000  0 13G 4G 7G 8G 9G16G21G27G30R 1R 2R12R21
                                R22
  23210527.660   121972145.848    23210524.408    95043215.355    23210523.997  
  23210526.856    91083092.586  
  20843813.451   109534978.833    20843808.537    85351909.047    20843807.929  
                                
  20561466.877   108051237.578    20561464.965    84195757.146    20561463.929  
  20561462.267    80687593.882  
  21610101.430   113561849.847    21610098.839    88489737.760    21610097.892  
  21610097.660    84802664.764  
  24822400.607   130442595.729                   101643558.945    24822395.175  
                                
  22814358.126   119890261.431                    93420957.276    22814352.122  
                                
  22393835.187   117680398.611    22393831.989    91698995.215    22393831.202  
  22393830.398    87878198.712  
  23071319.430   121240601.484    23071317.393    94473185.389    23071316.732  
  23071315.838    90536798.588  
  22526773.249   120418512.734                    93658870.851    22526779.574  
                                
  21877301.934   116741474.709                    90798937.280    21877304.864  
                                
  21641785.674   115606534.775                    89916205.720    21641788.426  
                                
  20216640.961   108183329.401                    84142593.790    20216641.962  
                                
  21475196.668   114636057.015                    89161383.903    21475198.116  
                                
 21  8 31  6 47 57.0000000  0 13G 4G 7G 8G 9G16G21G27G30R 1R 2R12R21
                                R22
  23211200.554   121975681.856    23211197.302    95045970.690    23211196.819  
  23211199.750    91085733.116  
  20843481.980   109533236.863    20843477.030    85350551.670    20843476.459  
                                
  20561718.455   108052559.770    20561716.561    84196787.425    20561715.542  
  20561713.863    80688581.235  
  21610526.641   113564084.412    21610524.050    88491478.977    21610523.139  
  21610522.871    84804333.434  
  24822950.723   130445486.645                   101645811.606    24822945.380  
                                
  22813936.471   119888045.717                    93419230.741    22813930.503  
                                
  22394409.748   117683418.100    22394406.549    91701348.066    22394405.763  
  22394405.012    87880453.530  
  23070767.813   121237702.784    23070765.776    94470926.658    23070765.133  
  23070764.239    90534633.967  
  22527429.024   120422018.297                    93661597.400    22527435.385  
                                
  21877335.135   116741651.835                    90799075.051    21877338.065  
                                
  21641407.101   115604512.535                    89914632.867    21641409.835  
                                
  20216508.641   108182621.362                    84142043.095    20216509.659  
                                
  21474458.588   114632117.004                    89158319.453    21474460.053  
                                
 21  8 31  6 47 58.0000000  0 13G 4G 7G 8G 9G16G21G27G30R 1R 2R12R21
                                R22
  23211873.465   121979218.127    23211870.231    95048726.235    23211869.767  
  23211872.697    91088373.836  
  20843150.563   109531495.285    20843145.649    85349194.596    20843145.042  
                                
  20561970.194   108053882.658    20561968.318    84197818.247    20561967.281  
  20561965.584    80689569.099  
  21610951.978   113566319.549    21610949.405    88493220.635    21610948.458  
  21610948.207    84806002.526  
  24823500.857   130448377.605                   101648064.296    24823495.478  
                                
  22813514.905   119885830.388                    93417504.508    22813508.990  
                                
  22394984.415   117686438.061    22394981.217    91703701.278    22394980.449  
  22394979.716    87882708.678  
  23070216.250   121234804.256    23070214.213    94468668.061    23070213.570  
  23070212.676    90532469.474  
  22528084.835   120425524.189                    93664324.205    22528091.214  
                                
  21877368.478   116741829.838                    90799213.495    21877371.427  
                                
  21641028.545   115602490.391                    89913060.086    21641031.262  
                                
  20216376.499   108181914.321                    84141493.172    20216377.554  
                                
  21473720.598   114628177.504                    89155255.392    21473722.045  
                                
 21  8 31  6 47 59.0000000  0 13G 4G 7G 8G 9G16G21G27G30R 1R 2R12R21
                                R22
  23212546.467   121982754.610    23212543.179    95051481.939    23212542.750  
  23212545.662    91091014.727  
  20842819.218   109529754.036    20842814.286    85347837.777    20842813.697  
                                
  20562222.058   108055206.182    20562220.181    84198849.562    20562219.145  
  20562217.430    80690557.452  
  21611377.421   113568555.212    21611374.813    88494962.710    21611373.901  
  21611373.633    84807672.025  
  24824050.972   130451268.492                   101650316.928    24824045.665  
                                
  22813093.410   119883615.413                    93415778.551    22813087.532  
                                
  22395559.173   117689458.421    22395555.974    91706054.803    22395555.188  
  22395554.491    87884964.148  
  23069664.722   121231905.851    23069662.668    94466409.566    23069662.024  
  23069661.113    90530305.094  
  22528740.771   120429030.391                    93667051.251    22528747.097  
                                
  21877401.947   116742008.686                    90799352.602    21877404.931  
                                
  21640649.990   115600468.363                    89911487.395    21640652.724  
                                
  20216244.572   108181208.237                    84140943.993    20216245.609  
                                
  21472982.696   114624238.450                    89152191.688    21472984.162  
                                
 21  8 31  6 48  0.0000000  0 13G 4G 7G 8G 9G16G21G27G30R 1R 2R12R21
                                R22
  23213219.468   121986291.392    23213216.215    95054237.868    23213215.751  
  23213218.699    91093655.832  
  20842487.944   109528013.236    20842483.030    85346481.311    20842482.441  
                                
  20562474.047   108056530.455    20562472.170    84199881.463    20562471.152  
  20562469.436    80691546.357  
  21611802.936   113570791.517    21611800.363    88496705.287    21611799.470  
  21611799.202    84809341.989  
  24824601.124   130454159.484                   101652569.646    24824595.781  
                                
  22812671.987   119881400.864                    93414052.933    22812666.126  
                                
  22396134.001   117692479.281    22396130.821    91708408.721    22396130.052  
  22396129.391    87887219.998  
  23069113.213   121229007.690    23069111.158    94464151.261    23069110.515  
  23069109.639    90528140.880  
  22529396.671   120432537.011                    93669778.625    22529403.069  
                                
  21877435.648   116742188.506                    90799492.464    21877438.614  
                                
  21640271.506   115598446.553                    89909914.880    21640274.223  
                                
  20216112.806   108180503.240                    84140395.664    20216113.878  
                                
  21472244.884   114620299.942                    89149128.406    21472246.367  
                                
 21  8 31  6 48  1.0000000  0 13G 4G 7G 8G 9G16G21G27G30R 1R 2R12R21
                                R22
  23213892.540   121989828.412    23213889.270    95056993.985    23213888.788  
  23213891.736    91096297.104  
  20842156.760   109526272.783    20842151.846    85345125.116    20842151.238  
                                
  20562726.179   108057855.364    20562724.302    84200913.862    20562723.284  
  20562721.533    80692535.741  
  21612228.594   113573028.362    21612226.039    88498448.283    21612225.128  
  21612224.860    84811012.358  
  24825151.275   130457050.479                   101654822.358    24825145.897  
                                
  22812250.654   119879186.705                    93412327.617    22812244.793  
                                
  22396708.919   117695500.498    22396705.756    91710762.921    22396704.952  
  22396704.327    87889476.150  
  23068561.739   121226109.661    23068559.702    94461893.059    23068559.041  
  23068558.147    90525976.770  
  22530052.679   120436043.908                    93672506.212    22530059.076  
                                
  21877469.510   116742369.178                    90799632.983    21877472.458  
                                
  21639893.041   115596424.832                    89908342.436    21639895.721  
                                
  20215981.255   108179799.220                    84139848.096    20215982.291  
                                
  21471507.162   114616361.913                    89146065.496    21471508.663  
                                
 21  8 31  6 48  2.0000000  0 13G 4G 7G 8G 9G16G21G27G30R 1R 2R12R21
                                R22
  23214565.648   121993365.485    23214562.360    95059750.148    23214561.842  
  23214564.826    91098938.434  
  20841825.593   109524532.526    20841820.661    85343769.074    20841820.054  
                                
  20562978.400   108059180.790    20562976.524    84201946.666    20562975.505  
  20562973.736    80693525.503  
  21612654.324   113575265.614    21612651.769    88500191.597    21612650.857  
  21612650.589    84812683.025  
  24825701.373   130459941.307                   101657074.952    24825696.066  
                                
  22811829.338   119876972.735                    93410602.449    22811823.513  
                                
  22397283.891   117698522.076    22397280.746    91713117.416    22397279.924  
  22397279.352    87891732.527  
  23068010.265   121223211.623    23068008.228    94459634.854    23068007.567  
  23068006.674    90523812.657  
  22530708.740   120439550.958                    93675233.919    22530715.119  
                                
  21877503.514   116742550.593                    90799774.085    21877506.445  
                                
  21639514.557   115594403.054                    89906769.947    21639517.219  
                                
  20215849.846   108179096.022                    84139301.169    20215850.900  
                                
  21470769.457   114612424.213                    89143002.840    21470771.012  
                                
 21  8 31  6 48  3.0000000  0 13G 4G 7G 8G 9G16G21G27G30R 1R 2R12R21
                                R22
  23215238.756   121996902.610    23215235.433    95062506.356    23215234.932  
  23215237.917    91101579.778  
  20841494.462   109522792.442    20841489.531    85342413.167    20841488.923  
                                
  20563230.710   108060506.679    20563228.834    84202979.829    20563227.816  
  20563226.047    80694515.611  
  21613080.125   113577503.208    21613077.552    88501935.179    21613076.658  
  21613076.408    84814353.961  
  24826251.453   130462831.929                   101659327.382    24826246.110  
                                
  22811408.076   119874758.951                    93408877.428    22811402.250  
                                
  22397858.898   117701543.880    22397855.789    91715472.105    22397854.967  
  22397854.395    87893989.054  
  23067458.792   121220313.550    23067456.755    94457376.613    23067456.058  
  23067455.182    90521648.501  
  22531364.766   120443058.098                    93677961.688    22531371.163  
                                
  21877537.644   116742732.731                    90799915.741    21877540.557  
                                
  21639136.037   115592381.155                    89905197.358    21639138.700  
                                
  20215718.562   108178393.607                    84138754.843    20215719.652  
                                
  21470031.824   114608486.751                    89139940.372    21470033.432  
                                
 21  8 31  6 48  4.0000000  0 13G 4G 7G 8G 9G16G21G27G30R 1R 2R12R21
                                R22
  23215911.847   122000439.768    23215908.523    95065262.576    23215908.023  
  23215911.007    91104221.162  
  20841163.367   109521052.537    20841158.435    85341057.392    20841157.828  
                                
  20563483.110   108061833.059    20563481.234    84204013.364    20563480.234  
  20563478.429    80695506.089  
  21613505.979   113579741.182    21613503.424    88503679.053    21613502.549  
  21613502.281    84816025.174  
  24826801.497   130465722.402                   101661579.699    24826796.101  
                                
  22810986.831   119872545.347                    93407152.530    22810981.024  
                                
  22398433.959   117704565.945    22398430.868    91717826.977    22398430.028  
  22398429.510    87896245.791  
  23066907.282   121217415.439    23066905.263    94455118.345    23066904.566  
  23066903.690    90519484.323  
  22532020.898   120446565.389                    93680689.572    22532027.260  
                                
  21877571.935   116742915.590                    90800057.960    21877574.812  
                                
  21638757.518   115590359.150                    89903624.683    21638760.145  
                                
  20215587.439   108177692.014                    84138209.160    20215588.547  
                                
  21469294.262   114604549.563                    89136878.112    21469295.906  
                                
 21  8 31  6 48  5.0000000  0 13G 4G 7G 8G 9G16G21G27G30R 1R 2R12R21
                                R22
  23216584.955   122003976.931    23216581.614    95068018.805    23216581.113  
  23216584.097    91106862.546  
  20840832.290   109519312.744    20840827.340    85339701.704    20840826.768  
                                
  20563735.582   108063159.834    20563733.706    84205047.216    20563732.723  
  20563730.918    80696496.870  
  21613931.905   113581979.471    21613929.350    88505423.174    21613928.492  
  21613928.224    84817696.623  
  24827351.524   130468612.643                   101663831.835    24827346.110  
                                
  22810565.623   119870331.864                    93405427.733    22810559.815  
                                
  22399009.091   117707588.251    22399006.000    91720182.023    22399005.160  
  22399004.642    87898502.662  
  23066355.790   121214517.249    23066353.753    94452860.006    23066353.039  
  23066352.181    90517320.094  
  22532677.013   120450072.747                    93683417.512    22532683.339  
                                
  21877606.333   116743099.126                    90800200.706    21877609.192  
                                
  21638378.980   115588337.015                    89902051.911    21638381.571  
                                
  20215456.459   108176991.162                    84137664.052    20215457.567  
                                
  21468556.718   114600612.632                    89133816.050    21468558.416  
                                
 21  8 31  6 48  6.0000000  0 13G 4G 7G 8G 9G16G21G27G30R 1R 2R12R21
                                R22
  23217258.045   122007513.972    23217254.650    95070774.939    23217254.204  
  23217257.152    91109503.847  
  20840501.248   109517572.997    20840496.281    85338346.058    20840495.709  
                                
  20563988.125   108064486.941    20563986.249    84206081.325    20563985.284  
  20563983.443    80697487.887  
  21614357.867   113584217.980    21614355.330    88507167.464    21614354.472  
  21614354.204    84819368.230  
  24827901.479   130471502.523                   101666083.696    24827896.029  
                                
  22810144.414   119868118.421                    93403702.970    22810138.642  
                                
  22399584.224   117710610.601    22399581.097    91722537.073    22399580.257  
  22399579.792    87900759.598  
  23065804.263   121211618.874    23065802.208    94450601.529    23065801.475  
  23065800.618    90515155.714  
  22533333.074   120453580.047                    93686145.408    22533339.454  
                                
  21877640.802   116743283.237                    90800343.905    21877643.661  
                                
  21638000.372   115586314.689                    89900478.991    21638002.963  
                                
  20215325.604   108176290.946                    84137119.442    20215326.730  
                                
  21467819.156   114596675.829                    89130754.094    21467820.943  
                                
 21  8 31  6 48  7.0000000  0 13G 4G 7G 8G 9G16G21G27G30R 1R 2R12R21
                                R22
  23217931.171   122011051.141    23217927.759    95073531.181    23217927.294  
  23217930.242    91112145.233  
  20840170.225   109515833.477    20840165.275    85336990.587    20840164.668  
                                
  20564240.757   108065814.609    20564238.899    84207115.869    20564237.934  
  20564236.075    80698479.320  
  21614783.936   113586456.920    21614781.363    88508912.088    21614780.523  
  21614780.273    84821040.173  
  24828451.416   130474392.295                   101668335.464    24828446.002  
                                
  22809723.259   119865905.222                    93401978.402    22809717.523  
                                
  22400159.392   117713633.250    22400156.265    91724892.354    22400155.461  
  22400154.996    87903016.778  
  23065252.700   121208720.528    23065250.681    94448343.073    23065249.930  
  23065249.090    90512991.365  
  22533989.261   120457087.581                    93688873.484    22533995.586  
                                
  21877675.468   116743468.143                    90800487.719    21877678.309  
                                
  21637621.781   115584292.347                    89898906.059    21637624.372  
                                
  20215194.910   108175591.614                    84136575.516    20215196.054  
                                
  21467081.719   114592739.371                    89127692.407    21467083.542  
                                
 21  8 31  6 48  8.0000000  0 13G 4G 7G 8G 9G16G21G27G30R 1R 2R12R21
                                R22
  23218604.333   122014588.580    23218600.902    95076287.632    23218600.456  
  23218603.386    91114786.834  
  20839839.273   109514094.385    20839834.323    85335635.451    20839833.733  
                                
  20564493.550   108067142.993    20564491.692    84208150.973    20564490.745  
  20564488.851    80699471.297  
  21615210.095   113588696.494    21615207.557    88510657.211    21615206.717  
  21615206.449    84822712.571  
  24829001.353   130477282.133                   101670587.284    24828995.921  
                                
  22809302.176   119863692.457                    93400254.174    22809296.458  
                                
  22400734.667   117716656.404    22400731.558    91727248.040    22400730.718  
  22400730.307    87905274.328  
  23064701.208   121205822.399    23064699.171    94446084.793    23064698.421  
  23064697.599    90510827.178  
  22534645.447   120460595.496                    93691601.858    22534651.790  
                                
  21877710.295   116743654.003                    90800632.274    21877713.100  
                                
  21637243.225   115582270.158                    89897333.247    21637245.798  
                                
  20215064.431   108174893.329                    84136032.402    20215065.556  
                                
  21466344.408   114588803.468                    89124631.149    21466346.213  
                                
 21  8 31  6 48  9.0000000  0 13G 4G 7G 8G 9G16G21G27G30R 1R 2R12R21
                                R22
  23219277.585   122018126.316    23219274.082    95079044.312    23219273.635  
  23219276.602    91117428.654  
  20839508.428   109512355.697    20839503.460    85334280.632    20839502.888  
                                
  20564746.468   108068472.060    20564744.610    84209186.608    20564743.645  
  20564741.751    80700463.789  
  21615636.378   113590936.661    21615633.858    88512402.791    21615633.019  
  21615632.751    84824385.423  
  24829551.308   130480172.019                   101672839.155    24829545.822  
                                
  22808881.181   119861480.103                    93398530.262    22808875.463  
                                
  22401310.050   117719680.030    22401306.958    91729604.106    22401306.118  
  22401305.690    87907532.235  
  23064149.734   121202924.443    23064147.697    94443826.648    23064146.965  
  23064146.125    90508663.138  
  22535301.705   120464103.737                    93694330.483    22535308.048  
                                
  21877745.300   116743840.796                    90800777.560    21877748.106  
                                
  21636864.706   115580248.106                    89895760.543    21636867.243  
                                
  20214934.112   108174196.062                    84135490.086    20214935.273  
                                
  21465607.275   114584868.078                    89121570.286    21465609.008  
                                
 21  8 31  6 48 10.0000000  0 13G 4G 7G 8G 9G16G21G27G30R 1R 2R12R21
                                R22
  23219950.818   122021664.228    23219947.315    95081801.124    23219946.869  
  23219949.835    91120070.595  
  20839177.636   109510617.330    20839172.651    85332926.058    20839172.079  
                                
  20564999.494   108069801.729    20564997.635    84210222.718    20564996.688  
  20564994.758    80701456.720  
  21616062.751   113593177.320    21616060.231    88514148.759    21616059.409  
  21616059.141    84826058.645  
  24830101.263   130483061.873                   101675090.986    24830095.795  
                                
  22808460.277   119859268.083                    93396806.613    22808454.576  
                                
  22401885.486   117722704.041    22401882.377    91731960.476    22401881.572  
  22401881.161    87909790.416  
  23063598.296   121200026.617    23063596.259    94441568.604    23063595.527  
  23063594.705    90506499.157  
  22535958.034   120467612.252                    93697059.324    22535964.342  
                                
  21877780.449   116744028.426                    90800923.494    21877783.236  
                                
  21636486.151   115578226.111                    89894187.882    21636488.706  
                                
  20214803.990   108173499.725                    84134948.491    20214805.151  
                                
  21464870.106   114580933.099                    89118509.751    21464871.857  
                                
 21  8 31  6 48 11.0000000  0 13G 4G 7G 8G 9G16G21G27G30R 1R 2R12R21
                                R22
  23220624.105   122025202.202    23220620.585    95084557.989    23220620.102  
  23220623.086    91122712.599  
  20838846.845   109508879.157    20838841.895    85331571.634    20838841.323  
                                
  20565252.626   108071131.909    20565250.732    84211259.220    20565249.821  
  20565247.873    80702450.036  
  21616489.213   113595418.373    21616486.675    88515895.034    21616485.889  
  21616485.603    84827732.160  
  24830651.164   130485951.551                   101677342.690    24830645.660  
                                
  22808039.354   119857056.260                    93395083.110    22808033.689  
                                
  22402460.993   117725728.324    22402457.884    91734317.060    22402457.062  
  22402456.669    87912048.812  
  23063046.823   121197128.767    23063044.803    94439310.539    23063044.089  
  23063043.249    90504335.193  
  22536614.381   120471120.941                    93699788.302    22536620.689  
                                
  21877815.740   116744216.789                    90801069.994    21877818.545  
                                
  21636107.631   115576204.053                    89892615.170    21636110.168  
                                
  20214674.010   108172804.225                    84134407.544    20214675.172  
                                
  21464133.027   114576998.439                    89115449.458    21464134.778  
                                
 21  8 31  6 48 12.0000000  0 13G 4G 7G 8G 9G16G21G27G30R 1R 2R12R21
                                R22
  23221297.410   122028740.460    23221293.871    95087315.077    23221293.389  
  23221296.391    91125354.798  
  20838516.179   109507141.412    20838511.229    85330217.547    20838510.621  
                                
  20565505.866   108072462.810    20565504.008    84212296.283    20565503.114  
  20565501.131    80703443.895  
  21616915.764   113597660.013    21616913.245    88517641.769    21616912.476  
  21616912.190    84829406.114  
  24831201.101   130488841.284                   101679594.437    24831195.544  
                                
  22807618.574   119854844.845                    93393359.932    22807612.856  
                                
  22403036.572   117728753.086    22403033.499    91736674.018    22403032.659  
  22403032.284    87914307.558  
  23062495.438   121194231.110    23062493.419    94437052.628    23062492.686  
  23062491.846    90502171.361  
  22537270.764   120474629.961                    93702517.537    22537277.107  
                                
  21877851.210   116744406.090                    90801217.226    21877853.997  
                                
  21635729.111   115574182.159                    89891042.589    21635731.685  
                                
  20214544.246   108172109.761                    84133867.405    20214545.407  
                                
  21463395.983   114573064.250                    89112389.535    21463397.734  
                                
 21  8 31  6 48 13.0000000  0 13G 4G 7G 8G 9G16G21G27G30R 1R 2R12R21
                                R22
  23221970.839   122032279.199    23221967.230    95090072.539    23221966.801  
  23221969.785    91127997.372  
  20838185.602   109505404.271    20838180.652    85328863.933    20838180.045  
                                
  20565759.302   108073794.633    20565757.444    84213334.067    20565756.550  
  20565754.549    80704438.436  
  21617342.477   113599902.501    21617339.975    88519389.162    21617339.206  
  21617338.921    84831080.695  
  24831751.056   130491731.284                   101681846.374    24831745.481  
                                
  22807197.848   119852634.073                    93391637.245    22807192.201  
                                
  22403612.277   117731778.538    22403609.221    91739031.512    22403608.399  
  22403608.042    87916566.822  
  23061944.107   121191333.900    23061942.088    94434795.066    23061941.373  
  23061940.516    90500007.855  
  22537927.289   120478139.530                    93705247.202    22537933.615  
                                
  21877886.876   116744596.560                    90801365.369    21877889.682  
                                
  21635350.699   115572160.656                    89889470.311    21635353.254  
                                
  20214414.731   108171416.567                    84133328.252    20214415.892  
                                
  21462659.136   114569130.860                    89109330.227    21462660.870  
                                
 21  8 31  6 48 14.0000000  0 13G 4G 7G 8G 9G16G21G27G30R 1R 2R12R21
                                R22
  23222644.269   122035817.974    23222640.642    95092830.030    23222640.213  
  23222643.161    91130639.959  
  20837855.061   109503667.300    20837850.111    85327510.450    20837849.503  
                                
  20566012.828   108075126.920    20566010.987    84214372.213    20566010.094  
  20566008.093    80705433.330  
  21617769.278   113602145.317    21617766.794    88521136.811    21617765.990  
  21617765.740    84832755.526  
  24832300.993   130494621.088                   101684098.162    24832295.454  
                                
  22806777.193   119850423.453                    93389914.679    22806771.547  
                                
  22404188.034   117734804.215    22404184.979    91741389.183    22404184.175  
  22404183.835    87918826.256  
  23061392.776   121188436.619    23061390.757    94432537.449    23061390.043  
  23061389.185    90497844.304  
  22538583.833   120481649.228                    93707976.965    22538590.141  
                                
  21877922.704   116744787.733                    90801514.053    21877925.491  
                                
  21634972.251   115570139.025                    89887897.931    21634974.771  
                                
  20214285.323   108170724.154                    84132789.708    20214286.485  
                                
  21461922.343   114565197.714                    89106271.109    21461924.005  
                                
 21  8 31  6 48 15.0000000  0 13G 4G 7G 8G 9G16G21G27G30R 1R 2R12R21
                                R22
  23223317.717   122039356.913    23223314.072    95095587.643    23223313.661  
  23223316.591    91133282.682  
  20837524.591   109501930.635    20837519.641    85326157.207    20837519.016  
                                
  20566266.461   108076459.811    20566264.620    84215410.829    20566263.745  
  20566261.708    80706428.670  
  21618196.151   113604388.639    21618193.685    88522884.852    21618192.881  
  21618192.631    84834430.740  
  24832850.876   130497510.818                   101686349.900    24832845.355  
                                
  22806356.592   119848213.165                    93388192.377    22806350.964  
                                
  22404763.846   117737830.268    22404760.844    91743747.147    22404760.004  
  22404759.664    87921085.969  
  23060841.464   121185539.436    23060839.444    94430279.905    23060838.730  
  23060837.854    90495680.820  
  22539240.412   120485159.158                    93710706.913    22539246.738  
                                
  21877958.656   116744979.752                    90801663.396    21877961.497  
                                
  21634593.821   115568117.456                    89886325.602    21634596.341  
                                
  20214156.113   108170032.651                    84132251.871    20214157.274  
                                
  21461185.549   114561264.974                    89103212.313    21461187.265  
                                
 21  8 31  6 48 16.0000000  0 13G 4G 7G 8G 9G16G21G27G30R 1R 2R12R21
                                R22
  23223991.200   122042895.951    23223987.537    95098345.338    23223987.108  
  23223990.075    91135925.482  
  20837194.157   109500194.211    20837189.225    85324804.151    20837188.582  
                                
  20566520.201   108077793.239    20566518.361    84216449.864    20566517.503  
  20566515.430    80707424.416  
  21618623.114   113606632.397    21618620.648    88524633.233    21618619.879  
  21618619.611    84836106.274  
  24833400.760   130500400.449                   101688601.551    24833395.238  
                                
  22805936.027   119846003.091                    93386470.241    22805930.452  
                                
  22405339.747   117740856.635    22405336.727    91746105.355    22405335.905  
  22405335.583    87923345.916  
  23060290.168   121182642.290    23060288.149    94428022.387    23060287.381  
  23060286.541    90493517.372  
  22539897.028   120488669.271                    93713437.003    22539903.353  
                                
  21877994.805   116745172.552                    90801813.347    21877997.629  
                                
  21634215.373   115566095.891                    89884753.275    21634217.910  
                                
  20214027.062   108169341.994                    84131714.696    20214028.224  
                                
  21460448.863   114557332.579                    89100153.787    21460450.579  
                                
 21  8 31  6 48 17.0000000  0 13G 4G 7G 8G 9G16G21G27G30R 1R 2R12R21
                                R22
  23224664.684   122046435.087    23224661.039    95101103.115    23224660.592  
  23224663.540    91138568.340  
  20836863.759   109498458.003    20836858.827    85323451.262    20836858.184  
                                
  20566774.031   108079127.175    20566772.208    84217489.297    20566771.350  
  20566769.277    80708420.539  
  21619050.165   113608876.555    21619047.735    88526381.931    21619046.931  
  21619046.681    84837782.101  
  24833950.590   130503289.936                   101690853.095    24833945.068  
                                
  22805515.515   119843793.270                    93384748.307    22805509.958  
                                
  22405915.701   117743883.281    22405912.681    91748463.780    22405911.877  
  22405911.537    87925606.078  
  23059738.855   121179745.141    23059736.818    94425764.873    23059736.068  
  23059735.228    90491353.917  
  22540553.696   120492179.571                    93716167.243    22540560.022  
                                
  21878031.062   116745366.111                    90801963.896    21878033.921  
                                
  21633836.907   115564074.250                    89883180.891    21633839.444  
                                
  20213898.155   108168652.186                    84131178.176    20213899.317  
                                
  21459712.213   114553400.566                    89097095.554    21459713.946  
                                
 21  8 31  6 48 18.0000000  0 13G 4G 7G 8G 9G16G21G27G30R 1R 2R12R21
                                R22
  23225338.257   122049974.551    23225334.558    95103861.143    23225334.165  
  23225337.042    91141211.442  
  20836533.468   109496722.247    20836528.518    85322098.725    20836527.893  
                                
  20567028.021   108080461.873    20567026.216    84218529.324    20567025.358  
  20567023.250    80709417.226  
  21619477.342   113611121.361    21619474.894    88528131.129    21619474.108  
  21619473.858    84839458.420  
  24834500.437   130506179.522                   101693104.716    24834494.934  
                                
  22805095.057   119841583.891                    93383026.718    22805089.536  
                                
  22406491.727   117746910.458    22406488.725    91750822.621    22406487.921  
  22406487.599    87927866.626  
  23059187.578   121176848.245    23059185.577    94423507.547    23059184.844  
  23059183.969    90489190.645  
  22541210.419   120495690.263                    93718897.783    22541216.762  
                                
  21878067.532   116745560.672                    90802115.225    21878070.391  
                                
  21633458.495   115562052.831                    89881608.678    21633461.032  
                                
  20213769.481   108167963.466                    84130642.509    20213770.606  
                                
  21458975.669   114549469.069                    89094037.718    21458977.403  
                                
 21  8 31  6 48 19.0000000  0 13G 4G 7G 8G 9G16G21G27G30R 1R 2R12R21
                                R22
  23226011.865   122053514.256    23226008.166    95106619.350    23226007.755  
  23226010.614    91143854.722  
  20836203.248   109494986.879    20836198.281    85320746.490    20836197.655  
                                
  20567282.136   108081797.273    20567280.331    84219569.893    20567279.492  
  20567277.365    80710414.433  
  21619904.626   113613366.739    21619902.178    88529880.776    21619901.392  
  21619901.160    84841135.161  
  24835050.321   130509069.132                   101695356.356    24835044.835  
                                
  22804674.706   119839374.932                    93381305.449    22804669.149  
                                
  22407067.860   117749938.064    22407064.858    91753181.792    22407064.072  
  22407063.750    87930127.502  
  23058636.372   121173951.525    23058634.353    94421250.360    23058633.621  
  23058632.727    90487027.508  
  22541867.230   120499201.277                    93721628.572    22541873.574  
                                
  21878104.164   116745756.136                    90802267.250    21878107.041  
                                
  21633080.100   115560031.531                    89880036.551    21633082.638  
                                
  20213640.949   108167275.761                    84130107.626    20213642.110  
                                
  21458239.251   114545538.141                    89090980.330    21458241.002  
                                
 21  8 31  6 48 20.0000000  0 13G 4G 7G 8G 9G16G21G27G30R 1R 2R12R21
                                R22
  23226685.456   122057053.978    23226681.757    95109377.578    23226681.382  
  23226684.187    91146498.030  
  20835873.046   109493251.669    20835868.079    85319394.378    20835867.436  
                                
  20567536.341   108083133.108    20567534.518    84220610.803    20567533.696  
  20567531.552    80711411.976  
  21620331.982   113615612.470    21620329.534    88531630.694    21620328.748  
  21620328.533    84842812.168  
  24835600.169   130511958.516                   101697607.821    24835594.754  
                                
  22804254.391   119837166.091                    93379584.281    22804248.834  
                                
  22407644.029   117752965.913    22407641.044    91755541.160    22407640.276  
  22407639.954    87932388.567  
  23058085.131   121171054.755    23058083.094    94418993.141    23058082.361  
  23058081.504    90484864.342  
  22542524.078   120502712.377                    93724359.428    22542530.386  
                                
  21878140.920   116745952.312                    90802419.836    21878143.815  
                                
  21632701.706   115558010.144                    89878464.361    21632704.208  
                                
  20213512.578   108166588.864                    84129573.372    20213513.739  
                                
  21457502.851   114541607.380                    89087923.071    21457504.584  
                                
 21  8 31  6 48 21.0000000  0 13G 4G 7G 8G 9G16G21G27G30R 1R 2R12R21
                                R22
  23227359.011   122060593.445    23227355.294    95112135.602    23227354.919  
  23227357.707    91149141.136  
  20835542.827   109491516.339    20835537.841    85318042.175    20835537.234  
                                
  20567790.581   108084469.121    20567788.759    84221651.852    20567787.955  
  20567785.775    80712409.633  
  21620759.337   113617858.265    21620756.907    88533380.662    21620756.121  
  21620755.907    84844489.220  
  24836149.909   130514847.440                   101699858.926    24836144.531  
                                
  22803834.040   119834957.155                    93377863.037    22803828.519  
                                
  22408220.215   117755993.703    22408217.213    91757900.481    22408216.445  
  22408216.141    87934649.568  
  23057533.854   121168157.659    23057531.817    94416735.664    23057531.066  
  23057530.191    90482700.913  
  22543180.872   120506223.319                    93727090.166    22543187.197  
                                
  21878177.748   116746148.899                    90802572.740    21878180.679  
                                
  21632323.222   115555988.396                    89876891.891    21632325.742  
                                
  20213384.314   108165902.462                    84129039.504    20213385.457  
                                
  21456766.522   114537676.628                    89084865.815    21456768.166  
                                
 21  8 31  6 48 22.0000000  0 13G 4G 7G 8G 9G16G21G27G30R 1R 2R12R21
                                R22
  23228032.620   122064133.115    23228028.903    95114893.786    23228028.510  
  23228031.261    91151784.405  
  20835212.661   109489781.367    20835207.693    85316690.251    20835207.068  
                                
  20568044.929   108085805.786    20568043.124    84222693.407    20568042.302  
  20568040.122    80713407.796  
  21621186.800   113620104.614    21621184.352    88535131.066    21621183.584  
  21621183.369    84846166.682  
  24836699.667   130517736.331                   101702109.999    24836694.271  
                                
  22803413.761   119832748.552                    93376142.056    22803408.257  
                                
  22408796.455   117759021.910    22408793.489    91760260.121    22408792.703  
  22408792.381    87936910.889  
  23056982.577   121165260.695    23056980.539    94414478.282    23056979.789  
  23056978.913    90480537.601  
  22543837.737   120509734.539                    93729821.119    22543844.045  
                                
  21878214.755   116746346.359                    90802726.318    21878217.721  
                                
  21631944.774   115553966.711                    89875319.462    21631947.276  
                                
  20213256.229   108165217.026                    84128506.389    20213257.390  
                                
  21456030.247   114533746.376                    89081808.950    21456031.855  
                                
 21  8 31  6 48 23.0000000  0 13G 4G 7G 8G 9G16G21G27G30R 1R 2R12R21
                                R22
  23228706.192   122067672.873    23228702.511    95117652.036    23228702.118  
  23228704.834    91154427.743  
  20834882.549   109488046.592    20834877.581    85315338.474    20834876.938  
                                
  20568299.384   108087142.958    20568297.579    84223735.359    20568296.793  
  20568294.559    80714406.349  
  21621614.335   113622351.342    21621611.904    88536881.764    21621611.154  
  21621610.922    84847844.438  
  24837249.372   130520625.087                   101704360.959    24837244.029  
                                
  22802993.517   119830540.185                    93374421.254    22802988.049  
                                
  22409372.749   117762050.381    22409369.765    91762619.968    22409368.997  
  22409368.711    87939172.428  
  23056431.299   121162363.717    23056429.244    94412220.899    23056428.512  
  23056427.654    90478374.277  
  22544494.584   120513245.900                    93732552.175    22544500.928  
                                
  21878251.887   116746544.547                    90802880.470    21878254.871  
                                
  21631566.308   115551944.955                    89873746.985    21631568.792  
                                
  20213128.286   108164532.396                    84127973.899    20213129.448  
                                
  21455294.007   114529816.408                    89078752.313    21455295.616  
                                
 21  8 31  6 48 24.0000000  0 13G 4G 7G 8G 9G16G21G27G30R 1R 2R12R21
                                R22
  23229379.872   122071212.988    23229376.191    95120410.575    23229375.798  
  23229378.479    91157071.334  
  20834552.526   109486312.306    20834547.540    85313987.085    20834546.933  
                                
  20568553.982   108088480.911    20568552.177    84224777.922    20568551.409  
  20568549.157    80715405.470  
  21622042.012   113624598.751    21622039.564    88538632.991    21622038.813  
  21622038.617    84849522.700  
  24837799.113   130523513.952                   101706612.011    24837793.770  
                                
  22802573.381   119828332.301                    93372700.829    22802567.913  
                                
  22409949.150   117765079.424    22409946.184    91764980.260    22409945.416  
  22409945.130    87941434.373  
  23055880.076   121159467.037    23055878.039    94409963.751    23055877.270  
  23055876.413    90476211.166  
  22545151.557   120516757.716                    93735283.588    22545157.882  
                                
  21878289.251   116746743.783                    90803035.436    21878292.253  
                                
  21631187.860   115549923.475                    89872174.728    21631190.380  
                                
  20213000.576   108163848.872                    84127442.269    20213001.738  
                                
  21454557.911   114525887.128                    89075696.204    21454559.483  
                                
 21  8 31  6 48 25.0000000  0 13G 4G 7G 8G 9G16G21G27G30R 1R 2R12R21
                                R22
  23230053.588   122074753.268    23230049.889    95123169.237    23230049.514  
  23230052.159    91159715.039  
  20834222.556   109484578.320    20834217.589    85312635.927    20834216.945  
                                
  20568808.705   108089819.451    20568806.900    84225820.938    20568806.114  
  20568803.880    80716405.025  
  21622469.778   113626846.644    21622467.330    88540384.599    21622466.598  
  21622466.383    84851201.324  
  24838348.853   130526402.743                   101708863.001    24838343.475  
                                
  22802153.280   119826124.721                    93370980.639    22802147.830  
                                
  22410525.623   117768108.823    22410522.675    91767340.832    22410521.924  
  22410521.602    87943696.584  
  23055328.870   121156570.429    23055326.815    94407706.653    23055326.065  
  23055325.207    90474048.114  
  22545808.565   120520269.775                    93738015.187    22545814.891  
                                
  21878326.740   116746943.823                    90803191.026    21878329.742  
                                
  21630809.448   115547902.005                    89870602.471    21630811.967  
                                
  20212873.009   108163166.298                    84126911.379    20212874.171  
                                
  21453821.850   114521958.198                    89072640.369    21453823.458  
                                
 21  8 31  6 48 26.0000000  0 13G 4G 7G 8G 9G16G21G27G30R 1R 2R12R21
                                R22
  23230727.358   122078293.942    23230723.694    95125928.205    23230723.301  
  23230725.910    91162359.059  
  20833892.676   109482844.874    20833887.709    85311285.187    20833887.065  
                                
  20569063.571   108091158.806    20569061.766    84226864.592    20569060.997  
  20569058.728    80717405.191  
  21622897.688   113629095.271    21622895.222    88542136.778    21622894.489  
  21622894.293    84852880.489  
  24838898.629   130529291.719                   101711114.168    24838893.251  
                                
  22801733.286   119823917.705                    93369260.886    22801727.836  
                                
  22411102.185   117771138.828    22411099.272    91769701.873    22411098.504  
  22411098.182    87945959.242  
  23054777.718   121153674.137    23054775.681    94405449.800    23054774.912  
  23054774.073    90471885.305  
  22546465.645   120523782.329                    93740747.166    22546471.988  
                                
  21878364.408   116747144.961                    90803347.466    21878367.464  
                                
  21630431.089   115545880.809                    89869030.427    21630433.591  
                                
  20212745.675   108162484.917                    84126381.418    20212746.836  
                                
  21453085.914   114518029.931                    89069585.056    21453087.523  
                                
 21  8 31  6 48 27.0000000  0 13G 4G 7G 8G 9G16G21G27G30R 1R 2R12R21
                                R22
  23231401.216   122081834.970    23231397.535    95128687.448    23231397.178  
  23231399.715    91165003.338  
  20833562.903   109481111.921    20833557.954    85309934.832    20833557.310  
                                
  20569318.579   108092498.940    20569316.792    84227908.852    20569316.024  
  20569313.755    80718405.942  
  21623325.740   113631344.576    21623323.256    88543889.482    21623322.542  
  21623322.363    84854560.169  
  24839448.441   130532180.816                   101713365.412    24839442.956  
                                
  22801313.400   119821711.173                    93367541.508    22801307.950  
                                
  22411678.890   117774169.401    22411675.977    91772063.353    22411675.227  
  22411674.905    87948222.327  
  23054226.601   121150778.145    23054224.582    94403193.178    23054223.832  
  23054222.992    90469722.711  
  22547122.814   120527295.310                    93743479.480    22547129.193  
                                
  21878402.291   116747347.066                    90803504.661    21878405.364  
                                
  21630052.784   115543859.843                    89867458.565    21630055.268  
                                
  20212618.555   108161804.623                    84125852.296    20212619.716  
                                
  21452350.140   114514102.229                    89066530.181    21452351.712  
                                
 21  8 31  6 48 28.0000000  0 13G 4G 7G 8G 9G16G21G27G30R 1R 2R12R21
                                R22
  23232075.039   122085376.151    23232071.394    95131446.808    23232071.072  
  23232073.556    91167647.721  
  20833233.166   109479379.238    20833228.235    85308584.691    20833227.591  
                                
  20569573.695   108093839.651    20569571.926    84228953.566    20569571.158  
  20569568.871    80719407.125  
  21623753.846   113633594.347    21623751.362    88545642.551    21623750.666  
  21623750.487    84856240.195  
  24839998.236   130535069.862                   101715616.619    24839992.803  
                                
  22800893.567   119819504.940                    93365822.363    22800888.135  
                                
  22412255.648   117777200.293    22412252.753    91774425.092    22412251.985  
  22412251.663    87950485.662  
  23053675.556   121147882.202    23053673.502    94400936.602    23053672.751  
  23053671.893    90467560.167  
  22547780.019   120530808.515                    93746211.975    22547786.416  
                                
  21878440.334   116747549.997                    90803662.499    21878443.425  
                                
  21629674.443   115541838.889                    89865886.714    21629676.945  
                                
  20212491.613   108161125.220                    84125323.866    20212492.775  
                                
  21451614.383   114510174.940                    89063475.625    21451615.973  
                                
 21  8 31  6 48 29.0000000  0 13G 4G 7G 8G 9G16G21G27G30R 1R 2R12R21
                                R22
  23232748.862   122088917.114    23232745.253    95134205.995    23232744.931  
  23232747.343    91170291.943  
  20832903.429   109477646.502    20832898.497    85307234.510    20832897.854  
                                
  20569828.883   108095180.594    20569827.096    84229998.459    20569826.346  
  20569824.023    80720408.478  
  21624181.988   113635844.247    21624179.522    88547395.720    21624178.807  
  21624178.629    84857920.307  
  24840547.940   130537958.478                   101717867.493    24840542.490  
                                
  22800473.735   119817298.654                    93364103.182    22800468.320  
                                
  22412832.407   117780231.214    22412829.494    91776786.849    22412828.761  
  22412828.422    87952749.006  
  23053124.422   121144986.001    23053122.367    94398679.824    23053121.635  
  23053120.759    90465397.405  
  22548437.223   120534321.598                    93748944.384    22548443.638  
                                
  21878478.448   116747753.399                    90803820.700    21878481.557  
                                
  21629296.085   115539817.604                    89864314.606    21629298.550  
                                
  20212364.743   108160446.387                    84124795.890    20212365.904  
                                
  21450878.643   114506247.658                    89060421.079    21450880.234  
                                
 21  8 31  6 48 30.0000000  0 13G 4G 7G 8G 9G16G21G27G30R 1R 2R12R21
                                R22
  23233422.649   122092457.996    23233419.040    95136965.122    23233418.754  
  23233421.148    91172936.106  
  20832573.710   109475913.804    20832568.760    85305884.355    20832568.117  
                                
  20570084.106   108096521.881    20570082.355    84231043.620    20570081.587  
  20570079.246    80721410.090  
  21624610.183   113638094.365    21624607.717    88549149.058    21624607.021  
  21624606.824    84859600.585  
  24841097.591   130540846.747                   101720118.106    24841092.141  
                                
  22800053.920   119815092.421                    93362384.042    22800048.470  
                                
  22413409.183   117783262.203    22413406.270    91779148.658    22413405.538  
  22413405.198    87955012.422  
  23052573.252   121142089.618    23052571.197    94396422.907    23052570.447  
  23052569.607    90463234.533  
  22549094.428   120537834.669                    93751676.770    22549100.843  
                                
  21878516.670   116747957.370                    90803979.349    21878519.833  
                                
  21628917.654   115537796.134                    89862742.351    21628920.138  
                                
  20212238.016   108159768.203                    84124268.413    20212239.195  
                                
  21450142.976   114502320.521                    89057366.640    21450144.530  
                                
 21  8 31  6 48 31.0000000  0 13G 4G 7G 8G 9G16G21G27G30R 1R 2R12R21
                                R22
  23234096.437   122095998.866    23234092.863    95139724.234    23234092.595  
  23234094.936    91175580.264  
  20832244.009   109474181.226    20832239.059    85304534.295    20832238.398  
                                
  20570339.419   108097863.613    20570337.668    84232089.123    20570336.935  
  20570334.576    80722412.038  
  21625038.432   113640344.805    21625035.931    88550902.648    21625035.287  
  21625035.091    84861281.115  
  24841647.207   130543734.781                   101722368.533    24841641.632  
                                
  22799634.123   119812886.312                    93360664.995    22799628.673  
                                
  22413985.995   117786293.421    22413983.100    91781510.649    22413982.368  
  22413982.046    87957275.992  
  23052022.064   121139193.171    23052020.045    94394165.935    23052019.277  
  23052018.437    90461071.605  
  22549751.615   120541347.763                    93754409.182    22549758.048  
                                
  21878555.035   116748162.006                    90804138.512    21878558.198  
                                
  21628539.206   115535774.523                    89861169.992    21628541.690  
                                
  20212111.414   108159090.760                    84123741.515    20212112.593  
                                
  21449407.308   114498393.644                    89054312.402    21449408.880  
                                
 21  8 31  6 48 32.0000000  0 13G 4G 7G 8G 9G16G21G27G30R 1R 2R12R21
                                R22
  23234770.260   122099539.900    23234766.704    95142483.475    23234766.436  
  23234768.759    91178224.534  
  20831914.379   109472448.968    20831909.429    85303184.482    20831908.768  
                                
  20570594.856   108099205.924    20570593.105    84233135.077    20570592.373  
  20570589.978    80723414.400  
  21625466.771   113642595.750    21625464.287    88552656.629    21625463.644  
  21625463.447    84862962.004  
  24842196.804   130546622.783                   101724618.940    24842191.158  
                                
  22799214.380   119810680.519                    93358946.196    22799208.947  
                                
  22414562.861   117789324.999    22414559.984    91783872.920    22414559.269  
  22414558.912    87959539.826  
  23051470.912   121136296.826    23051468.857    94391909.046    23051468.142  
  23051467.285    90458908.738  
  22550408.873   120544861.156                    93757141.823    22550415.324  
                                
  21878593.543   116748367.484                    90804298.329    21878596.741  
                                
  21628160.794   115533752.978                    89859597.677    21628163.260  
                                
  20211984.991   108158414.252                    84123215.343    20211986.170  
                                
  21448671.712   114494467.208                    89051258.505    21448673.320  
                                
 21  8 31  6 48 33.0000000  0 13G 4G 7G 8G 9G16G21G27G30R 1R 2R12R21
                                R22
  23235444.101   122103081.095    23235440.580    95145242.845    23235440.312  
  23235442.617    91180868.940  
  20831584.767   109470716.992    20831579.835    85301834.890    20831579.174  
                                
  20570850.401   108100548.812    20570848.650    84234181.484    20570847.918  
  20570845.523    80724417.215  
  21625895.216   113644847.159    21625892.715    88554410.973    21625892.071  
  21625891.911    84864643.262  
  24842746.366   130549510.714                   101726869.274    24842740.630  
                                
  22798794.690   119808475.032                    93357227.632    22798789.204  
                                
  22415139.816   117792356.936    22415136.957    91786235.468    22415136.242  
  22415135.884    87961803.935  
  23050919.778   121133400.555    23050917.705    94389652.206    23050916.990  
  23050916.150    90456745.935  
  22551066.185   120548374.761                    93759874.632    22551072.636  
                                
  21878632.211   116748573.777                    90804458.776    21878635.428  
                                
  21627782.346   115531731.439                    89858025.369    21627784.848  
                                
  20211858.746   108157738.652                    84122689.879    20211859.943  
                                
  21447936.187   114490541.175                    89048204.921    21447937.849  
                                
 21  8 31  6 48 34.0000000  0 13G 4G 7G 8G 9G16G21G27G30R 1R 2R12R21
                                R22
  23236118.031   122106622.655    23236114.528    95148002.502    23236114.278  
  23236116.530    91183513.620  
  20831255.298   109468985.518    20831250.330    85300485.689    20831249.687  
                                
  20571106.089   108101892.517    20571104.374    84235228.522    20571103.605  
  20571101.193    80725420.628  
  21626323.769   113647099.268    21626321.267    88556165.859    21626320.678  
  21626320.481    84866325.026  
  24843295.982   130552398.763                   101729119.702    24843290.174  
                                
  22798375.107   119806270.049                    93355509.457    22798369.604  
                                
  22415716.860   117795389.430    22415714.037    91788598.448    22415713.304  
  22415712.929    87964068.469  
  23050368.679   121130504.563    23050366.607    94387395.586    23050365.892  
  23050365.070    90454583.357  
  22551723.587   120551888.820                    93762607.788    22551730.020  
                                
  21878671.094   116748781.085                    90804620.019    21878674.293  
                                
  21627403.952   115529710.118                    89856453.230    21627406.453  
                                
  20211732.698   108157064.206                    84122165.309    20211733.931  
                                
  21447200.823   114486615.743                    89045151.810    21447202.467  
                                
 21  8 31  6 48 35.0000000  0 13G 4G 7G 8G 9G16G21G27G30R 1R 2R12R21
                                R22
  23236791.997   122110164.375    23236788.512    95150762.282    23236788.244  
  23236790.514    91186158.402  
  20830925.864   109467254.340    20830920.933    85299136.719    20830920.254  
                                
  20571361.902   108103236.808    20571360.187    84236276.024    20571359.436  
  20571357.006    80726424.478  
  21626752.429   113649351.857    21626749.927    88557921.123    21626749.356  
  21626749.141    84868007.158  
  24843845.579   130555286.780                   101731370.112    24843839.718  
                                
  22797955.578   119804065.381                    93353791.536    22797950.075  
                                
  22416293.994   117798422.294    22416291.153    91790961.717    22416290.438  
  22416290.080    87966333.265  
  23049817.617   121127608.673    23049815.544    94385139.049    23049814.829  
  23049814.007    90452420.829  
  22552380.970   120555403.090                    93765341.103    22552387.475  
                                
  21878710.084   116748989.239                    90804781.914    21878713.337  
                                
  21627025.575   115527688.863                    89854881.140    21627028.059  
                                
  20211606.846   108156390.687                    84121641.454    20211608.061  
                                
  21446465.513   114482690.711                    89042099.003    21446467.175  
                                
 21  8 31  6 48 36.0000000  0 13G 4G 7G 8G 9G16G21G27G30R 1R 2R12R21
                                R22
  23237465.945   122113706.196    23237462.514    95153522.142    23237462.228  
  23237464.462    91188803.268  
  20830596.467   109465523.403    20830591.535    85297787.939    20830590.856  
                                
  20571617.822   108104581.634    20571616.107    84237323.940    20571615.339  
  20571612.908    80727428.735  
  21627181.178   113651604.876    21627178.677    88559676.720    21627178.087  
  21627177.891    84869689.608  
  24844395.123   130558174.653                   101733620.414    24844389.226  
                                
  22797536.085   119801860.955                    93352073.806    22797530.564  
                                
  22416871.163   117801455.463    22416868.340    91793325.230    22416867.625  
  22416867.268    87968598.294  
  23049266.554   121124712.795    23049264.481    94382882.518    23049263.730  
  23049262.926    90450258.327  
  22553038.461   120558917.561                    93768074.575    22553044.947  
                                
  21878749.253   116749198.136                    90804944.392    21878752.523  
                                
  21626647.198   115525667.584                    89853309.037    21626649.682  
                                
  20211481.138   108155718.024                    84121118.270    20211482.389  
                                
  21445730.220   114478766.076                    89039046.513    21445731.954  
                                
 21  8 31  6 48 37.0000000  0 13G 4G 7G 8G 9G16G21G27G30R 1R 2R12R21
                                R22
  23238139.982   122117248.339    23238136.569    95156282.252    23238136.283  
  23238138.517    91191448.373  
  20830267.159   109463792.927    20830262.245    85296439.521    20830261.566  
                                
  20571873.850   108105927.196    20571872.134    84238372.430    20571871.419  
  20571868.936    80728433.540  
  21627610.035   113653858.539    21627607.533    88561432.821    21627606.979  
  21627606.765    84871372.537  
  24844944.703   130561062.634                   101735870.800    24844938.734  
                                
  22797116.681   119799656.988                    93350356.436    22797111.196  
                                
  22417448.440   117804489.146    22417445.634    91795689.134    22417444.920  
  22417444.562    87970863.713  
  23048715.545   121121817.178    23048713.454    94380626.191    23048712.703  
  23048711.917    90448096.015  
  22553696.005   120562432.410                    93770808.345    22553702.492  
                                
  21878788.583   116749408.055                    90805107.664    21878791.871  
                                
  21626268.858   115523646.507                    89851737.093    21626271.324  
                                
  20211355.626   108155046.417                    84120595.913    20211356.894  
                                
  21444995.142   114474841.926                    89035994.401    21444996.822  
                                
 21  8 31  6 48 38.0000000  0 13G 4G 7G 8G 9G16G21G27G30R 1R 2R12R21
                                R22
  23238814.055   122120790.624    23238810.642    95159042.476    23238810.356  
  23238812.590    91194093.601  
  20829937.922   109462062.741    20829933.008    85295091.326    20829932.311  
                                
  20572130.038   108107273.377    20572128.305    84239421.400    20572127.590  
  20572125.106    80729438.801  
  21628038.981   113656112.691    21628036.479    88563189.305    21628035.943  
  21628035.711    84873055.830  
  24845494.265   130563950.522                   101738121.084    24845488.189  
                                
  22796697.349   119797453.329                    93348639.306    22796691.845  
                                
  22418025.788   117807523.210    22418022.983    91798053.337    22418022.286  
  22418021.910    87973129.393  
  23048164.517   121118921.643    23048162.445    94378369.933    23048161.712  
  23048160.926    90445933.776  
  22554353.567   120565947.520                    93773542.319    22554360.090  
                                
  21878828.091   116749618.802                    90805271.578    21878831.397  
                                
  21625890.517   115521625.478                    89850165.184    21625893.001  
                                
  20211230.310   108154375.733                    84120074.270    20211231.543  
                                
  21444260.118   114470918.221                    89032942.633    21444261.780  
                                
 21  8 31  6 48 39.0000000  0 13G 4G 7G 8G 9G16G21G27G30R 1R 2R12R21
                                R22
  23239488.146   122124333.101    23239484.769    95161802.841    23239484.501  
  23239486.699    91196738.949  
  20829608.721   109460332.874    20829603.807    85293743.379    20829603.110  
                                
  20572386.315   108108620.157    20572384.636    84240470.839    20572383.885  
  20572381.366    80730444.509  
  21628468.034   113658367.330    21628465.532    88564946.167    21628464.996  
  21628464.764    84874739.494  
  24846043.791   130566838.421                   101740371.413    24846037.751  
                                
  22796278.088   119795250.007                    93346922.429    22796272.513  
                                
  22418603.190   117810557.629    22418600.420    91800417.813    22418599.723  
  22418599.348    87975395.357  
  23047613.544   121116026.208    23047611.453    94376113.752    23047610.721  
  23047609.934    90443771.597  
  22555011.183   120569462.856                    93776276.462    22555017.705  
                                
  21878867.725   116749830.377                    90805436.135    21878871.066  
                                
  21625512.176   115519604.509                    89848593.319    21625514.678  
                                
  20211105.156   108153706.011                    84119553.378    20211106.406  
                                
  21443525.129   114466994.980                    89029891.223    21443526.827  
                                
 21  8 31  6 48 40.0000000  0 13G 4G 7G 8G 9G16G21G27G30R 1R 2R12R21
                                R22
  23240162.273   122127875.832    23240158.967    95164563.403    23240158.664  
  23240160.844    91199384.492  
  20829279.609   109458603.390    20829274.695    85292395.726    20829274.016  
                                
  20572642.718   108109967.608    20572641.020    84241520.801    20572640.306  
  20572637.786    80731450.731  
  21628897.194   113660622.545    21628894.675    88566703.477    21628894.192  
  21628893.942    84876423.585  
  24846593.299   130569726.270                   101742621.679    24846587.259  
                                
  22795858.899   119793047.064                    93345205.850    22795853.324  
                                
  22419180.699   117813592.506    22419177.947    91802782.652    22419177.232  
  22419176.857    87977661.664  
  23047062.588   121113130.935    23047060.498    94373857.697    23047059.783  
  23047058.997    90441609.555  
  22555668.888   120572978.535                    93779010.875    22555675.411  
                                
  21878907.555   116750042.900                    90805601.426    21878910.914  
                                
  21625133.871   115517583.665                    89847021.556    21625136.390  
                                
  20210980.197   108153037.312                    84119033.278    20210981.448  
                                
  21442790.248   114463072.252                    89026840.213    21442791.963  
                                
 21  8 31  6 48 41.0000000  0 13G 4G 7G 8G 9G16G21G27G30R 1R 2R12R21
                                R22
  23240836.471   122131418.788    23240833.148    95167324.148    23240832.862  
  23240835.060    91202030.199  
  20828950.569   109456874.281    20828945.655    85291048.366    20828944.958  
                                
  20572899.264   108111315.723    20572897.584    84242571.278    20572896.833  
  20572894.296    80732457.436  
  21629326.462   113662878.323    21629323.942    88568461.224    21629323.460  
  21629323.192    84878108.084  
  24847142.807   130572614.187                   101744871.983    24847136.821  
                                
  22795439.763   119790844.511                    93343489.571    22795434.152  
                                
  22419758.279   117816627.814    22419755.545    91805147.823    22419754.830  
  22419754.455    87979928.284  
  23046511.669   121110235.852    23046509.578    94371601.795    23046508.863  
  23046508.077    90439447.623  
  22556326.576   120576494.537                    93781745.543    22556333.169  
                                
  21878947.599   116750256.335                    90805767.428    21878950.941  
                                
  21624755.602   115515562.917                    89845449.861    21624758.103  
                                
  20210855.418   108152369.592                    84118513.945    20210856.669  
                                
  21442055.474   114459150.005                    89023789.573    21442057.171  
                                
 21  8 31  6 48 42.0000000  0 13G 4G 7G 8G 9G16G21G27G30R 1R 2R12R21
                                R22
  23241510.705   122134961.902    23241507.417    95170085.021    23241507.096  
  23241509.276    91204676.027  
  20828621.600   109455145.471    20828616.669    85289701.237    20828615.990  
                                
  20573155.916   108112664.443    20573154.219    84243622.226    20573153.522  
  20573150.931    80733464.592  
  21629755.819   113665134.585    21629753.317    88570219.351    21629752.835  
  21629752.567    84879792.948  
  24847692.315   130575502.007                   101747122.230    24847686.347  
                                
  22795020.699   119788642.272                    93341773.540    22795015.052  
                                
  22420335.931   117819663.481    22420333.197    91807513.279    22420332.464  
  22420332.107    87982195.179  
  23045960.784   121107340.822    23045958.640    94369345.932    23045957.943  
  23045957.193    90437285.754  
  22556984.352   120580010.787                    93784480.402    22556990.964  
                                
  21878987.769   116750470.621                    90805934.091    21878991.111  
                                
  21624377.296   115513542.184                    89843878.181    21624379.834  
                                
  20210730.817   108151702.787                    84117995.319    20210732.086  
                                
  21441320.807   114455228.171                    89020739.254    21441322.486  
                                
 21  8 31  6 48 43.0000000  0 13G 4G 7G 8G 9G16G21G27G30R 1R 2R12R21
                                R22
  23242184.939   122138505.041    23242181.651    95172845.901    23242181.366  
  23242183.528    91207321.875  
  20828292.650   109453416.811    20828287.718    85288354.229    20828287.039  
                                
  20573412.641   108114013.608    20573410.979    84244673.524    20573410.246  
  20573407.673    80734472.082  
  21630185.229   113667391.196    21630182.728    88571977.745    21630182.263  
  21630181.995    84881478.076  
  24848241.770   130578389.619                   101749372.310    24848235.801  
                                
  22794601.652   119786440.200                    93340057.636    22794596.023  
                                
  22420913.619   117822699.391    22420910.903    91809878.921    22420910.188  
  22420909.813    87984462.237  
  23045409.865   121104445.775    23045407.738    94367090.044    23045407.023  
  23045406.273    90435123.868  
  22557642.147   120583527.144                    93787215.344    22557648.794  
                                
  21879028.082   116750685.635                    90806101.319    21879031.405  
                                
  21623999.009   115511521.376                    89842306.444    21624001.547  
                                
  20210606.378   108151036.767                    84117477.304    20210607.628  
                                
  21440586.104   114451306.612                    89017689.154    21440587.802  
                                
 21  8 31  6 48 44.0000000  0 13G 4G 7G 8G 9G16G21G27G30R 1R 2R12R21
                                R22
  23242859.173   122142048.114    23242855.868    95175606.736    23242855.599  
  23242857.780    91209967.694  
  20827963.717   109451688.239    20827958.803    85287007.283    20827958.070  
                                
  20573669.436   108115363.155    20573667.792    84245725.114    20573667.078  
  20573664.469    80735479.860  
  21630614.693   113669648.081    21630612.192    88573736.353    21630611.763  
  21630611.477    84883163.416  
  24848791.171   130581276.984                   101751622.207    24848785.310  
                                
  22794182.641   119784238.190                    93338341.784    22794176.977  
                                
  22421491.324   117825735.439    22421488.644    91812244.668    22421487.911  
  22421487.554    87986729.423  
  23044858.927   121101550.589    23044856.783    94364834.058    23044856.104  
  23044855.317    90432961.885  
  22558299.995   120587043.501                    93789950.286    22558306.606  
                                
  21879068.501   116750901.272                    90806269.035    21879071.825  
                                
  21623620.668   115509500.383                    89840734.558    21623623.224  
                                
  20210482.063   108150371.471                    84116959.849    20210483.296  
                                
  21439851.401   114447385.201                    89014639.169    21439853.135  
                                
 21  8 31  6 48 45.0000000  0 13G 4G 7G 8G 9G16G21G27G30R 1R 2R12R21
                                R22
  23243533.461   122145591.525    23243530.191    95178367.837    23243529.923  
  23243532.085    91212613.744  
  20827634.873   109449960.136    20827629.941    85285660.714    20827629.244  
                                
  20573926.393   108116713.453    20573924.749    84246777.295    20573924.016  
  20573921.425    80736488.211  
  21631044.283   113671905.608    21631041.781    88575495.465    21631041.370  
  21631041.084    84884849.227  
  24849340.590   130584164.423                   101753872.171    24849334.729  
                                
  22793763.738   119782036.690                    93336626.334    22793758.020  
                                
  22422069.137   117828772.009    22422066.474    91814610.831    22422065.742  
  22422065.384    87988996.998  
  23044308.043   121098655.668    23044305.899    94362578.275    23044305.220  
  23044304.451    90430800.084  
  22558957.914   120590560.273                    93792685.544    22558964.508  
                                
  21879109.100   116751117.904                    90806437.531    21879112.423  
                                
  21623242.381   115507479.601                    89839162.844    21623244.919  
                                
  20210357.945   108149707.280                    84116443.258    20210359.160  
                                
  21439116.967   114443464.399                    89011589.658    21439118.611  
                                
 21  8 31  6 48 46.0000000  0 13G 4G 7G 8G 9G16G21G27G30R 1R 2R12R21
                                R22
  23244207.748   122149135.004    23244204.496    95181129.001    23244204.228  
  23244206.390    91215259.850  
  20827306.065   109448232.245    20827301.133    85284314.307    20827300.418  
                                
  20574183.439   108118064.271    20574181.795    84247829.877    20574181.080  
  20574178.453    80737496.929  
  21631473.961   113674163.534    21631471.459    88577254.888    21631471.048  
  21631470.762    84886535.347  
  24849890.026   130587051.732                   101756122.004    24849884.255  
                                
  22793344.816   119779835.405                    93334911.047    22793339.081  
                                
  22422647.021   117831808.872    22422644.394    91816977.221    22422643.608  
  22422643.269    87991264.779  
  23043757.159   121095760.743    23043755.014    94360322.490    23043754.335  
  23043753.567    90428638.295  
  22559615.870   120594077.183                    93795420.911    22559622.445  
                                
  21879149.877   116751335.254                    90806606.583    21879153.165  
                                
  21622864.094   115505458.781                    89837591.100    21622866.631  
                                
  20210233.969   108149043.905                    84115927.302    20210235.202  
                                
  21438382.496   114439543.970                    89008540.435    21438384.158  
                                
 21  8 31  6 48 47.0000000  0 13G 4G 7G 8G 9G16G21G27G30R 1R 2R12R21
                                R22
  23244882.072   122152678.626    23244878.837    95183890.261    23244878.587  
  23244880.749    91217906.048  
  20826977.293   109446504.618    20826972.379    85282968.104    20826971.664  
                                
  20574440.592   108119415.631    20574438.966    84248882.888    20574438.233  
  20574435.606    80738506.067  
  21631903.711   113676421.909    21631901.227    88579014.661    21631900.834  
  21631900.530    84888221.794  
  24850439.427   130589938.907                   101758371.741    24850433.781  
                                
  22792926.020   119777634.381                    93333195.961    22792920.231  
                                
  22423224.959   117834846.044    22423222.368    91819343.846    22423221.564  
  22423221.224    87993532.797  
  23043206.292   121092865.869    23043204.130    94358066.736    23043203.433  
  23043202.683    90426476.538  
  22560273.879   120597594.319                    93798156.457    22560280.419  
                                
  21879190.761   116751553.385                    90806776.245    21879194.049  
                                
  21622485.807   115503437.952                    89836019.342    21622488.326  
                                
  20210110.173   108148381.424                    84115412.036    20210111.406  
                                
  21437648.151   114435623.823                    89005491.428    21437649.759  
                                
 21  8 31  6 48 48.0000000  0 13G 4G 7G 8G 9G16G21G27G30R 1R 2R12R21
                                R22
  23245556.449   122156222.433    23245553.232    95186651.662    23245552.929  
  23245555.109    91220552.400  
  20826648.592   109444777.313    20826643.678    85281622.153    20826642.963  
                                
  20574697.870   108120767.608    20574696.208    84249936.379    20574695.511  
  20574692.885    80739515.660  
  21632333.550   113678680.809    21632331.084    88580774.838    21632330.709  
  21632330.388    84889908.631  
  24850988.828   130592826.078                   101760621.474    24850983.146  
                                
  22792507.242   119775433.712                    93331481.161    22792501.452  
                                
  22423802.986   117837883.600    22423800.395    91821710.768    22423799.591  
  22423799.234    87995801.102  
  23042655.444   121089971.141    23042653.282    94355811.102    23042652.585  
  23042651.835    90424314.888  
  22560931.923   120601111.730                    93800892.214    22560938.392  
                                
  21879231.806   116751772.359                    90806946.561    21879235.094  
                                
  21622107.502   115501417.183                    89834447.628    21622110.021  
                                
  20209986.537   108147719.895                    84114897.519    20209987.770  
                                
  21436913.823   114431704.172                    89002442.812    21436915.449  
                                
 21  8 31  6 48 49.0000000  0 13G 4G 7G 8G 9G16G21G27G30R 1R 2R12R21
                                R22
  23246230.826   122159766.440    23246227.627    95189413.228    23246227.341  
  23246229.539    91223198.901  
  20826319.963   109443050.364    20826315.049    85280276.478    20826314.316  
                                
  20574955.255   108122120.222    20574953.594    84250990.363    20574952.915  
  20574950.270    80740525.728  
  21632763.497   113680940.243    21632761.031    88582535.436    21632760.692  
  21632760.352    84891595.877  
  24851538.229   130595713.235                   101762871.207    24851532.511  
                                
  22792088.553   119773233.389                    93329766.626    22792082.710  
                                
  22424381.085   117840921.588    22424378.512    91824078.031    22424377.690  
  22424377.350    87998069.729  
  23042104.614   121087076.534    23042102.451    94353555.562    23042101.755  
  23042101.022    90422153.326  
  22561589.986   120604629.403                    93803628.182    22561596.472  
                                
  21879273.012   116751992.198                    90807117.548    21879276.318  
                                
  21621729.214   115499396.506                    89832875.993    21621731.752  
                                
  20209863.080   108147059.323                    84114383.741    20209864.331  
                                
  21436179.621   114427784.955                    88999394.535    21436181.247  
                                
 21  8 31  6 48 50.0000000  0 13G 4G 7G 8G 9G16G21G27G30R 1R 2R12R21
                                R22
  23246905.292   122163310.561    23246902.040    95192174.876    23246901.754  
  23246903.987    91225845.471  
  20825991.387   109441323.670    20825986.473    85278931.002    20825985.759  
                                
  20575212.766   108123473.372    20575211.104    84252044.766    20575210.407  
  20575207.763    80741536.189  
  21633193.533   113683200.100    21633191.085    88584296.366    21633190.745  
  21633190.406    84893283.426  
  24852087.612   130598600.269                   101765120.841    24852081.841  
                                
  22791669.899   119771033.330                    93328052.292    22791664.038  
                                
  22424959.237   117843959.872    22424956.682    91826445.530    22424955.842  
  22424955.484    88000338.577  
  23041553.801   121084181.964    23041551.639    94351300.055    23041550.942  
  23041550.209    90419991.793  
  22562248.102   120608147.259                    93806364.292    22562254.553  
                                
  21879314.379   116752212.784                    90807289.115    21879317.649  
                                
  21621350.963   115497375.818                    89831304.346    21621353.483  
                                
  20209739.801   108146399.609                    84113870.634    20209741.052  
                                
  21435445.508   114423866.135                    88996346.559    21435447.116  
                                
 21  8 31  6 48 51.0000000  0 13G 4G 7G 8G 9G16G21G27G30R 1R 2R12R21
                                R22
  23247579.705   122166854.726    23247576.488    95194936.563    23247576.202  
  23247578.454    91228492.110  
  20825662.848   109439597.185    20825657.934    85277585.687    20825657.219  
                                
  20575470.330   108124827.021    20575468.704    84253099.558    20575468.025  
  20575465.362    80742547.046  
  21633623.640   113685460.362    21633621.192    88586057.614    21633620.853  
  21633620.549    84894971.284  
  24852636.960   130601487.158                   101767370.368    24852631.117  
                                
  22791251.246   119768833.483                    93326338.118    22791245.403  
                                
  22425537.425   117846998.428    22425534.870    91828813.236    22425534.066  
  22425533.708    88002607.634  
  23041002.970   121081287.375    23041000.826    94349044.529    23041000.129  
  23040999.397    90417830.266  
  22562906.200   120611665.210                    93809100.481    22562912.669  
                                
  21879355.871   116752434.088                    90807461.239    21879359.123  
                                
  21620972.658   115495355.072                    89829732.657    21620975.195  
                                
  20209616.666   108145740.728                    84113358.171    20209617.917  
                                
  21434711.448   114419947.634                    88993298.829    21434713.021  
                                
 21  8 31  6 48 52.0000000  0 13G 4G 7G 8G 9G16G21G27G30R 1R 2R12R21
                                R22
  23248254.171   122170398.891    23248250.937    95197698.253    23248250.615  
  23248252.902    91231138.709  
  20825334.326   109437870.784    20825329.394    85276240.439    20825328.679  
                                
  20575728.001   108126181.061    20575726.357    84254154.656    20575725.661  
  20575722.998    80743558.175  
  21634053.801   113687720.903    21634051.371    88587819.072    21634051.032  
  21634050.710    84896659.350  
  24853186.253   130604373.784                   101769619.680    24853180.339  
                                
  22790832.646   119766633.735                    93324624.041    22790826.803  
                                
  22426115.666   117850037.152    22426113.111    91831181.073    22426112.289  
  22426111.932    88004876.806  
  23040452.140   121078392.688    23040449.996    94346788.933    23040449.281  
  23040448.548    90415668.641  
  22563564.334   120615183.235                    93811836.727    22563570.803  
                                
  21879397.470   116752656.036                    90807633.860    21879400.722  
                                
  21620594.353   115493334.163                    89828160.841    21620596.854  
                                
  20209493.656   108145082.586                    84112846.278    20209494.924  
                                
  21433977.389   114416029.291                    88990251.234    21433978.979  
                                
 21  8 31  6 48 53.0000000  0 13G 4G 7G 8G 9G16G21G27G30R 1R 2R12R21
                                R22
  23248928.619   122173943.112    23248925.385    95200459.983    23248925.117  
  23248927.368    91233785.377  
  20825005.839   109436144.636    20825000.907    85274895.391    20825000.211  
                                
  20575985.762   108127535.646    20575984.118    84255210.179    20575983.439  
  20575980.777    80744569.718  
  21634484.069   113689981.880    21634481.639    88589580.868    21634481.318  
  21634480.960    84898347.734  
  24853735.529   130607260.272                   101771868.895    24853729.668  
                                
  22790414.118   119764434.261                    93322910.164    22790408.203  
                                
  22426693.944   117853076.158    22426691.424    91833549.132    22426690.584  
  22426690.209    88007146.198  
  23039901.292   121075498.025    23039899.147    94344533.351    23039898.433  
  23039897.700    90413507.044  
  22564222.486   120618701.446                    93814573.116    22564228.955  
                                
  21879439.230   116752878.782                    90807807.103    21879442.446  
                                
  21620216.012   115491313.236                    89826589.009    21620218.532  
                                
  20209370.824   108144425.294                    84112335.054    20209372.093  
                                
  21433243.490   114412111.315                    88987203.919    21433244.991  
                                
 21  8 31  6 48 54.0000000  0 13G 4G 7G 8G 9G16G21G27G30R 1R 2R12R21
                                R22
  23249603.068   122177487.501    23249599.869    95203221.853    23249599.619  
  23249601.870    91236432.171  
  20824677.425   109434418.793    20824672.475    85273550.578    20824671.796  
                                
  20576243.666   108128890.810    20576242.004    84256266.153    20576241.343  
  20576238.644    80745581.689  
  21634914.391   113692243.307    21634911.961    88591343.019    21634911.657  
  21634911.318    84900036.472  
  24854284.787   130610146.689                   101774118.063    24854278.962  
                                
  22789995.608   119762235.062                    93321196.487    22789989.711  
                                
  22427272.310   117856115.534    22427269.791    91835917.476    22427268.951  
  22427268.594    88009415.855  
  23039350.461   121072603.450    23039348.335    94342277.838    23039347.602  
  23039346.905    90411345.513  
  22564880.709   120622219.905                    93817309.699    22564887.124  
                                
  21879481.151   116753102.393                    90807981.022    21879484.349  
                                
  21619837.707   115489292.338                    89825017.200    21619840.226  
                                
  20209248.153   108143768.918                    84111824.541    20209249.422  
                                
  21432509.574   114408193.726                    88984156.908    21432511.075  
                                
 21  8 31  6 48 55.0000000  0 13G 4G 7G 8G 9G16G21G27G30R 1R 2R12R21
                                R22
  23250277.552   122181031.815    23250274.353    95205983.662    23250274.067  
  23250276.337    91239078.893  
  20824349.010   109432692.982    20824344.060    85272205.791    20824343.399  
                                
  20576501.587   108130246.311    20576499.961    84257322.385    20576499.282  
  20576496.602    80746593.923  
  21635344.767   113694504.983    21635342.372    88593105.366    21635342.051  
  21635341.711    84901725.386  
  24854833.974   130613032.816                   101776366.977    24854828.131  
                                
  22789577.151   119760035.925                    93319482.873    22789571.236  
                                
  22427850.695   117859155.027    22427848.175    91838285.917    22427847.336  
  22427846.978    88011685.619  
  23038799.613   121069708.719    23038797.468    94340022.209    23038796.754  
  23038796.039    90409183.861  
  22565538.933   120625738.342                    93820046.262    22565545.330  
                                
  21879523.161   116753326.588                    90808155.398    21879526.341  
                                
  21619459.366   115487271.244                    89823445.240    21619461.868  
                                
  20209125.607   108143113.234                    84111314.565    20209126.894  
                                
  21431775.693   114404276.334                    88981110.047    21431777.230  
                                
 21  8 31  6 48 56.0000000  0 13G 4G 7G 8G 9G16G21G27G30R 1R 2R12R21
                                R22
  23250952.072   122184576.388    23250948.873    95208745.662    23250948.587  
  23250950.874    91241725.806  
  20824020.684   109430967.585    20824015.717    85270861.326    20824015.056  
                                
  20576759.669   108131602.534    20576758.025    84258379.185    20576757.364  
  20576754.666    80747606.675  
  21635775.285   113696767.249    21635772.855    88594868.171    21635772.533  
  21635772.212    84903414.739  
  24855383.161   130615918.978                   101778615.910    24855377.317  
                                
  22789158.730   119757837.207                    93317769.587    22789152.833  
                                
  22428429.169   117862194.983    22428426.649    91840654.712    22428425.810  
  22428425.452    88013955.699  
  23038248.800   121066814.179    23038246.656    94337766.723    23038245.941  
  23038245.208    90407022.347  
  22566197.210   120629257.138                    93822783.106    22566203.571  
                                
  21879565.385   116753551.757                    90808330.529    21879568.530  
                                
  21619081.043   115485250.298                    89821873.391    21619083.545  
                                
  20209003.258   108142458.588                    84110805.398    20209004.563  
                                
  21431041.955   114400359.478                    88978063.602    21431043.474  
                                
 21  8 31  6 48 57.0000000  0 13G 4G 7G 8G 9G16G21G27G30R 1R 2R12R21
                                R22
  23251626.627   122188121.226    23251623.429    95211507.873    23251623.161  
  23251625.466    91244372.933  
  20823692.430   109429242.590    20823687.463    85269517.174    20823686.784  
                                
  20577017.877   108132959.434    20577016.251    84259436.510    20577015.590  
  20577012.891    80748619.950  
  21636205.893   113699030.117    21636203.480    88596631.447    21636203.141  
  21636202.837    84905104.542  
  24855932.365   130618805.184                   101780864.881    24855926.504  
                                
  22788740.416   119755638.929                    93316056.636    22788734.519  
                                
  22429007.732   117865235.400    22429005.213    91843023.870    22429004.408  
  22429003.997    88016226.158  
  23037698.023   121063919.850    23037695.879    94335511.402    23037695.200  
  23037694.449    90404861.000  
  22566855.558   120632776.283                    93825520.218    22566861.866  
                                
  21879607.771   116753777.864                    90808506.391    21879610.898  
                                
  21618702.774   115483229.505                    89820301.665    21618705.240  
                                
  20208881.088   108141804.954                    84110297.016    20208882.410  
                                
  21430308.253   114396443.144                    88975017.562    21430309.790  
                                
 21  8 31  6 48 58.0000000  0 13G 4G 7G 8G 9G16G21G27G30R 1R 2R12R21
                                R22
  23252301.254   122191666.474    23252298.074    95214270.406    23252297.806  
  23252300.129    91247020.361  
  20823364.266   109427518.161    20823359.334    85268173.463    20823358.655  
                                
  20577276.263   108134317.168    20577274.601    84260494.482    20577273.940  
  20577271.242    80749633.844  
  21636636.643   113701293.724    21636634.195    88598395.296    21636633.909  
  21636633.588    84906794.903  
  24856481.569   130621691.572                   101783114.030    24856475.655  
                                
  22788322.192   119753441.198                    93314344.109    22788316.277  
                                
  22429586.438   117868276.448    22429583.919    91845393.521    22429583.097  
  22429582.686    88018497.073  
  23037147.318   121061025.859    23037145.173    94333256.342    23037144.477  
  23037143.744    90402699.903  
  22567513.960   120636295.924                    93828257.719    22567520.286  
                                
  21879650.352   116754005.036                    90808683.078    21879653.444  
                                
  21618324.522   115481208.993                    89818730.153    21618327.006  
                                
  20208759.167   108141152.486                    84109789.539    20208760.472  
                                
  21429574.730   114392527.496                    88971972.055    21429576.213  
                                
 21  8 31  6 48 59.0000000  0 13G 4G 7G 8G 9G16G21G27G30R 1R 2R12R21
                                R22
  23252975.953   122195212.009    23252972.754    95217033.157    23252972.522  
  23252974.863    91249667.997  
  20823036.191   109425794.147    20823031.259    85266830.075    20823030.580  
                                
  20577534.774   108135675.616    20577533.112    84261553.012    20577532.451  
  20577529.753    80750648.269  
  21637067.519   113703557.924    21637065.071    88600159.606    21637064.767  
  21637064.446    84908485.708  
  24857030.810   130624578.016                   101785363.214    24857024.948  
                                
  22787904.038   119751243.889                    93312631.918    22787898.160  
                                
  22430165.198   117871317.963    22430162.679    91847763.530    22430161.857  
  22430161.463    88020768.334  
  23036596.648   121058132.068    23036594.504    94331001.441    23036593.807  
  23036593.074    90400538.959  
  22568172.469   120639815.944                    93830995.514    22568178.759  
                                
  21879693.113   116754233.116                    90808860.466    21879696.151  
                                
  21617946.324   115479188.668                    89817158.790    21617948.808  
                                
  20208637.444   108140501.067                    84109282.874    20208638.766  
                                
  21428841.349   114388612.399                    88968926.973    21428842.797  
                                
 21  8 31  6 49  0.0000000  0 13G 4G 7G 8G 9G16G21G27G30R 1R 2R12R21
                                R22
  23253650.705   122198757.750    23253647.507    95219796.074    23253647.256  
  23253649.615    91252315.779  
  20822708.205   109424070.472    20822703.237    85265486.954    20822702.558  
                                
  20577793.410   108137034.708    20577791.748    84262612.048    20577791.069  
  20577788.389    80751663.169  
  21637498.466   113705822.646    21637496.036    88601924.329    21637495.750  
  21637495.429    84910176.890  
  24857580.050   130627464.451                   101787612.377    24857574.189  
                                
  22787485.975   119749046.926                    93310920.001    22787480.078  
                                
  22430744.047   117874359.903    22430741.546    91850133.873    22430740.724  
  22430740.295    88023039.893  
  23036045.996   121055238.402    23036043.852    94328746.635    23036043.155  
  23036042.422    90398378.111  
  22568831.014   120643336.223                    93833733.516    22568837.268  
                                
  21879736.017   116754462.058                    90809038.532    21879739.054  
                                
  21617568.144   115477168.438                    89815587.505    21617570.610  
                                
  20208515.863   108139850.642                    84108776.994    20208517.203  
                                
  21428108.022   114384697.740                    88965882.243    21428109.452  
                                
 21  8 31  6 49  1.0000000  0 13G 4G 7G 8G 9G16G21G27G30R 1R 2R12R21
                                R22
  23254325.457   122202303.588    23254322.259    95222559.062    23254321.991  
  23254324.385    91254963.654  
  20822380.219   109422347.041    20822375.269    85264144.023    20822374.608  
                                
  20578052.136   108138394.314    20578050.474    84263671.481    20578049.813  
  20578047.097    80752678.469  
  21637929.521   113708087.788    21637927.109    88603689.374    21637926.805  
  21637926.483    84911868.403  
  24858129.308   130630350.748                   101789861.424    24858123.411  
                                
  22787067.929   119746850.239                    93309208.306    22787062.068  
                                
  22431322.950   117877402.111    22431320.466    91852504.424    22431319.644  
  22431319.180    88025311.693  
  23035495.362   121052344.790    23035493.236    94326491.869    23035492.521  
  23035491.789    90396217.292  
  22569489.595   120646856.679                    93836471.653    22569495.795  
                                
  21879779.081   116754691.729                    90809217.161    21879782.083  
                                
  21617189.964   115475148.158                    89814016.176    21617192.412  
                                
  20208394.478   108139201.091                    84108271.787    20208395.836  
                                
  21427374.785   114380783.389                    88962837.754    21427376.179  
                                
 21  8 31  6 49  2.0000000  0 13G 4G 7G 8G 9G16G21G27G30R 1R 2R12R21
                                R22
  23255000.227   122205849.549    23254997.029    95225322.139    23254996.779  
  23254999.191    91257611.605  
  20822052.322   109420623.877    20822047.355    85262801.301    20822046.693  
                                
  20578310.969   108139754.502    20578309.307    84264731.367    20578308.646  
  20578305.965    80753694.193  
  21638360.647   113710353.405    21638358.234    88605454.795    21638357.931  
  21638357.609    84913560.256  
  24858678.566   130633236.978                   101792110.445    24858672.740  
                                
  22786649.973   119744653.810                    93307496.810    22786644.094  
                                
  22431901.924   117880444.682    22431899.440    91854875.256    22431898.618  
  22431898.172    88027583.738  
  23034944.728   121049451.227    23034942.584    94324237.143    23034941.887  
  23034941.137    90394056.511  
  22570148.176   120650377.349                    93839209.959    22570154.376  
                                
  21879822.306   116754922.208                    90809396.422    21879825.254  
                                
  21616811.767   115473127.881                    89812444.851    21616814.215  
                                
  20208273.255   108138552.396                    84107767.244    20208274.613  
                                
  21426641.619   114376869.496                    88959793.625    21426642.959  
                                
 21  8 31  6 49  3.0000000  0 13G 4G 7G 8G 9G16G21G27G30R 1R 2R12R21
                                R22
  23255675.015   122209395.563    23255671.799    95228085.269    23255671.549  
  23255673.997    91260259.614  
  20821724.479   109418900.934    20821719.476    85261458.747    20821718.833  
                                
  20578569.891   108141115.200    20578568.229    84265791.652    20578567.586  
  20578564.887    80754710.292  
  21638791.862   113712619.404    21638789.432    88607220.508    21638789.146  
  21638788.824    84915252.393  
  24859227.752   130636123.043                   101794359.334    24859221.855  
                                
  22786232.016   119742457.604                    93305785.483    22786226.191  
                                
  22432480.934   117883487.499    22432478.468    91857246.285    22432477.664  
  22432477.182    88029855.964  
  23034394.094   121046557.664    23034391.986    94321982.421    23034391.253  
  23034390.503    90391895.731  
  22570806.792   120653898.118                    93841948.335    22570812.993  
                                
  21879865.656   116755153.426                    90809576.258    21879868.551  
                                
  21616433.569   115471107.568                    89810873.495    21616436.017  
                                
  20208152.174   108137904.503                    84107263.330    20208153.550  
                                
  21425908.471   114372955.907                    88956749.720    21425909.829  
                                
 21  8 31  6 49  4.0000000  0 13G 4G 7G 8G 9G16G21G27G30R 1R 2R12R21
                                R22
  23256349.803   122212941.609    23256346.587    95230848.429    23256346.337  
  23256348.803    91262907.637  
  20821396.654   109417178.136    20821391.651    85260116.310    20821390.990  
                                
  20578828.902   108142476.373    20578827.258    84266852.306    20578826.597  
  20578823.917    80755726.761  
  21639223.131   113714885.731    21639220.701    88608986.478    21639220.397  
  21639220.093    84916944.798  
  24859776.903   130639008.888                   101796608.043    24859771.078  
                                
  22785814.078   119740261.566                    93304074.291    22785808.324  
                                
  22433060.016   117886530.546    22433057.532    91859617.488    22433056.728  
  22433056.245    88032128.382  
  23033843.478   121043664.051    23033841.352    94319727.660    23033840.637  
  23033839.851    90389734.925  
  22571465.444   120657418.973                    93844686.781    22571471.609  
                                
  21879909.114   116755385.359                    90809756.655    21879911.991  
                                
  21616055.335   115469087.142                    89809302.054    21616057.783  
                                
  20208031.255   108137257.428                    84106760.054    20208032.631  
                                
  21425175.340   114369042.548                    88953705.999    21425176.734  
                                
 21  8 31  6 49  5.0000000  0 13G 4G 7G 8G 9G16G21G27G30R 1R 2R12R21
                                R22
  23257024.609   122216487.755    23257021.375    95233611.660    23257021.142  
  23257023.608    91265555.725  
  20821068.847   109415455.592    20821063.844    85258774.065    20821063.200  
                                
  20579088.039   108143838.098    20579086.395    84267913.393    20579085.734  
  20579083.053    80756743.625  
  21639654.489   113717152.508    21639652.041    88610752.797    21639651.755  
  21639651.451    84918637.499  
  24860326.036   130641894.631                   101798856.691    24860320.211  
                                
  22785396.210   119738065.788                    93302363.296    22785390.475  
                                
  22433639.133   117889573.886    22433636.649    91861988.922    22433635.863  
  22433635.362    88034400.999  
  23033292.844   121040770.474    23033290.718    94317472.922    23033289.985  
  23033289.217    90387574.122  
  22572124.114   120660940.038                    93847425.384    22572130.261  
                                
  21879952.750   116755618.091                    90809937.671    21879955.591  
                                
  21615677.101   115467066.698                    89807730.600    21615679.567  
                                
  20207910.478   108136611.244                    84106257.469    20207911.872  
                                
  21424442.282   114365129.657                    88950662.644    21424443.729  
                                
 21  8 31  6 49  6.0000000  0 13G 4G 7G 8G 9G16G21G27G30R 1R 2R12R21
                                R22
  23257699.433   122220034.074    23257696.216    95236375.023    23257695.966  
  23257698.468    91268203.954  
  20820741.111   109413733.358    20820736.126    85257432.065    20820735.482  
                                
  20579347.300   108145200.410    20579345.639    84268974.934    20579344.960  
  20579342.297    80757760.936  
  21640085.937   113719419.759    21640083.506    88612519.489    21640083.221  
  21640082.881    84920330.583  
  24860875.169   130644780.306                   101801105.267    24860869.272  
                                
  22784978.397   119735870.322                    93300652.552    22784972.643  
                                
  22434218.339   117892617.595    22434215.855    91864360.653    22434215.087  
  22434214.551    88036673.901  
  23032742.228   121037876.990    23032740.102    94315218.260    23032739.369  
  23032738.619    90385413.412  
  22572782.838   120664461.302                    93850164.141    22572789.003  
                                
  21879996.529   116755851.698                    90810119.368    21879999.352  
                                
  21615298.904   115465046.308                    89806159.185    21615301.352  
                                
  20207789.898   108135965.993                    84105755.606    20207791.292  
                                
  21423709.294   114361217.040                    88947619.502    21423710.813  
                                
 21  8 31  6 49  7.0000000  0 13G 4G 7G 8G 9G16G21G27G30R 1R 2R12R21
                                R22
  23258374.292   122223580.423    23258371.040    95239138.418    23258370.790  
  23258373.327    91270852.199  
  20820413.411   109412011.304    20820408.426    85256090.202    20820407.782  
                                
  20579606.616   108146563.185    20579604.972    84270036.833    20579604.275  
  20579601.630    80758778.599  
  21640517.456   113721687.378    21640515.008    88614286.464    21640514.722  
  21640514.382    84922023.941  
  24861424.230   130647665.799                   101803353.689    24861418.405  
                                
  22784560.637   119733675.053                    93298941.957    22784554.919  
                                
  22434797.581   117895661.557    22434795.098    91866732.578    22434794.365  
  22434793.793    88038946.990  
  23032191.612   121034983.486    23032189.486    94312963.584    23032188.753  
  23032187.985    90383252.683  
  22573441.562   120667982.719                    93852903.016    22573447.744  
                                
  21880040.451   116756086.024                    90810301.620    21880043.239  
                                
  21614920.670   115463025.846                    89804587.710    21614923.136  
                                
  20207669.461   108135321.524                    84105254.353    20207670.854  
                                
  21422976.361   114357304.763                    88944576.622    21422977.915  
                                
 21  8 31  6 49  8.0000000  0 13G 4G 7G 8G 9G16G21G27G30R 1R 2R12R21
                                R22
  23259049.187   122227127.108    23259045.953    95241902.072    23259045.667  
  23259048.258    91273500.687  
  20820085.818   109410289.733    20820080.833    85254748.718    20820080.172  
                                
  20579866.092   108147926.729    20579864.430    84271099.335    20579863.751  
  20579861.124    80759796.819  
  21640949.082   113723955.656    21640946.652    88616053.952    21640946.366  
  21640946.026    84923717.774  
  24861973.346   130650551.397                   101805602.205    24861967.449  
                                
  22784142.949   119731480.264                    93297231.739    22784137.266  
                                
  22435376.931   117898706.045    22435374.447    91869104.910    22435373.732  
  22435373.125    88041220.462  
  23031641.050   121032090.232    23031638.906    94310709.099    23031638.191  
  23031637.405    90381092.127  
  22574100.410   120671504.536                    93855642.199    22574106.575  
                                
  21880084.570   116756321.363                    90810484.661    21880087.322  
                                
  21614542.508   115461005.598                    89803016.405    21614544.938  
                                
  20207549.238   108134678.151                    84104753.947    20207550.632  
                                
  21422243.534   114353393.085                    88941534.210    21422245.142  
                                
 21  8 31  6 49  9.0000000  0 13G 4G 7G 8G 9G16G21G27G30R 1R 2R12R21
                                R22
  23259724.136   122230673.991    23259720.902    95244665.881    23259720.634  
  23259723.225    91276149.353  
  20819758.297   109408568.521    20819753.276    85253407.514    20819752.632  
                                
  20580125.711   108149290.902    20580124.031    84272162.326    20580123.352  
  20580120.708    80760815.524  
  21641380.833   113726224.475    21641378.421    88617821.865    21641378.117  
  21641377.778    84925412.031  
  24862522.443   130653437.005                   101807850.733    24862516.528  
                                
  22783725.350   119729285.842                    93295521.805    22783719.721  
                                
  22435956.370   117901750.943    22435953.886    91871477.554    22435953.153  
  22435952.564    88043494.256  
  23031090.505   121029197.139    23031088.361    94308454.741    23031087.610  
  23031086.860    90378931.700  
  22574759.295   120675026.648                    93858381.620    22574765.460  
                                
  21880128.867   116756557.566                    90810668.368    21880131.583  
                                
  21614164.328   115458985.423                    89801445.157    21614166.794  
                                
  20207429.176   108134035.759                    84104254.309    20207430.588  
                                
  21421510.761   114349481.908                    88938492.184    21421512.459  
                                
 21  8 31  6 49 10.0000000  0 13G 4G 7G 8G 9G16G21G27G30R 1R 2R12R21
                                R22
  23260399.102   122234220.997    23260395.832    95247429.782    23260395.582  
  23260398.209    91278798.085  
  20819430.794   109406847.555    20819425.808    85252066.499    20819425.129  
                                
  20580385.401   108150655.596    20580383.722    84273225.724    20580383.043  
  20580380.434    80761834.614  
  21641812.674   113728493.722    21641810.226    88619590.111    21641809.922  
  21641809.583    84927106.598  
  24863071.540   130656322.471                   101810099.139    24863065.554  
                                
  22783307.822   119727091.688                    93293812.076    22783302.193  
                                
  22436535.844   117904796.167    22436533.378    91873850.451    22436532.646  
  22436532.038    88045768.282  
  23030539.978   121026304.078    23030537.834    94306200.410    23030537.084  
  23030536.333    90376771.295  
  22575418.233   120678548.954                    93861121.196    22575424.398  
                                
  21880173.272   116756794.497                    90810852.647    21880175.970  
                                
  21613786.130   115456965.253                    89799873.916    21613788.614  
                                
  20207309.311   108133394.251                    84103755.356    20207310.686  
                                
  21420778.078   114345571.047                    88935450.400    21420779.847  
                                
 21  8 31  6 49 11.0000000  0 13G 4G 7G 8G 9G16G21G27G30R 1R 2R12R21
                                R22
  23261074.105   122237768.079    23261070.799    95250193.737    23261070.531  
  23261073.229    91281446.880  
  20819103.344   109405126.797    20819098.340    85250725.651    20819097.679  
                                
  20580645.181   108152020.787    20580643.502    84274289.512    20580642.823  
  20580640.232    80762854.077  
  21642244.568   113730763.368    21642242.120    88621358.667    21642241.834  
  21642241.477    84928801.462  
  24863620.601   130659207.818                   101812347.452    24863614.508  
                                
  22782890.294   119724897.750                    93292102.510    22782884.719  
                                
  22437115.408   117907841.643    22437112.906    91876223.545    22437112.174  
  22437111.584    88048042.502  
  23029989.416   121023411.025    23029987.290    94303946.077    23029986.539  
  23029985.806    90374610.899  
  22576077.207   120682071.392                    93863860.870    22576083.354  
                                
  21880217.819   116757032.160                    90811037.491    21880220.499  
                                
  21613407.968   115454945.051                    89798302.652    21613410.452  
                                
  20207189.570   108132753.586                    84103257.064    20207190.964  
                                
  21420045.448   114341660.588                    88932408.935    21420047.306  
                                
 21  8 31  6 49 12.0000000  0 13G 4G 7G 8G 9G16G21G27G30R 1R 2R12R21
                                R22
  23261749.107   122241315.211    23261745.784    95252957.734    23261745.515  
  23261748.214    91284095.703  
  20818775.947   109403406.248    20818770.944    85249384.961    20818770.301  
                                
  20580905.068   108153386.482    20580903.371    84275353.690    20580902.692  
  20580900.083    80763873.920  
  21642676.552   113733033.384    21642674.086    88623127.508    21642673.818  
  21642673.443    84930496.610  
  24864169.591   130662092.985                   101814595.639    24864163.677  
                                
  22782472.856   119722704.016                    93290393.099    22782467.299  
                                
  22437694.990   117910887.377    22437692.488    91878596.842    22437691.773  
  22437691.148    88050316.912  
  23029438.889   121020517.944    23029436.745    94301691.728    23029436.030  
  23029435.244    90372450.488  
  22576736.198   120685593.943                    93866600.634    22576742.328  
                                
  21880262.492   116757270.538                    90811222.897    21880265.172  
                                
  21613029.788   115452924.800                    89796731.346    21613032.272  
                                
  20207070.009   108132113.719                    84102759.382    20207071.384  
                                
  21419312.961   114337750.401                    88929367.676    21419314.801  
                                
 21  8 31  6 49 13.0000000  0 13G 4G 7G 8G 9G16G21G27G30R 1R 2R12R21
                                R22
  23262424.109   122244862.492    23262420.786    95255721.844    23262420.500  
  23262423.252    91286744.654  
  20818448.587   109401685.992    20818443.566    85248044.504    20818442.922  
                                
  20581165.063   108154752.785    20581163.365    84276418.341    20581162.668  
  20581160.113    80764894.211  
  21643108.607   113735303.899    21643106.159    88624896.743    21643105.891  
  21643105.516    84932192.129  
  24864718.635   130664978.070                   101816843.757    24864712.649  
                                
  22782055.436   119720510.595                    93288683.947    22782049.914  
                                
  22438274.661   117913933.473    22438272.159    91880970.420    22438271.445  
  22438270.819    88052591.595  
  23028888.363   121017624.977    23028886.218    94299437.465    23028885.504  
  23028884.735    90370290.151  
  22577395.226   120689116.741                    93869340.591    22577401.355  
                                
  21880307.325   116757509.739                    90811408.942    21880310.005  
                                
  21612651.626   115450904.577                    89795160.062    21612654.074  
                                
  20206950.590   108131474.749                    84102262.407    20206951.984  
                                
  21418580.492   114333840.643                    88926326.748    21418582.368  
                                
 21  8 31  6 49 14.0000000  0 13G 4G 7G 8G 9G16G21G27G30R 1R 2R12R21
                                R22
  23263099.201   122248410.058    23263095.860    95258486.184    23263095.610  
  23263098.343    91289393.815  
  20818121.316   109399966.162    20818116.295    85246704.379    20818115.651  
                                
  20581425.218   108156119.791    20581423.502    84277483.544    20581422.805  
  20581420.250    80765915.026  
  21643540.787   113737575.030    21643538.339    88626666.455    21643538.071  
  21643537.696    84933888.097  
  24865267.679   130667863.231                   101819091.967    24865261.657  
                                
  22781638.123   119718317.626                    93286975.140    22781632.637  
                                
  22438854.404   117916980.064    22438851.902    91883344.388    22438851.187  
  22438850.562    88054866.649  
  23028337.889   121014732.218    23028335.727    94297183.365    23028335.030  
  23028334.262    90368129.974  
  22578054.307   120692639.916                    93872080.833    22578060.472  
                                
  21880352.337   116757749.914                    90811595.744    21880354.982  
                                
  21612273.481   115448884.494                    89793588.890    21612275.947  
                                
  20206831.368   108130836.845                    84101766.262    20206832.762  
                                
  21417848.130   114329931.436                    88923286.254    21417850.024  
                                
 21  8 31  6 49 15.0000000  0 13G 4G 7G 8G 9G16G21G27G30R 1R 2R12R21
                                R22
  23263774.329   122251957.768    23263770.951    95261250.633    23263770.719  
  23263773.435    91292043.063  
  20817794.098   109398246.628    20817789.077    85245364.483    20817788.434  
                                
  20581685.462   108157487.350    20581683.729    84278549.174    20581683.050  
  20581680.495    80766936.253  
  21643973.075   113739846.578    21643970.609    88628436.492    21643970.341  
  21643969.965    84935584.385  
  24865816.686   130670748.317                   101821340.097    24865810.736  
                                
  22781220.863   119716124.938                    93285266.554    22781215.377  
                                
  22439434.218   117920026.960    22439431.698    91885718.595    22439431.001  
  22439430.376    88057141.929  
  23027787.416   121011839.524    23027785.254    94294929.322    23027784.575  
  23027783.807    90365969.839  
  22578713.406   120696163.267                    93874821.208    22578719.624  
                                
  21880397.492   116757990.894                    90811783.168    21880400.137  
                                
  21611895.337   115446864.416                    89792017.721    21611897.785  
                                
  20206712.360   108130199.861                    84101270.830    20206713.718  
                                
  21417115.839   114326022.599                    88920246.042    21417117.751  
                                
 21  8 31  6 49 16.0000000  0 13G 4G 7G 8G 9G16G21G27G30R 1R 2R12R21
                                R22
  23264449.510   122255505.863    23264446.132    95264015.382    23264445.882  
  23264448.634    91294692.619  
  20817466.988   109396527.616    20817461.967    85244024.991    20817461.341  
                                
  20581945.850   108158855.745    20581944.134    84279615.453    20581943.437  
  20581940.918    80767958.099  
  21644405.469   113742118.897    21644403.021    88630207.126    21644402.735  
  21644402.360    84937281.236  
  24866365.712   130673633.560                   101823588.345    24866359.726  
                                
  22780803.675   119713932.791                    93283558.388    22780798.225  
                                
  22440014.157   117923074.473    22440011.637    91888093.278    22440010.940  
  22440010.315    88059417.665  
  23027237.033   121008947.167    23027234.870    94292675.538    23027234.174  
  23027233.405    90363809.962  
  22579372.630   120699687.120                    93877561.980    22579378.848  
                                
  21880442.844   116758232.940                    90811971.422    21880445.488  
                                
  21611517.229   115444844.632                    89790446.778    21611519.695  
                                
  20206593.531   108129564.061                    84100776.317    20206594.907  
                                
  21416383.745   114322114.393                    88917206.327    21416385.639  
                                
 21  8 31  6 49 17.0000000  0 13G 4G 7G 8G 9G16G21G27G30R 1R 2R12R21
                                R22
  23265124.744   122259054.207    23265121.349    95266780.326    23265121.063  
  23265123.851    91297342.360  
  20817139.949   109394809.001    20817134.910    85242685.808    20817134.302  
                                
  20582206.362   108160224.824    20582204.664    84280682.265    20582203.950  
  20582201.448    80768980.470  
  21644837.989   113744391.777    21644835.523    88631978.195    21644835.273  
  21644834.862    84938978.514  
  24866914.756   130676518.848                   101825836.619    24866908.859  
                                
  22780386.594   119711741.060                    93281850.546    22780381.180  
                                
  22440594.150   117926122.450    22440591.648    91890468.322    22440590.951  
  22440590.326    88061693.760  
  23026686.685   121006054.978    23026684.487    94290421.877    23026683.790  
  23026683.039    90361650.214  
  22580031.890   120703211.280                    93880302.989    22580038.144  
                                
  21880488.392   116758475.937                    90812160.413    21880491.001  
                                
  21611139.156   115442824.996                    89788875.943    21611141.622  
                                
  20206474.916   108128929.243                    84100282.570    20206476.239  
                                
  21415651.687   114318206.725                    88914167.025    21415653.599  
                                
 21  8 31  6 49 18.0000000  0 13G 4G 7G 8G 9G16G21G27G30R 1R 2R12R21
                                R22
  23265800.015   122262602.729    23265796.602    95269545.413    23265796.316  
  23265799.103    91299992.223  
  20816812.982   109393090.722    20816807.960    85241346.890    20816807.317  
                                
  20582467.017   108161594.507    20582465.302    84281749.551    20582464.587  
  20582462.103    80770003.279  
  21645270.598   113746665.130    21645268.150    88633749.643    21645267.882  
  21645267.489    84940676.154  
  24867463.817   130679404.091                   101828084.870    24867457.867  
                                
  22779969.585   119709549.646                    93280142.955    22779964.206  
                                
  22441174.250   117929170.799    22441171.730    91892843.661    22441171.015  
  22441170.408    88063970.120  
  23026136.354   121003162.903    23026134.174    94288168.319    23026133.460  
  23026132.709    90359490.544  
  22580691.167   120706735.708                    93883044.215    22580697.493  
                                
  21880534.083   116758719.789                    90812350.073    21880536.674  
                                
  21610761.119   115440805.432                    89787305.166    21610763.567  
                                
  20206356.463   108128295.371                    84099789.560    20206357.785  
                                
  21414919.718   114314299.539                    88911128.102    21414921.666  
                                
 21  8 31  6 49 19.0000000  0 13G 4G 7G 8G 9G16G21G27G30R 1R 2R12R21
                                R22
  23266475.285   122266151.287    23266471.836    95272310.530    23266471.550  
  23266474.356    91302642.142  
  20816486.050   109391372.626    20816481.029    85240008.116    20816480.368  
                                
  20582727.762   108162964.689    20582726.047    84282817.228    20582725.296  
  20582722.848    80771026.464  
  21645703.278   113748938.872    21645700.813    88635521.388    21645700.544  
  21645700.151    84942374.081  
  24868012.772   130682289.176                   101830332.979    24868006.910  
                                
  22779552.611   119707358.441                    93278435.522    22779547.250  
                                
  22441754.385   117932219.382    22441751.866    91895219.186    22441751.133  
  22441750.561    88066246.664  
  23025585.988   121000270.801    23025583.826    94285914.736    23025583.112  
  23025582.361    90357330.866  
  22581350.516   120710260.298                    93885785.558    22581356.860  
                                
  21880579.935   116758964.395                    90812540.320    21880582.508  
                                
  21610383.010   115438785.796                    89785734.336    21610385.494  
                                
  20206238.170   108127662.334                    84099297.196    20206239.492  
                                
  21414187.821   114310392.606                    88908089.377    21414189.751  
                                
 21  8 31  6 49 20.0000000  0 13G 4G 7G 8G 9G16G21G27G30R 1R 2R12R21
                                R22
  23267150.555   122269699.881    23267147.107    95275075.674    23267146.821  
  23267149.626    91305292.041  
  20816159.136   109389654.674    20816154.115    85238669.454    20816153.454  
                                
  20582988.596   108164335.299    20582986.863    84283885.236    20582986.113  
  20582983.682    80772049.974  
  21646135.995   113751212.941    21646133.565    88637293.390    21646133.314  
  21646132.886    84944072.251  
  24868561.708   130685174.027                   101832580.905    24868555.847  
                                
  22779135.673   119705167.382                    93276728.204    22779130.330  
                                
  22442334.575   117935268.180    22442332.037    91897594.875    22442331.322  
  22442330.733    88068523.364  
  23025035.658   120997378.665    23025033.443    94283661.121    23025032.746  
  23025031.995    90355171.145  
  22582009.812   120713784.905                    93888526.920    22582016.227  
                                
  21880625.912   116759209.633                    90812731.056    21880628.431  
                                
  21610004.937   115436766.023                    89784163.399    21610007.403  
                                
  20206120.020   108127030.093                    84098805.457    20206121.324  
                                
  21413455.924   114306485.915                    88905050.835    21413457.889  
                                
 21  8 31  6 49 21.0000000  0 13G 4G 7G 8G 9G16G21G27G30R 1R 2R12R21
                                R22
  23267825.826   122273248.538    23267822.377    95277840.855    23267822.109  
  23267824.932    91307942.013  
  20815832.258   109387936.968    20815827.237    85237330.980    20815826.576  
                                
  20583249.520   108165706.447    20583247.769    84284953.662    20583247.036  
  20583244.606    80773073.888  
  21646568.836   113753487.435    21646566.370    88639065.722    21646566.138  
  21646565.709    84945770.737  
  24869110.626   130688058.733                   101834828.720    24869104.694  
                                
  22778718.771   119702976.584                    93275021.086    22778713.464  
                                
  22442914.800   117938317.263    22442912.262    91899970.786    22442911.547  
  22442910.958    88070800.279  
  23024485.310   120994486.537    23024483.094    94281407.515    23024482.415  
  23024481.629    90353011.439  
  22582669.197   120717309.719                    93891268.442    22582675.629  
                                
  21880671.996   116759455.643                    90812922.394    21880674.515  
                                
  21609626.829   115434746.232                    89782592.453    21609629.313  
                                
  20206002.049   108126398.700                    84098314.374    20206003.335  
                                
  21412724.152   114302579.645                    88902012.622    21412726.099  
                                
 21  8 31  6 49 22.0000000  0 13G 4G 7G 8G 9G16G21G27G30R 1R 2R12R21
                                R22
  23268501.114   122276797.299    23268497.665    95280606.119    23268497.397  
  23268500.238    91310592.064  
  20815505.416   109386219.497    20815500.413    85235992.693    20815499.734  
                                
  20583510.551   108167078.122    20583508.799    84286022.500    20583508.031  
  20583505.654    80774098.189  
  21647001.731   113755762.348    21646999.283    88640838.380    21646999.051  
  21646998.586    84947469.534  
  24869659.491   130690943.355                   101837076.456    24869653.577  
                                
  22778301.922   119700786.019                    93273314.150    22778296.651  
                                
  22443495.096   117941366.674    22443492.559    91902346.950    22443491.826  
  22443491.254    88073077.419  
  23023934.980   120991594.444    23023932.746    94279153.936    23023932.085  
  23023931.281    90350851.764  
  22583328.599   120720834.691                    93894010.082    22583335.050  
                                
  21880718.241   116759702.421                    90813114.335    21880720.743  
                                
  21609248.738   115432726.450                    89781021.514    21609251.204  
                                
  20205884.220   108125768.162                    84097823.953    20205885.489  
                                
  21411992.433   114298673.729                    88898974.685    21411994.399  
                                
 21  8 31  6 49 23.0000000  0 13G 4G 7G 8G 9G16G21G27G30R 1R 2R12R21
                                R22
  23269176.420   122280346.130    23269172.971    95283371.435    23269172.686  
  23269175.545    91313242.165  
  20815178.645   109384502.249    20815173.624    85234654.573    20815172.963  
                                
  20583771.653   108168450.288    20583769.902    84287091.720    20583769.151  
  20583766.757    80775122.862  
  21647434.715   113758037.652    21647432.267    88642611.344    21647432.017  
  21647431.552    84949168.622  
  24870208.356   130693827.794                   101839324.067    24870202.513  
                                
  22777885.110   119698595.699                    93271607.403    22777879.874  
                                
  22444075.410   117944416.312    22444072.891    91904723.289    22444072.158  
  22444071.586    88075354.759  
  23023384.632   120988702.337    23023382.398    94276900.346    23023381.737  
  23023380.933    90348692.078  
  22583988.002   120724359.785                    93896751.815    22583994.524  
                                
  21880764.629   116759949.909                    90813306.830    21880767.095  
                                
  21608870.630   115430706.603                    89779450.519    21608873.078  
                                
  20205766.535   108125138.434                    84097334.162    20205767.821  
                                
  21411260.750   114294768.167                    88895937.029    21411262.751  
                                
 21  8 31  6 49 24.0000000  0 12G 4G 7G 8G 9G21G27G30R 1R 2R12R21R22
  23269851.780   122283895.254    23269848.349    95286136.982    23269848.027  
  23269850.886    91315892.463  
  20814851.946   109382785.424    20814846.907    85233316.787    20814846.263  
                                
  20584032.916   108169823.193    20584031.165    84288161.519    20584030.396  
  20584028.037    80776148.075  
  21647867.807   113760313.549    21647865.359    88644384.770    21647865.091  
  21647864.626    84950868.155  
  22777468.368   119696405.800                    93269900.988    22777463.133  
                                
  22444655.850   117947466.436    22444653.313    91907100.014    22444652.598  
  22444652.008    88077632.453  
  23022834.320   120985810.465    23022832.086    94274646.939    23022831.425  
  23022830.639    90346532.558  
  22584647.512   120727885.235                    93899493.829    22584654.034  
                                
  21880811.178   116760198.370                    90813500.079    21880813.662  
                                
  21608492.557   115428686.874                    89777879.619    21608494.987  
                                
  20205649.064   108124509.751                    84096845.187    20205650.315  
                                
  21410529.192   114290863.157                    88892899.796    21410531.194  
                                
 21  8 31  6 49 25.0000000  0 12G 4G 7G 8G 9G21G27G30R 1R 2R12R21R22
  23270527.211   122287444.658    23270523.780    95288902.755    23270523.459  
  23270526.318    91318543.004  
  20814525.336   109381069.050    20814520.297    85231979.353    20814519.635  
                                
  20584294.304   108171196.797    20584292.553    84289231.859    20584291.766  
  20584289.426    80777173.820  
  21648301.023   113762590.094    21648298.557    88646158.703    21648298.307  
  21648297.843    84952568.164  
  22777051.752   119694216.370                    93268194.943    22777046.499  
                                
  22445236.379   117950517.089    22445233.841    91909477.143    22445233.109  
  22445232.555    88079910.527  
  23022284.061   120982918.833    23022281.827    94272393.721    23022281.202  
  23022280.398    90344373.216  
  22585307.057   120731411.084                    93902236.158    22585313.651  
                                
  21880857.923   116760447.807                    90813694.084    21880860.371  
                                
  21608114.502   115426667.331                    89776308.866    21608116.932  
                                
  20205531.772   108123882.159                    84096357.062    20205533.040  
                                
  21409797.795   114286958.720                    88889863.012    21409799.797  
                                
 21  8 31  6 49 26.0000000  0 12G 4G 7G 8G 9G21G27G30R 1R 2R12R21R22
  23271202.660   122290994.410    23271199.265    95291668.798    23271198.961  
  23271201.802    91321193.802  
  20814198.815   109379353.170    20814193.740    85230642.303    20814193.133  
                                
  20584555.853   108172571.181    20584554.084    84290302.808    20584553.280  
  20584550.992    80778200.152  
  21648734.347   113764867.305    21648731.899    88647933.154    21648731.649  
  21648731.184    84954268.683  
  22776635.189   119692027.438                    93266489.275    22776629.954  
                                
  22445817.015   117953568.293    22445814.477    91911854.705    22445813.727  
  22445813.173    88082189.022  
  23021733.874   120980027.474    23021731.604    94270140.710    23021730.979  
  23021730.175    90342214.089  
  22585966.728   120734937.372                    93904978.829    22585973.340  
                                
  21880904.883   116760698.283                    90813888.899    21880907.295  
                                
  21607736.483   115424648.032                    89774738.298    21607738.931  
                                
  20205414.712   108123255.700                    84095869.814    20205415.962  
                                
  21409066.398   114283054.858                    88886826.672    21409068.489  
                                
 21  8 31  6 49 27.0000000  0 12G 4G 7G 8G 9G21G27G30R 1R 2R12R21R22
  23271878.199   122294544.303    23271874.768    95294434.953    23271874.482  
  23271877.341    91323844.694  
  20813872.348   109377637.583    20813867.273    85229305.477    20813866.648  
                                
  20584817.473   108173946.152    20584815.722    84291374.214    20584814.918  
  20584812.648    80779226.916  
  21649167.778   113767144.977    21649165.312    88649707.958    21649165.080  
  21649164.580    84955969.537  
  22776218.698   119689838.809                    93264783.848    22776213.463  
                                
  22446397.722   117956619.823    22446395.167    91914232.518    22446394.417  
  22446393.880    88084467.764  
  23021183.687   120977136.194    23021181.399    94267887.769    23021180.792  
  23021179.988    90340055.014  
  22586626.399   120738463.854                    93907721.646    22586633.046  
                                
  21880951.968   116760949.570                    90814084.342    21880954.380  
                                
  21607358.482   115422628.793                    89773167.781    21607360.912  
                                
  20205297.830   108122630.140                    84095383.267    20205299.063  
                                
  21408335.162   114279151.419                    88883790.669    21408337.253  
                                
 21  8 31  6 49 28.0000000  0 12G 4G 7G 8G 9G21G27G30R 1R 2R12R21R22
  23272553.701   122298094.320    23272550.270    95297201.191    23272550.020  
  23272552.861    91326495.668  
  20813545.935   109375922.245    20813540.860    85227968.853    20813540.234  
                                
  20585079.236   108175321.660    20585077.485    84292446.036    20585076.681  
  20585074.430    80780254.075  
  21649601.299   113769423.068    21649598.815    88651483.092    21649598.583  
  21649598.082    84957670.721  
  22775802.243   119687650.427                    93263078.614    22775797.007  
                                
  22446978.466   117959671.658    22446975.910    91916610.569    22446975.196  
  22446974.642    88086746.731  
  23020633.517   120974244.947    23020631.248    94265634.842    23020630.605  
  23020629.800    90337895.968  
  22587286.123   120741990.528                    93910464.612    22587292.788  
                                
  21880999.213   116761201.661                    90814280.413    21881001.590  
                                
  21606980.498   115420609.584                    89771597.285    21606982.910  
                                
  20205181.092   108122005.443                    84094897.392    20205182.325  
                                
  21407603.962   114275248.323                    88880754.932    21407606.124  
                                
 21  8 31  6 49 29.0000000  0 12G 4G 7G 8G 9G21G27G30R 1R 2R12R21R22
  23273229.204   122301644.277    23273225.827    95299967.382    23273225.541  
  23273228.400    91329146.619  
  20813219.539   109374207.007    20813214.464    85226632.304    20813213.821  
                                
  20585341.071   108176697.544    20585339.284    84293518.156    20585338.498  
  20585336.246    80781281.531  
  21650034.873   113771701.462    21650032.371    88653258.462    21650032.139  
  21650031.638    84959372.116  
  22775385.859   119685462.144                    93261373.452    22775380.587  
                                
  22447559.262   117962723.657    22447556.689    91918988.746    22447555.957  
  22447555.421    88089025.833  
  23020083.312   120971353.614    23020081.007    94263381.856    23020080.382  
  23020079.595    90335736.852  
  22587945.883   120745517.240                    93913207.603    22587952.513  
                                
  21881046.602   116761454.384                    90814476.973    21881048.925  
                                
  21606602.461   115418590.205                    89770026.657    21606604.891  
                                
  20205064.479   108121381.461                    84094412.073    20205065.712  
                                
  21406872.851   114271345.453                    88877719.371    21406874.977  
                                
 21  8 31  6 49 30.0000000  0 12G 4G 7G 8G 9G21G27G30R 1R 2R12R21R22
  23273904.671   122305194.021    23273901.329    95302733.419    23273901.026  
  23273903.849    91331797.382  
  20812893.143   109372491.699    20812888.033    85225295.700    20812887.407  
                                
  20585602.942   108178073.633    20585601.173    84294590.437    20585600.333  
  20585598.135    80782309.122  
  21650468.447   113773979.970    21650465.963    88655033.925    21650465.713  
  21650465.212    84961073.582  
  22774969.421   119683273.829                    93259668.272    22774964.168  
                                
  22448140.059   117965775.639    22448137.450    91921366.916    22448136.753  
  22448136.200    88091304.899  
  23019533.053   120968461.985    23019530.766    94261128.638    23019530.141  
  23019529.337    90333577.512  
  22588605.536   120749043.782                    93915950.472    22588612.237  
                                
  21881094.027   116761707.551                    90814673.881    21881096.367  
                                
  21606224.370   115416570.423                    89768455.717    21606226.747  
                                
  20204947.991   108120758.017                    84093927.174    20204949.206  
                                
  21406141.668   114267442.607                    88874683.825    21406143.884  
                                
 21  8 31  6 49 31.0000000  0 12G 4G 7G 8G 9G21G27G30R 1R 2R12R21R22
  23274580.174   122308743.929    23274576.850    95305499.574    23274576.546  
  23274579.369    91334448.307  
  20812566.784   109370776.731    20812561.673    85223959.364    20812561.048  
                                
  20585864.919   108179450.323    20585863.150    84295663.183    20585862.311  
  20585860.113    80783337.172  
  21650902.128   113776258.963    21650899.626    88656809.759    21650899.358  
  21650898.858    84962775.436  
  22774553.073   119681085.843                    93257963.352    22774547.837  
                                
  22448720.910   117968827.991    22448718.301    91923745.372    22448717.604  
  22448717.068    88093584.266  
  23018982.831   120965570.473    23018980.525    94258875.512    23018979.882  
  23018979.114    90331418.277  
  22589265.260   120752570.589                    93918693.547    22589271.997  
                                
  21881141.630   116761961.555                    90814871.440    21881143.970  
                                
  21605846.280   115414550.677                    89766884.799    21605848.638  
                                
  20204831.681   108120135.544                    84093443.028    20204832.878  
                                
  21405410.664   114263540.212                    88871648.635    21405412.862  
                                
 21  8 31  6 49 32.0000000  0 12G 4G 7G 8G 9G21G27G30R 1R 2R12R21R22
  23275255.730   122312294.016    23275252.388    95308265.871    23275252.120  
  23275254.908    91337099.337  
  20812240.495   109369062.056    20812235.367    85222623.253    20812234.759  
                                
  20586127.022   108180827.630    20586125.235    84296736.409    20586124.378  
  20586122.215    80784365.685  
  21651335.898   113778538.437    21651333.414    88658585.968    21651333.111  
  21651332.628    84964477.640  
  22774136.760   119678898.156                    93256258.672    22774131.543  
                                
  22449301.832   117971880.724    22449299.241    91926124.130    22449298.508  
  22449297.990    88095863.896  
  23018432.625   120962679.071    23018430.302    94256622.469    23018429.659  
  23018428.873    90329259.104  
  22589925.021   120756097.657                    93921436.821    22589931.811  
                                
  21881189.358   116762216.391                    90815069.640    21881191.699  
                                
  21605468.189   115412530.976                    89765313.918    21605470.548  
                                
  20204715.515   108119514.000                    84092959.603    20204716.730  
                                
  21404679.714   114259638.266                    88868613.791    21404681.930  
                                
 21  8 31  6 49 33.0000000  0 12G 4G 7G 8G 9G21G27G30R 1R 2R12R21R22
  23275931.322   122315844.273    23275927.980    95311032.307    23275927.694  
  23275930.482    91339750.494  
  20811914.260   109367347.681    20811909.132    85221287.374    20811908.525  
                                
  20586389.214   108182205.512    20586387.428    84297810.081    20586386.570  
  20586384.443    80785394.614  
  21651769.776   113780818.438    21651767.256    88660362.586    21651766.988  
  21651766.488    84966180.226  
  22773720.537   119676710.815                    93254554.253    22773715.302  
                                
  22449882.825   117974933.821    22449880.234    91928503.166    22449879.501  
  22449878.983    88098143.803  
  23017882.420   120959787.758    23017880.133    94254369.492    23017879.472  
  23017878.668    90327100.000  
  22590584.781   120759624.912                    93924180.237    22590591.642  
                                
  21881237.265   116762472.063                    90815268.497    21881239.623  
                                
  21605090.116   115410511.376                    89763743.111    21605092.457  
                                
  20204599.509   108118893.374                    84092476.891    20204600.760  
                                
  21403948.889   114255736.750                    88865579.278    21403951.087  
                                
 21  8 31  6 49 34.0000000  0 12G 4G 7G 8G 9G21G27G30R 1R 2R12R21R22
  23276606.950   122319394.765    23276603.608    95313798.922    23276603.322  
  23276606.092    91342401.844  
  20811588.133   109365633.740    20811582.987    85219951.838    20811582.379  
                                
  20586651.567   108183584.092    20586649.763    84298884.295    20586648.905  
  20586646.779    80786424.073  
  21652203.743   113783098.986    21652201.224    88662139.638    21652200.938  
  21652200.437    84967883.237  
  22773304.368   119674523.903                    93252850.172    22773299.132  
                                
  22450463.890   117977987.364    22450461.299    91930882.548    22450460.566  
  22450460.066    88100424.049  
  23017332.251   120956896.634    23017329.964    94252116.667    23017329.303  
  23017328.516    90324941.046  
  22591244.719   120763152.543                    93926923.948    22591251.545  
                                
  21881285.368   116762728.678                    90815468.089    21881287.727  
                                
  21604712.079   115408491.937                    89762172.439    21604714.402  
                                
  20204483.718   108118273.769                    84091994.981    20204484.968  
                                
  21403218.082   114251835.755                    88862545.178    21403220.333  
                                
 21  8 31  6 49 35.0000000  0 12G 4G 7G 8G 9G21G27G30R 1R 2R12R21R22
  23277282.631   122322945.670    23277279.325    95316565.870    23277279.057  
  23277281.773    91345053.488  
  20811262.077   109363920.330    20811256.913    85218616.714    20811256.341  
                                
  20586914.063   108184963.530    20586912.259    84299959.181    20586911.383  
  20586909.292    80787454.170  
  21652637.871   113785380.276    21652635.351    88663917.269    21652635.048  
  21652634.530    84969586.793  
  22772888.305   119672337.501                    93251146.487    22772883.088  
                                
  22451045.062   117981041.506    22451042.489    91933262.401    22451041.756  
  22451041.274    88102704.746  
  23016782.171   120954005.845    23016779.848    94249864.106    23016779.187  
  23016778.401    90322782.353  
  22591904.730   120766680.596                    93929667.987    22591911.520  
                                
  21881333.632   116762986.359                    90815668.510    21881336.045  
                                
  21604334.096   115406472.757                    89760601.968    21604336.383  
                                
  20204368.141   108117655.336                    84091513.980    20204369.392  
                                
  21402487.453   114247935.398                    88859511.574    21402489.669  
                                
 21  8 31  6 49 36.0000000  0 12G 4G 7G 8G 9G21G27G30R 1R 2R12R21R22
  23277958.402   122326496.846    23277955.078    95319333.016    23277954.810  
  23277957.526    91347705.340  
  20810936.092   109362207.343    20810930.928    85217281.919    20810930.356  
                                
  20587176.702   108186343.689    20587174.897    84301034.630    20587174.022  
  20587171.949    80788484.819  
  21653072.088   113787662.127    21653069.569    88665695.334    21653069.247  
  21653068.729    84971290.792  
  22772472.332   119670151.545                    93249443.136    22772467.115  
                                
  22451626.359   117984096.137    22451623.750    91935642.636    22451623.053  
  22451622.571    88104985.797  
  23016232.109   120951115.281    23016229.804    94247611.724    23016229.143  
  23016228.356    90320623.815  
  22592564.811   120770209.027                    93932412.320    22592571.566  
                                
  21881382.093   116763244.973                    90815869.651    21881384.523  
                                
  21603956.112   115404453.700                    89759031.593    21603958.418  
                                
  20204252.778   108117037.981                    84091033.817    20204254.029  
                                
  21401756.860   114244035.578                    88856478.390    21401759.129  
                                
 21  8 31  6 49 37.0000000  0 12G 4G 7G 8G 9G21G27G30R 1R 2R12R21R22
  23278634.154   122330047.972    23278630.831    95322100.120    23278630.545  
  23278633.279    91350357.167  
  20810610.161   109360494.470    20810604.997    85215947.213    20810604.407  
                                
  20587439.413   108187724.238    20587437.626    84302110.383    20587436.714  
  20587434.659    80789515.740  
  21653506.377   113789944.294    21653503.875    88667473.651    21653503.536  
  21653503.000    84972994.997  
  22772056.359   119667965.713                    93247739.887    22772051.177  
                                
  22452207.656   117987150.928    22452205.065    91938022.992    22452204.369  
  22452203.886    88107266.967  
  23015682.029   120948224.591    23015679.706    94245359.238    23015679.027  
  23015678.258    90318465.187  
  22593224.893   120773737.474                    93935156.660    22593231.630  
                                
  21881430.661   116763504.231                    90816071.296    21881433.127  
                                
  21603578.129   115402434.491                    89757461.097    21603580.398  
                                
  20204137.541   108116421.365                    84090554.234    20204138.792  
                                
  21401026.374   114240135.963                    88853445.361    21401028.626  
                                
 21  8 31  6 49 38.0000000  0 12G 4G 7G 8G 9G21G27G30R 1R 2R12R21R22
  23279309.961   122333599.341    23279306.619    95324867.425    23279306.369  
  23279309.050    91353009.149  
  20810284.284   109358781.964    20810279.138    85214612.792    20810278.512  
                                
  20587702.248   108189105.439    20587700.461    84303186.643    20587699.532  
  20587697.513    80790547.163  
  21653940.755   113792227.010    21653938.271    88669252.393    21653937.878  
  21653937.378    84974699.627  
  22771640.494   119665780.273                    93246036.950    22771635.312  
                                
  22452789.043   117990206.128    22452786.452    91940403.668    22452785.737  
  22452785.290    88109548.455  
  23015131.967   120945334.098    23015129.644    94243106.908    23015128.965  
  23015128.214    90316306.687  
  22593885.064   120777266.233                    93937901.249    22593891.711  
                                
  21881479.390   116763764.403                    90816273.657    21881481.892  
                                
  21603200.146   115400415.431                    89755890.721    21603202.415  
                                
  20204022.500   108115805.741                    84090075.415    20204023.751  
                                
  21400295.907   114236236.927                    88850412.779    21400298.247  
                                
 21  8 31  6 49 39.0000000  0 12G 4G 7G 8G 9G21G27G30R 1R 2R12R21R22
  23279985.785   122337150.807    23279982.444    95327634.799    23279982.176  
  23279984.856    91355661.231  
  20809958.460   109357069.743    20809953.296    85213278.592    20809952.671  
                                
  20587965.191   108190487.209    20587963.386    84304263.347    20587962.493  
  20587960.455    80791578.991  
  21654375.223   113794510.164    21654372.739    88671031.479    21654372.346  
  21654371.827    84976404.580  
  22771224.681   119663595.130                    93244334.244    22771219.464  
                                
  22453370.501   117993261.676    22453367.910    91942784.616    22453367.195  
  22453366.766    88111830.193  
  23014581.940   120942443.642    23014579.599    94240854.610    23014578.920  
  23014578.188    90314148.232  
  22594545.271   120780795.202                    93940646.002    22594551.882  
                                
  21881528.315   116764025.368                    90816476.632    21881530.817  
                                
  21602822.198   115398396.404                    89754320.364    21602824.414  
                                
  20203907.620   108115190.980                    84089597.272    20203908.871  
                                
  21399565.564   114232338.237                    88847380.469    21399567.869  
                                
 21  8 31  6 49 40.0000000  0 12G 4G 7G 8G 9G21G27G30R 1R 2R12R21R22
  23280661.610   122340702.279    23280658.250    95330402.175    23280657.964  
  23280660.663    91358313.293  
  20809632.654   109355357.630    20809627.508    85211944.480    20809626.865  
                                
  20588228.205   108191869.364    20588226.400    84305340.353    20588225.489  
  20588223.505    80792611.140  
  21654809.761   113796793.623    21654807.260    88672810.799    21654806.867  
  21654806.348    84978109.769  
  22770808.887   119661410.096                    93242631.622    22770803.652  
                                
  22453951.995   117996317.384    22453949.368    91945165.692    22453948.671  
  22453948.278    88114112.058  
  23014031.878   120939553.108    23014029.555    94238602.245    23014028.876  
  23014028.144    90311989.725  
  22595205.442   120784324.201                    93943390.786    22595212.036  
                                
  21881577.312   116764286.989                    90816680.119    21881579.850  
                                
  21602444.196   115396377.204                    89752749.880    21602446.394  
                                
  20203792.848   108114576.924                    84089119.674    20203794.134  
                                
  21398835.239   114228439.785                    88844348.347    21398837.598  
                                
 21  8 31  6 49 41.0000000  0 12G 4G 7G 8G 9G21G27G30R 1R 2R12R21R22
  23281337.452   122344253.745    23281334.110    95333169.558    23281333.806  
  23281336.469    91360965.370  
  20809306.884   109353645.702    20809301.720    85210610.513    20809301.112  
                                
  20588491.308   108193251.997    20588489.521    84306417.732    20588488.592  
  20588486.627    80793643.619  
  21655244.354   113799077.430    21655241.852    88674590.392    21655241.441  
  21655240.923    84979815.207  
  22770393.111   119659225.256                    93240929.153    22770387.875  
                                
  22454533.524   117999373.334    22454530.897    91947546.954    22454530.201  
  22454529.825    88116394.089  
  23013481.798   120936662.530    23013479.493    94236349.849    23013478.814  
  23013478.064    90309831.174  
  22595865.577   120787853.349                    93946135.681    22595872.242  
                                
  21881626.416   116764549.274                    90816884.119    21881629.025  
                                
  21602066.195   115394357.932                    89751179.335    21602068.393  
                                
  20203678.271   108113963.708                    84088642.735    20203679.540  
                                
  21398104.986   114224541.628                    88841316.447    21398107.344  
                                
 21  8 31  6 49 42.0000000  0 12G 4G 7G 8G 9G21G27G30R 1R 2R12R21R22
  23282013.348   122347805.572    23282009.988    95335937.220    23282009.720  
  23282012.329    91363617.709  
  20808981.203   109351934.265    20808976.057    85209276.925    20808975.414  
                                
  20588754.573   108194635.404    20588752.768    84307495.712    20588751.839  
  20588749.891    80794676.680  
  21655679.072   113801361.913    21655676.570    88676370.509    21655676.141  
  21655675.623    84981521.146  
  22769977.424   119657040.908                    93239227.057    22769972.206  
                                
  22455115.143   118002429.817    22455112.534    91949928.624    22455111.837  
  22455111.480    88118676.519  
  23012931.808   120933772.253    23012929.485    94234097.679    23012928.788  
  23012928.073    90307672.849  
  22596525.873   120791382.908                    93948880.894    22596532.503  
                                
  21881675.788   116764812.584                    90817088.913    21881678.379  
                                
  21601688.212   115392338.899                    89749608.974    21601690.392  
                                
  20203563.874   108113351.646                    84088166.684    20203565.161  
                                
  21397374.840   114220644.091                    88838285.029    21397377.198  
                                
 21  8 31  6 49 43.0000000  0 12G 4G 7G 8G 9G21G27G30R 1R 2R12R21R22
  23282689.297   122351357.631    23282685.938    95338705.063    23282685.670  
  23282688.261    91366270.218  
  20808655.612   109350223.197    20808650.430    85207943.625    20808649.787  
                                
  20589017.926   108196019.454    20589016.139    84308574.190    20589015.210  
  20589013.298    80795710.224  
  21656113.896   113803646.953    21656111.395    88678151.053    21656110.966  
  21656110.430    84983227.516  
  22769561.844   119654856.953                    93237525.272    22769556.644  
                                
  22455696.869   118005486.732    22455694.242    91952310.634    22455693.545  
  22455693.188    88120959.286  
  23012381.835   120930882.139    23012379.494    94231845.641    23012378.797  
  23012378.100    90305514.642  
  22597186.169   120794912.749                    93951626.323    22597192.817  
                                
  21881725.286   116765076.788                    90817294.403    21881727.894  
                                
  21601310.282   115390319.955                    89748038.682    21601312.444  
                                
  20203449.691   108112740.564                    84087691.398    20203450.977  
                                
  21396644.854   114216747.031                    88835253.980    21396647.159  
                                
 21  8 31  6 49 44.0000000  0 12G 4G 7G 8G 9G21G27G30R 1R 2R12R21R22
  23283365.228   122354909.687    23283361.887    95341472.898    23283361.619  
  23283364.192    91368922.741  
  20808330.038   109348512.290    20808324.856    85206610.449    20808324.213  
                                
  20589281.405   108197403.968    20589279.600    84309653.034    20589278.671  
  20589276.759    80796744.119  
  21656548.793   113805932.325    21656546.291    88679931.866    21656545.862  
  21656545.308    84984934.120  
  22769146.282   119652673.184                    93235823.638    22769141.046  
                                
  22456278.613   118008543.863    22456276.004    91954692.807    22456275.289  
  22456274.986    88123242.214  
  23011831.844   120927991.953    23011829.485    94229593.551    23011828.824  
  23011828.109    90303356.397  
  22597846.537   120798442.673                    93954371.822    22597853.167  
                                
  21881774.908   116765341.644                    90817500.400    21881777.535  
                                
  21600932.334   115388300.898                    89746468.304    21600934.461  
                                
  20203335.615   108112130.234                    84087216.697    20203336.919  
                                
  21395914.869   114212850.275                    88832223.166    21395917.156  
                                
 21  8 31  6 49 45.0000000  0 12G 4G 7G 8G 9G21G27G30R 1R 2R12R21R22
  23284041.196   122358461.810    23284037.836    95344240.784    23284037.550  
  23284040.124    91371575.294  
  20808004.536   109346801.589    20807999.318    85205277.435    20807998.693  
                                
  20589544.955   108198788.981    20589543.151    84310732.263    20589542.221  
  20589540.345    80797778.380  
  21656983.760   113808218.073    21656981.241    88681712.964    21656980.794  
  21656980.258    84986641.007  
  22768730.773   119650489.620                    93234122.162    22768725.520  
                                
  22456860.410   118011601.242    22456857.802    91957075.182    22456857.087  
  22456856.783    88125525.319  
  23011281.889   120925101.759    23011279.495    94227341.449    23011278.834  
  23011278.119    90301198.138  
  22598506.940   120801972.710                    93957117.411    22598513.516  
                                
  21881824.655   116765607.237                    90817706.975    21881827.318  
                                
  21600554.333   115386281.757                    89744897.864    21600556.459  
                                
  20203221.700   108111520.703                    84086742.619    20203223.022  
                                
  21395184.973   114208953.793                    88829192.566    21395187.207  
                                
 21  8 31  6 49 46.0000000  0 12G 4G 7G 8G 9G21G27G30R 1R 2R12R21R22
  23284717.145   122362013.916    23284713.786    95347008.652    23284713.500  
  23284716.055    91374227.845  
  20807679.016   109345091.017    20807673.816    85203944.519    20807673.155  
                                
  20589808.595   108200174.410    20589806.790    84311811.823    20589805.861  
  20589803.985    80798812.958  
  21657418.800   113810504.152    21657416.280    88683494.326    21657415.815  
  21657415.279    84988348.144  
  22768315.265   119648306.196                    93232420.789    22768310.012  
                                
  22457442.226   118014658.831    22457439.635    91959457.717    22457438.920  
  22457438.634    88127808.580  
  23010731.863   120922211.507    23010729.504    94225089.305    23010728.825  
  23010728.128    90299039.834  
  22599167.344   120805502.831                    93959863.056    22599173.884  
                                
  21881874.563   116765873.497                    90817914.070    21881877.244  
                                
  21600176.314   115384262.551                    89743327.370    21600178.440  
                                
  20203107.964   108110911.990                    84086269.178    20203109.268  
                                
  21394455.041   114205057.633                    88826162.222    21394457.293  
                                
 21  8 31  6 49 47.0000000  0 12G 4G 7G 8G 9G21G27G30R 1R 2R12R21R22
  23285393.130   122365566.210    23285389.753    95349776.671    23285389.503  
  23285392.040    91376880.527  
  20807353.550   109343380.791    20807348.350    85202611.885    20807347.707  
                                
  20590072.342   108201560.456    20590070.555    84312891.858    20590069.608  
  20590067.749    80799847.979  
  21657853.910   113812790.733    21657851.391    88685276.080    21657850.944  
  21657850.390    84990055.650  
  22767899.846   119646123.122                    93230719.687    22767894.557  
                                
  22458024.131   118017716.788    22458021.540    91961840.541    22458020.825  
  22458020.557    88130092.116  
  23010181.890   120919321.383    23010179.531    94222837.258    23010178.870  
  23010178.137    90296881.610  
  22599827.747   120809033.206                    93962608.903    22599834.305  
                                
  21881924.597   116766140.606                    90818121.827    21881927.295  
                                
  21599798.312   115382243.434                    89741756.944    21599800.421  
                                
  20202994.406   108110304.240                    84085796.481    20202995.710  
                                
  21393725.270   114201161.894                    88823132.200    21393727.486  
                                
 21  8 31  6 49 48.0000000  0 12G 4G 7G 8G 9G21G27G30R 1R 2R12R21R22
  23286069.169   122369118.706    23286065.792    95352544.852    23286065.524  
  23286068.061    91379533.367  
  20807028.208   109341670.940    20807023.009    85201279.545    20807022.347  
                                
  20590336.214   108202947.130    20590334.427    84313972.381    20590333.480  
  20590331.639    80800883.491  
  21658289.146   113815077.827    21658286.627    88687058.227    21658286.180  
  21658285.590    84991763.558  
  22767484.481   119643940.400                    93229018.874    22767479.156  
                                
  22458606.107   118020775.167    22458603.552    91964223.691    22458602.819  
  22458602.587    88132375.971  
  23009631.953   120916431.395    23009629.594    94220585.319    23009628.933  
  23009628.183    90294723.510  
  22600488.240   120812563.852                    93965354.962    22600494.744  
                                
  21881974.809   116766408.630                    90818330.292    21881977.525  
                                
  21599420.347   115380224.410                    89740186.589    21599422.455  
                                
  20202881.009   108109697.469                    84085324.546    20202882.314  
                                
  21392995.607   114197266.649                    88820102.563    21392997.751  
                                
 21  8 31  6 49 49.0000000  0 12G 4G 7G 8G 9G21G27G30R 1R 2R12R21R22
  23286745.279   122372671.589    23286741.902    95355313.339    23286741.616  
  23286744.154    91382186.488  
  20806702.921   109339961.607    20806697.721    85199947.601    20806697.078  
                                
  20590600.246   108204334.639    20590598.459    84315053.553    20590597.512  
  20590595.690    80801919.616  
  21658724.489   113817365.650    21658721.970    88688840.946    21658721.523  
  21658720.933    84993471.990  
  22767069.222   119641758.248                    93227318.500    22767063.897  
                                
  22459188.208   118023834.139    22459185.653    91966607.307    22459184.920  
  22459184.724    88134660.261  
  23009082.069   120913541.743    23009079.693    94218333.640    23009079.032  
  23009078.317    90292565.650  
  22601148.804   120816094.946                    93968101.368    22601155.273  
                                
  21882025.235   116766677.736                    90818539.596    21882027.969  
                                
  21599042.417   115378205.621                    89738616.423    21599044.526  
                                
  20202767.809   108109091.852                    84084853.511    20202769.149  
                                
  21392266.050   114193372.105                    88817073.469    21392268.159  
                                
 21  8 31  6 49 50.0000000  0 12G 4G 7G 8G 9G21G27G30R 1R 2R12R21R22
  23287421.425   122376224.757    23287418.066    95358082.046    23287417.762  
  23287420.299    91384839.830  
  20806377.740   109338252.725    20806372.540    85198616.007    20806371.897  
                                
  20590864.440   108205722.880    20590862.635    84316135.301    20590861.688  
  20590859.901    80802956.287  
  21659159.975   113819654.085    21659157.438    88690624.142    21659157.009  
  21659156.401    84995180.887  
  22766654.053   119639576.547                    93225618.473    22766648.711  
                                
  22459770.381   118026893.580    22459767.826    91968991.285    22459767.111  
  22459766.932    88136944.905  
  23008532.222   120910652.312    23008529.863    94216082.133    23008529.184  
  23008528.469    90290407.949  
  22601809.458   120819626.455                    93970848.095    22601815.890  
                                
  21882075.840   116766947.789                    90818749.640    21882078.610  
                                
  21598664.505   115376186.979                    89737046.365    21598666.614  
                                
  20202654.841   108108487.287                    84084383.291    20202656.181  
                                
  21391536.583   114189478.032                    88814044.745    21391538.656  
                                
 21  8 31  6 49 51.0000000  0 12G 4G 7G 8G 9G21G27G30R 1R 2R12R21R22
  23288097.607   122379778.110    23288094.248    95360850.897    23288093.980  
  23288096.499    91387493.312  
  20806052.613   109336544.177    20806047.396    85197284.667    20806046.770  
                                
  20591128.723   108207111.725    20591126.918    84317217.516    20591125.971  
  20591124.184    80803993.409  
  21659595.550   113821943.022    21659593.031    88692407.727    21659592.566  
  21659591.977    84996890.151  
  22766238.956   119637395.189                    93223918.707    22766233.613  
                                
  22460352.643   118029953.411    22460350.106    91971375.567    22460349.373  
  22460349.230    88139229.839  
  23007982.410   120907763.002    23007980.051    94213830.720    23007979.372  
  23007978.657    90288250.344  
  22602470.200   120823158.194                    93973594.996    22602476.562  
                                
  21882126.606   116767218.709                    90818960.354    21882129.393  
                                
  21598286.629   115374168.396                    89735476.352    21598288.719  
                                
  20202542.034   108107883.657                    84083913.799    20202543.374  
                                
  21390807.187   114185584.486                    88811016.425    21390809.207  
                                
 21  8 31  6 49 52.0000000  0 12G 4G 7G 8G 9G21G27G30R 1R 2R12R21R22
  23288773.824   122383331.501    23288770.465    95363619.769    23288770.161  
  23288772.699    91390146.821  
  20805727.522   109334835.815    20805722.322    85195953.473    20805721.661  
                                
  20591393.095   108208501.057    20591391.308    84318300.112    20591390.343  
  20591388.592    80805030.893  
  21660031.179   113824232.338    21660028.660    88694191.610    21660028.213  
  21660027.605    84998599.703  
  22765823.894   119635214.029                    93222219.106    22765818.516  
                                
  22460934.959   118033013.484    22460932.439    91973760.037    22460931.689  
  22460931.546    88141514.956  
  23007432.598   120904873.662    23007430.239    94211579.284    23007429.542  
  23007428.845    90286092.733  
  22603130.943   120826690.040                    93976341.983    22603137.215  
                                
  21882177.515   116767490.327                    90819171.610    21882180.302  
                                
  21597908.735   115372149.760                    89733906.299    21597910.808  
                                
  20202429.388   108107280.852                    84083444.948    20202430.728  
                                
  21390077.917   114181691.247                    88807988.343    21390079.829  
                                
 21  8 31  6 49 53.0000000  0 12G 4G 7G 8G 9G21G27G30R 1R 2R12R21R22
  23289450.078   122386885.203    23289446.700    95366388.888    23289446.432  
  23289448.952    91392800.555  
  20805402.538   109333127.910    20805397.321    85194622.634    20805396.642  
                                
  20591657.610   108209891.103    20591655.823    84319383.267    20591654.858  
  20591653.125    80806068.916  
  21660466.951   113826522.273    21660464.396    88695975.972    21660463.985  
  21660463.359    85000309.715  
  22765408.922   119633033.326                    93220519.857    22765403.543  
                                
  22461517.346   118036074.060    22461514.844    91976144.900    22461514.129  
  22461513.987    88143800.447  
  23006882.839   120901984.574    23006880.463    94209328.044    23006879.766  
  23006879.069    90283935.300  
  22603791.775   120830222.284                    93979089.286    22603797.994  
                                
  21882228.567   116767762.889                    90819383.600    21882231.408  
                                
  21597530.894   115370131.350                    89732336.422    21597532.949  
                                
  20202316.938   108106679.152                    84082976.960    20202318.296  
                                
  21389348.664   114177798.539                    88804960.682    21389350.558  
                                
 21  8 31  6 49 54.0000000  0 12G 4G 7G 8G 9G21G27G30R 1R 2R12R21R22
  23290126.331   122390438.902    23290122.971    95369158.004    23290122.739  
  23290125.205    91395454.282  
  20805077.554   109331420.152    20805072.337    85193291.913    20805071.676  
                                
  20591922.214   108211281.582    20591920.410    84320466.757    20591919.480  
  20591917.711    80807107.264  
  21660902.777   113828812.525    21660900.203    88697760.582    21660899.792  
  21660899.167    85002019.970  
  22764994.021   119630852.799                    93218820.741    22764988.607  
                                
  22462099.769   118039134.813    22462097.267    91978529.902    22462096.552  
  22462096.427    88146086.083  
  23006333.063   120899095.436    23006330.669    94207076.768    23006329.990  
  23006329.293    90281777.814  
  22604452.572   120833754.572                    93981836.623    22604458.755  
                                
  21882279.779   116768036.137                    90819596.121    21882282.620  
                                
  21597153.018   115368112.842                    89730766.474    21597155.073  
                                
  20202204.667   108106078.212                    84082509.564    20202205.989  
                                
  21388619.519   114173906.103                    88801933.231    21388621.341  
                                
 21  8 31  6 49 55.0000000  0 12G 4G 7G 8G 9G21G27G30R 1R 2R12R21R22
  23290802.584   122393992.649    23290799.225    95371927.159    23290799.028  
  23290801.458    91398108.069  
  20804752.642   109329712.611    20804747.406    85191961.362    20804746.745  
                                
  20592186.908   108212672.549    20592185.103    84321550.627    20592184.139  
  20592182.423    80808145.973  
  21661338.656   113831103.164    21661336.100    88699545.496    21661335.672  
  21661335.064    85003730.519  
  22764579.138   119628672.489                    93217121.800    22764573.706  
                                
  22462682.245   118042195.869    22462679.762    91980915.142    22462679.065  
  22462678.975    88148371.934  
  23005783.287   120896206.299    23005780.893    94204825.495    23005780.196  
  23005779.517    90279620.348  
  22605113.404   120837286.997                    93984584.067    22605119.551  
                                
  21882331.135   116768310.120                    90819809.217    21882333.994  
                                
  21596775.124   115366094.280                    89729196.483    21596777.179  
                                
  20202092.521   108105478.096                    84082042.805    20202093.843  
                                
  21387890.445   114170013.976                    88798906.016    21387892.178  
                                
 21  8 31  6 49 56.0000000  0 12G 4G 7G 8G 9G21G27G30R 1R 2R12R21R22
  23291478.837   122397546.310    23291475.496    95374696.234    23291475.281  
  23291477.711    91400761.762  
  20804427.712   109328005.120    20804422.458    85190630.847    20804421.815  
                                
  20592451.656   108214063.874    20592449.869    84322634.776    20592448.922  
  20592447.206    80809184.940  
  21661774.606   113833394.053    21661772.033    88701330.604    21661771.622  
  21661771.015    85005441.241  
  22764164.255   119626492.223                    93215422.892    22764158.805  
                                
  22463264.758   118045257.000    22463262.292    91983300.439    22463261.577  
  22463261.488    88150657.835  
  23005233.493   120893317.000    23005231.081    94202574.090    23005230.348  
  23005229.687    90277462.743  
  22605774.147   120840819.416                    93987331.507    22605780.383  
                                
  21882382.562   116768584.694                    90820022.772    21882385.492  
                                
  21596397.194   115364075.441                    89727626.277    21596399.249  
                                
  20201980.500   108104878.646                    84081576.568    20201981.804  
                                
  21387161.371   114166122.016                    88795878.930    21387163.050  
                                
 21  8 31  6 49 57.0000000  0 12G 4G 7G 8G 9G21G27G30R 1R 2R12R21R22
  23292155.054   122401099.956    23292151.731    95377465.318    23292151.552  
  23292153.982    91403415.465  
  20804102.817   109326297.770    20804097.581    85189300.445    20804096.938  
                                
  20592716.492   108215455.615    20592714.706    84323719.255    20592713.759  
  20592712.061    80810224.245  
  21662210.610   113835685.226    21662208.055    88703115.933    21662207.626  
  21662207.001    85007152.185  
  22763749.426   119624312.121                    93213724.123    22763743.958  
                                
  22463847.306   118048318.340    22463844.858    91985685.899    22463844.143  
  22463844.071    88152943.903  
  23004683.645   120890427.630    23004681.233    94200322.631    23004680.518  
  23004679.875    90275305.106  
  22606434.979   120844351.878                    93990078.974    22606441.162  
                                
  21882434.150   116768859.950                    90820236.858    21882437.080  
                                
  21596019.211   115362056.476                    89726055.978    21596021.283  
                                
  20201868.622   108104279.968                    84081110.932    20201869.962  
                                
  21386432.350   114162230.357                    88792852.079    21386433.994  
                                
 21  8 31  6 49 58.0000000  0 12G 4G 7G 8G 9G21G27G30R 1R 2R12R21R22
  23292831.343   122404653.878    23292828.056    95380234.601    23292827.895  
  23292830.289    91406069.364  
  20803777.994   109324590.834    20803772.758    85187970.367    20803772.097  
                                
  20592981.472   108216848.052    20592979.667    84324804.273    20592978.738  
  20592977.041    80811264.056  
  21662646.740   113837977.001    21662644.131    88704901.732    21662643.720  
  21662643.112    85008863.577  
  22763334.650   119622132.475                    93212025.694    22763329.236  
                                
  22464429.925   118051380.129    22464427.513    91988071.711    22464426.798  
  22464426.709    88155230.314  
  23004133.869   120887538.466    23004131.457    94198071.335    23004130.724  
  23004130.081    90273147.616  
  22607095.847   120847884.682                    93992826.711    22607102.030  
                                
  21882485.880   116769136.153                    90820451.683    21882488.882  
                                
  21595641.281   115360037.711                    89724485.828    21595643.371  
                                
  20201756.958   108103682.326                    84080646.100    20201758.263  
                                
  21385703.455   114158339.229                    88789825.639    21385705.045  
                                
 21  8 31  6 49 59.0000000  0 12G 4G 7G 8G 9G21G27G30R 1R 2R12R21R22
  23293507.686   122408207.944    23293504.398    95383003.999    23293504.237  
  23293506.614    91408723.381  
  20803453.242   109322884.226    20803448.007    85186640.545    20803447.346  
                                
  20593246.559   108218241.099    20593244.754    84325889.766    20593243.807  
  20593242.128    80812304.312  
  21663082.940   113840269.284    21663080.349    88706687.929    21663079.920  
  21663079.331    85010575.353  
  22762919.946   119619953.133                    93210327.499    22762914.496  
                                
  22465012.634   118054442.296    22465010.222    91990457.813    22465009.525  
  22465009.453    88157516.985  
  23003584.075   120884649.396    23003581.680    94195820.116    23003580.930  
  23003580.322    90270990.198  
  22607756.769   120851417.746                    93995574.655    22607762.987  
                                
  21882537.790   116769413.218                    90820667.180    21882540.810  
                                
  21595263.387   115358019.042                    89722915.754    21595265.459  
                                
  20201645.438   108103085.608                    84080181.988    20201646.742  
                                
  21384974.577   114154448.569                    88786799.568    21384976.150  
                                
 21  8 31  6 50  0.0000000  0 12G 4G 7G 8G 9G21G27G30R 1R 2R12R21R22
  23294184.011   122411762.151    23294180.741    95385773.513    23294180.580  
  23294182.992    91411377.490  
  20803128.544   109321177.903    20803123.309    85185310.942    20803122.648  
                                
  20593511.771   108219634.722    20593509.966    84326975.708    20593509.002  
  20593507.340    80813344.997  
  21663519.248   113842562.012    21663516.639    88708474.473    21663516.228  
  21663515.621    85012287.456  
  22762505.295   119617774.094                    93208629.547    22762499.827  
                                
  22465595.396   118057504.798    22465593.020    91992844.183    22465592.305  
  22465592.234    88159803.922  
  23003034.317   120881760.432    23003031.922    94193568.975    23003031.172  
  23003030.564    90268832.836  
  22608417.708   120854950.990                    93998322.733    22608423.927  
                                
  21882589.860   116769691.114                    90820883.321    21882592.934  
                                
  21594885.475   115356000.343                    89721345.657    21594887.512  
                                
  20201534.096   108102489.792                    84079718.578    20201535.382  
                                
  21384245.843   114150558.329                    88783773.830    21384247.380  
                                
 21  8 31  6 50  1.0000000  0 12G 4G 7G 8G 9G21G27G30R 1R 2R12R21R22
  23294860.407   122415316.631    23294857.155    95388543.233    23294856.994  
  23294859.406    91414031.805  
  20802803.936   109319471.997    20802798.664    85183981.665    20802798.039  
                                
  20593777.090   108221029.028    20593775.286    84328062.178    20593774.339  
  20593772.677    80814386.202  
  21663955.628   113844855.328    21663953.055    88710261.469    21663952.626  
  21663952.036    85013999.988  
  22762090.752   119615595.474                    93206931.928    22762085.266  
                                
  22466178.248   118060567.766    22466175.907    91995230.909    22466175.175  
  22466175.121    88162091.204  
  23002484.612   120878871.649    23002482.217    94191317.975    23002481.449  
  23002480.859    90266675.640  
  22609078.719   120858484.591                    94001071.090    22609084.937  
                                
  21882642.145   116769969.961                    90821100.197    21882645.219  
                                
  21594507.563   115353981.772                    89719775.655    21594509.618  
                                
  20201422.968   108101895.046                    84079255.997    20201424.237  
                                
  21383517.198   114146668.566                    88780748.457    21383518.645  
                                
 21  8 31  6 50  2.0000000  0 12G 4G 7G 8G 9G21G27G30R 1R 2R12R21R22
  23295536.856   122418871.381    23295533.622    95391313.166    23295533.479  
  23295535.874    91416686.315  
  20802479.381   109317766.510    20802474.145    85182652.716    20802473.502  
                                
  20594042.553   108222424.020    20594040.730    84329149.186    20594039.801  
  20594038.139    80815427.915  
  21664392.168   113847149.250    21664389.559    88712048.939    21664389.148  
  21664388.558    85015712.975  
  22761676.280   119613417.298                    93205234.652    22761670.776  
                                
  22466761.207   118063631.210    22466758.849    91997618.008    22466758.152  
  22466758.080    88164378.827  
  23001934.925   120875983.084    23001932.548    94189067.141    23001931.780  
  23001931.155    90264518.585  
  22609739.801   120862018.515                    94003819.697    22609746.038  
                                
  21882694.573   116770249.758                    90821317.813    21882697.664  
                                
  21594129.687   115351963.350                    89718205.770    21594131.759  
                                
  20201312.020   108101301.361                    84078794.244    20201313.288  
                                
  21382788.642   114142779.381                    88777723.538    21382790.054  
                                
 21  8 31  6 50  3.0000000  0 12G 4G 7G 8G 9G21G27G30R 1R 2R12R21R22
  23296213.342   122422426.336    23296210.125    95394083.254    23296209.965  
  23296212.377    91419340.985  
  20802154.897   109316061.366    20802149.661    85181324.031    20802149.018  
                                
  20594308.122   108223819.644    20594306.335    84330236.680    20594305.370  
  20594303.726    80816470.106  
  21664828.780   113849443.681    21664826.171    88713836.807    21664825.760  
  21664825.188    85017426.358  
  22761261.861   119611239.491                    93203537.660    22761256.322  
                                
  22467344.220   118066695.059    22467341.915    92000005.418    22467341.182  
  22467341.129    88166666.769  
  23001385.292   120873094.659    23001382.897    94186816.423    23001382.111  
  23001381.539    90262361.647  
  22610400.955   120865552.686                    94006568.492    22610407.156  
                                
  21882747.179   116770530.434                    90821536.112    21882750.288  
                                
  21593751.864   115349945.036                    89716635.965    21593753.901  
                                
  20201201.250   108100708.625                    84078333.228    20201202.518  
                                
  21382060.140   114138890.629                    88774698.955    21382061.534  
                                
 21  8 31  6 50  4.0000000  0 12G 4G 7G 8G 9G21G27G30R 1R 2R12R21R22
  23296889.881   122425981.587    23296886.700    95396853.577    23296886.539  
  23296888.952    91421995.896  
  20801830.521   109314356.719    20801825.267    85179995.732    20801824.624  
                                
  20594573.852   108225216.066    20594572.048    84331324.799    20594571.083  
  20594569.457    80817512.880  
  21665265.534   113851738.772    21665262.908    88715625.188    21665262.497  
  21665261.925    85019140.213  
  22760847.532   119609062.163                    93201841.027    22760841.975  
                                
  22467927.358   118069759.415    22467925.035    92002393.221    22467924.338  
  22467924.266    88168955.085  
  23000835.676   120870206.484    23000833.300    94184565.890    23000832.496  
  23000831.924    90260204.904  
  22611062.181   120869087.327                    94009317.659    22611068.363  
                                
  21882799.964   116770812.093                    90821755.173    21882803.109  
                                
  21593374.059   115347926.984                    89715066.364    21593376.078  
                                
  20201090.694   108100116.978                    84077873.049    20201091.945  
                                
  21381331.763   114135002.499                    88771674.850    21381333.156  
                                
 21  8 31  6 50  5.0000000  0 12G 4G 7G 8G 9G21G27G30R 1R 2R12R21R22
  23297566.456   122429537.000    23297563.293    95399624.020    23297563.132  
  23297565.527    91424650.907  
  20801506.198   109312652.374    20801500.927    85178667.670    20801500.319  
                                
  20594839.672   108226613.060    20594837.885    84332413.363    20594836.920  
  20594835.312    80818556.090  
  21665702.360   113854034.338    21665699.734    88717413.938    21665699.323  
  21665698.787    85020854.428  
  22760433.293   119606885.142                    93200144.636    22760427.682  
                                
  22468510.549   118072824.139    22468508.244    92004781.318    22468507.547  
  22468507.458    88171243.674  
  23000286.061   120867318.426    23000283.720    94182315.455    23000282.934  
  23000282.344    90258048.226  
  22611723.424   120872622.158                    94012066.973    22611729.624  
                                
  21882852.892   116771094.554                    90821974.860    21882856.073  
                                
  21592996.290   115345908.965                    89713496.789    21592998.274  
                                
  20200980.317   108099526.269                    84077413.611    20200981.550  
                                
  21380603.421   114131114.769                    88768651.055    21380604.833  
                                
 21  8 31  6 50  6.0000000  0 12G 4G 7G 8G 9G21G27G30R 1R 2R12R21R22
  23298243.031   122433092.489    23298239.904    95402394.531    23298239.725  
  23298242.119    91427305.987  
  20801181.911   109310948.248    20801176.657    85177339.781    20801176.032  
                                
  20595105.617   108228010.550    20595103.812    84333502.316    20595102.847  
  20595101.239    80819599.670  
  21666139.258   113856330.294    21666136.649    88719202.993    21666136.238  
  21666135.702    85022568.948  
  22760019.089   119604708.366                    93198448.448    22760013.460  
                                
  22469093.776   118075889.132    22469091.489    92007169.619    22469090.792  
  22469090.738    88173532.470  
  22999736.481   120864430.374    22999734.140    94180065.027    22999733.336  
  22999732.782    90255891.564  
  22612384.721   120876157.115                    94014816.386    22612390.903  
                                
  21882905.981   116771377.728                    90822195.104    21882909.162  
                                
  21592618.503   115343890.880                    89711927.166    21592620.469  
                                
  20200870.083   108098936.426                    84076954.842    20200871.316  
                                
  21379875.223   114127227.430                    88765627.571    21379876.599  
                                
 21  8 31  6 50  7.0000000  0 12G 4G 7G 8G 9G21G27G30R 1R 2R12R21R22
  23298919.641   122436648.017    23298916.478    95405165.069    23298916.371  
  23298918.748    91429961.080  
  20800857.660   109309244.311    20800852.406    85176012.037    20800851.781  
                                
  20595371.651   108229408.521    20595369.846    84334591.647    20595368.881  
  20595367.273    80820643.618  
  21666576.227   113858626.624    21666573.618    88720992.338    21666573.207  
  21666572.689    85024283.730  
  22759604.903   119602531.777                    93196752.412    22759599.220  
                                
  22469677.092   118078954.348    22469674.805    92009558.102    22469674.108  
  22469674.037    88175821.433  
  22999186.884   120861542.287    22999184.561    94177814.572    22999183.792  
  22999183.185    90253734.885  
  22613046.017   120879692.185                    94017565.880    22613052.218  
                                
  21882959.177   116771661.598                    90822415.894    21882962.394  
                                
  21592240.681   115341872.677                    89710357.454    21592242.628  
                                
  20200760.028   108098347.379                    84076496.691    20200761.243  
                                
  21379147.114   114123340.317                    88762604.265    21379148.418  
                                
 21  8 31  6 50  8.0000000  0 12G 4G 7G 8G 9G21G27G30R 1R 2R12R21R22
  23299596.252   122440203.574    23299593.107    95407935.633    23299592.964  
  23299595.358    91432616.199  
  20800533.462   109307540.564    20800528.208    85174684.447    20800527.601  
                                
  20595637.738   108230806.956    20595635.933    84335681.334    20595634.986  
  20595633.378    80821687.902  
  21667013.268   113860923.290    21667010.659    88722781.946    21667010.266  
  21667009.748    85025998.784  
  22759190.770   119600355.381                    93195056.526    22759185.088  
                                
  22470260.409   118082019.814    22470258.139    92011946.774    22470257.460  
  22470257.371    88178110.575  
  22998637.268   120858654.183    22998634.981    94175564.099    22998634.195  
  22998633.623    90251578.190  
  22613707.296   120883227.383                    94020315.481    22613713.550  
                                
  21883012.516   116771946.163                    90822637.222    21883015.751  
                                
  21591862.858   115339854.410                    89708787.693    21591864.770  
                                
  20200650.097   108097759.114                    84076039.152    20200651.295  
                                
  21378418.933   114119453.585                    88759581.257    21378420.309  
                                
 21  8 31  6 50  9.0000000  0 12G 4G 7G 8G 9G21G27G30R 1R 2R12R21R22
  23300272.862   122443759.168    23300269.735    95410706.229    23300269.610  
  23300271.987    91435271.351  
  20800209.300   109305837.000    20800204.011    85173356.994    20800203.421  
                                
  20595903.951   108232205.855    20595902.146    84336771.389    20595901.181  
  20595899.573    80822732.538  
  21667450.362   113863220.327    21667447.771    88724571.847    21667447.378  
  21667446.860    85027714.104  
  22758776.655   119598179.209                    93193360.812    22758771.009  
                                
  22470843.797   118085085.494    22470841.545    92014335.618    22470840.830  
  22470840.759    88180399.885  
  22998087.671   120855766.066    22998085.383    94173313.621    22998084.615  
  22998084.025    90249421.466  
  22614368.647   120886762.674                    94023065.157    22614374.865  
                                
  21883065.980   116772231.452                    90822859.116    21883069.233  
                                
  21591485.018   115337836.111                    89707217.907    21591486.929  
                                
  20200540.310   108097171.644                    84075582.238    20200541.507  
                                
  21377690.842   114115567.131                    88756558.464    21377692.218  
                                
 21  8 31  6 50 10.0000000  0 12G 4G 7G 8G 9G21G27G30R 1R 2R12R21R22
  23300949.509   122447314.904    23300946.381    95413476.943    23300946.239  
  23300948.633    91437926.615  
  20799885.174   109304133.758    20799879.920    85172029.793    20799879.295  
                                
  20596170.271   108233605.343    20596168.466    84337861.904    20596167.465  
  20596165.893    80823777.613  
  21667887.563   113865517.856    21667884.990    88726362.132    21667884.579  
  21667884.079    85029429.784  
  22758362.612   119596003.357                    93191665.343    22758356.948  
                                
  22471427.256   118088151.567    22471424.987    92016724.768    22471424.290  
  22471424.218    88182689.472  
  22997538.091   120852878.032    22997535.839    94171063.216    22997535.053  
  22997534.446    90247264.824  
  22615030.033   120890298.219                    94025815.027    22615036.269  
                                
  21883119.623   116772517.601                    90823081.680    21883122.858  
                                
  21591107.177   115335817.841                    89705648.144    21591109.071  
                                
  20200430.719   108096585.124                    84075126.056    20200431.881  
                                
  21376962.787   114111681.139                    88753536.023    21376964.252  
                                
 21  8 31  6 50 11.0000000  0 12G 4G 7G 8G 9G21G27G30R 1R 2R12R21R22
  23301626.173   122450870.698    23301623.046    95416247.697    23301622.903  
  23301625.279    91440581.927  
  20799561.101   109302430.718    20799555.848    85170702.751    20799555.222  
                                
  20596436.680   108235005.310    20596434.875    84338952.790    20596433.893  
  20596432.320    80824823.038  
  21668324.854   113867815.758    21668322.245    88728152.700    21668321.852  
  21668321.370    85031145.748  
  22757948.623   119593827.715                    93189970.038    22757942.905  
                                
  22472010.769   118091217.869    22472008.482    92019114.090    22472007.803  
  22472007.731    88184979.250  
  22996988.511   120849990.018    22996986.242    94168812.818    22996985.509  
  22996984.884    90245108.195  
  22615691.455   120893833.877                    94028564.981    22615697.691  
                                
  21883173.391   116772804.499                    90823304.822    21883176.643  
                                
  21590729.354   115333799.494                    89704078.314    21590731.213  
                                
  20200321.254   108095999.429                    84074670.515    20200322.415  
                                
  21376234.856   114107795.460                    88750513.835    21376236.339  
                                
 21  8 31  6 50 12.0000000  0 12G 4G 7G 8G 9G21G27G30R 1R 2R12R21R22
  23302302.837   122454426.540    23302299.692    95419018.478    23302299.549  
  23302301.943    91443237.252  
  20799237.064   109300727.884    20799231.811    85169375.863    20799231.221  
                                
  20596703.161   108236405.743    20596701.338    84340044.037    20596700.355  
  20596698.801    80825868.810  
  21668762.180   113870114.012    21668759.607    88729943.547    21668759.196  
  21668758.750    85032861.979  
  22757534.651   119591652.265                    93188274.877    22757528.879  
                                
  22472594.318   118094284.414    22472592.012    92021503.606    22472591.351  
  22472591.280    88187269.196  
  22996438.914   120847101.967    22996436.680    94166562.390    22996435.930  
  22996435.304    90242951.524  
  22616352.859   120897369.628                    94031315.005    22616359.131  
                                
  21883227.320   116773092.095                    90823528.510    21883230.572  
                                
  21590351.496   115331781.087                    89702508.440    21590353.337  
                                
  20200211.967   108095414.544                    84074215.604    20200213.128  
                                
  21375507.015   114103910.126                    88747491.909    21375508.445  
                                
 21  8 31  6 50 13.0000000  0 12G 4G 7G 8G 9G21G27G30R 1R 2R12R21R22
  23302979.555   122457982.540    23302976.392    95421789.389    23302976.213  
  23302978.643    91445892.713  
  20798913.099   109299025.344    20798907.863    85168049.208    20798907.238  
                                
  20596969.785   108237806.783    20596967.962    84341135.754    20596966.979  
  20596965.425    80826915.046  
  21669199.632   113872412.791    21669197.041    88731734.806    21669196.648  
  21669196.201    85034578.598  
  22757120.733   119589477.164                    93186579.993    22757114.961  
                                
  22473177.920   118097351.336    22473175.633    92023893.414    22473174.971  
  22473174.882    88189559.438  
  22995889.370   120844214.029    22995887.136    94164312.049    22995886.404  
  22995885.760    90240794.956  
  22617014.316   120900905.623                    94034065.223    22617020.642  
                                
  21883281.391   116773380.542                    90823752.855    21883284.626  
                                
  21589973.656   115329762.740                    89700938.610    21589975.514  
                                
  20200102.841   108094830.615                    84073761.437    20200103.984  
                                
  21374779.192   114100025.207                    88744470.307    21374780.639  
                                
 21  8 31  6 50 14.0000000  0 12G 4G 7G 8G 9G21G27G30R 1R 2R12R21R22
  23303656.237   122461538.595    23303653.110    95424560.341    23303652.895  
  23303655.343    91448548.193  
  20798589.133   109297323.020    20798583.916    85166722.718    20798583.308  
                                
  20597236.480   108239208.294    20597234.657    84342227.838    20597233.674  
  20597232.120    80827961.628  
  21669637.119   113874711.902    21669634.546    88733526.319    21669634.171  
  21669633.706    85036295.471  
  22756706.887   119587302.259                    93184885.269    22756701.079  
                                
  22473761.594   118100418.480    22473759.271    92026283.397    22473758.627  
  22473758.538    88191849.838  
  22995339.790   120841326.065    22995337.574    94162061.685    22995336.824  
  22995336.216    90238638.364  
  22617675.792   120904441.708                    94036815.512    22617682.153  
                                
  21883335.588   116773669.672                    90823977.729    21883338.805  
                                
  21589595.815   115327744.318                    89699368.726    21589597.638  
                                
  20199993.893   108094247.474                    84073307.882    20199995.019  
                                
  21374051.440   114096140.622                    88741448.965    21374052.923  
                                
 21  8 31  6 50 15.0000000  0 12G 4G 7G 8G 9G21G27G30R 1R 2R12R21R22
  23304333.026   122465094.944    23304329.845    95427331.515    23304329.631  
  23304332.097    91451203.915  
  20798265.293   109295621.149    20798260.075    85165396.584    20798259.450  
                                
  20597503.300   108240610.558    20597501.495    84343320.514    20597500.512  
  20597498.940    80829008.774  
  21670074.750   113877011.656    21670072.176    88735318.333    21670071.801  
  21670071.354    85038012.813  
  22756293.094   119585127.842                    93183190.918    22756287.286  
                                
  22474345.375   118103486.152    22474343.052    92028673.789    22474342.390  
  22474342.301    88194140.626  
  22994790.264   120838438.374    22994788.066    94159811.537    22994787.316  
  22994786.708    90236481.969  
  22618337.339   120907978.163                    94039566.086    22618343.772  
                                
  21883389.964   116773959.803                    90824203.384    21883393.180  
                                
  21589217.992   115325726.099                    89697798.996    21589219.779  
                                
  20199885.107   108093665.431                    84072855.183    20199886.215  
                                
  21373323.814   114092256.615                    88738428.076    21373325.297  
                                
 21  8 31  6 50 16.0000000  0 12G 4G 7G 8G 9G21G27G30R 1R 2R12R21R22
  23305009.887   122468651.637    23305006.670    95430102.955    23305006.438  
  23305008.904    91453859.880  
  20797941.542   109293919.785    20797936.324    85164070.846    20797935.717  
                                
  20597770.299   108242013.603    20597768.512    84344413.788    20597767.511  
  20597765.939    80830056.495  
  21670512.505   113879312.076    21670509.932    88737110.868    21670509.556  
  21670509.128    85039730.656  
  22755879.408   119582953.932                    93181496.969    22755873.618  
                                
  22474929.209   118106554.364    22474926.922    92031064.603    22474926.243  
  22474926.154    88196431.817  
  22994240.792   120835550.953    22994238.612    94157561.594    22994237.861  
  22994237.254    90234325.772  
  22618999.011   120911515.102                    94042317.033    22619005.426  
                                
  21883444.554   116774250.967                    90824429.841    21883447.770  
                                
  21588840.206   115323708.086                    89696229.430    21588841.992  
                                
  20199776.535   108093084.520                    84072403.364    20199777.660  
                                
  21372596.259   114088373.210                    88735407.652    21372597.777  
                                
 21  8 31  6 50 17.0000000  0 12G 4G 7G 8G 9G21G27G30R 1R 2R12R21R22
  23305686.730   122472208.417    23305683.495    95432874.467    23305683.263  
  23305685.747    91456515.915  
  20797617.845   109292218.665    20797612.609    85162745.298    20797612.002  
                                
  20598037.405   108243417.193    20598035.600    84345507.495    20598034.582  
  20598033.045    80831104.636  
  21670950.367   113881612.918    21670947.794    88738903.734    21670947.401  
  21670946.990    85041448.820  
  22755465.758   119580780.269                    93179803.205    22755460.004  
                                
  22475513.133   118109622.856    22475510.810    92033455.633    22475510.167  
  22475510.060    88198723.227  
  22993691.337   120832663.565    22993689.193    94155311.678    22993688.407  
  22993687.799    90232169.611  
  22619660.719   120915052.148                    94045068.055    22619667.134  
                                
  21883499.268   116774542.913                    90824656.908    21883502.485  
                                
  21588462.454   115321690.088                    89694659.876    21588464.188  
                                
  20199668.141   108092504.481                    84071952.225    20199669.249  
                                
  21371868.846   114084490.183                    88732387.523    21371870.365  
                                
 21  8 31  6 50 18.0000000  0 12G 4G 7G 8G 9G21G27G30R 1R 2R12R21R22
  23306363.644   122475765.541    23306360.374    95435646.254    23306360.177  
  23306362.643    91459172.207  
  20797294.219   109290518.049    20797289.001    85161420.143    20797288.412  
                                
  20598304.636   108244821.568    20598302.832    84346601.813    20598301.813  
  20598300.276    80832153.352  
  21671388.337   113883914.424    21671385.728    88740697.115    21671385.371  
  21671384.960    85043167.472  
  22755052.215   119578607.119                    93178109.842    22755046.443  
                                
  22476097.146   118112691.889    22476094.823    92035847.088    22476094.180  
  22476094.073    88201015.042  
  22993141.936   120829776.481    22993139.774    94153061.998    22993139.023  
  22993138.398    90230013.664  
  22620322.444   120918589.609                    94047819.412    22620328.931  
                                
  21883554.162   116774835.878                    90824884.769    21883557.396  
                                
  21588084.703   115319672.338                    89693090.514    21588086.419  
                                
  20199559.944   108091925.567                    84071501.960    20199561.052  
                                
  21371141.506   114080607.792                    88729367.887    21371143.025  
                                
 21  8 31  6 50 19.0000000  0 12G 4G 7G 8G 9G21G27G30R 1R 2R12R21R22
  23307040.612   122479322.914    23307037.324    95438418.240    23307037.109  
  23307039.593    91461828.695  
  20796970.682   109288817.856    20796965.465    85160095.315    20796964.875  
                                
  20598572.010   108246226.655    20598570.224    84347696.684    20598569.205  
  20598567.650    80833202.599  
  21671826.396   113886216.510    21671823.823    88742490.944    21671823.448  
  21671823.055    85044886.561  
  22754638.744   119576434.386                    93176416.803    22754632.954  
                                
  22476681.267   118115761.414    22476678.926    92038238.925    22476678.283  
  22476678.158    88203307.200  
  22992592.553   120826889.594    22992590.409    94150812.476    22992589.658  
  22992589.033    90227857.863  
  22620984.259   120922127.417                    94050571.030    22620990.782  
                                
  21883609.252   116775129.760                    90825113.340    21883612.469  
                                
  21587707.006   115317654.733                    89691521.266    21587708.703  
                                
  20199451.944   108091347.686                    84071052.497    20199453.052  
                                
  21370414.272   114076725.851                    88726348.593    21370415.809  
                                
 21  8 31  6 50 20.0000000  0 12G 4G 7G 8G 9G21G27G30R 1R 2R12R21R22
  23307717.580   122482880.454    23307714.310    95441190.354    23307714.095  
  23307716.561    91464485.289  
  20796647.217   109287117.948    20796642.000    85158770.708    20796641.392  
                                
  20598839.492   108247632.276    20598837.669    84348791.969    20598836.686  
  20598835.150    80834252.256  
  21672264.563   113888519.072    21672261.972    88744285.143    21672261.614  
  21672261.221    85046606.009  
  22754225.362   119574261.975                    93174724.016    22754219.536  
                                
  22477265.459   118118831.263    22477263.118    92040631.011    22477262.457  
  22477262.332    88205599.629  
  22992043.206   120824002.793    22992041.061    94148563.018    22992040.329  
  22992039.703    90225702.141  
  22621646.110   120925665.454                    94053322.837    22621652.668  
                                
  21883664.503   116775424.465                    90825342.555    21883667.720  
                                
  21587329.290   115315637.135                    89689952.021    21587330.970  
                                
  20199344.122   108090770.731                    84070603.755    20199345.248  
                                
  21369687.128   114072844.446                    88723329.725    21369688.700  
                                
 21  8 31  6 50 21.0000000  0 12G 4G 7G 8G 9G21G27G30R 1R 2R12R21R22
  23308394.566   122486437.777    23308391.224    95443962.299    23308391.027  
  23308393.493    91467141.743  
  20796323.734   109285418.013    20796318.517    85157446.084    20796317.909  
                                
  20599107.027   108249038.135    20599105.204    84349887.448    20599104.204  
  20599102.667    80835302.088  
  21672702.747   113890821.766    21672700.191    88746079.455    21672699.816  
  21672699.441    85048325.553  
  22753811.926   119572089.550                    93173031.224    22753806.119  
                                
  22477849.651   118121901.128    22477847.274    92043023.116    22477846.631  
  22477846.506    88207892.062  
  22991493.822   120821115.741    22991491.660    94146313.370    22991490.946  
  22991490.320    90223546.228  
  22622307.979   120929203.366                    94056074.546    22622314.537  
                                
  21883719.826   116775719.638                    90825572.138    21883723.042  
                                
  21586951.521   115313619.247                    89688382.555    21586953.201  
                                
  20199236.408   108090194.350                    84070155.458    20199237.498  
                                
  21368959.984   114068963.092                    88720310.903    21368961.574  
                                
 21  8 31  6 50 22.0000000  0 12G 4G 7G 8G 9G21G27G30R 1R 2R12R21R22
  23309071.480   122489994.986    23309068.138    95446734.148    23309067.906  
  23309070.390    91469798.105  
  20796000.252   109283718.096    20795995.016    85156121.478    20795994.444  
                                
  20599374.616   108250444.329    20599372.793    84350983.185    20599371.810  
  20599370.255    80836352.170  
  21673141.002   113893124.671    21673138.429    88747873.927    21673138.054  
  21673137.661    85050045.246  
  22753398.508   119569917.169                    93171338.462    22753392.737  
                                
  22478433.843   118124971.065    22478431.448    92045415.277    22478430.787  
  22478430.680    88210184.542  
  22990944.404   120818228.511    22990942.224    94144063.582    22990941.509  
  22990940.901    90221390.182  
  22622969.776   120932741.224                    94058826.214    22622976.387  
                                
  21883775.238   116776015.347                    90825802.137    21883778.454  
                                
  21586573.734   115311601.100                    89686812.885    21586575.396  
                                
  20199128.800   108089618.584                    84069707.643    20199129.908  
                                
  21368232.911   114065081.890                    88717292.197    21368234.502  
                                
 21  8 31  6 50 23.0000000  0 12G 4G 7G 8G 9G21G27G30R 1R 2R12R21R22
  23309748.412   122493552.257    23309745.035    95449506.049    23309744.802  
  23309747.322    91472454.521  
  20795676.804   109282018.422    20795671.604    85154797.061    20795671.033  
                                
  20599642.293   108251851.012    20599640.471    84352079.302    20599639.470  
  20599637.933    80837402.615  
  21673579.312   113895427.952    21673576.721    88749668.693    21673576.381  
  21673575.988    85051765.237  
  22752985.162   119567745.006                    93169645.864    22752979.355  
                                
  22479018.124   118128041.267    22479015.712    92047807.645    22479015.051  
  22479014.908    88212477.227  
  22990395.003   120815341.304    22990392.823    94141813.813    22990392.108  
  22990391.482    90219234.149  
  22623631.609   120936279.180                    94061577.960    22623638.256  
                                
  21883830.792   116776311.804                    90826032.716    21883834.027  
                                
  21586195.912   115309582.923                    89685243.194    21586197.574  
                                
  20199021.372   108089043.683                    84069260.502    20199022.462  
                                
  21367505.928   114061201.069                    88714273.781    21367507.500  
                                
 21  8 31  6 50 24.0000000  0 12G 4G 7G 8G 9G21G27G30R 1R 2R12R21R22
  23310425.398   122497109.794    23310422.021    95452278.159    23310421.770  
  23310424.290    91475111.110  
  20795353.464   109280319.165    20795348.229    85153472.970    20795347.675  
                                
  20599910.114   108253258.368    20599908.292    84353175.948    20599907.291  
  20599905.736    80838453.560  
  21674017.728   113897731.808    21674015.119    88751463.910    21674014.780  
  21674014.422    85053485.664  
  22752571.870   119565573.247                    93167953.578    22752566.080  
                                
  22479602.477   118131111.921    22479600.047    92050200.364    22479599.350  
  22479599.225    88214770.259  
  22989845.602   120812454.291    22989843.457    94139564.190    22989842.725  
  22989842.081    90217078.262  
  22624293.585   120939817.480                    94064329.976    22624300.196  
                                
  21883886.544   116776609.196                    90826264.024    21883889.742  
                                
  21585818.125   115307564.892                    89683673.614    21585819.787  
                                
  20198914.122   108088469.830                    84068814.172    20198915.230  
                                
  21366778.998   114057320.714                    88711255.729    21366780.588  
                                
 21  8 31  6 50 25.0000000  0 12G 4G 7G 8G 9G21G27G30R 1R 2R12R21R22
  23311102.455   122500667.613    23311099.042    95455050.487    23311098.792  
  23311101.294    91477767.937  
  20795030.178   109278620.372    20795024.960    85152149.232    20795024.424  
                                
  20600178.043   108254666.475    20600176.238    84354273.176    20600175.237  
  20600173.682    80839505.073  
  21674456.252   113900036.321    21674453.679    88753259.635    21674453.339  
  21674452.982    85055206.554  
  22752158.684   119563401.952                    93166261.660    22752152.912  
                                
  22480186.919   118134183.085    22480184.471    92052593.477    22480183.756  
  22480183.613    88217063.661  
  22989296.254   120809567.522    22989294.110    94137314.762    22989293.377  
  22989292.770    90214922.558  
  22624955.525   120943356.141                    94067082.267    22624962.190  
                                
  21883942.456   116776907.575                    90826496.094    21883945.672  
                                
  21585440.374   115305547.046                    89682104.176    21585442.036  
                                
  20198807.086   108087897.040                    84068368.669    20198808.176  
                                
  21366052.176   114053440.999                    88708238.178    21366053.802  
                                
 21  8 31  6 50 26.0000000  0 12G 4G 7G 8G 9G21G27G30R 1R 2R12R21R22
  23311779.548   122504225.688    23311776.099    95457823.015    23311775.867  
  23311778.369    91480424.936  
  20794706.981   109276921.946    20794701.763    85150825.785    20794701.227  
                                
  20600446.131   108256075.268    20600444.345    84355370.937    20600443.326  
  20600441.754    80840557.090  
  21674894.901   113902341.378    21674892.310    88755055.787    21674891.970  
  21674891.613    85056927.862  
  22751745.570   119561231.070                    93164570.059    22751739.763  
                                
  22480771.450   118137254.693    22480768.985    92054986.937    22480768.270  
  22480768.091    88219357.380  
  22988746.961   120806680.946    22988744.834    94135065.486    22988744.084  
  22988743.458    90212766.998  
  22625617.554   120946895.131                    94069834.812    22625624.237  
                                
  21883998.547   116777206.860                    90826728.871    21884001.763  
                                
  21585062.640   115303529.346                    89680534.859    21585064.320  
                                
  20198700.230   108087325.273                    84067923.963    20198701.320  
                                
  21365325.442   114049561.770                    88705221.007    21365327.122  
                                
 21  8 31  6 50 27.0000000  0 12G 4G 7G 8G 9G21G27G30R 1R 2R12R21R22
  23312456.659   122507783.862    23312453.192    95460595.623    23312452.907  
  23312455.444    91483082.014  
  20794383.820   109275223.798    20794378.638    85149502.553    20794378.102  
                                
  20600714.328   108257484.605    20600712.505    84356469.119    20600711.522  
  20600709.950    80841609.518  
  21675333.621   113904646.886    21675331.048    88756852.280    21675330.726  
  21675330.351    85058649.497  
  22751332.492   119559060.462                    93162878.678    22751326.702  
                                
  22481356.036   118140326.594    22481353.552    92057380.626    22481352.855  
  22481352.640    88221651.339  
  22988197.667   120803794.402    22988195.540    94132816.234    22988194.808  
  22988194.182    90210611.475  
  22626279.655   120950434.311                    94072587.508    22626286.320  
                                
  21884054.799   116777506.946                    90826962.274    21884057.979  
                                
  21584684.907   115301511.661                    89678965.550    21584686.587  
                                
  20198593.552   108086754.387                    84067479.939    20198594.642  
                                
  21364598.799   114045682.965                    88702204.154    21364600.514  
                                
 21  8 31  6 50 28.0000000  0 12G 4G 7G 8G 9G21G27G30R 1R 2R12R21R22
  23313133.788   122511342.192    23313130.303    95463368.343    23313130.017  
  23313132.555    91485739.208  
  20794060.766   109273525.964    20794055.548    85148179.562    20794055.030  
                                
  20600982.631   108258894.516    20600980.808    84357567.749    20600979.808  
  20600978.253    80842662.379  
  21675772.430   113906952.849    21675769.857    88758649.130    21675769.536  
  21675769.178    85060371.489  
  22750919.503   119556890.182                    93161187.553    22750913.696  
                                
  22481940.692   118143398.853    22481938.155    92059774.594    22481937.458  
  22481937.261    88223945.560  
  22987648.409   120800907.982    22987646.264    94130567.075    22987645.532  
  22987644.906    90208456.012  
  22626941.792   120953973.721                    94075340.383    22626948.457  
                                
  21884111.193   116777807.885                    90827196.338    21884114.392  
                                
  21584307.192   115299494.036                    89677396.289    21584308.871  
                                
  20198487.034   108086184.425                    84067036.632    20198488.124  
                                
  21363872.280   114041804.571                    88699187.627    21363873.960  
                                
 21  8 31  6 50 29.0000000  0 13G 1G 4G 7G 8G 9G21G27G30R 1R 2R12R21
                                R22
  24277121.778   127577139.563    24277120.814    99410747.024    24277120.796  
  24277119.420    95268623.020  
  23313810.988   122514900.777    23313807.468    95466141.271    23313807.164  
  23313809.719    91488396.589  
  20793737.747   109271828.538    20793732.530    85146856.892    20793732.011  
                                
  20601251.042   108260305.108    20601249.237    84358666.912    20601248.218  
  20601246.664    80843715.741  
  21676211.365   113909259.387    21676208.792    88760446.432    21676208.470  
  21676208.131    85062093.908  
  22750506.604   119554720.318                    93159496.741    22750500.778  
                                
  22482525.420   118146471.567    22482522.883    92062168.919    22482522.168  
  22482521.954    88226240.124  
  22987099.169   120798021.758    22987097.042    94128318.068    22987096.292  
  22987095.666    90206300.713  
  22627604.018   120957513.442                    94078093.501    22627610.647  
                                
  21884167.749   116778109.756                    90827431.129    21884170.947  
                                
  21583929.494   115297476.530                    89675827.117    21583931.192  
                                
  20198380.696   108085615.499                    84066594.137    20198381.804  
                                
  21363145.761   114037926.731                    88696171.532    21363147.530  
                                
 21  8 31  6 50 30.0000000  0 13G 1G 4G 7G 8G 9G21G27G30R 1R 2R12R21
                                R22
  24276489.429   127573816.587    24276488.482    99408157.675    24276488.465  
  24276487.107    95266141.582  
  23314488.224   122518459.649    23314484.650    95468914.421    23314484.382  
  23314486.937    91491054.195  
  20793414.818   109270131.565    20793409.636    85145534.575    20793409.118  
                                
  20601519.595   108261716.440    20601517.808    84359766.651    20601516.790  
  20601515.217    80844769.651  
  21676650.389   113911566.579    21676647.834    88762244.242    21676647.512  
  21676647.173    85063816.798  
  22750093.758   119552550.951                    93157806.330    22750087.968  
                                
  22483110.273   118149544.773    22483107.700    92064563.626    22483107.003  
  22483106.735    88228535.055  
  22986549.964   120795135.764    22986547.838    94126069.236    22986547.105  
  22986546.480    90204145.595  
  22628266.297   120961053.557                    94080846.919    22628272.891  
                                
  21884224.483   116778412.590                    90827666.661    21884227.681  
                                
  21583551.815   115295459.185                    89674258.074    21583553.548  
                                
  20198274.590   108085047.673                    84066152.492    20198275.680  
                                
  21362419.385   114034049.458                    88693155.882    21362421.226  
                                
 21  8 31  6 50 31.0000000  0 13G 1G 4G 7G 8G 9G21G27G30R 1R 2R12R21
                                R22
  24275857.098   127570493.442    24275856.116    99405568.218    24275856.080  
  24275854.722    95263660.008  
  23315165.496   122522018.578    23315161.868    95471687.619    23315161.565  
  23315164.138    91493711.823  
  20793091.961   109268434.790    20793086.725    85144212.408    20793086.261  
                                
  20601788.274   108263128.244    20601786.451    84360866.761    20601785.450  
  20601783.878    80845823.925  
  21677089.503   113913874.106    21677086.947    88764042.313    21677086.643  
  21677086.304    85065539.954  
  22749680.965   119550381.772                    93156116.060    22749675.176  
                                
  22483695.162   118152618.232    22483692.571    92066958.533    22483691.856  
  22483691.570    88230830.169  
  22986000.778   120792249.760    22985998.651    94123820.402    22985997.919  
  22985997.293    90201990.458  
  22628928.577   120964593.776                    94083600.421    22628935.188  
                                
  21884281.342   116778716.127                    90827902.743    21884284.558  
                                
  21583174.171   115293441.745                    89672688.956    21583175.868  
                                
  20198168.608   108084480.666                    84065711.485    20198169.716  
                                
  21361693.099   114030172.497                    88690140.466    21361694.975  
                                
 21  8 31  6 50 32.0000000  0 13G 1G 4G 7G 8G 9G21G27G30R 1R 2R12R21
                                R22
  24275224.714   127567170.091    24275223.713    99402978.600    24275223.642  
  24275222.301    95261178.293  
  23315842.732   122525577.497    23315839.086    95474460.803    23315838.747  
  23315841.374    91496369.484  
  20792769.103   109266738.204    20792763.903    85142890.395    20792763.421  
                                
  20602057.006   108264540.530    20602055.201    84361967.240    20602054.218  
  20602052.628    80846878.556  
  21677528.705   113916181.979    21677526.114    88765840.656    21677525.846  
  21677525.525    85067263.374  
  22749268.209   119548212.777                    93154425.930    22749262.401  
                                
  22484280.105   118155691.915    22484277.478    92069353.610    22484276.727  
  22484276.441    88233125.459  
  22985451.555   120789363.730    22985449.465    94121571.545    22985448.732  
  22985448.107    90199835.310  
  22629590.910   120968134.082                    94086353.990    22629597.468  
                                
  21884338.380   116779020.370                    90828139.374    21884341.561  
                                
  21582796.473   115291424.253                    89671119.794    21582798.189  
                                
  20198062.806   108083914.451                    84065271.090    20198063.896  
                                
  21360966.848   114026295.838                    88687125.280    21360968.778  
                                
 21  8 31  6 50 33.0000000  0 13G 1G 4G 7G 8G 9G21G27G30R 1R 2R12R21
                                R22
  24274592.240   127563846.394    24274591.221    99400388.702    24274591.096  
  24274589.827    95258696.309  
  23316519.950   122529136.285    23316516.304    95477233.889    23316515.947  
  23316518.574    91499027.027  
  20792446.246   109265041.623    20792441.046    85141568.384    20792440.564  
                                
  20602325.810   108265953.097    20602324.023    84363067.944    20602323.022  
  20602321.432    80847933.395  
  21677967.908   113918490.043    21677965.335    88767639.147    21677965.067  
  21677964.745    85068986.924  
  22748855.470   119546043.829                    93152735.836    22748849.627  
                                
  22484865.047   118158765.649    22484862.385    92071748.731    22484861.670  
  22484861.330    88235420.774  
  22984902.333   120786477.477    22984900.260    94119322.514    22984899.492  
  22984898.866    90197680.000  
  22630253.207   120971674.265                    94089107.463    22630259.730  
                                
  21884395.525   116779325.164                    90828376.434    21884398.670  
                                
  21582418.740   115289406.572                    89669550.483    21582420.491  
                                
  20197957.128   108083348.860                    84064831.186    20197958.236  
                                
  21360240.723   114022419.352                    88684110.237    21360242.635  
                                
 21  8 31  6 50 34.0000000  0 13G 1G 4G 7G 8G 9G21G27G30R 1R 2R12R21
                                R22
  24273959.783   127560522.729    24273958.747    99397798.833    24273958.604  
  24273957.353    95256214.348  
  23317197.204   122532695.325    23317193.523    95480007.166    23317193.165  
  23317195.828    91501684.734  
  20792123.478   109263345.438    20792118.296    85140246.680    20792117.795  
                                
  20602594.739   108267366.342    20602592.952    84364169.174    20602591.933  
  20602590.343    80848988.740  
  21678407.218   113920798.662    21678404.645    88769438.071    21678404.412  
  21678404.091    85070710.893  
  22748442.803   119543875.293                    93151046.063    22748436.978  
                                
  22485450.079   118161839.830    22485447.381    92074144.201    22485446.648  
  22485446.291    88237716.429  
  22984353.129   120783591.423    22984351.038    94117073.644    22984350.287  
  22984349.680    90195524.828  
  22630915.487   120975214.744                    94091861.174    22630922.063  
                                
  21884452.795   116779630.847                    90828614.190    21884455.940  
                                
  21582041.024   115287389.003                    89667981.266    21582042.793  
                                
  20197851.612   108082784.288                    84064392.077    20197852.738  
                                
  21359514.615   114018543.315                    88681095.544    21359516.545  
                                
 21  8 31  6 50 35.0000000  0 13G 1G 4G 7G 8G 9G21G27G30R 1R 2R12R21
                                R22
  24273327.327   127557198.961    24273326.255    99395208.891    24273326.094  
  24273324.861    95253732.322  
  23317874.493   122536254.497    23317870.812    95482780.545    23317870.419  
  23317873.082    91504342.553  
  20791800.745   109261649.544    20791795.563    85138925.208    20791795.099  
                                
  20602863.775   108268780.148    20602861.988    84365270.841    20602860.969  
  20602859.379    80850044.495  
  21678846.617   113923107.759    21678844.062    88771237.362    21678843.812  
  21678843.508    85072435.210  
  22748030.171   119541707.058                    93149356.529    22748024.400  
                                
  22486035.164   118164914.331    22486032.448    92076539.916    22486031.698  
  22486031.322    88240012.331  
  22983803.924   120780705.473    22983801.851    94114824.849    22983801.119  
  22983800.511    90193369.724  
  22631577.856   120978755.495                    94094615.093    22631584.432  
                                
  21884510.280   116779937.331                    90828852.564    21884513.353  
                                
  21581663.309   115285371.419                    89666412.034    21581665.096  
                                
  20197746.274   108082220.628                    84063953.675    20197747.418  
                                
  21358788.650   114014667.684                    88678081.169    21358790.562  
                                
 21  8 31  6 50 36.0000000  0 13G 1G 4G 7G 8G 9G21G27G30R 1R 2R12R21
                                R22
  24272694.853   127553875.120    24272693.781    99392618.879    24272693.531  
  24272692.351    95251250.229  
  23318551.801   122539813.751    23318548.102    95485553.992    23318547.691  
  23318550.389    91507000.457  
  20791478.102   109259953.923    20791472.884    85137603.943    20791472.420  
                                
  20603132.900   108270194.478    20603131.131    84366372.915    20603130.130  
  20603128.504    80851100.660  
  21679286.106   113925417.258    21679283.551    88773036.974    21679283.318  
  21679283.014    85074159.851  
  22747617.594   119539539.087                    93147667.202    22747611.876  
                                
  22486620.303   118167989.143    22486617.551    92078935.876    22486616.819  
  22486616.408    88242308.466  
  22983254.738   120777819.545    22983252.683    94112576.081    22983251.914  
  22983251.343    90191214.662  
  22632240.243   120982296.365                    94097369.101    22632246.836  
                                
  21884567.836   116780244.580                    90829091.536    21884570.910  
                                
  21581285.611   115283353.800                    89664842.779    21581287.398  
                                
  20197641.115   108081657.840                    84063515.951    20197642.241  
                                
  21358062.739   114010792.486                    88675067.126    21358064.633  
                                
 21  8 31  6 50 37.0000000  0 13G 1G 4G 7G 8G 9G21G27G30R 1R 2R12R21
                                R22
  24272062.379   127550551.400    24272061.289    99390028.964    24272061.075  
  24272059.860    95248768.212  
  23319229.180   122543373.363    23319225.463    95488327.722    23319225.016  
  23319227.732    91509658.598  
  20791155.531   109258258.801    20791150.331    85136283.071    20791149.866  
                                
  20603402.186   108271609.584    20603400.399    84367475.594    20603399.399  
  20603397.790    80852157.397  
  21679725.719   113927727.446    21679723.182    88774837.126    21679722.932  
  21679722.646    85075884.974  
  22747205.123   119537371.645                    93145978.286    22747199.441  
                                
  22487205.567   118171064.501    22487202.762    92081332.261    22487202.047  
  22487201.583    88244604.986  
  22982705.623   120774933.909    22982703.568    94110327.537    22982702.817  
  22982702.227    90189059.799  
  22632902.719   120985837.709                    94100123.487    22632909.313  
                                
  21884625.624   116780552.840                    90829331.293    21884628.680  
                                
  21580907.932   115281336.431                    89663273.719    21580909.754  
                                
  20197536.134   108081096.179                    84063079.108    20197537.296  
                                
  21357336.917   114006917.907                    88672053.569    21357338.847  
                                
 21  8 31  6 50 38.0000000  0 13G 1G 4G 7G 8G 9G21G27G30R 1R 2R12R21
                                R22
  24271429.833   127547227.374    24271428.743    99387438.817    24271428.565  
  24271427.332    95246286.002  
  23319906.523   122546932.908    23319902.806    95491101.394    23319902.341  
  23319905.057    91512316.700  
  20790832.959   109256563.773    20790827.795    85134962.267    20790827.330  
                                
  20603671.544   108273025.059    20603669.757    84368578.560    20603668.756  
  20603667.148    80853214.408  
  21680165.369   113930037.878    21680162.849    88776637.462    21680162.635  
  21680162.331    85077610.308  
  22746792.670   119535204.276                    93144289.427    22746787.024  
                                
  22487790.832   118174140.002    22487788.008    92083728.757    22487787.293  
  22487786.811    88246901.631  
  22982156.490   120772048.157    22982154.435    94108078.902    22982153.631  
  22982153.094    90186904.861  
  22633565.177   120989379.042                    94102877.857    22633571.807  
                                
  21884683.520   116780861.708                    90829571.521    21884686.558  
                                
  21580530.234   115279318.919                    89661704.543    21580532.075  
                                
  20197431.315   108080535.232                    84062642.813    20197432.458  
                                
  21356611.131   114003043.558                    88669040.187    21356613.079  
                                
 21  8 31  6 50 39.0000000  0 13G 1G 4G 7G 8G 9G21G27G30R 1R 2R12R21
                                R22
  24270797.270   127543903.366    24270796.198    99384848.678    24270795.966  
  24270794.804    95243803.797  
  23320583.902   122550492.675    23320580.185    95493875.236    23320579.685  
  23320582.454    91514974.957  
  20790510.495   109254869.108    20790505.313    85133641.751    20790504.848  
                                
  20603940.991   108274441.174    20603939.257    84369682.026    20603938.239  
  20603936.595    80854271.892  
  21680605.143   113932348.853    21680602.624    88778438.222    21680602.409  
  21680602.124    85079336.031  
  22746380.289   119533037.330                    93142600.897    22746374.660  
                                
  22488376.185   118177215.906    22488373.362    92086125.563    22488372.611  
  22488372.093    88249198.572  
  22981607.375   120769162.570    22981605.320    94105830.400    22981604.533  
  22981604.015    90184750.036  
  22634227.689   120992920.664                    94105632.450    22634234.336  
                                
  21884741.577   116781171.463                    90829812.442    21884744.579  
                                
  21580152.590   115277301.554                    89660135.479    21580154.431  
                                
  20197326.656   108079975.265                    84062207.285    20197327.817  
                                
  21355885.452   113999169.694                    88666027.182    21355887.400  
                                
 21  8 31  6 50 40.0000000  0 13G 1G 4G 7G 8G 9G21G27G30R 1R 2R12R21
                                R22
  24270164.725   127540579.346    24270163.652    99382258.533    24270163.420  
  24270162.276    95241321.575  
  23321261.334   122554052.625    23321257.600    95496649.221    23321257.099  
  23321259.869    91517633.383  
  20790188.084   109253174.825    20790182.920    85132321.533    20790182.437  
                                
  20604210.599   108275857.937    20604208.847    84370785.997    20604207.847  
  20604206.185    80855329.867  
  21681044.989   113934660.374    21681042.488    88780239.405    21681042.273  
  21681042.023    85081062.174  
  22745967.961   119530870.747                    93140912.658    22745962.386  
                                
  22488961.610   118180292.220    22488958.769    92088522.691    22488958.018  
  22488957.446    88251495.826  
  22981058.259   120766277.133    22981056.240    94103582.014    22981055.436  
  22981054.936    90182595.337  
  22634890.255   120996462.588                    94108387.268    22634896.920  
                                
  21884799.794   116781482.101                    90830054.052    21884802.778  
                                
  21579774.929   115275284.248                    89658566.460    21579776.769  
                                
  20197222.193   108079416.301                    84061772.539    20197223.391  
                                
  21355159.880   113995296.314                    88663014.557    21355161.846  
                                
 21  8 31  6 50 41.0000000  0 13G 1G 4G 7G 8G 9G21G27G30R 1R 2R12R21
                                R22
  24269532.179   127537255.200    24269531.089    99379668.287    24269530.839  
  24269529.731    95238839.277  
  23321938.767   122557612.692    23321935.050    95499423.292    23321934.532  
  23321937.301    91520291.857  
  20789865.709   109251480.786    20789860.562    85131001.498    20789860.080  
                                
  20604480.296   108277275.229    20604478.545    84371890.380    20604477.544  
  20604475.882    80856388.231  
  21681484.943   113936972.320    21681482.441    88782040.919    21681482.244  
  21681481.976    85082788.607  
  22745555.723   119528704.435                    93139224.624    22745550.183  
                                
  22489547.106   118183368.825    22489544.229    92090920.043    22489543.479  
  22489542.889    88253793.284  
  22980509.180   120763391.758    22980507.197    94101333.665    22980506.375  
  22980505.874    90180440.651  
  22635552.927   121000004.634                    94111142.188    22635559.539  
                                
  21884858.154   116781793.505                    90830296.248    21884861.102  
                                
  21579397.285   115273266.888                    89656997.401    21579399.125  
                                
  20197117.910   108078858.211                    84061338.468    20197119.107  
                                
  21354434.327   113991423.321                    88660002.229    21354436.328  
                                
 21  8 31  6 50 42.0000000  0 13G 1G 4G 7G 8G 9G21G27G30R 1R 2R12R21
                                R22
  24268899.544   127533930.969    24268898.526    99377077.977    24268898.275  
  24268897.132    95236356.882  
  23322616.235   122561172.844    23322612.518    95502197.439    23322611.982  
  23322614.770    91522950.407  
  20789543.387   109249786.995    20789538.241    85129681.659    20789537.794  
                                
  20604750.100   108278693.052    20604748.385    84372995.177    20604747.366  
  20604745.686    80857446.995  
  21681924.949   113939284.666    21681922.448    88783842.742    21681922.287  
  21681922.019    85084515.365  
  22745143.484   119526538.392                    93137536.794    22745138.034  
                                
  22490132.638   118186445.741    22490129.762    92093317.640    22490128.993  
  22490128.350    88256090.979  
  22979960.119   120760506.420    22979958.135    94099085.348    22979957.331  
  22979956.795    90178286.018  
  22636215.582   121003546.865                    94113897.249    22636222.176  
                                
  21884916.675   116782105.686                    90830539.055    21884919.606  
                                
  21579019.605   115271249.510                    89655428.329    21579021.463  
                                
  20197013.787   108078300.984                    84060905.067    20197014.966  
                                
  21353708.862   113987550.701                    88656990.194    21353710.863  
                                
 21  8 31  6 50 43.0000000  0 13G 1G 4G 7G 8G 9G21G27G30R 1R 2R12R21
                                R22
  24268266.999   127530606.884    24268265.998    99374487.790    24268265.712  
  24268264.586    95233874.604  
  23323293.757   122564733.354    23323290.040    95504971.862    23323289.504  
  23323292.309    91525609.236  
  20789221.173   109248093.734    20789216.045    85128362.232    20789215.580  
                                
  20605020.047   108280111.679    20605018.332    84374100.601    20605017.313  
  20605015.634    80858506.357  
  21682365.117   113941597.715    21682362.633    88785645.118    21682362.455  
  21682362.204    85086242.640  
  22744731.371   119524372.872                    93135849.378    22744725.957  
                                
  22490718.278   118189523.206    22490715.347    92095715.667    22490714.633  
  22490713.954    88258389.095  
  22979411.111   120757621.373    22979409.127    94096837.250    22979408.323  
  22979407.805    90176131.605  
  22636878.309   121007089.535                    94116652.664    22636884.884  
                                
  21884975.375   116782418.928                    90830782.690    21884978.305  
                                
  21578641.997   115269232.422                    89653859.485    21578643.855  
                                
  20196909.843   108077744.878                    84060472.540    20196911.040  
                                
  21352983.594   113983678.739                    88653978.670    21352985.560  
                                
 21  8 31  6 50 44.0000000  0 13G 1G 4G 7G 8G 9G21G27G30R 1R 2R12R21
                                R22
  24267634.399   127527282.715    24267633.452    99371897.519    24267633.166  
  24267632.041    95231392.298  
  23323971.314   122568294.043    23323967.616    95507746.423    23323967.062  
  23323969.867    91528268.195  
  20788899.048   109246400.792    20788893.866    85127043.061    20788893.419  
                                
  20605290.120   108281530.907    20605288.404    84375206.488    20605287.386  
  20605285.688    80859566.173  
  21682805.356   113943911.255    21682802.890    88787447.874    21682802.712  
  21682802.479    85087970.286  
  22744319.365   119522207.698                    93134162.237    22744313.969  
                                
  22491303.989   118192601.031    22491301.058    92098113.975    22491300.326  
  22491299.593    88260687.475  
  22978862.103   120754736.446    22978860.155    94094589.253    22978859.333  
  22978858.815    90173977.287  
  22637541.071   121010632.435                    94119408.246    22637547.664  
                                
  21885034.253   116782733.022                    90831026.986    21885037.166  
                                
  21578264.389   115267215.435                    89652290.715    21578266.265  
                                
  20196806.113   108077189.727                    84060040.757    20196807.328  
                                
  21352258.362   113979807.201                    88650967.476    21352260.310  
                                
 21  8 31  6 50 45.0000000  0 13G 1G 4G 7G 8G 9G21G27G30R 1R 2R12R21
                                R22
  24267001.836   127523958.598    24267000.889    99369307.314    24267000.585  
  24266999.459    95228909.973  
  23324648.890   122571854.932    23324645.245    95510521.137    23324644.691  
  23324647.460    91530927.285  
  20788576.941   109244708.228    20788571.795    85125724.183    20788571.348  
                                
  20605560.317   108282950.760    20605558.602    84376312.872    20605557.583  
  20605555.868    80860626.446  
  21683245.720   113946225.320    21683243.237    88789251.040    21683243.058  
  21683242.844    85089698.313  
  22743907.395   119520042.917                    93132475.404    22743902.052  
                                
  22491889.789   118195679.288    22491886.805    92100512.616    22491886.090  
  22491885.322    88262986.163  
  22978313.149   120751851.702    22978311.201    94092341.400    22978310.379  
  22978309.879    90171823.073  
  22638203.886   121014175.606                    94122164.048    22638210.444  
                                
  21885093.293   116783048.046                    90831272.002    21885096.187  
                                
  21577886.816   115265198.540                    89650722.024    21577888.692  
                                
  20196702.544   108076635.581                    84059609.756    20196703.777  
                                
  21351533.255   113975936.187                    88647956.688    21351535.149  
                                
 21  8 31  6 50 46.0000000  0 13G 1G 4G 7G 8G 9G21G27G30R 1R 2R12R21
                                R22
  24266369.219   127520634.273    24266368.326    99366716.933    24266367.986  
  24266366.878    95226427.526  
  23325326.501   122575415.838    23325322.838    95513295.878    23325322.302  
  23325325.072    91533586.420  
  20788254.888   109243015.850    20788249.742    85124405.444    20788249.295  
                                
  20605830.568   108284371.083    20605828.871    84377419.613    20605827.870  
  20605826.137    80861687.084  
  21683686.120   113948539.740    21683683.672    88791054.481    21683683.476  
  21683683.279    85091426.620  
  22743495.478   119517878.318                    93130788.706    22743490.189  
                                
  22492475.607   118198757.765    22492472.641    92102911.427    22492471.926  
  22492471.122    88265285.034  
  22977764.177   120748966.910    22977762.247    94090093.508    22977761.407  
  22977760.907    90169668.856  
  22638866.684   121017718.837                    94124919.897    22638873.278  
                                
  21885152.493   116783363.770                    90831517.563    21885155.352  
                                
  21577509.226   115263181.539                    89649153.245    21577511.084  
                                
  20196599.136   108076082.242                    84059179.379    20196600.369  
                                
  21350808.166   113972065.463                    88644946.117    21350810.060  
                                
 21  8 31  6 50 47.0000000  0 13G 1G 4G 7G 8G 9G21G27G30R 1R 2R12R21
                                R22
  24265736.602   127517309.821    24265735.726    99364126.442    24265735.315  
  24265734.243    95223944.979  
  23326004.112   122578976.853    23326000.467    95516070.692    23325999.931  
  23326002.701    91536245.600  
  20787932.888   109241323.726    20787927.742    85123086.906    20787927.295  
                                
  20606100.962   108285791.926    20606099.247    84378526.763    20606098.229  
  20606096.513    80862748.098  
  21684126.645   113950854.577    21684124.162    88792858.250    21684124.001  
  21684123.786    85093155.229  
  22743083.615   119515713.990                    93129102.220    22743078.308  
                                
  22493061.479   118201836.524    22493058.494    92105310.460    22493057.780  
  22493056.940    88267584.103  
  22977215.222   120746082.165    22977213.310    94087845.653    22977212.488  
  22977211.988    90167514.655  
  22639529.553   121021262.283                    94127675.915    22639536.129  
                                
  21885211.818   116783680.263                    90831763.724    21885214.641  
                                
  21577131.635   115261164.504                    89647584.440    21577133.476  
                                
  20196495.889   108075529.769                    84058749.678    20196497.140  
                                
  21350083.130   113968195.171                    88641935.890    21350085.024  
                                
 21  8 31  6 50 48.0000000  0 13G 1G 4G 7G 8G 9G21G27G30R 1R 2R12R21
                                R22
  24265103.967   127513985.358    24265103.091    99361535.959    24265102.681  
  24265101.626    95221462.463  
  23326681.777   122582538.067    23326678.150    95518845.655    23326677.614  
  23326680.366    91538904.962  
  20787610.960   109239631.985    20787605.796    85121768.668    20787605.385  
                                
  20606371.446   108287213.437    20606369.766    84379634.436    20606368.748  
  20606367.014    80863809.621  
  21684567.224   113953169.948    21684564.776    88794662.440    21684564.615  
  21684564.436    85094884.251  
  22742671.805   119513550.060                    93127416.032    22742666.552  
                                
  22493647.457   118204915.720    22493644.438    92107709.831    22493643.741  
  22493642.847    88269883.500  
  22976666.304   120743197.567    22976664.374    94085597.912    22976663.534  
  22976663.069    90165360.589  
  22640192.494   121024805.983                    94130432.126    22640199.052  
                                
  21885271.304   116783997.638                    90832010.569    21885274.091  
                                
  21576754.063   115259147.577                    89646015.719    21576755.886  
                                
  20196392.856   108074978.303                    84058320.760    20196394.071  
                                
  21349358.166   113964325.325                    88638926.015    21349360.114  
                                
 21  8 31  6 50 49.0000000  0 13G 1G 4G 7G 8G 9G21G27G30R 1R 2R12R21
                                R22
  24264471.261   127510660.584    24264470.421    99358945.237    24264469.974  
  24264468.938    95218979.669  
  23327359.388   122586099.161    23327355.815    95521620.536    23327355.261  
  23327357.995    91541564.209  
  20787289.031   109237940.257    20787283.885    85120450.439    20787283.438  
                                
  20606642.001   108288635.245    20606640.321    84380742.336    20606639.303  
  20606637.569    80864871.354  
  21685007.856   113955485.515    21685005.426    88796466.778    21685005.265  
  21685005.087    85096613.400  
  22742260.014   119511386.154                    93125729.871    22742254.778  
                                
  22494233.418   118207994.954    22494230.399    92110109.232    22494229.702  
  22494228.790    88272182.935  
  22976117.314   120740312.808    22976115.438    94083350.052    22976114.580  
  22976114.115    90163206.377  
  22640855.381   121028349.656                    94133188.314    22640861.921  
                                
  21885330.897   116784315.534                    90832257.819    21885333.685  
                                
  21576376.437   115257130.417                    89644446.814    21576378.260  
                                
  20196289.913   108074427.480                    84057892.342    20196291.164  
                                
  21348633.202   113960455.635                    88635916.254    21348635.203  
                                
 21  8 31  6 50 50.0000000  0 13G 1G 4G 7G 8G 9G21G27G30R 1R 2R12R21
                                R22
  24263838.501   127507335.614    24263837.714    99356354.355    24263837.286  
  24263836.231    95216496.738  
  23328037.035   122589660.261    23328033.462    95524395.421    23328032.943  
  23328035.642    91544223.479  
  20786967.157   109236248.721    20786961.993    85119132.359    20786961.582  
                                
  20606912.663   108290057.505    20606910.983    84381850.590    20606909.965  
  20606908.196    80865933.433  
  21685448.560   113957801.437    21685446.130    88798271.395    21685445.987  
  21685445.790    85098342.829  
  22741848.258   119509222.453                    93124043.877    22741843.058  
                                
  22494819.433   118211074.420    22494816.413    92112508.818    22494815.716  
  22494814.751    88274482.540  
  22975568.342   120737428.010    22975566.483    94081102.158    22975565.608  
  22975565.179    90161052.150  
  22641518.286   121031893.353                    94135944.510    22641524.808  
                                
  21885390.597   116784634.095                    90832505.587    21885393.367  
                                
  21575998.775   115255113.164                    89642877.835    21576000.598  
                                
  20196187.148   108073877.475                    84057464.558    20196188.381  
                                
  21347908.345   113956586.252                    88632906.731    21347910.328  
                                
 21  8 31  6 50 51.0000000  0 13G 1G 4G 7G 8G 9G21G27G30R 1R 2R12R21
                                R22
  24263205.741   127504010.511    24263204.990    99353763.362    24263204.579  
  24263203.489    95214013.709  
  23328714.664   122593221.431    23328711.144    95527170.359    23328710.608  
  23328713.306    91546882.792  
  20786645.300   109234557.405    20786640.171    85117814.453    20786639.725  
                                
  20607183.396   108291480.254    20607181.717    84382959.227    20607180.698  
  20607178.947    80866995.882  
  21685889.335   113960117.756    21685886.923    88800076.321    21685886.780  
  21685886.583    85100072.539  
  22741436.538   119507058.995                    93122358.073    22741431.374  
                                
  22495405.519   118214154.162    22495402.481    92114908.617    22495401.784  
  22495400.784    88276782.345  
  22975019.405   120734543.233    22975017.511    94078854.279    22975016.636  
  22975016.225    90158897.935  
  22642181.191   121035437.223                    94138700.854    22642187.696  
                                
  21885450.441   116784953.416                    90832753.952    21885453.175  
                                
  21575621.131   115253095.873                    89641308.834    21575622.936  
                                
  20196084.526   108073328.284                    84057037.411    20196085.759  
                                
  21347183.524   113952717.218                    88629897.480    21347185.525  
                                
 21  8 31  6 50 52.0000000  0 13G 1G 4G 7G 8G 9G21G27G30R 1R 2R12R21
                                R22
  24262572.963   127500685.455    24262572.248    99351172.411    24262571.837  
  24262570.747    95211530.708  
  23329392.365   122596782.877    23329388.881    95529945.514    23329388.362  
  23329391.025    91549542.296  
  20786323.550   109232866.523    20786318.386    85116496.882    20786317.957  
                                
  20607454.255   108292903.688    20607452.593    84384068.398    20607451.575  
  20607449.788    80868058.827  
  21686330.235   113962434.656    21686327.823    88801881.695    21686327.680  
  21686327.484    85101802.680  
  22741024.925   119504895.984                    93120672.617    22741019.779  
                                
  22495991.677   118217234.364    22495988.639    92117308.777    22495987.942  
  22495986.888    88279082.490  
  22974470.469   120731658.662    22974468.593    94076606.563    22974467.753  
  22974467.306    90156743.868  
  22642844.186   121038981.439                    94141457.466    22642850.690  
                                
  21885510.481   116785273.693                    90833003.061    21885513.179  
                                
  21575243.487   115251078.731                    89639739.945    21575245.328  
                                
  20195982.083   108072780.129                    84056611.069    20195983.334  
                                
  21346458.810   113948848.750                    88626888.672    21346460.811  
                                
 21  8 31  6 50 53.0000000  0 13G 1G 4G 7G 8G 9G21G27G30R 1R 2R12R21
                                R22
  24261940.239   127497360.572    24261939.560    99348581.607    24261939.202  
  24261938.041    95209047.839  
  23330070.137   122600344.684    23330066.688    95532720.946    23330066.152  
  23330068.797    91552202.102  
  20786001.890   109231176.210    20785996.726    85115179.753    20785996.315  
                                
  20607725.275   108294327.975    20607723.631    84385178.234    20607722.630  
  20607720.825    80869122.416  
  21686771.243   113964752.265    21686768.849    88803687.629    21686768.706  
  21686768.509    85103533.362  
  22740613.419   119502733.519                    93118987.583    22740608.326  
                                
  22496577.941   118220315.162    22496574.904    92119709.397    22496574.207  
  22496573.135    88281383.086  
  22973921.622   120728774.439    22973919.746    94074359.124    22973918.906  
  22973918.459    90154590.056  
  22643507.287   121042526.130                    94144214.450    22643513.774  
                                
  21885570.717   116785595.004                    90833252.972    21885573.380  
                                
  21574865.915   115249061.884                    89638171.289    21574867.737  
                                
  20195879.890   108072233.154                    84056185.646    20195881.105  
                                
  21345734.257   113944980.997                    88623880.417    21345736.240  
                                
 21  8 31  6 50 54.0000000  0 13G 1G 4G 7G 8G 9G21G27G30R 1R 2R12R21
                                R22
  24261307.514   127494035.872    24261306.907    99345990.938    24261306.567  
  24261305.370    95206565.100  
  23330747.998   122603906.870    23330744.550    95535496.668    23330744.049  
  23330746.676    91554862.182  
  20785680.319   109229486.411    20785675.173    85113863.026    20785674.762  
                                
  20607996.473   108295753.099    20607994.811    84386288.720    20607993.828  
  20607992.005    80870186.636  
  21687212.411   113967070.579    21687210.017    88805494.101    21687209.874  
  21687209.677    85105264.575  
  22740202.021   119500571.596                    93117302.973    22740196.946  
                                
  22497164.331   118223396.530    22497161.276    92122110.465    22497160.579  
  22497159.471    88283684.116  
  22973372.828   120725890.548    22973370.952    94072111.937    22973370.112  
  22973369.683    90152436.504  
  22644170.442   121046071.253                    94146971.762    22644176.929  
                                
  21885631.186   116785917.391                    90833503.720    21885633.777  
                                
  21574488.432   115247045.318                    89636602.844    21574490.236  
                                
  20195777.894   108071687.348                    84055761.133    20195779.127  
                                
  21345009.882   113941113.870                    88620872.657    21345011.776  
                                
 21  8 31  6 50 55.0000000  0 13G 1G 4G 7G 8G 9G21G27G30R 1R 2R12R21
                                R22
  24260674.826   127490711.112    24260674.236    99343400.214    24260673.915  
  24260672.700    95204082.355  
  23331425.878   122607469.270    23331422.483    95538272.557    23331421.964  
  23331424.573    91557522.405  
  20785358.820   109227796.961    20785353.691    85112546.572    20785353.262  
                                
  20608267.778   108297178.847    20608266.116    84387399.689    20608265.133  
  20608263.311    80871251.321  
  21687653.669   113969389.413    21687651.274    88807300.987    21687651.149  
  21687650.935    85106996.170  
  22739790.729   119498410.070                    93115618.667    22739785.637  
                                
  22497750.775   118226478.287    22497747.701    92124511.834    22497747.022  
  22497745.879    88285985.424  
  22972824.053   120723006.781    22972822.177    94069864.845    22972821.337  
  22972820.926    90150283.041  
  22644833.687   121049616.624                    94149729.270    22644840.138  
                                
  21885691.762   116786240.621                    90833755.119    21885694.317  
                                
  21574110.931   115245028.826                    89635034.461    21574112.718  
                                
  20195676.076   108071142.519                    84055337.377    20195677.309  
                                
  21344285.579   113937247.221                    88617865.262    21344287.420  
                                
 21  8 31  6 50 56.0000000  0 13G 1G 4G 7G 8G 9G21G27G30R 1R 2R12R21
                                R22
  24260042.084   127487386.074    24260041.530    99340809.280    24260041.226  
  24260039.975    95201599.359  
  23332103.739   122611031.538    23332100.380    95541048.344    23332099.862  
  23332102.470    91560182.540  
  20785037.356   109226107.590    20785032.210    85111230.175    20785031.781  
                                
  20608539.155   108298604.939    20608537.493    84388510.929    20608536.510  
  20608534.688    80872316.255  
  21688094.980   113971708.446    21688092.568    88809108.023    21688092.461  
  21688092.246    85108727.924  
  22739379.402   119496248.599                    93113934.404    22739374.363  
                                
  22498337.254   118229560.136    22498334.163    92126913.273    22498333.484  
  22498332.322    88288286.811  
  22972275.259   120720122.870    22972273.365    94067617.635    22972272.525  
  22972272.150    90148129.462  
  22645496.931   121053161.981                    94152486.768    22645503.346  
                                
  21885752.427   116786564.436                    90834006.969    21885754.982  
                                
  21573733.376   115243012.138                    89633465.921    21573735.181  
                                
  20195574.401   108070598.344                    84054914.125    20195575.617  
                                
  21343561.294   113933380.744                    88614858.003    21343563.063  
                                
 21  8 31  6 50 57.0000000  0 13G 1G 4G 7G 8G 9G21G27G30R 1R 2R12R21
                                R22
  24259409.252   127484060.699    24259408.734    99338218.081    24259408.466  
  24259407.180    95199116.133  
  23332781.565   122614593.694    23332778.241    95543824.048    23332777.741  
  23332780.368    91562842.585  
  20784715.892   109224418.252    20784710.746    85109913.805    20784710.317  
                                
  20608810.585   108300031.331    20608808.924    84389622.401    20608807.977  
  20608806.100    80873381.427  
  21688536.309   113974027.684    21688533.915    88810915.222    21688533.808  
  21688533.575    85110459.829  
  22738968.111   119494087.175                    93112250.180    22738963.108  
                                
  22498923.751   118232642.064    22498920.624    92129314.777    22498919.963  
  22498918.748    88290588.249  
  22971726.430   120717238.756    22971724.554    94065370.273    22971723.696  
  22971723.321    90145975.769  
  22646160.122   121056707.260                    94155244.211    22646166.519  
                                
  21885813.253   116786888.801                    90834259.256    21885815.737  
                                
  21573355.804   115240995.213                    89631897.202    21573357.608  
                                
  20195472.834   108070054.821                    84054491.385    20195474.031  
                                
  21342837.080   113929514.446                    88611850.884    21342838.778  
                                
 21  8 31  6 50 58.0000000  0 13G 1G 4G 7G 8G 9G21G27G30R 1R 2R12R21
                                R22
  24258776.421   127480735.156    24258775.921    99335626.755    24258775.706  
  24258774.348    95196632.766  
  23333459.408   122618155.900    23333456.120    95546599.790    23333455.656  
  23333458.229    91565502.672  
  20784394.464   109222729.104    20784389.300    85108597.592    20784388.907  
                                
  20609082.123   108301458.209    20609080.461    84390734.256    20609079.496  
  20609077.620    80874446.946  
  21688977.728   113976347.298    21688975.351    88812722.713    21688975.226  
  21688974.976    85112192.002  
  22738556.855   119491925.974                    93110566.130    22738551.888  
                                
  22499510.284   118235724.233    22499507.157    92131716.467    22499506.496  
  22499505.263    88292889.870  
  22971177.601   120714354.657    22971175.725    94063122.923    22971174.867  
  22971174.510    90143822.050  
  22646823.367   121060252.658                    94158001.741    22646829.728  
                                
  21885874.205   116787213.923                    90834512.127    21885876.635  
                                
  21572978.213   115238978.238                    89630328.444    21572980.018  
                                
  20195371.427   108069512.143                    84054069.304    20195372.642  
                                
  21342112.885   113925648.529                    88608844.058    21342114.529  
                                
 21  8 31  6 50 59.0000000  0 13G 1G 4G 7G 8G 9G21G27G30R 1R 2R12R21
                                R22
  24258143.590   127477409.677    24258143.125    99333035.464    24258142.875  
  24258141.535    95194149.450  
  23334137.305   122621718.359    23334134.053    95549375.721    23334133.607  
  23334136.162    91568162.947  
  20784073.108   109221040.390    20784067.961    85107281.710    20784067.550  
                                
  20609353.768   108302885.760    20609352.106    84391846.633    20609351.159  
  20609349.283    80875512.974  
  21689419.236   113978667.496    21689416.877    88814530.657    21689416.752  
  21689416.502    85113924.626  
  22738145.689   119489765.217                    93108882.422    22738140.722  
                                
  22500096.906   118238806.868    22500093.797    92134118.520    22500093.100  
  22500091.849    88295191.840  
  22970628.808   120711470.772    22970626.949    94060875.740    22970626.074  
  22970625.734    90141668.497  
  22647486.683   121063798.378                    94160759.524    22647493.009  
                                
  21885935.317   116787539.984                    90834765.727    21885937.693  
                                
  21572600.659   115236961.410                    89628759.797    21572602.446  
                                
  20195270.199   108068970.481                    84053648.012    20195271.396  
                                
  21341388.814   113921783.140                    88605837.635    21341390.369  
                                
 21  8 31  6 51  0.0000000  0 13G 1G 4G 7G 8G 9G21G27G30R 1R 2R12R21
                                R22
  24257510.776   127474084.240    24257510.347    99330444.212    24257510.115  
  24257508.757    95191666.178  
  23334815.274   122625281.081    23334812.022    95552151.868    23334811.593  
  23334814.148    91570823.416  
  20783751.823   109219352.100    20783746.694    85105966.158    20783746.283  
                                
  20609625.538   108304314.003    20609623.894    84392959.552    20609622.947  
  20609621.053    80876579.523  
  21689860.868   113980988.299    21689858.510    88816339.075    21689858.385  
  21689858.152    85115657.680  
  22737734.612   119487604.870                    93107199.031    22737729.627  
                                
  22500683.618   118241889.961    22500680.473    92136520.930    22500679.811  
  22500678.525    88297494.150  
  22970080.068   120708587.098    22970078.209    94058628.724    22970077.316  
  22970076.994    90139515.105  
  22648150.053   121067344.439                    94163517.573    22648156.360  
                                
  21885996.607   116787866.990                    90835020.067    21885998.948  
                                
  21572223.122   115234944.748                    89627191.282    21572224.927  
                                
  20195169.168   108068429.866                    84053227.531    20195170.383  
                                
  21340664.797   113917918.291                    88602831.644    21340666.334  
                                
 21  8 31  6 51  1.0000000  0 13G 1G 4G 7G 8G 9G21G27G30R 1R 2R12R21
                                R22
  24256877.909   127470758.556    24256877.498    99327852.761    24256877.265  
  24256875.890    95189182.724  
  23335493.225   122628843.754    23335489.990    95554927.975    23335489.579  
  23335492.135    91573483.855  
  20783430.573   109217663.947    20783425.445    85104650.714    20783425.034  
                                
  20609897.415   108305742.651    20609895.753    84394072.785    20609894.824  
  20609892.912    80877646.367  
  21690302.537   113983309.371    21690300.214    88818147.703    21690300.107  
  21690299.821    85117390.950  
  22737323.553   119485444.688                    93105515.772    22737318.586  
                                
  22501270.347   118244973.224    22501267.202    92138923.471    22501266.541  
  22501265.236    88299796.587  
  22969531.310   120705703.342    22969529.452    94056381.641    22969528.523  
  22969528.237    90137361.653  
  22648813.422   121070890.533                    94166275.646    22648819.712  
                                
  21886058.041   116788194.633                    90835274.901    21886060.346  
                                
  21571845.550   115232927.943                    89625622.656    21571847.354  
                                
  20195068.297   108067890.012                    84052807.644    20195069.512  
                                
  21339940.869   113914053.671                    88599825.828    21339942.317  
                                
 21  8 31  6 51  2.0000000  0 13G 1G 4G 7G 8G 9G21G27G30R 1R 2R12R21
                                R22
  24256245.024   127467432.729    24256244.631    99325261.205    24256244.416  
  24256243.004    95186699.151  
  23336171.175   122632406.471    23336167.941    95557704.108    23336167.566  
  23336170.103    91576144.315  
  20783109.360   109215975.979    20783104.249    85103335.415    20783103.838  
                                
  20610169.382   108307171.759    20610167.702    84395186.373    20610166.773  
  20610164.861    80878713.558  
  21690744.313   113985630.807    21690741.972    88819956.614    21690741.847  
  21690741.579    85119124.499  
  22736912.530   119483284.708                    93103832.675    22736907.580  
                                
  22501857.130   118248056.716    22501853.985    92141326.194    22501853.342  
  22501851.984    88302099.203  
  22968982.570   120702819.575    22968980.694    94054134.554    22968979.747  
  22968979.497    90135208.195  
  22649476.827   121074436.725                    94169033.798    22649483.064  
                                
  21886119.582   116788522.956                    90835530.263    21886121.834  
                                
  21571467.977   115230911.060                    89624053.967    21571469.782  
                                
  20194967.569   108067350.977                    84052388.390    20194968.785  
                                
  21339216.906   113910189.376                    88596820.263    21339218.353  
                                
 21  8 31  6 51  3.0000000  0 13G 1G 4G 7G 8G 9G21G27G30R 1R 2R12R21
                                R22
  24255612.103   127464106.743    24255611.728    99322669.535    24255611.549  
  24255610.102    95184215.445  
  23336849.144   122635969.237    23336845.946    95560480.281    23336845.552  
  23336848.108    91578804.826  
  20782788.200   109214288.242    20782783.071    85102020.295    20782782.660  
                                
  20610441.420   108308601.364    20610439.758    84396300.353    20610438.847  
  20610436.899    80879781.116  
  21691186.125   113987952.643    21691183.802    88821765.829    21691183.677  
  21691183.408    85120858.322  
  22736501.560   119481124.971                    93102149.770    22736496.628  
                                
  22502443.966   118251140.481    22502440.804    92143729.130    22502440.196  
  22502438.784    88304402.010  
  22968433.795   120699935.804    22968431.918    94051887.467    22968430.989  
  22968430.721    90133054.725  
  22650140.286   121077983.034                    94171792.036    22650146.487  
                                
  21886181.230   116788852.008                    90835786.195    21886183.482  
                                
  21571090.405   115228894.085                    89622485.214    21571092.192  
                                
  20194866.985   108066812.772                    84051969.789    20194868.218  
                                
  21338493.103   113906325.409                    88593814.953    21338494.461  
                                
 21  8 31  6 51  4.0000000  0 13G 1G 4G 7G 8G 9G21G27G30R 1R 2R12R21
                                R22
  24254979.218   127460780.956    24254978.860    99320078.008    24254978.700  
  24254977.217    95181731.890  
  23337527.202   122639532.427    23337524.003    95563256.792    23337523.628  
  23337526.183    91581465.654  
  20782467.129   109212601.090    20782462.036    85100705.633    20782461.625  
                                
  20610713.636   108310031.820    20610711.957    84397414.992    20610711.045  
  20610709.080    80880849.324  
  21691628.097   113990275.194    21691625.756    88823575.607    21691625.685  
  21691625.381    85122592.697  
  22736090.716   119478965.839                    93100467.332    22736085.766  
                                
  22503030.910   118254224.850    22503027.765    92146132.537    22503027.140  
  22503025.692    88306705.273  
  22967885.109   120697052.418    22967883.232    94049640.675    22967882.303  
  22967882.035    90130901.549  
  22650803.835   121081529.832                    94174550.664    22650810.000  
                                
  21886243.111   116789182.161                    90836042.978    21886245.344  
                                
  21570712.850   115226877.441                    89620916.713    21570714.655  
                                
  20194766.650   108066275.787                    84051552.136    20194767.865  
                                
  21337769.443   113902462.223                    88590810.248    21337770.694  
                                
