     2.11           OBSERVATION DATA    M (MIXED)           RINEX VERSION / TYPE
CONVBIN 2.4.3                           20210901 190745 UTC PGM / RUN BY / DATE 
log: logs/21_09_01_08_12_04_ohlc_P1.rtcm                    COMMENT             
format: RTCM 3, station ID: 726                             COMMENT             
0726                                                        MARKER NAME         
                                                            MARKER NUMBER       
                                                            OBSERVER / AGENCY   
                                                            REC # / TYPE / VERS 
                                                            ANT # / TYPE        
   507437.5970 -4749451.4380  4212897.2210                  APPROX POSITION XYZ 
        0.0000        0.0000        0.0000                  ANTENNA: DELTA H/E/N
     1     1                                                WAVELENGTH FACT L1/2
     5    C1    L1    C2    L2    P2                        # / TYPES OF OBSERV 
  2021     9     1     8    12    9.0000000     GPS         TIME OF FIRST OBS   
  2021     9     1     8    42    8.0000000     GPS         TIME OF LAST OBS    
                                                            END OF HEADER       
 21  9  1  8 12  9.0000000  0 27G30G21G 7G 8G17G13G14G 1R 4R12R13R14
                                R22R23R24E13E15E19E21E27E30C11C12C23
                                C25C28C34
  20659226.014   108564965.2981   20659229.517    84596082.1951   20659228.284  
  21579705.847   113402130.7951                   88365308.8061   21579709.546  
  20483930.542   107643781.7411   20483931.400    83878278.8041   20483930.202  
  22301448.139   117194896.6991   22301452.553    91320718.5671   22301452.035  
  22785506.641   119738659.4681   22785510.054    93302891.6681   22785509.500  
  23596875.521   124002415.5951                   96625246.9741   23596877.379  
  21952972.815   115363673.3861   21952975.227    89893788.3541   21952974.941  
  21640166.276   113719847.4321   21640173.066    88612907.5841   21640172.601  
  23555885.573   126140747.338    23555893.667    98109453.981                  
  20921979.490   111761451.479    20921987.853    86925603.151                  
  19457082.652   103899745.552    19457089.943    80810935.152                  
  22417382.986   119497284.148    22417390.348    92942334.761                  
  21243641.524   113399982.390                                                  
  19528197.307   104462749.000                                                  
  22001318.671   117650967.253    22001328.928    91506353.333                  
  25737488.980   135251423.452                                                  
  23900861.517   125599886.411                                                  
  26764901.603   140650507.009                                                  
  25512454.207   134068857.870                                                  
  23478597.009   123380856.617                                                  
  25452290.671   133752678.823                                                  
                 113036306.883    21707431.300   113036306.883                  
                 128285339.955    24635849.759   128285339.955                  
                 115428932.932    22166912.748   115428932.932                  
                 118078572.652    22675748.633   118078572.652                  
                 130825445.308    25123647.961   130825445.308                  
                 119606520.290    22969174.466   119606520.290                  
 21  9  1  8 12 10.0000000  0 27G30G21G 7G 8G17G13G14G 1R 4R12R13R14
                                R22R23R24E13E15E19E21E27E30C11C12C23
                                C25C28C34
  20659059.243   108564088.8131   20659062.549    84595399.2181   20659061.494  
  21579672.771   113401957.3221                   88365173.6321   21579676.542  
  20484191.394   107645152.9971   20484191.644    83879347.3101   20484191.090  
  22302003.812   117197818.2331   22302008.798    91322995.0921   22302007.994  
  22784972.679   119735854.0421   22784976.092    93300705.6211   22784975.663  
  23596676.710   124001370.4651                   96624432.5821   23596678.497  
  21952557.020   115361488.8711   21952559.629    89892086.1341   21952559.254  
  21639653.435   113717152.3671   21639660.118    88610807.5331   21639659.778  
  23556250.351   126142701.020    23556258.714    98110973.500                  
  20922417.835   111763792.896    20922426.109    86927424.253                  
  19456918.364   103898869.291    19456925.172    80810253.564                  
  22416739.218   119493853.221    22416746.938    92939666.260                  
  21244253.163   113403248.823                                                  
  19527860.279   104460946.216                                                  
  22000542.262   117646816.206    22000552.323    91503124.727                  
  25736919.691   135248431.166                                                  
  23900715.491   125599119.155                                                  
  26765135.222   140651734.001                                                  
  25512097.058   134066981.258                                                  
  23478608.785   123380918.610                                                  
  25452664.206   133754641.405                                                  
                 113036770.844    21707520.359   113036770.844                  
                 128288229.690    24636404.681   128288229.690                  
                 115427811.690    22166697.462   115427811.690                  
                 118080279.822    22676076.494   118080279.822                  
                 130822177.897    25123020.705   130822177.897                  
                 119608362.454    22969528.326   119608362.454                  
 21  9  1  8 12 11.0000000  0 27G30G21G 7G 8G17G13G14G 1R 4R12R13R14
                                R22R23R24E13E15E19E21E27E30C11C12C23
                                C25C28C34
  20658892.418   108563212.3411   20658895.866    84594716.2541   20658894.723  
  21579639.749   113401783.9021                   88365038.4981   21579643.555  
  20484452.389   107646524.2591   20484452.567    83880415.8241   20484451.978  
  22302559.682   117200739.4061   22302564.560    91325271.3311   22302563.881  
  22784438.788   119733048.3281   22784442.362    93298519.3531   22784441.808  
  23596478.042   124000325.3751                   96623618.2271   23596479.669  
  21952141.226   115359303.9511   21952143.656    89890383.6021   21952143.495  
  21639140.630   113714457.2201   21639147.277    88608707.4181   21639146.920  
  23556615.272   126144654.744    23556623.420    98112493.058                  
  20922856.252   111766134.144    20922864.436    86929245.225                  
  19456754.094   103897992.933    19456761.063    80809571.976                  
  22416095.505   119490421.739    22416103.135    92936997.323                  
  21244865.230   113406515.199                                                  
  19527523.305   104459143.674                                                  
  21999765.943   117642664.909    21999775.592    91499895.954                  
  25736350.402   135245438.480                                                  
  23900569.448   125598351.808                                                  
  26765368.895   140652960.791                                                  
  25511739.910   134065104.129                                                  
  23478620.453   123380980.225                                                  
  25453037.436   133756603.548                                                  
                 113037234.756    21707609.472   113037234.756                  
                 128291119.081    24636959.514   128291119.081                  
                 115426690.203    22166482.069   115426690.203                  
                 118081986.777    22676404.248   118081986.777                  
                 130818910.079    25122393.288   130818910.079                  
                 119610204.443    22969882.168   119610204.443                  
 21  9  1  8 12 12.0000000  0 27G30G21G 7G 8G17G13G14G 1R 4R12R13R14
                                R22R23R24E13E15E19E21E27E30C11C12C23
                                C25C28C34
  20658725.753   108562336.6921   20658729.166    84594033.9311   20658728.112  
  21579606.942   113401611.3571                   88364904.0491   21579610.730  
  20484713.527   107647896.3521   20484713.545    83881484.9891   20484713.026  
  22303115.623   117203661.0461   22303120.465    91327547.9311   22303119.858  
  22783905.023   119730243.1741   22783908.507    93296333.5191   22783908.114  
  23596279.428   123999281.1581                   96622804.5281   23596280.947  
  21951725.432   115357119.4541   21951728.005    89888681.3961   21951727.808  
  21638627.932   113711762.8301   21638634.472    88606607.8941   21638634.204  
  23556980.604   126146609.353    23556988.502    98114013.312                  
  20923294.507   111768476.044    20923302.995    86931066.703                  
  19456590.039   103897117.324    19456597.115    80808890.933                  
  22415452.041   119486990.571    22415459.457    92934328.648                  
  21245477.048   113409782.395                                                  
  19527186.456   104457342.231                                                  
  21998989.462   117638514.182    21998999.969    91496667.602                  
  25735781.023   135242446.214                                                  
  23900423.547   125597585.193                                                  
  26765602.479   140654188.239                                                  
  25511382.780   134063227.318                                                  
  23478632.211   123381042.262                                                  
  25453410.898   133758566.042                                                  
                 113037699.426    21707698.746   113037699.426                  
                 128294008.898    24637514.401   128294008.898                  
                 115425569.324    22166266.943   115425569.324                  
                 118083694.345    22676732.127   118083694.345                  
                 130815642.643    25121765.906   130815642.643                  
                 119612047.066    22970236.100   119612047.066                  
 21  9  1  8 12 13.0000000  0 27G30G21G 7G 8G17G13G14G 1R 4R12R13R14
                                R22R23R24E13E15E19E21E27E30C11C12C23
                                C25C28C34
  20658559.250   108561461.7871   20658562.895    84593352.1841   20658561.626  
  21579574.188   113401439.5981                   88364770.2081   21579578.030  
  20484974.754   107649269.1981   20484975.308    83882554.7371   20484974.254  
  22303671.653   117206583.0431   22303676.639    91329824.8121   22303675.906  
  22783371.257   119727438.4931   22783374.974    93294148.0511   22783374.456  
  23596081.082   123998237.7271                   96621991.4581   23596082.404  
  21951309.870   115354935.2851   21951312.211    89886979.4461   21951312.175  
  21638115.305   113709069.0971   21638121.988    88604508.8831   21638121.613  
  23557345.758   126148564.715    23557353.692    98115534.147                  
  20923733.013   111770818.550    20923741.429    86932888.638                  
  19456426.269   103896242.371    19456433.220    80808210.402                  
  22414808.470   119483559.616    22414815.404    92931660.130                  
  21246088.508   113413050.277                                                  
  19526849.965   104455541.792                                                  
  21998213.035   117634363.953    21998223.685    91493439.637                  
  25735211.716   135239454.289                                                  
  23900277.718   125596819.228                                                  
  26765836.224   140655416.273                                                  
  25511025.757   134061350.723                                                  
  23478644.023   123381104.655                                                  
  25453784.450   133760528.842                                                  
                 113038164.766    21707788.109   113038164.766                  
                 128296899.074    24638069.038   128296899.074                  
                 115424448.945    22166051.765   115424448.945                  
                 118085402.434    22677060.059   118085402.434                  
                 130812375.532    25121138.561   130812375.532                  
                 119613890.244    22970589.978   119613890.244                  
 21  9  1  8 12 14.0000000  0 27G30G21G 7G 8G17G13G14G 1R 4R12R13R14
                                R22R23R24E13E15E19E21E27E30C11C12C23
                                C25C28C34
  20658392.728   108560587.2151   20658396.588    84592670.7001   20658395.194  
  21579541.577   113401268.2261                   88364636.6741   21579545.419  
  20485236.160   107650642.3761   20485236.714    83883624.7441   20485235.534  
  22304227.541   117209504.9881   22304232.615    91332101.6501   22304231.919  
  22782837.634   119724633.8531   22782841.244    93291962.6241   22782840.797  
  23595882.182   123997194.6651                   96621178.6831   23595883.915  
  21950894.254   115352751.0371   21950896.434    89885277.4371   21950896.524  
  21637602.714   113706375.6201   21637609.236    88602410.0681   21637609.094  
  23557711.394   126150520.493    23557718.934    98117055.296                  
  20924171.448   111773161.282    20924179.971    86934710.768                  
  19456262.678   103895367.657    19456270.594    80807530.057                  
  22414164.810   119480128.472    22414171.618    92928991.455                  
  21246700.915   113416318.471                                                  
  19526513.473   104453741.941                                                  
  21997436.841   117630213.838    21997447.133    91490211.772                  
  25734642.373   135236462.314                                                  
  23900132.032   125596053.499                                                  
  26766069.879   140656644.396                                                  
  25510668.609   134059473.941                                                  
  23478655.923   123381166.988                                                  
  25454157.841   133762491.501                                                  
                 113038630.370    21707877.507   113038630.370                  
                 128299789.225    24638624.121   128299789.225                  
                 115423328.676    22165836.586   115423328.676                  
                 118087110.631    22677387.991   118087110.631                  
                 130809108.348    25120511.269   130809108.348                  
                 119615733.562    22970943.928   119615733.562                  
 21  9  1  8 12 15.0000000  0 27G30G21G 7G 8G17G13G14G 1R 4R12R13R14
                                R22R23R24E13E15E19E21E27E30C11C12C23
                                C25C28C34
  20658226.386   108559713.2161   20658230.138    84591989.6611   20658228.905  
  21579509.180   113401097.4671                   88364503.6181   21579512.933  
  20485497.673   107652016.1351   20485498.281    83884695.2061   20485496.923  
  22304783.642   117212427.1441   22304788.360    91334378.6571   22304788.003  
  22782303.994   119721829.5001   22782307.550    93289777.4141   22782307.139  
  23595683.711   123996152.2291                   96620366.4081   23595685.605  
  21950478.656   115350566.9601   21950480.854    89883575.5541   21950480.926  
  21637090.141   113703682.6231   21637096.842    88600311.6341   21637096.628  
  23558076.797   126152476.857    23558084.106    98118576.922                  
  20924610.096   111775504.445    20924618.530    86936533.228                  
  19456099.105   103894493.417    19456106.878    80806850.125                  
  22413521.329   119476697.366    22413527.637    92926322.803                  
  21247313.197   113419587.176                                                  
  19526177.071   104451942.915                                                  
  21996660.771   117626064.058    21996671.028    91486984.183                  
  25734073.156   135233470.511                                                  
  23899986.489   125595288.256                                                  
  26766303.767   140657872.906                                                  
  25510311.425   134057597.194                                                  
  23478667.806   123381229.501                                                  
  25454531.393   133764454.260                                                  
                 113039096.483    21707967.031   113039096.483                  
                 128302679.559    24639179.383   128302679.559                  
                 115422208.748    22165621.550   115422208.748                  
                 118088819.185    22677716.066   118088819.185                  
                 130805841.298    25119883.923   130805841.298                  
                 119617577.275    22971298.020   119617577.275                  
 21  9  1  8 12 16.0000000  0 27G30G21G 7G 8G17G13G14G 1R 4R12R13R14
                                R22R23R24E13E15E19E21E27E30C11C12C23
                                C25C28C34
  20658060.168   108558839.7901   20658063.885    84591309.0671   20658062.705  
  21579476.820   113400927.3221                   88364371.0351   21579480.554  
  20485759.186   107653390.4671   20485760.097    83885766.1111   20485758.418  
  22305339.726   117215349.5111   22305344.372    91336655.8261   22305344.104  
  22781770.353   119719025.4351   22781774.034    93287592.4281   22781773.570  
  23595485.257   123995110.4151                   96619554.6051   23595487.402  
  21950063.041   115348383.0201   21950065.114    89881873.7831   21950065.346  
  21636577.658   113700990.1091   21636584.430    88598213.5631   21636584.287  
  23558442.487   126154433.813    23558449.474    98120099.008                  
  20925048.852   111777847.995    20925057.090    86938355.984                  
  19455935.639   103893619.657    19455943.127    80806170.546                  
  22412877.579   119473266.259    22412884.155    92923654.177                  
  21247925.890   113422856.443                                                  
  19525840.901   104450144.710                                                  
  21995884.898   117621914.567    21995894.994    91483756.797                  
  25733503.777   135230478.862                                                  
  23899840.892   125594523.468                                                  
  26766537.619   140659101.788                                                  
  25509954.366   134055720.514                                                  
  23478679.707   123381292.180                                                  
  25454904.963   133766417.144                                                  
                 113039563.090    21708056.716   113039563.090                  
                 128305570.078    24639734.520   128305570.078                  
                 115421089.145    22165406.550   115421089.145                  
                 118090528.071    22678044.160   118090528.071                  
                 130802574.396    25119256.559   130802574.396                  
                 119619421.343    22971652.095   119619421.343                  
 21  9  1  8 12 17.0000000  0 27G30G21G 7G 8G17G13G14G 1R 4R12R13R14
                                R22R23R24E13E15E19E21E27E30C11C12C23
                                C25C28C34
  20657894.022   108557966.8291   20657897.828    84590628.8401   20657896.577  
  21579444.530   113400757.6941                   88364238.8571   21579448.301  
  20486020.681   107654765.2791   20486021.486    83886837.3931   20486020.038  
  22305895.810   117218271.9811   22305900.760    91338933.0751   22305900.242  
  22781236.927   119716221.5871   22781240.305    93285407.6141   22781240.037  
  23595287.161   123994069.1141                   96618743.1951   23595289.288  
  21949647.461   115346199.1651   21949649.712    89880172.0781   21949649.766  
  21636065.442   113698298.0131   21636072.197    88596115.8291   21636072.018  
  23558808.141   126156391.329    23558815.092    98121621.513                  
  20925487.644   111780191.834    20925495.864    86940178.968                  
  19455772.531   103892746.314    19455779.428    80805491.251                  
  22412233.973   119469835.115    22412240.156    92920985.509                  
  21248538.530   113426126.155                                                  
  19525504.821   104448347.249                                                  
  21995108.846   117617765.288    21995119.032    91480529.585                  
  25732934.452   135227487.300                                                  
  23899695.438   125593759.083                                                  
  26766771.739   140660330.984                                                  
  25509597.236   134053843.785                                                  
  23478691.679   123381354.957                                                  
  25455278.658   133768380.032                                                  
                 113040030.125    21708146.526   113040030.125                  
                 128308460.709    24640289.853   128308460.709                  
                 115419969.796    22165191.586   115419969.796                  
                 118092237.221    22678372.342   118092237.221                  
                 130799307.549    25118629.232   130799307.549                  
                 119621265.728    22972006.241   119621265.728                  
 21  9  1  8 12 18.0000000  0 27G30G21G 7G 8G17G13G14G 1R 4R12R13R14
                                R22R23R24E13E15E19E21E27E30C11C12C23
                                C25C28C34
  20657728.054   108557095.0521   20657731.950    84589949.5311   20657730.735  
  21579412.420   113400589.2911                   88364107.6321   21579416.262  
  20486282.498   107656141.2801   20486283.249    83887909.6041   20486281.909  
  22306452.002   117221195.2701   22306457.166    91341210.9581   22306456.523  
  22780703.555   119713418.6231   22780706.485    93283223.4881   22780706.664  
  23595089.048   123993029.0251                   96617932.7341   23595091.406  
  21949231.988   115344016.0761   21949234.383    89878470.9671   21949234.311  
  21635553.459   113695606.9981   21635559.874    88594018.9381   21635559.963  
  23559173.866   126158350.082    23559180.817    98123144.995                  
  20925926.543   111782536.708    20925934.798    86942002.759                  
  19455609.619   103891874.054    19455616.338    80804812.820                  
  22411590.688   119466404.622    22411596.353    92918317.338                  
  21249151.187   113429397.006                                                  
  19525169.044   104446551.219                                                  
  21994333.045   117613616.976    21994343.552    91477303.116                  
  25732365.252   135224496.516                                                  
  23899550.288   125592995.765                                                  
  26767005.805   140661561.164                                                  
  25509240.159   134051967.713                                                  
  23478703.830   123381418.508                                                  
  25455652.281   133770343.618                                                  
                 113040498.235    21708236.443   113040498.235                  
                 128311352.121    24640845.116   128311352.121                  
                 115418851.380    22164976.836   115418851.380                  
                 118093947.317    22678700.793   118093947.317                  
                 130796041.453    25118002.082   130796041.453                  
                 119623111.084    22972360.673   119623111.084                  
 21  9  1  8 12 19.0000000  0 27G30G21G 7G 8G17G13G14G 1R 4R12R13R14
                                R22R23R24E13E15E19E21E27E30C11C12C23
                                C25C28C34
  20657562.069   108556223.3711   20657566.072    84589270.2991   20657564.874  
  21579380.416   113400421.0391                   88363976.5211   21579384.222  
  20486544.405   107657517.3691   20486545.048    83888981.8811   20486543.815  
  22307008.247   117224118.2571   22307013.554    91343488.6141   22307012.750  
  22780170.111   119710615.4791   22780172.863    93281039.2251   22780173.292  
  23594891.309   123991989.0951                   96617122.4141   23594893.543  
  21948816.516   115341832.6651   21948819.071    89876769.6081   21948818.785  
  21635041.422   113692915.9821   21635047.676    88591922.0431   21635047.909  
  23559539.788   126160308.964    23559546.685    98124668.558                  
  20926365.442   111784881.562    20926373.608    86943826.527                  
  19455446.475   103891001.776    19455453.140    80804134.404                  
  22410947.135   119462973.697    22410952.746    92915648.846                  
  21249763.737   113432667.901                                                  
  19524833.338   104444755.530                                                  
  21993557.315   117609468.533    21993568.090    91474076.579                  
  25731795.945   135221505.430                                                  
  23899405.013   125592232.451                                                  
  26767239.443   140662791.217                                                  
  25508883.029   134050091.209                                                  
  23478715.856   123381481.769                                                  
  25456025.815   133772306.870                                                  
                 113040966.392    21708326.342   113040966.392                  
                 128314243.257    24641400.109   128314243.257                  
                 115417732.827    22164761.979   115417732.827                  
                 118095657.293    22679029.172   118095657.293                  
                 130792775.037    25117374.898   130792775.037                  
                 119624956.350    22972714.927   119624956.350                  
 21  9  1  8 12 20.0000000  0 27G30G21G 7G 8G17G13G14G 1R 4R12R13R14
                                R22R23R24E13E15E19E21E27E30C11C12C23
                                C25C28C34
  20657396.352   108555352.3091   20657400.158    84588591.5491   20657399.121  
  21579348.609   113400253.4581                   88363845.9391   21579352.308  
  20486806.400   107658894.0921   20486807.133    83890054.6501   20486805.811  
  22307564.491   117227041.4981   22307570.066    91345766.4611   22307569.030  
  22779636.792   119707812.6821   22779639.401    93278855.2241   22779639.919  
  23594693.588   123990949.8191                   96616312.5981   23594695.804  
  21948401.007   115339649.4701   21948403.616    89875068.4171   21948403.348  
  21634529.492   113690225.5311   21634535.693    88589825.5901   21634535.961  
  23559905.835   126162268.492    23559912.679    98126192.626                  
  20926804.537   111787226.895    20926812.739    86945650.680                  
  19455283.760   103890130.064    19455289.281    80803456.367                  
  22410303.833   119459542.853    22410309.301    92912980.398                  
  21250376.394   113435939.404                                                  
  19524497.758   104442960.721                                                  
  21992781.603   117605320.512    21992792.342    91470850.333                  
  25731226.781   135218514.570                                                  
  23899259.881   125591469.673                                                  
  26767473.491   140664021.711                                                  
  25508525.934   134048214.809                                                  
  23478727.882   123381545.262                                                  
  25456399.421   133774270.271                                                  
                 113041435.125    21708416.437   113041435.125                  
                 128317134.620    24641955.532   128317134.620                  
                 115416614.672    22164547.175   115416614.672                  
                 118097367.673    22679357.676   118097367.673                  
                 130789508.807    25116747.516   130789508.807                  
                 119626802.038    22973069.323   119626802.038                  
 21  9  1  8 12 21.0000000  0 27G30G21G 7G 8G17G13G14G 1R 4R12R13R14
                                R22R23R24E13E15E19E21E27E30C11C12C23
                                C25C28C34
  20657230.652   108554481.6491   20657234.512    84587913.1131   20657233.475  
  21579316.677   113400086.3181                   88363715.7021   21579320.466  
  20487068.414   107660271.2111   20487069.343    83891127.7251   20487067.878  
  22308121.004   117229964.7641   22308125.972    91348044.3321   22308125.311  
  22779103.491   119705009.9811   22779106.064    93276671.3041   22779106.600  
  23594495.850   123989910.9971                   96615503.1201   23594498.173  
  21947985.606   115337466.2671   21947988.001    89873367.2201   21947987.893  
  21634017.545   113687535.3901   21634023.531    88587729.3711   21634024.103  
  23560271.846   126164228.444    23560278.332    98127717.045                  
  20927243.669   111789572.456    20927251.460    86947474.993                  
  19455120.312   103889258.630    19455126.602    80802778.638                  
  22409660.316   119456111.863    22409665.712    92910311.857                  
  21250989.016   113439211.224                                                  
  19524162.482   104441166.552                                                  
  21992006.051   117601172.639    21992017.291    91467624.198                  
  25730657.563   135215523.704                                                  
  23899114.802   125590707.183                                                  
  26767707.683   140665252.407                                                  
  25508168.822   134046338.285                                                  
  23478739.961   123381608.755                                                  
  25456773.009   133776233.599                                                  
                 113041904.169    21708506.586   113041904.169                  
                 128320026.021    24642510.741   128320026.021                  
                 115415496.684    22164332.461   115415496.684                  
                 118099078.225    22679686.216   118099078.225                  
                 130786242.559    25116120.206   130786242.559                  
                 119628647.947    22973423.844   119628647.947                  
 21  9  1  8 12 22.0000000  0 27G30G21G 7G 8G17G13G14G 1R 4R12R13R14
                                R22R23R24E13E15E19E21E27E30C11C12C23
                                C25C28C34
  20657065.131   108553611.4241   20657068.812    84587235.0161   20657067.919  
  21579284.978   113399919.6561                   88363585.8361   21579288.730  
  20487330.606   107661648.7731   20487331.410    83892201.1501   20487330.052  
  22308677.267   117232888.1021   22308682.413    91350322.2561   22308681.609  
  22778570.047   119702207.4631   22778572.942    93274487.5281   22778573.317  
  23594298.343   123988872.6721                   96614694.0241   23594300.631  
  21947570.223   115335283.0841   21947572.742    89871666.0391   21947572.439  
  21633505.597   113684845.6011   21633511.816    88585633.4391   21633512.263  
  23560638.018   126166188.911    23560644.326    98129241.852                  
  20927682.800   111791918.279    20927690.376    86949299.531                  
  19454957.275   103888387.547    19454963.636    80802101.130                  
  22409016.620   119452680.775    22409021.855    92907643.230                  
  21251601.977   113442483.428                                                  
  19523827.295   104439373.064                                                  
  21991230.732   117597024.931    21991241.454    91464398.201                  
  25730088.453   135212532.873                                                  
  23898969.795   125589945.045                                                  
  26767941.856   140666483.334                                                  
  25507811.691   134044461.675                                                  
  23478751.987   123381672.285                                                  
  25457146.507   133778196.915                                                  
                 113042373.576    21708596.754   113042373.576                  
                 128322917.454    24643065.913   128322917.454                  
                 115414378.884    22164117.782   115414378.884                  
                 118100788.989    22680014.863   118100788.989                  
                 130782976.321    25115492.789   130782976.321                  
                 119630494.105    22973778.330   119630494.105                  
 21  9  1  8 12 23.0000000  0 27G30G21G 7G 8G17G13G14G 1R 4R12R13R14
                                R22R23R24E13E15E19E21E27E30C11C12C23
                                C25C28C34
  20656899.700   108552741.9911   20656903.113    84586557.5351   20656902.505  
  21579253.385   113399753.8391                   88363456.6231   21579257.174  
  20487592.995   107663027.1281   20487593.477    83893275.1931   20487592.405  
  22309233.762   117235811.8491   22309238.997    91352600.5001   22309237.979  
  22778036.943   119699405.4461   22778039.766    93272304.1341   22778040.159  
  23594101.141   123987835.1771                   96613885.5931   23594103.214  
  21947154.875   115333100.2721   21947157.645    89869965.1481   21947157.037  
  21632993.972   113682156.5251   21633000.083    88583538.0551   21633000.530  
  23561004.172   126168150.215    23561010.587    98130767.309                  
  20928122.146   111794264.749    20928129.704    86951124.557                  
  19454793.845   103887517.196    19454800.152    80801424.185                  
  22408372.817   119449249.954    22408378.445    92904974.821                  
  21252215.456   113445756.403                                                  
  19523492.250   104437580.633                                                  
  21990455.467   117592877.730    21990465.974    91461172.619                  
  25729519.432   135209542.429                                                  
  23898824.877   125589183.594                                                  
  26768176.047   140667714.884                                                  
  25507454.686   134042585.322                                                  
  23478764.138   123381736.218                                                  
  25457520.184   133780160.540                                                  
                 113042843.705    21708687.010   113042843.705                  
                 128325809.291    24643621.193   128325809.291                  
                 115413261.645    22163903.283   115413261.645                  
                 118102500.326    22680343.492   118102500.326                  
                 130779710.439    25114865.426   130779710.439                  
                 119632340.854    22974132.941   119632340.854                  
 21  9  1  8 12 24.0000000  0 27G30G21G 7G 8G17G13G14G 1R 4R12R13R14
                                R22R23R24E13E15E19E21E27E30C11C12C23
                                C25C28C34
  20656734.465   108551873.6091   20656737.896    84585880.8741   20656737.306  
  21579222.043   113399589.1111                   88363328.2611   21579225.813  
  20487855.473   107664406.5211   20487856.152    83894350.0491   20487854.937  
  22309790.239   117238736.2701   22309795.492    91354879.2721   22309794.492  
  22777503.981   119696604.1771   22777506.715    93270121.3321   22777507.090  
  23593904.099   123986798.7451                   96613077.9881   23593905.993  
  21946739.653   115330918.1011   21946742.154    89868264.7531   21946741.743  
  21632482.471   113679468.4061   21632488.528    88581443.4191   21632489.029  
  23561370.773   126170112.610    23561376.991    98132293.618                  
  20928561.509   111796612.132    20928569.336    86952950.308                  
  19454631.308   103886647.768    19454636.847    80800747.979                  
  22407729.085   119445819.640    22407734.946    92902306.797                  
  21252829.061   113449030.402                                                  
  19523157.492   104435789.508                                                  
  21989680.237   117588731.342    21989689.887    91457947.685                  
  25728950.553   135206552.628                                                  
  23898680.210   125588423.091                                                  
  26768410.489   140668947.285                                                  
  25507097.681   134040709.496                                                  
  23478776.450   123381800.791                                                  
  25457893.879   133782124.757                                                  
                 113043314.810    21708777.481   113043314.810                  
                 128328701.803    24644176.938   128328701.803                  
                 115412145.221    22163688.908   115412145.221                  
                 118104212.469    22680672.371   118104212.469                  
                 130776445.181    25114238.134   130776445.181                  
                 119634188.450    22974487.802   119634188.450                  
 21  9  1  8 12 25.0000000  0 27G30G21G 7G 8G17G13G14G 1R 4R12R13R14
                                R22R23R24E13E15E19E21E27E30C11C12C23
                                C25C28C34
  20656569.266   108551005.7131   20656572.840    84585204.5921   20656572.179  
  21579190.611   113399424.9201                   88363200.3251   21579194.543  
  20488118.004   107665786.4191   20488119.255    83895425.2901   20488117.576  
  22310346.788   117241660.8121   22310351.791    91357158.1401   22310351.040  
  22776970.948   119693803.1231   22776973.700    93267938.6921   22776974.093  
  23593707.022   123985762.8761                   96612270.8201   23593708.898  
  21946324.287   115328736.0161   21946326.950    89866564.4271   21946326.503  
  21631970.899   113676780.7011   21631976.974    88579349.1061   21631977.617  
  23561737.499   126172075.544    23561743.521    98133820.333                  
  20929000.962   111798959.858    20929008.771    86954776.304                  
  19454468.575   103885778.794    19454473.399    80800072.080                  
  22407085.318   119442389.272    22407091.626    92899638.730                  
  21253442.558   113452304.877                                                  
  19522822.913   104433999.138                                                  
  21988904.882   117584585.252    21988914.014    91454722.904                  
  25728381.640   135203562.933                                                  
  23898535.596   125587662.995                                                  
  26768645.002   140670179.968                                                  
  25506740.604   134038833.656                                                  
  23478788.780   123381865.484                                                  
  25458267.645   133784089.024                                                  
                 113043786.358    21708867.934   113043786.358                  
                 128331594.422    24644732.718   128331594.422                  
                 115411029.055    22163474.533   115411029.055                  
                 118105924.893    22681001.179   118105924.893                  
                 130773179.994    25113610.949   130773179.994                  
                 119636036.350    22974842.698   119636036.350                  
 21  9  1  8 12 26.0000000  0 27G30G21G 7G 8G17G13G14G 1R 4R12R13R14
                                R22R23R24E13E15E19E21E27E30C11C12C23
                                C25C28C34
  20656404.371   108550138.6601   20656408.087    84584528.9631   20656407.212  
  21579159.591   113399261.6091                   88363073.0701   21579163.451  
  20488380.751   107667167.1531   20488382.037    83896501.1891   20488380.375  
  22310903.336   117244585.8261   22310908.375    91359437.3701   22310907.660  
  22776438.219   119691002.6351   22776441.185    93265756.4891   22776441.185  
  23593510.302   123984727.8931                   96611464.3511   23593511.981  
  21945909.083   115326554.3531   21945911.566    89864864.4301   21945911.334  
  21631459.523   113674093.7611   21631465.723    88577255.3871   21631466.331  
  23562104.279   126174039.360    23562110.336    98135347.741                  
  20929440.522   111801308.231    20929448.635    86956602.821                  
  19454305.627   103884910.565    19454310.684    80799396.794                  
  22406441.962   119438959.205    22406448.073    92896970.896                  
  21254056.305   113455580.121                                                  
  19522488.583   104432209.856                                                  
  21988129.831   117580439.789    21988138.480    91451498.667                  
  25727812.833   135200573.681                                                  
  23898391.000   125586903.642                                                  
  26768879.640   140671413.299                                                  
  25506383.742   134036958.118                                                  
  23478801.145   123381930.611                                                  
  25458641.501   133786053.649                                                  
                 113044258.664    21708958.691   113044258.664                  
                 128334487.498    24645288.677   128334487.498                  
                 115409913.492    22163260.266   115409913.492                  
                 118107637.925    22681330.112   118107637.925                  
                 130769915.218    25112983.782   130769915.218                  
                 119637884.902    22975197.649   119637884.902                  
 21  9  1  8 12 27.0000000  0 27G30G21G 7G 8G17G13G14G 1R 4R12R13R14
                                R22R23R24E13E15E19E21E27E30C11C12C23
                                C25C28C34
  20656239.440   108549272.0181   20656243.103    84583853.6581   20656242.317  
  21579128.535   113399098.7561                   88362946.1731   21579132.430  
  20488643.622   107668548.3011   20488644.479    83897577.4011   20488643.246  
  22311459.867   117247510.8521   22311464.888    91361716.6131   22311464.281  
  22775905.365   119688202.2761   22775908.563    93263574.3961   22775908.295  
  23593313.010   123983693.3561                   96610658.2141   23593315.190  
  21945493.967   115324372.6911   21945496.362    89863164.4311   21945496.147  
  21630948.237   113671407.1421   21630954.258    88575161.9171   21630955.098  
  23562471.165   126176003.606    23562476.687    98136875.497                  
  20929880.118   111803656.840    20929888.373    86958429.519                  
  19454142.680   103884042.652    19454148.487    80798721.755                  
  22405798.444   119435529.039    22405804.627    92894302.982                  
  21254670.213   113458855.756                                                  
  19522154.450   104430421.237                                                  
  21987354.584   117576294.500    21987362.589    91448274.551                  
  25727243.990   135197584.423                                                  
  23898246.582   125586144.588                                                  
  26769114.261   140672646.876                                                  
  25506026.880   134035082.471                                                  
  23478813.510   123381995.753                                                  
  25459015.249   133788018.230                                                  
                 113044731.317    21709049.412   113044731.317                  
                 128337380.603    24645844.618   128337380.603                  
                 115408798.094    22163046.034   115408798.094                  
                 118109351.141    22681659.117   118109351.141                  
                 130766650.427    25112356.740   130766650.427                  
                 119639733.672    22975552.653   119639733.672                  
 21  9  1  8 12 28.0000000  0 27G30G21G 7G 8G17G13G14G 1R 4R12R13R14
                                R22R23R24E13E15E19E21E27E30C11C12C23
                                C25C28C34
  20656074.651   108548405.7601   20656078.708    84583178.6511   20656077.511  
  21579097.639   113398936.3491                   88362819.6221   21579101.463  
  20488906.511   107669929.8511   20488907.529    83898653.9361   20488906.171  
  22312016.469   117250435.9131   22312021.419    91363995.8751   22312020.918  
  22775372.618   119685402.0261   22775376.138    93261392.3831   22775375.423  
  23593116.039   123982659.2741                   96609852.4271   23593118.470  
  21945078.799   115322191.0081   21945081.372    89861464.4181   21945080.925  
  21630437.057   113668720.8421   21630443.008    88573068.6961   21630443.937  
  23562838.141   126177968.241    23562843.341    98138403.554                  
  20930319.857   111806005.705    20930328.362    86960256.405                  
  19453980.143   103883175.056    19453986.183    80798046.958                  
  22405155.034   119432098.725    22405161.342    92891634.958                  
  21255283.478   113462131.716                                                  
  19521820.282   104428633.266                                                  
  21986579.283   117572149.357    21986587.574    91445050.525                  
  25726675.201   135194595.168                                                  
  23898102.218   125585385.851                                                  
  26769348.952   140673880.615                                                  
  25505670.089   134033206.704                                                  
  23478825.929   123382060.903                                                  
  25459389.051   133789982.725                                                  
                 113045204.289    21709140.401   113045204.289                  
                 128340273.719    24646400.488   128340273.719                  
                 115407682.876    22162831.910   115407682.876                  
                 118111064.537    22681988.121   118111064.537                  
                 130763385.613    25111729.591   130763385.613                  
                 119641582.639    22975907.746   119641582.639                  
 21  9  1  8 12 29.0000000  0 27G30G21G 7G 8G17G13G14G 1R 4R12R13R14
                                R22R23R24E13E15E19E21E27E30C11C12C23
                                C25C28C34
  20655909.863   108547539.5541   20655913.687    84582503.6841   20655912.705  
  21579066.886   113398774.0301                   88362693.1401   21579070.532  
  20489169.400   107671311.4391   20489170.365    83899730.4981   20489169.132  
  22312572.875   117253360.6571   22312578.128    91366274.8961   22312577.485  
  22774839.674   119682601.5261   22774843.105    93259210.1801   22774842.515  
  23592919.123   123981625.2511                   96609046.7081   23592921.749  
  21944663.576   115320008.9611   21944666.113    89859764.1221   21944665.667  
  21629925.842   113666034.4921   21629931.686    88570975.4371   21629932.740  
  23563204.957   126179932.981    23563209.996    98139931.668                  
  20930759.488   111808354.493    20930768.030    86962083.242                  
  19453817.731   103882307.450    19453823.807    80797372.144                  
  22404511.357   119428667.937    22404517.646    92888966.567                  
  21255897.386   113465407.720                                                  
  19521486.131   104426845.567                                                  
  21985804.142   117568003.995    21985812.880    91441826.376                  
  25726106.305   135191605.554                                                  
  23897957.801   125584627.056                                                  
  26769583.590   140675114.196                                                  
  25505313.066   134031330.444                                                  
  23478838.277   123382125.699                                                  
  25459762.764   133791946.813                                                  
                 113045677.238    21709231.265   113045677.238                  
                 128343166.484    24646956.161   128343166.484                  
                 115406567.452    22162617.714   115406567.452                  
                 118112777.752    22682317.197   118112777.752                  
                 130760120.416    25111102.442   130760120.416                  
                 119643431.473    22976262.732   119643431.473                  
 21  9  1  8 12 30.0000000  0 27G30G21G 7G 8G17G13G14G 1R 4R12R13R14
                                R22R23R24E13E15E19E21E27E30C11C12C23
                                C25C28C34
  20655745.218   108546674.0921   20655749.149    84581829.3001   20655748.059  
  21579036.223   113398612.4941                   88362567.2681   21579039.761  
  20489432.396   107672693.7791   20489433.272    83900807.6441   20489432.235  
  22313129.495   117256285.7681   22313134.659    91368554.2061   22313134.141  
  22774306.713   119679801.5081   22774310.215    93257028.3521   22774309.679  
  23592722.260   123980592.0461                   96608241.6201   23592725.119  
  21944248.371   115317827.2481   21944251.070    89858064.0881   21944250.498  
  21629414.860   113663348.8121   21629420.221    88568882.7011   21629421.668  
  23563572.112   126181898.540    23563577.061    98141460.425                  
  20931199.424   111810703.881    20931207.661    86963910.555                  
  19453655.516   103881440.498    19453660.931    80796697.832                  
  22403867.661   119425237.373    22403874.219    92886298.351                  
  21256510.830   113468684.416                                                  
  19521152.159   104425058.874                                                  
  21985029.234   117563859.124    21985038.508    91438602.575                  
  25725537.356   135188616.288                                                  
  23897813.526   125583868.915                                                  
  26769818.461   140676348.363                                                  
  25504956.096   134029454.413                                                  
  23478850.624   123382190.849                                                  
  25460136.388   133793911.177                                                  
                 113046150.871    21709322.236   113046150.871                  
                 128346059.623    24647511.941   128346059.623                  
                 115405452.551    22162403.678   115405452.551                  
                 118114491.485    22682646.416   118114491.485                  
                 130756855.538    25110475.310   130756855.538                  
                 119645280.851    22976617.843   119645280.851                  
 21  9  1  8 12 31.0000000  0 27G30G21G 7G 8G17G13G14G 1R 4R12R13R14
                                R22R23R24E13E15E19E21E27E30C11C12C23
                                C25C28C34
  20655580.716   108545809.3891   20655584.451    84581155.5101   20655583.557  
  21579005.685   113398451.7751                   88362442.0321   21579009.152  
  20489695.589   107674076.8841   20489696.661    83901885.3901   20489695.517  
  22313686.222   117259211.2611   22313691.511    91370833.8081   22313690.850  
  22773773.841   119677001.9831   22773777.254    93254846.8971   22773776.968  
  23592525.754   123979559.6401                   96607437.1291   23592528.720  
  21943833.310   115315645.8881   21943835.686    89856364.3291   21943835.383  
  21628903.913   113660663.8121   21628909.327    88566790.4961   21628910.703  
  23563939.284   126183864.928    23563944.073    98142989.837                  
  20931639.430   111813053.877    20931647.364    86965738.325                  
  19453493.516   103880574.216    19453499.109    80796024.066                  
  22403224.072   119421807.023    22403230.291    92883630.296                  
  21257124.899   113471961.833                                                  
  19520818.348   104423273.209                                                  
  21984254.362   117559714.766    21984263.565    91435379.197                  
  25724968.585   135185627.399                                                  
  23897669.323   125583111.431                                                  
  26770053.421   140677583.076                                                  
  25504599.127   134027578.629                                                  
  23478863.097   123382256.358                                                  
  25460510.172   133795875.846                                                  
                 113046625.183    21709413.279   113046625.183                  
                 128348953.150    24648067.792   128348953.150                  
                 115404338.174    22162189.733   115404338.174                  
                 118116205.765    22682975.760   118116205.765                  
                 130753591.012    25109848.394   130753591.012                  
                 119647130.807    22976973.168   119647130.807                  
 21  9  1  8 12 32.0000000  0 27G30G21G 7G 8G17G13G14G 1R 4R12R13R14
                                R22R23R24E13E15E19E21E27E30C11C12C23
                                C25C28C34
  20655416.232   108544945.4811   20655420.199    84580482.3331   20655419.216  
  21578975.308   113398291.8851                   88362317.4381   21578978.703  
  20489958.925   107675460.7791   20489959.925    83902963.7481   20489958.907  
  22314242.896   117262137.1611   22314248.399    91373113.7281   22314247.649  
  22773241.183   119674202.9411   22773244.417    93252665.8281   22773244.328  
  23592329.302   123978528.0581                   96606633.2991   23592332.447  
  21943418.248   115313464.9031   21943420.517    89854664.8601   21943420.321  
  21628393.252   113657979.5251   21628398.613    88564698.8411   21628399.882  
  23564306.546   126185832.143    23564311.657    98144519.887                  
  20932079.384   111815404.490    20932087.246    86967566.587                  
  19453331.980   103879708.659    19453337.662    80795350.834                  
  22402580.448   119418376.929    22402586.630    92880962.447                  
  21257738.610   113475239.984                                                  
  19520484.751   104421488.590                                                  
  21983479.543   117555570.970    21983488.567    91432156.226                  
  25724399.849   135182638.881                                                  
  23897525.299   125582354.648                                                  
  26770288.613   140678818.417                                                  
  25504242.229   134025703.102                                                  
  23478875.605   123382322.269                                                  
  25460883.974   133797840.847                                                  
                 113047100.217    21709504.518   113047100.217                  
                 128351847.060    24648623.555   128351847.060                  
                 115403224.352    22161975.733   115403224.352                  
                 118117920.603    22683305.068   118117920.603                  
                 130750326.834    25109221.405   130750326.834                  
                 119648981.360    22977328.494   119648981.360                  
 21  9  1  8 12 33.0000000  0 27G30G21G 7G 8G17G13G14G 1R 4R12R13R14
                                R22R23R24E13E15E19E21E27E30C11C12C23
                                C25C28C34
  20655251.926   108544081.9581   20655255.964    84579809.4561   20655254.892  
  21578944.930   113398132.4161                   88362193.1761   21578948.343  
  20490222.475   107676845.0491   20490223.297    83904042.4021   20490222.350  
  22314799.587   117265063.0821   22314805.145    91375393.6691   22314804.430  
  22772708.597   119671404.0121   22772711.670    93250484.8481   22772711.688  
  23592132.904   123977496.9191                   96605829.8241   23592136.245  
  21943003.276   115311283.8951   21943005.563    89852965.3731   21943005.259  
  21627882.448   113655295.5471   21627887.916    88562607.4321   21627889.149  
  23564673.916   126187799.733    23564679.312    98146050.237                  
  20932519.426   111817755.360    20932527.360    86969395.035                  
  19453169.586   103878843.385    19453175.429    80794677.813                  
  22401937.145   119414946.653    22401942.935    92878294.455                  
  21258352.590   113478518.489                                                  
  19520151.315   104419704.604                                                  
  21982704.689   117551427.304    21982713.087    91428933.394                  
  25723831.221   135179650.356                                                  
  23897381.400   125581598.145                                                  
  26770523.876   140680053.926                                                  
  25503885.295   134023827.432                                                  
  23478888.167   123382388.168                                                  
  25461257.865   133799805.753                                                  
                 113047575.562    21709595.757   113047575.562                  
                 128354740.982    24649179.281   128354740.982                  
                 115402110.676    22161761.859   115402110.676                  
                 118119635.598    22683634.537   118119635.598                  
                 130747062.611    25108594.596   130747062.611                  
                 119650832.098    22977683.998   119650832.098                  
 21  9  1  8 12 34.0000000  0 27G30G21G 7G 8G17G13G14G 1R 4R12R13R14
                                R22R23R24E13E15E19E21E27E30C11C12C23
                                C25C28C34
  20655087.656   108543218.7701   20655091.319    84579136.8391   20655090.676  
  21578914.696   113397973.3331                   88362069.2141   21578918.002  
  20490485.972   107678229.6691   20490486.847    83905121.3241   20490485.900  
  22315356.475   117267988.9471   22315361.854    91377673.5631   22315361.229  
  22772176.100   119668605.1261   22772178.726    93248303.8961   22772179.102  
  23591937.113   123976466.1381                   96605026.6131   23591940.150  
  21942588.125   115309102.7981   21942590.376    89851265.8131   21942590.162  
  21627371.787   113652611.8151   21627377.273    88560516.2071   21627378.452  
  23565041.499   126189767.675    23565046.842    98147580.863                  
  20932959.630   111820106.421    20932967.367    86971223.633                  
  19453007.925   103877978.356    19453013.339    80794005.055                  
  22401293.146   119411516.193    22401299.453    92875626.322                  
  21258967.106   113481797.295                                                  
  19519817.861   104417921.203                                                  
  21981930.013   117547283.744    21981938.233    91425710.632                  
  25723262.558   135176661.750                                                  
  23897237.429   125580841.878                                                  
  26770758.836   140681289.566                                                  
  25503528.236   134021951.577                                                  
  23478900.675   123382453.999                                                  
  25461631.793   133801770.531                                                  
                 113048051.181    21709687.086   113048051.181                  
                 128357634.860    24649735.062   128357634.860                  
                 115400997.104    22161548.110   115400997.104                  
                 118121350.709    22683963.988   118121350.709                  
                 130743798.311    25107967.804   130743798.311                  
                 119652682.979    22978039.395   119652682.979                  
 21  9  1  8 12 35.0000000  0 27G30G21G 7G 8G17G13G14G 1R 4R12R13R14
                                R22R23R24E13E15E19E21E27E30C11C12C23
                                C25C28C34
  20654923.618   108542356.5791   20654927.353    84578465.0021   20654926.620  
  21578884.658   113397815.2961                   88361946.0681   21578887.875  
  20490749.665   107679615.2861   20490750.630    83906201.0281   20490749.611  
  22315913.542   117270915.4291   22315918.867    91379953.9361   22315918.134  
  22771643.549   119665806.9711   22771646.265    93246123.5131   22771646.605  
  23591741.197   123975436.4141                   96604224.2151   23591744.252  
  21942173.170   115306922.3011   21942175.404    89849566.7241   21942175.190  
  21626861.287   113649928.9951   21626866.541    88558425.7011   21626867.934  
  23565409.315   126191736.685    23565414.783    98149112.318                  
  20933399.887   111822458.323    20933407.409    86973052.897                  
  19452845.871   103877114.266    19452852.500    80793332.978                  
  22400649.289   119408086.209    22400656.186    92872958.566                  
  21259581.872   113485077.061                                                  
  19519484.640   104416139.072                                                  
  21981155.516   117543140.957    21981163.218    91422488.447                  
  25722693.965   135173673.768                                                  
  23897093.691   125580086.522                                                  
  26770994.135   140682526.040                                                  
  25503171.303   134020076.201                                                  
  23478913.327   123382520.444                                                  
  25462005.738   133803735.851                                                  
                 113048527.727    21709778.593   113048527.727                  
                 128360529.335    24650291.003   128360529.335                  
                 115399884.308    22161334.468   115399884.308                  
                 118123066.597    22684293.582   118123066.597                  
                 130740534.582    25107341.084   130740534.582                  
                 119654534.671    22978395.042   119654534.671                  
 21  9  1  8 12 36.0000000  0 27G30G21G 7G 8G17G13G14G 1R 4R12R13R14
                                R22R23R24E13E15E19E21E27E30C11C12C23
                                C25C28C34
  20654759.688   108541494.8781   20654763.655    84577793.5511   20654762.672  
  21578854.692   113397657.8211                   88361823.3601   21578857.855  
  20491013.412   107681001.4141   20491014.216    83907281.1341   20491013.429  
  22316470.484   117273842.0391   22316475.827    91382234.4141   22316475.058  
  22771111.213   119663009.0391   22771113.679    93243943.3091   22771114.197  
  23591545.549   123974407.2321                   96603422.2551   23591548.372  
  21941758.269   115304741.8971   21941760.146    89847867.7081   21941760.253  
  21626350.876   113647246.6101   21626356.309    88556335.5311   21626357.488  
  23565777.149   126193706.287    23565782.635    98150644.223                  
  20933840.179   111824810.541    20933847.595    86974882.389                  
  19452683.942   103876250.567    19452690.982    80792661.242                  
  22400005.218   119404656.204    22400012.562    92870290.793                  
  21260196.834   113488357.343                                                  
  19519151.686   104414357.690                                                  
  21980381.090   117538998.435    21980388.184    91419266.486                  
  25722125.248   135170685.880                                                  
  23896950.077   125579331.577                                                  
  26771229.542   140683762.781                                                  
  25502814.476   134018200.812                                                  
  23478925.978   123382587.003                                                  
  25462379.665   133805701.222                                                  
                 113049004.697    21709870.136   113049004.697                  
                 128363423.952    24650846.783   128363423.952                  
                 115398771.763    22161120.808   115398771.763                  
                 118124782.766    22684623.159   118124782.766                  
                 130737270.937    25106714.471   130737270.937                  
                 119656386.669    22978750.690   119656386.669                  
 21  9  1  8 12 37.0000000  0 27G30G21G 7G 8G17G13G14G 1R 4R12R13R14
                                R22R23R24E13E15E19E21E27E30C11C12C23
                                C25C28C34
  20654595.811   108540633.8611   20654599.742    84577122.6241   20654598.867  
  21578824.904   113397501.0401                   88361701.1951   21578827.995  
  20491277.426   107682388.2051   20491278.481    83908361.7481   20491277.391  
  22317027.461   117276768.9461   22317032.643    91384515.1211   22317032.036  
  22770578.895   119660211.4831   22770581.647    93241763.3991   22770581.808  
  23591350.276   123973378.7641                   96602620.8651   23591352.671  
  21941343.404   115302561.7341   21941345.263    89846168.8801   21941345.281  
  21625840.501   113644564.7941   21625846.416    88554245.8041   21625847.167  
  23566145.036   126195676.592    23566150.540    98152176.664                  
  20934280.704   111827163.234    20934288.263    86976712.263                  
  19452521.816   103875387.446    19452529.500    80791989.905                  
  22399361.415   119401226.354    22399369.349    92867623.132                  
  21260811.439   113491638.206                                                  
  19518818.929   104412577.223                                                  
  21979606.576   117534856.329    21979613.473    91416044.855                  
  25721556.566   135167698.242                                                  
  23896806.482   125578577.189                                                  
  26771464.823   140684999.997                                                  
  25502457.596   134016325.553                                                  
  23478938.719   123382653.826                                                  
  25462753.610   133807666.786                                                  
                 113049482.264    21709961.822   113049482.264                  
                 128366318.830    24651402.724   128366318.830                  
                 115397659.656    22160907.255   115397659.656                  
                 118126499.369    22684952.753   118126499.369                  
                 130734007.519    25106087.715   130734007.519                  
                 119658239.135    22979106.426   119658239.135                  
 21  9  1  8 12 38.0000000  0 27G30G21G 7G 8G17G13G14G 1R 4R12R13R14
                                R22R23R24E13E15E19E21E27E30C11C12C23
                                C25C28C34
  20654432.077   108539773.3281   20654435.973    84576452.0791   20654435.151  
  21578795.027   113397344.7891                   88361579.4391   21578798.226  
  20491541.334   107683775.4861   20491542.245    83909442.7471   20491541.459  
  22317584.582   117279695.9701   22317589.639    91386795.9211   22317589.049  
  22770046.684   119657414.1401   22770049.454    93239583.6541   22770049.436  
  23591155.200   123972350.8441                   96601819.8931   23591157.058  
  21940928.450   115300381.6621   21940930.523    89844470.1271   21940930.362  
  21625330.323   113641883.4011   21625336.148    88552156.4041   21625336.917  
  23566513.299   126197647.399    23566518.463    98153709.514                  
  20934721.354   111829516.282    20934729.020    86978542.404                  
  19452360.155   103874524.725    19452368.446    80791318.955                  
  22398717.737   119397796.451    22398726.100    92864955.409                  
  21261425.973   113494919.522                                                  
  19518486.297   104410797.505                                                  
  21978832.239   117530714.500    21978838.994    91412823.419                  
  25720987.992   135164710.710                                                  
  23896662.976   125577823.206                                                  
  26771700.319   140686237.554                                                  
  25502100.787   134014450.267                                                  
  23478951.477   123382720.746                                                  
  25463127.698   133809632.370                                                  
                 113049960.255    21710053.579   113049960.255                  
                 128369213.834    24651958.540   128369213.834                  
                 115396547.809    22160693.774   115396547.809                  
                 118128216.240    22685282.418   118128216.240                  
                 130730744.176    25105461.048   130730744.176                  
                 119660091.906    22979462.234   119660091.906                  
 21  9  1  8 12 39.0000000  0 27G30G21G 7G 8G17G13G14G 1R 4R12R13R14
                                R22R23R24E13E15E19E21E27E30C11C12C23
                                C25C28C34
  20654268.326   108538913.0951   20654272.310    84575781.7671   20654271.470  
  21578765.293   113397188.9081                   88361457.9731   21578768.474  
  20491805.402   107685163.0811   20491806.403    83910523.9871   20491805.563  
  22318141.577   117282622.9241   22318146.670    91389076.6671   22318146.044  
  22769514.562   119654616.8131   22769517.386    93237403.9191   22769517.100  
  23590959.588   123971323.2741                   96601019.1821   23590961.553  
  21940513.567   115298201.4811   21940515.729    89842771.2851   21940515.425  
  21624820.091   113639202.2251   21624825.630    88550067.1811   21624826.720  
  23566881.544   126199618.534    23566886.226    98155242.633                  
  20935161.897   111831869.508    20935169.599    86980372.694                  
  19452198.530   103873662.236    19452206.035    80790648.107                  
  22398074.523   119394366.294    22398082.582    92862287.521                  
  21262040.149   113498201.086                                                  
  19518153.683   104409018.331                                                  
  21978057.724   117526572.710    21978064.622    91409602.043                  
  25720419.382   135161723.089                                                  
  23896519.541   125577069.425                                                  
  26771936.101   140687475.178                                                  
  25501743.979   134012574.753                                                  
  23478964.182   123382787.578                                                  
  25463501.679   133811597.811                                                  
                 113050438.482    21710145.319   113050438.482                  
                 128372108.750    24652514.320   128372108.750                  
                 115395436.025    22160480.310   115395436.025                  
                 118129933.206    22685612.102   118129933.206                  
                 130727480.714    25104834.399   130727480.714                  
                 119661944.793    22979818.131   119661944.793                  
 21  9  1  8 12 40.0000000  0 27G30G21G 7G 8G17G13G14G 1R 4R12R13R14
                                R22R23R24E13E15E19E21E27E30C11C12C23
                                C25C28C34
  20654104.770   108538053.3371   20654108.755    84575111.8281   20654107.897  
  21578735.738   113397033.5151                   88361336.8901   21578738.847  
  20492069.399   107686551.1311   20492070.847    83911605.5871   20492069.775  
  22318698.554   117285549.9861   22318703.701    91391357.4921   22318703.057  
  22768982.494   119651819.6671   22768985.389    93235224.3251   22768984.799  
  23590764.279   123970296.2021                   96600218.8661   23590766.156  
  21940098.612   115296021.3441   21940100.739    89841072.4751   21940100.489  
  21624310.073   113636521.4331   21624315.434    88547978.2571   21624316.560  
  23567249.503   126201590.188    23567254.435    98156776.144                  
  20935602.673   111834223.036    20935610.320    86982203.218                  
  19452037.619   103872800.108    19452044.535    80789977.554                  
  22397430.917   119390936.057    22397439.155    92859619.566                  
  21262654.593   113501483.073                                                  
  19517821.123   104407239.871                                                  
  21977283.227   117522431.138    21977289.910    91406380.776                  
  25719850.807   135158735.515                                                  
  23896376.196   125576316.014                                                  
  26772171.650   140688713.069                                                  
  25501387.063   134010699.183                                                  
  23478976.940   123382854.475                                                  
  25463875.677   133813563.243                                                  
                 113050917.095    21710237.148   113050917.095                  
                 128375003.748    24653070.315   128375003.748                  
                 115394324.471    22160266.811   115394324.471                  
                 118131650.399    22685941.785   118131650.399                  
                 130724217.299    25104207.661   130724217.299                  
                 119663797.939    22980174.011   119663797.939                  
 21  9  1  8 12 41.0000000  0 27G30G21G 7G 8G17G13G14G 1R 4R12R13R14
                                R22R23R24E13E15E19E21E27E30C11C12C23
                                C25C28C34
  20653941.358   108537194.6201   20653945.289    84574442.6991   20653944.557  
  21578706.415   113396879.2241                   88361216.6631   21578709.452  
  20492333.646   107687940.2401   20492335.219    83912688.0071   20492334.200  
  22319255.711   117288477.7271   22319260.839    91393638.8461   22319260.196  
  22768450.516   119649023.2931   22768452.982    93233045.3301   22768452.642  
  23590569.096   123969270.2431                   96599419.4201   23590571.008  
  21939684.105   115293841.8561   21939685.892    89839374.1721   21939685.677  
  21623800.163   113633841.6181   21623805.649    88545890.0871   21623806.578  
  23567618.034   126203562.980    23567622.894    98158310.526                  
  20936043.537   111836577.470    20936050.935    86984034.437                  
  19451876.208   103871938.961    19451883.731    80789307.757                  
  22396787.775   119387506.368    22396795.530    92856952.020                  
  21263269.252   113504766.055                                                  
  19517488.884   104405462.734                                                  
  21976509.016   117518290.358    21976516.164    91403160.206                  
  25719282.358   135155748.614                                                  
  23896233.011   125575563.557                                                  
  26772407.504   140689951.835                                                  
  25501030.308   134008824.146                                                  
  23478989.806   123382922.023                                                  
  25464249.729   133815529.267                                                  
                 113051396.700    21710329.102   113051396.700                  
                 128377899.411    24653626.399   128377899.411                  
                 115393213.741    22160053.545   115393213.741                  
                 118133368.421    22686271.630   118133368.421                  
                 130720954.497    25103581.066   130720954.497                  
                 119665651.952    22980530.015   119665651.952                  
 21  9  1  8 12 42.0000000  0 27G30G21G 7G 8G17G13G14G 1R 4R12R13R14
                                R22R23R24E13E15E19E21E27E30C11C12C23
                                C25C28C34
  20653778.107   108536336.8871   20653782.145    84573774.3351   20653781.341  
  21578677.217   113396725.9761                   88361097.2471   21578680.201  
  20492598.108   107689330.3321   20492599.591    83913771.1961   20492598.805  
  22319813.045   117291406.0951   22319817.906    91395920.6921   22319817.459  
  22767918.608   119646227.6361   22767921.235    93230866.8971   22767920.646  
  23590373.770   123968245.3191                   96598620.7691   23590376.021  
  21939269.454   115291662.9401   21939271.241    89837676.3181   21939270.991  
  21623290.431   113631162.6961   21623296.113    88543802.6151   21623296.792  
  23567986.332   126205536.780    23567990.907    98159845.709                  
  20936484.580   111838932.722    20936491.942    86985866.300                  
  19451715.155   103871078.718    19451723.017    80788638.683                  
  22396144.973   119384077.134    22396152.603    92854284.834                  
  21263884.589   113508049.995                                                  
  19517156.967   104403686.843                                                  
  21975734.841   117514150.386    21975742.274    91399940.219                  
  25718714.266   135152762.287                                                  
  23896089.988   125574811.995                                                  
  26772643.232   140691191.387                                                  
  25500673.642   134006949.574                                                  
  23479002.779   123382990.178                                                  
  25464623.943   133817495.800                                                  
                 113051877.224    21710421.431   113051877.224                  
                 128380795.668    24654182.554   128380795.668                  
                 115392103.760    22159840.349   115392103.760                  
                 118135087.199    22686601.670   118135087.199                  
                 130717692.253    25102954.400   130717692.253                  
                 119667506.761    22980886.216   119667506.761                  
 21  9  1  8 12 43.0000000  0 27G30G21G 7G 8G17G13G14G 1R 4R12R13R14
                                R22R23R24E13E15E19E21E27E30C11C12C23
                                C25C28C34
  20653614.802   108535479.2211   20653618.679    84573106.0241   20653618.179  
  21578647.965   113396572.8031                   88360977.8941   21578651.021  
  20492862.659   107690720.4921   20492863.999    83914854.4371   20492863.409  
  22320370.041   117294334.1431   22320375.133    91398202.2881   22320374.669  
  22767386.558   119643431.7431   22767388.899    93228688.2781   22767388.649  
  23590178.443   123967220.4921                   96597822.2071   23590181.052  
  21938854.839   115289483.6721   21938856.483    89835978.1921   21938856.215  
  21622780.592   113628483.7591   21622786.221    88541715.1291   21622786.971  
  23568354.756   126207510.646    23568359.616    98161380.940                  
  20936925.373   111841287.882    20936932.682    86987698.093                  
  19451554.334   103870218.442    19451561.714    80787969.610                  
  22395501.992   119380647.412    22395509.139    92851617.263                  
  21264499.820   113511333.958                                                  
  19516825.050   104401911.260                                                  
  21974960.451   117510010.224    21974968.403    91396720.109                  
  25718145.942   135149775.632                                                  
  23895946.946   125574060.395                                                  
  26772879.049   140692430.801                                                  
  25500316.780   134005074.535                                                  
  23479015.663   123383057.988                                                  
  25464998.066   133819461.954                                                  
                 113052357.730    21710513.742   113052357.730                  
                 128383691.611    24654738.745   128383691.611                  
                 115390993.605    22159627.082   115390993.605                  
                 118136805.829    22686931.658   118136805.829                  
                 130714429.658    25102327.804   130714429.658                  
                 119669361.425    22981242.364   119669361.425                  
 21  9  1  8 12 44.0000000  0 27G30G21G 7G 8G17G13G14G 1R 4R12R13R14
                                R22R23R24E13E15E19E21E27E30C11C12C23
                                C25C28C34
  20653451.675   108534622.3501   20653455.571    84572438.3301   20653455.160  
  21578619.035   113396420.5081                   88360859.2231   21578621.948  
  20493127.460   107692111.4581   20493128.514    83915938.3121   20493128.175  
  22320927.197   117297262.6411   22320932.879    91400484.2341   22320931.968  
  22766854.562   119640636.3851   22766857.028    93226510.0761   22766856.688  
  23589983.492   123966196.5081                   96597024.2901   23589986.262  
  21938440.296   115287304.8001   21938442.029    89834280.3691   21938441.475  
  21622270.985   113625805.5461   21622276.310    88539628.2151   21622277.329  
  23568723.501   126209485.338    23568728.343    98162916.821                  
  20937366.345   111843643.703    20937373.761    86989530.396                  
  19451392.959   103869358.899    19451401.017    80787301.056                  
  22394858.975   119377217.949    22394866.051    92848949.907                  
  21265115.461   113514618.705                                                  
  19516493.347   104400136.743                                                  
  21974186.579   117505870.614    21974194.388    91393500.415                  
  25717577.707   135146789.358                                                  
  23895804.047   125573309.496                                                  
  26773114.831   140693670.849                                                  
  25499960.096   134003199.780                                                  
  23479028.582   123383126.217                                                  
  25465372.297   133821428.433                                                  
                 113052838.966    21710606.286   113052838.966                  
                 128386587.981    24655294.990   128386587.981                  
                 115389884.019    22159414.030   115389884.019                  
                 118138525.023    22687261.824   118138525.023                  
                 130711167.426    25101701.352   130711167.426                  
                 119671216.705    22981598.690   119671216.705                  
 21  9  1  8 12 45.0000000  0 27G30G21G 7G 8G17G13G14G 1R 4R12R13R14
                                R22R23R24E13E15E19E21E27E30C11C12C23
                                C25C28C34
  20653288.656   108533765.9341   20653292.659    84571770.9951   20653292.212  
  21578590.266   113396268.7061                   88360740.9331   21578593.000  
  20493392.261   107693502.8741   20493393.476    83917022.5301   20493393.011  
  22321484.389   117300191.2001   22321489.803    91402766.2261   22321489.267  
  22766322.601   119637841.1901   22766325.371    93224332.0031   22766324.781  
  23589788.577   123965173.0341                   96596226.7871   23589791.526  
  21938025.699   115285125.9661   21938027.486    89832582.5771   21938026.753  
  21621761.379   113623127.7011   21621766.882    88537541.5801   21621767.776  
  23569092.425   126211460.555    23569097.910    98164453.103                  
  20937807.335   111845999.844    20937814.947    86991362.943                  
  19451232.155   103868499.726    19451239.821    80786632.782                  
  22394216.208   119373788.385    22394222.766    92846282.464                  
  21265731.031   113517903.836                                                  
  19516161.859   104398362.925                                                  
  21973412.511   117501731.207    21973420.552    91390280.878                  
  25717009.418   135143803.152                                                  
  23895661.328   125572558.958                                                  
  26773350.756   140694911.129                                                  
  25499603.288   134001324.952                                                  
  23479041.608   123383194.498                                                  
  25465746.546   133823394.907                                                  
                 113053320.595    21710698.955   113053320.595                  
                 128389484.389    24655851.181   128389484.389                  
                 115388774.649    22159201.031   115388774.649                  
                 118140244.441    22687592.043   118140244.441                  
                 130707905.241    25101074.989   130707905.241                  
                 119673072.239    22981955.141   119673072.239                  
 21  9  1  8 12 46.0000000  0 27G30G21G 7G 8G17G13G14G 1R 4R12R13R14
                                R22R23R24E13E15E19E21E27E30C11C12C23
                                C25C28C34
  20653125.798   108532909.8741   20653129.926    84571103.9371   20653129.336  
  21578561.550   113396117.2981                   88360622.9521   21578564.141  
  20493657.026   107694894.6541   20493658.492    83918107.0361   20493657.920  
  22322041.670   117303119.7261   22322047.066    91405048.1941   22322046.566  
  22765790.747   119635046.0701   22765793.571    93222153.9841   22765792.856  
  23589593.519   123964149.9621                   96595429.5931   23589596.878  
  21937611.012   115282947.0741   21937612.996    89830884.7431   21937612.049  
  21621251.790   113620450.1401   21621257.526    88535455.1691   21621258.223  
  23569461.527   126213436.174    23569466.620    98165989.693                  
  20938248.414   111848356.170    20938256.115    86993195.653                  
  19451070.941   103867640.825    19451079.286    80785964.776                  
  22393573.102   119370358.669    22393579.446    92843614.919                  
  21266346.941   113521189.230                                                  
  19515830.532   104396589.710                                                  
  21972638.353   117497591.892    21972645.394    91387061.407                  
  25716441.344   135140816.910                                                  
  23895518.554   125571808.672                                                  
  26773586.698   140696151.559                                                  
  25499246.479   133999449.960                                                  
  23479054.581   123383262.739                                                  
  25466120.777   133825361.260                                                  
                 113053802.506    21710791.498   113053802.506                  
                 128392380.789    24656407.426   128392380.789                  
                 115387665.395    22158987.908   115387665.395                  
                 118141963.989    22687922.263   118141963.989                  
                 130704642.971    25100448.394   130704642.971                  
                 119674927.941    22982311.539   119674927.941                  
 21  9  1  8 12 47.0000000  0 27G30G21G 7G 8G17G13G14G 1R 4R12R13R14
                                R22R23R24E13E15E19E21E27E30C11C12C23
                                C25C28C34
  20652962.993   108532054.5141   20652967.282    84570437.4231   20652966.621  
  21578532.889   113395966.6461                   88360505.5611   21578535.408  
  20493922.149   107696287.1401   20493923.650    83919192.0881   20493922.935  
  22322599.041   117306048.5701   22322604.365    91407330.4101   22322603.937  
  22765258.965   119632251.3771   22765261.646    93219976.3091   22765261.056  
  23589398.764   123963127.6561                   96594632.9861   23589402.374  
  21937196.397   115280768.4771   21937198.077    89829187.1331   21937197.398  
  21620742.416   113617773.1981   21620747.955    88533369.2451   21620748.777  
  23569830.522   126215412.534    23569836.008    98167526.841                  
  20938689.636   111850713.044    20938697.194    86995028.768                  
  19450909.941   103866782.552    19450918.554    80785297.221                  
  22392930.157   119366929.161    22392935.857    92840947.524                  
  21266963.029   113524475.313                                                  
  19515499.240   104394817.469                                                  
  21971864.196   117493453.014    21971870.396    91383842.291                  
  25715873.252   135137830.974                                                  
  23895375.906   125571059.000                                                  
  26773822.855   140697392.510                                                  
  25498889.724   133997575.144                                                  
  23479067.590   123383331.293                                                  
  25466494.972   133827327.866                                                  
                 113054285.039    21710884.114   113054285.039                  
                 128395277.505    24656963.510   128395277.505                  
                 115386556.627    22158774.962   115386556.627                  
                 118143684.026    22688252.607   118143684.026                  
                 130701380.989    25099822.013   130701380.989                  
                 119676784.155    22982667.990   119676784.155                  
 21  9  1  8 12 48.0000000  0 27G30G21G 7G 8G17G13G14G 1R 4R12R13R14
                                R22R23R24E13E15E19E21E27E30C11C12C23
                                C25C28C34
  20652800.528   108531200.0031   20652804.567    84569771.5701   20652804.066  
  21578504.334   113395816.8811                   88360388.8611   21578506.800  
  20494187.343   107697680.4751   20494188.451    83920277.8031   20494188.129  
  22323156.465   117308977.8861   22323161.772    91409612.9961   22323161.379  
  22764727.201   119629457.2421   22764730.131    93217799.0631   22764729.363  
  23589204.224   123962106.2211                   96593837.0541   23589208.066  
  21936781.961   115278590.3011   21936783.730    89827489.8531   21936782.837  
  21620233.220   113615097.0251   21620239.027    88531283.9151   21620239.474  
  23570199.625   126217389.746    23570205.182    98169064.673                  
  20939130.893   111853070.581    20939138.470    86996862.408                  
  19450749.370   103865925.043    19450757.715    80784630.298                  
  22392287.015   119363499.942    22392292.394    92838280.347                  
  21267579.010   113527762.206                                                  
  19515168.127   104393046.327                                                  
  21971090.092   117489314.765    21971096.596    91380623.639                  
  25715305.142   135134845.466                                                  
  23895233.347   125570310.070                                                  
  26774058.994   140698634.114                                                  
  25498532.915   133995700.639                                                  
  23479080.634   123383400.288                                                  
  25466869.185   133829294.844                                                  
                 113054768.351    21710976.907   113054768.351                  
                 128398174.681    24657519.791   128398174.681                  
                 115385448.458    22158562.107   115385448.458                  
                 118145404.683    22688583.095   118145404.683                  
                 130698119.415    25099195.579   130698119.415                  
                 119678641.008    22983024.638   119678641.008                  
 21  9  1  8 12 49.0000000  0 27G30G21G 7G 8G17G13G14G 1R 4R12R13R14
                                R22R23R24E13E15E19E21E27E30C11C12C23
                                C25C28C34
  20652638.010   108530346.0341   20652642.262    84569106.1431   20652641.583  
  21578475.994   113395667.6931                   88360272.6131   21578478.334  
  20494452.698   107699074.3441   20494453.806    83921363.9421   20494453.431  
  22323714.157   117311907.3781   22323719.232    91411895.7181   22323718.856  
  22764195.598   119626663.3721   22764198.707    93215622.0211   22764197.688  
  23589010.042   123961085.3771                   96593041.5881   23589013.812  
  21936367.578   115276412.2711   21936368.901    89825792.6871   21936368.275  
  21619724.114   113612421.3071   21619729.796    88529198.9471   21619730.278  
  23570568.853   126219367.529    23570574.428    98170602.965                  
  20939572.312   111855428.506    20939579.817    86998696.351                  
  19450589.031   103865068.006    19450597.447    80783963.685                  
  22391643.712   119360070.717    22391648.733    92835613.169                  
  21268194.866   113531049.588                                                  
  19514837.282   104391275.998                                                  
  21970316.149   117485176.854    21970323.189    91377405.268                  
  25714737.050   135131860.108                                                  
  23895090.877   125569561.589                                                  
  26774295.545   140699876.046                                                  
  25498176.178   133993826.172                                                  
  23479093.750   123383469.444                                                  
  25467243.470   133831261.908                                                  
                 113055252.132    21711069.844   113055252.132                  
                 128401072.008    24658076.286   128401072.008                  
                 115384340.606    22158349.322   115384340.606                  
                 118147125.647    22688913.636   118147125.647                  
                 130694857.971    25098569.180   130694857.971                  
                 119680498.216    22983381.286   119680498.216                  
 21  9  1  8 12 50.0000000  0 27G30G21G 7G 8G17G13G14G 1R 4R12R13R14
                                R22R23R24E13E15E19E21E27E30C11C12C23
                                C25C28C34
  20652475.562   108529492.5881   20652479.815    84568441.1171   20652479.207  
  21578447.725   113395519.0811                   88360156.8141   21578449.958  
  20494718.071   107700468.7321   20494719.090    83922450.4781   20494718.804  
  22324271.670   117314837.0081   22324276.924    91414178.5461   22324276.370  
  22763663.923   119623869.7331   22763666.996    93213445.1601   22763666.085  
  23588816.395   123960065.0951                   96592246.5641   23588819.683  
  21935953.231   115274234.3381   21935954.500    89824095.5981   21935953.750  
  21619214.954   113609746.0381   21619220.886    88527114.3261   21619221.154  
  23570938.545   126221345.913    23570943.584    98172141.692                  
  20940013.694   111857786.821    20940021.396    87000530.590                  
  19450428.818   103864211.400    19450437.377    80783297.429                  
  22391000.159   119356641.445    22391005.359    92832945.964                  
  21268810.489   113534337.465                                                  
  19514506.383   104389506.440                                                  
  21969542.313   117481039.224    21969549.264    91374187.121                  
  25714169.065   135128874.862                                                  
  23894948.479   125568813.527                                                  
  26774531.987   140701118.330                                                  
  25497819.423   133991951.687                                                  
  23479106.938   123383538.712                                                  
  25467617.808   133833229.021                                                  
                 113055736.375    21711162.709   113055736.375                  
                 128403969.468    24658632.638   128403969.468                  
                 115383233.033    22158136.627   115383233.033                  
                 118148846.914    22689244.195   118148846.914                  
                 130691596.611    25097942.710   130691596.611                  
                 119682355.747    22983737.952   119682355.747                  
 21  9  1  8 12 51.0000000  0 27G30G21G 7G 8G17G13G14G 1R 4R12R13R14
                                R22R23R24E13E15E19E21E27E30C11C12C23
                                C25C28C34
  20652313.311   108528639.9991   20652317.457    84567776.7621   20652316.993  
  21578419.599   113395371.3611                   88360041.7121   21578421.779  
  20494983.658   107701863.9721   20494984.355    83923537.6781   20494984.319  
  22324829.291   117317767.1111   22324834.563    91416461.7431   22324833.973  
  22763132.498   119621076.6571   22763135.142    93211268.7391   22763134.571  
  23588622.373   123959045.7151                   96591452.2341   23588625.715  
  21935538.777   115272056.8401   21935540.118    89822398.8511   21935539.313  
  21618705.812   113607071.5291   21618711.815    88525030.2911   21618712.191  
  23571308.291   126223325.186    23571313.491    98173681.142                  
  20940455.309   111860145.819    20940462.904    87002365.380                  
  19450268.407   103863355.561    19450276.788    80782631.767                  
  22390356.589   119353212.500    22390361.896    92830279.000                  
  21269426.703   113537626.174                                                  
  19514175.789   104387737.990                                                  
  21968768.584   117476902.209    21968776.054    91370969.438                  
  25713601.081   135125890.070                                                  
  23894806.348   125568066.223                                                  
  26774768.716   140702361.245                                                  
  25497462.900   133990077.528                                                  
  23479120.161   123383608.437                                                  
  25467992.236   133835196.522                                                  
                 113056221.382    21711255.825   113056221.382                  
                 128406867.383    24659189.151   128406867.383                  
                 115382126.064    22157924.022   115382126.064                  
                 118150568.795    22689574.969   118150568.795                  
                 130688335.673    25097316.401   130688335.673                  
                 119684213.927    22984094.778   119684213.927                  
 21  9  1  8 12 52.0000000  0 27G30G21G 7G 8G17G13G14G 1R 4R12R13R14
                                R22R23R24E13E15E19E21E27E30C11C12C23
                                C25C28C34
  20652151.132   108527787.5241   20652155.278    84567112.4981   20652154.813  
  21578391.634   113395223.8111                   88359926.7361   21578393.635  
  20495249.281   107703259.3551   20495249.942    83924624.9961   20495249.871  
  22325386.876   117320696.9761   22325392.237    91418744.7521   22325391.504  
  22762600.877   119618283.4441   22762603.646    93209092.2121   22762603.003  
  23588428.834   123958026.5021                   96590658.0421   23588431.782  
  21935124.377   115269879.0711   21935125.699    89820701.8911   21935124.824  
  21618196.902   113604397.0611   21618202.941    88522946.2871   21618203.209  
  23571678.269   126225304.593    23571683.415    98175220.676                  
  20940896.960   111862504.806    20940904.501    87004200.134                  
  19450108.515   103862499.743    19450115.681    80781966.142                  
  22389712.768   119349783.159    22389718.700    92827611.739                  
  21270042.934   113540914.987                                                  
  19513845.194   104385969.916                                                  
  21967994.891   117472765.077    21968002.897    91367751.689                  
  25713033.078   135122905.023                                                  
  23894664.147   125567318.948                                                  
  26775005.195   140703604.116                                                  
  25497106.163   133988202.991                                                  
  23479133.402   123383677.905                                                  
  25468366.538   133837163.682                                                  
                 113056706.442    21711348.905   113056706.442                  
                 128409765.055    24659745.378   128409765.055                  
                 115381019.009    22157711.416   115381019.009                  
                 118152290.588    22689905.724   118152290.588                  
                 130685074.474    25096690.074   130685074.474                  
                 119686072.063    22984451.730   119686072.063                  
 21  9  1  8 12 53.0000000  0 27G30G21G 7G 8G17G13G14G 1R 4R12R13R14
                                R22R23R24E13E15E19E21E27E30C11C12C23
                                C25C28C34
  20651989.060   108526935.5741   20651993.456    84566448.6411   20651992.723  
  21578363.633   113395076.8211                   88359812.2011   21578365.581  
  20495514.904   107704655.2421   20495515.619    83925712.6981   20495515.548  
  22325944.318   117323626.9811   22325949.858    91421027.8761   22325949.071  
  22762069.237   119615490.4531   22762072.418    93206915.8531   22762071.542  
  23588235.437   123957007.8431                   96589864.2961   23588237.939  
  21934709.851   115267701.3991   21934711.138    89819004.9971   21934710.352  
  21617688.189   113601723.0361   21617694.246    88520862.6341   21617694.318  
  23572047.943   126227284.532    23572052.661    98176760.624                  
  20941338.504   111864864.150    20941346.080    87006035.193                  
  19449948.391   103861644.357    19449955.306    80781300.866                  
  22389069.304   119346353.829    22389075.541    92824944.472                  
  21270659.147   113544204.262                                                  
  19513514.760   104384202.598                                                  
  21967221.323   117468628.193    21967229.936    91364534.120                  
  25712465.057   135119920.075                                                  
  23894521.945   125566572.096                                                  
  26775241.852   140704847.245                                                  
  25496749.497   133986328.424                                                  
  23479146.660   123383747.480                                                  
  25468740.858   133839130.895                                                  
                 113057191.953    21711441.984   113057191.953                  
                 128412662.856    24660301.694   128412662.856                  
                 115379912.224    22157498.935   115379912.224                  
                 118154012.672    22690236.498   118154012.672                  
                 130681813.326    25096063.961   130681813.326                  
                 119687930.501    22984808.628   119687930.501                  
 21  9  1  8 12 54.0000000  0 27G30G21G 7G 8G17G13G14G 1R 4R12R13R14
                                R22R23R24E13E15E19E21E27E30C11C12C23
                                C25C28C34
  20651827.006   108526084.3081   20651831.366    84565785.3171   20651830.759  
  21578335.740   113394930.5691                   88359698.2371   21578337.669  
  20495780.652   107706051.8231   20495781.296    83926800.9431   20495781.331  
  22326501.975   117326557.2861   22326507.496    91423311.2301   22326506.692  
  22761537.705   119612697.8771   22761540.761    93204739.8201   22761540.153  
  23588041.827   123955989.9331                   96589071.1151   23588044.292  
  21934295.558   115265524.0031   21934297.023    89817308.3241   21934295.933  
  21617179.440   113599049.6271   21617185.497    88518779.4561   21617185.569  
  23572417.492   126229265.230    23572422.103    98178301.161                  
  20941780.190   111867224.047    20941788.088    87007870.661                  
  19449787.981   103860789.570    19449795.289    80780636.008                  
  22388425.626   119342924.652    22388432.220    92822277.332                  
  21271275.360   113547494.183                                                  
  19513184.540   104382436.223                                                  
  21966447.827   117464491.748    21966456.905    91361316.883                  
  25711897.108   135116935.407                                                  
  23894379.904   125565825.831                                                  
  26775478.563   140706090.917                                                  
  25496392.760   133984454.030                                                  
  23479159.955   123383817.364                                                  
  25469115.339   133841098.334                                                  
                 113057678.083    21711535.368   113057678.083                  
                 128415560.942    24660858.207   128415560.942                  
                 115378805.892    22157286.580   115378805.892                  
                 118155735.219    22690567.432   118155735.219                  
                 130678552.455    25095437.849   130678552.455                  
                 119689789.437    22985165.669   119689789.437                  
 21  9  1  8 12 55.0000000  0 27G30G21G 7G 8G17G13G14G 1R 4R12R13R14
                                R22R23R24E13E15E19E21E27E30C11C12C23
                                C25C28C34
  20651665.166   108525233.7261   20651669.508    84565122.5241   20651668.901  
  21578308.078   113394785.0431                   88359584.8461   21578309.865  
  20496046.544   107707449.0871   20496047.365    83927889.7221   20496047.240  
  22327059.738   117329487.8911   22327065.171    91425594.8181   22327064.384  
  22761006.209   119609905.7111   22761009.497    93202564.1061   22761008.836  
  23587848.376   123954972.7241                   96588278.4911   23587850.646  
  21933881.318   115263346.8771   21933882.837    89815611.8631   21933881.568  
  21616670.726   113596376.8141   21616676.820    88516696.7471   21616676.891  
  23572787.739   126231246.674    23572792.367    98179842.286                  
  20942222.127   111869584.456    20942230.043    87009706.526                  
  19449628.089   103859935.389    19449634.897    80779971.645                  
  22387782.199   119339495.636    22387788.756    92819610.310                  
  21271891.198   113550784.680                                                  
  19512854.464   104380670.775                                                  
  21965674.402   117460355.760    21965683.551    91358099.992                  
  25711329.249   135113951.026                                                  
  23894237.971   125565080.155                                                  
  26775715.524   140707335.079                                                  
  25496036.059   133982579.792                                                  
  23479173.357   123383887.530                                                  
  25469489.856   133843065.985                                                  
                 113058164.826    21711628.841   113058164.826                  
                 128418459.348    24661414.559   128418459.348                  
                 115377700.011    22157074.260   115377700.011                  
                 118157458.213    22690898.366   118157458.213                  
                 130675291.866    25094811.825   130675291.866                  
                 119691648.860    22985522.799   119691648.860                  
 21  9  1  8 12 56.0000000  0 27G30G21G 7G 8G17G13G14G 1R 4R12R13R14
                                R22R23R24E13E15E19E21E27E30C11C12C23
                                C25C28C34
  20651503.344   108524383.3581   20651507.597    84564459.9021   20651507.115  
  21578280.399   113394639.7851                   88359471.6531   21578282.115  
  20496312.470   107708846.5711   20496313.149    83928978.6731   20496313.203  
  22327617.484   117332418.3421   22327622.559    91427878.2871   22327622.059  
  22760474.677   119607113.4631   22760477.840    93200388.3261   22760477.501  
  23587654.694   123953955.8171                   96587486.0921   23587657.124  
  21933467.007   115261169.5581   21933468.705    89813915.2521   21933467.186  
  21616162.263   113593704.1421   21616168.071    88514614.1481   21616168.232  
  23573157.592   126233228.401    23573162.648    98181383.650                  
  20942663.974   111871944.892    20942671.783    87011542.430                  
  19449468.232   103859081.348    19449475.076    80779307.382                  
  22387138.521   119336066.256    22387145.579    92816943.021                  
  21272507.626   113554075.380                                                  
  19512524.459   104378905.799                                                  
  21964901.156   117456219.746    21964910.698    91354883.075                  
  25710761.282   135110966.480                                                  
  23894096.073   125564334.597                                                  
  26775952.164   140708579.235                                                  
  25495679.286   133980705.249                                                  
  23479186.687   123383957.516                                                  
  25469864.373   133845033.392                                                  
                 113058651.727    21711722.439   113058651.727                  
                 128421357.585    24661971.000   128421357.585                  
                 115376594.128    22156861.905   115376594.128                  
                 118159181.213    22691229.193   118159181.213                  
                 130672031.045    25094185.713   130672031.045                  
                 119693508.319    22985879.965   119693508.319                  
 21  9  1  8 12 57.0000000  0 27G30G21G 7G 8G17G13G14G 1R 4R12R13R14
                                R22R23R24E13E15E19E21E27E30C11C12C23
                                C25C28C34
  20651341.683   108523533.8791   20651346.061    84563797.9701   20651345.489  
  21578252.881   113394495.4541                   88359359.1831   21578254.578  
  20496578.594   107710244.9411   20496579.576    83930068.3101   20496579.362  
  22328175.158   117335349.2931   22328179.930    91430162.1421   22328179.804  
  22759943.306   119604321.8311   22759946.433    93198213.0311   22759946.290  
  23587461.191   123952939.8141                   96586694.4081   23587463.799  
  21933052.750   115258992.7131   21933054.447    89812219.0121   21933052.875  
  21615653.729   113591032.2771   21615659.572    88512532.1721   21615659.697  
  23573527.534   126235211.023    23573532.627    98182925.663                  
  20943105.857   111874306.050    20943113.863    87013378.886                  
  19449308.305   103858228.097    19449315.202    80778643.754                  
  22386494.735   119332637.239    22386502.312    92814276.013                  
  21273123.696   113557366.932                                                  
  19512194.775   104377141.958                                                  
  21964128.035   117452084.426    21964137.041    91351666.755                  
  25710193.386   135107982.422                                                  
  23893954.318   125563589.828                                                  
  26776189.089   140709824.102                                                  
  25495322.585   133978831.073                                                  
  23479200.142   123384027.996                                                  
  25470238.944   133847001.236                                                  
                 113059139.430    21711816.126   113059139.430                  
                 128424256.296    24662527.620   128424256.296                  
                 115375488.881    22156649.710   115375488.881                  
                 118160904.876    22691560.253   118160904.876                  
                 130668770.685    25093559.689   130668770.685                  
                 119695368.453    22986237.185   119695368.453                  
 21  9  1  8 12 58.0000000  0 27G30G21G 7G 8G17G13G14G 1R 4R12R13R14
                                R22R23R24E13E15E19E21E27E30C11C12C23
                                C25C28C34
  20651180.112   108522684.8141   20651184.418    84563136.3631   20651183.936  
  21578225.559   113394351.5841                   88359247.0761   21578227.078  
  20496844.806   107711643.7221   20496845.396    83931158.2721   20496845.557  
  22328732.797   117338280.2841   22328737.407    91432446.0301   22328737.568  
  22759411.864   119601530.3261   22759415.223    93196037.8341   22759415.080  
  23587267.991   123951924.2841                   96585903.0881   23587270.564  
  21932638.599   115256815.8721   21932639.921    89810522.7741   21932638.581  
  21615145.266   113588360.7371   21615151.020    88510450.4581   21615151.270  
  23573897.333   126237194.063    23573902.301    98184468.026                  
  20943547.919   111876667.492    20943555.960    87015215.560                  
  19449148.627   103857375.195    19449154.917    80777980.367                  
  22385851.165   119329208.125    22385859.206    92811608.917                  
  21273740.499   113560658.854                                                  
  19511865.235   104375378.789                                                  
  21963354.699   117447949.304    21963363.491    91348450.545                  
  25709625.473   135104998.358                                                  
  23893812.670   125562845.373                                                  
  26776426.050   140711069.209                                                  
  25494965.990   133976956.785                                                  
  23479213.616   123384098.496                                                  
  25470613.335   133848969.012                                                  
                 113059627.479    21711909.885   113059627.479                  
                 128427155.050    24663084.187   128427155.050                  
                 115374383.814    22156437.498   115374383.814                  
                 118162628.717    22691891.241   118162628.717                  
                 130665510.329    25092933.684   130665510.329                  
                 119697228.816    22986594.440   119697228.816                  
 21  9  1  8 12 59.0000000  0 27G30G21G 7G 8G17G13G14G 1R 4R12R13R14
                                R22R23R24E13E15E19E21E27E30C11C12C23
                                C25C28C34
  20651018.808   108521836.7471   20651023.186    84562475.5291   20651022.578  
  21578198.452   113394208.7381                   88359135.7721   21578199.756  
  20497111.251   107713043.5011   20497111.662    83932249.0081   20497111.966  
  22329290.454   117341211.8951   22329295.171    91434730.4021   22329295.457  
  22758880.725   119598739.5331   22758884.227    93193863.1881   22758884.013  
  23587075.005   123950909.7891                   96585112.5731   23587077.525  
  21932224.520   115254639.6121   21932225.950    89808826.9921   21932224.377  
  21614637.160   113585690.1281   21614642.789    88508369.4661   21614643.057  
  23574267.544   126239178.092    23574272.779    98186011.183                  
  20943990.106   111879029.792    20943998.129    87017052.915                  
  19448988.967   103856523.200    19448995.811    80777317.743                  
  22385207.808   119325779.486    22385215.849    92808942.193                  
  21274356.998   113563951.676                                                  
  19511535.855   104373616.880                                                  
  21962581.667   117443814.929    21962589.262    91345234.910                  
  25709057.667   135102014.904                                                  
  23893671.112   125562101.819                                                  
  26776663.047   140712315.055                                                  
  25494609.485   133975082.963                                                  
  23479227.142   123384169.592                                                  
  25470987.995   133850937.323                                                  
                 113060116.441    21712003.947   113060116.441                  
                 128430054.422    24663641.128   128430054.422                  
                 115373279.501    22156225.500   115373279.501                  
                 118164353.325    22692222.372   118164353.325                  
                 130662250.528    25092307.517   130662250.528                  
                 119699089.967    22986951.874   119699089.967                  
 21  9  1  8 13  0.0000000  0 27G30G21G 7G 8G17G13G14G 1R 4R12R13R14
                                R22R23R24E13E15E19E21E27E30C11C12C23
                                C25C28C34
  20650857.469   108520988.9701   20650861.829    84561814.9261   20650861.275  
  21578171.398   113394066.2501                   88359024.7401   21578172.560  
  20497377.536   107714443.5731   20497378.161    83933339.9761   20497378.411  
  22329848.271   117344143.4421   22329852.774    91437014.7261   22329853.310  
  22758349.532   119595948.7701   22758353.267    93191688.5671   22758352.963  
  23586881.877   123949895.6441                   96584322.3371   23586884.521  
  21931810.388   115252463.2341   21931811.996    89807131.1151   21931810.209  
  21614129.072   113583019.7241   21614134.451    88506288.6361   21614134.844  
  23574637.647   126241162.529    23574643.454    98187554.638                  
  20944432.311   111881392.230    20944440.530    87018890.361                  
  19448829.290   103855671.407    19448836.759    80776655.247                  
  22384564.702   119322350.586    22384572.511    92806275.275                  
  21274974.016   113567244.785                                                  
  19511206.707   104371855.530                                                  
  21961808.600   117439680.553    21961815.855    91342019.289                  
  25708489.915   135099031.342                                                  
  23893529.678   125561358.473                                                  
  26776900.258   140713561.051                                                  
  25494252.784   133973208.919                                                  
  23479240.687   123384240.594                                                  
  25471362.548   133852905.469                                                  
                 113060605.639    21712097.992   113060605.639                  
                 128432953.694    24664197.963   128432953.694                  
                 115372175.263    22156013.341   115372175.263                  
                 118166078.023    22692553.556   118166078.023                  
                 130658990.611    25091681.512   130658990.611                  
                 119700951.226    22987309.255   119700951.226                  
 21  9  1  8 13  1.0000000  0 27G30G21G 7G 8G17G13G14G 1R 4R12R13R14
                                R22R23R24E13E15E19E21E27E30C11C12C23
                                C25C28C34
  20650696.308   108520142.2671   20650700.793    84561155.1581   20650700.150  
  21578144.523   113393924.8631                   88358914.5701   21578145.595  
  20497644.088   107715844.7231   20497644.624    83934431.7791   20497645.071  
  22330406.320   117347075.6801   22330410.716    91439299.5871   22330411.306  
  22757818.679   119593158.7731   22757822.325    93189514.5441   22757822.092  
  23586688.873   123948882.5931                   96583532.9491   23586691.822  
  21931396.488   115250287.5141   21931397.864    89805435.7511   21931396.148  
  21613621.395   113580350.3151   21613626.452    88504208.5751   21613626.774  
  23575008.358   126243148.102    23575014.558    98189098.985                  
  20944874.783   111883755.577    20944883.003    87020728.516                  
  19448670.130   103854820.640    19448677.850    80775993.537                  
  22383921.596   119318922.224    22383929.119    92803608.776                  
  21275591.408   113570538.904                                                  
  19510877.685   104370095.524                                                  
  21961035.586   117435547.026    21961043.019    91338804.305                  
  25707922.287   135096048.452                                                  
  23893388.388   125560616.093                                                  
  26777137.220   140714807.872                                                  
  25493896.208   133971335.426                                                  
  23479254.303   123384312.259                                                  
  25471737.047   133854874.211                                                  
                 113061095.822    21712192.215   113061095.822                  
                 128435853.638    24664755.208   128435853.638                  
                 115371071.851    22155801.450   115371071.851                  
                 118167803.535    22692884.955   118167803.535                  
                 130655731.319    25091055.542   130655731.319                  
                 119702813.351    22987666.903   119702813.351                  
 21  9  1  8 13  2.0000000  0 27G30G21G 7G 8G17G13G14G 1R 4R12R13R14
                                R22R23R24E13E15E19E21E27E30C11C12C23
                                C25C28C34
  20650535.219   108519296.0521   20650539.561    84560495.7711   20650539.132  
  21578117.702   113393784.0241                   88358804.8241   21578118.720  
  20497910.837   107717246.3531   20497911.373    83935523.9601   20497911.766  
  22330964.263   117350008.0191   22330968.837    91441584.5261   22330969.302  
  22757287.808   119590368.9931   22757291.347    93187340.6911   22757291.204  
  23586495.888   123947870.1001                   96582743.9841   23586499.247  
  21930982.516   115248111.8731   21930983.946    89803740.4461   21930982.105  
  21613113.790   113577681.3291   21613118.561    88502128.8501   21613118.776  
  23575379.462   126245134.171    23575385.716    98190643.691                  
  20945317.274   111886119.265    20945325.583    87022566.942                  
  19448510.703   103853970.281    19448518.262    80775332.126                  
  22383278.454   119315493.847    22383285.781    92800942.259                  
  21276208.712   113573833.499                                                  
  19510548.842   104368336.259                                                  
  21960262.447   117431413.764    21960269.737    91335589.550                  
  25707354.749   135093065.655                                                  
  23893247.205   125559874.112                                                  
  26777374.359   140716055.016                                                  
  25493539.560   133969461.881                                                  
  23479267.955   123384384.030                                                  
  25472111.724   133856842.991                                                  
                 113061586.424    21712286.385   113061586.424                  
                 128438753.698    24665312.382   128438753.698                  
                 115369968.703    22155589.630   115369968.703                  
                 118169529.330    22693216.390   118169529.330                  
                 130652472.117    25090429.626   130652472.117                  
                 119704675.776    22988024.641   119704675.776                  
 21  9  1  8 13  3.0000000  0 27G30G21G 7G 8G17G13G14G 1R 4R12R13R14
                                R22R23R24E13E15E19E21E27E30C11C12C23
                                C25C28C34
  20650374.201   108518450.1181   20650378.454    84559836.6021   20650378.204  
  21578090.809   113393643.5111                   88358695.3351   21578091.917  
  20498177.603   107718648.2621   20498178.211    83936616.3551   20498178.532  
  22331522.152   117352940.2661   22331526.798    91443869.3971   22331527.280  
  22756757.099   119587579.2181   22756760.476    93185166.8411   22756760.351  
  23586303.278   123946857.9261                   96581955.2791   23586306.709  
  21930568.526   115245936.1021   21930569.759    89802045.0411   21930568.026  
  21612606.381   113575012.5331   21612610.920    88500049.2711   21612610.831  
  23575750.280   126247120.530    23575756.248    98192188.614                  
  20945759.800   111888483.063    20945768.199    87024405.454                  
  19448351.972   103853120.129    19448359.263    80774670.878                  
  22382635.527   119312065.227    22382642.585    92798275.536                  
  21276826.319   113577128.333                                                  
  19510220.123   104366577.523                                                  
  21959489.308   117427280.544    21959497.117    91332374.828                  
  25706787.122   135090082.739                                                  
  23893106.039   125559132.298                                                  
  26777611.624   140717302.241                                                  
  25493183.073   133967588.112                                                  
  23479281.554   123384455.692                                                  
  25472486.420   133858811.592                                                  
                 113062077.242    21712380.680   113062077.242                  
                 128441653.650    24665869.271   128441653.650                  
                 115368865.599    22155377.722   115368865.599                  
                 118171255.182    22693547.753   118171255.182                  
                 130649212.766    25089803.871   130649212.766                  
                 119706538.285    22988382.397   119706538.285                  
 21  9  1  8 13  4.0000000  0 27G30G21G 7G 8G17G13G14G 1R 4R12R13R14
                                R22R23R24E13E15E19E21E27E30C11C12C23
                                C25C28C34
  20650213.272   108517604.5921   20650217.382    84559177.7531   20650217.311  
  21578064.184   113393503.4491                   88358586.1941   21578065.167  
  20498444.352   107720050.5941   20498445.156    83937709.0861   20498445.406  
  22332080.290   117355872.5491   22332084.776    91446154.2921   22332085.294  
  22756226.049   119584789.5701   22756229.873    93182993.0921   22756229.516  
  23586110.614   123945846.1991                   96581166.9201   23586114.224  
  21930154.412   115243760.3351   21930155.502    89800349.6401   21930153.965  
  21612098.722   113572344.0631   21612103.333    88497969.9461   21612102.939  
  23576121.312   126249107.320    23576127.066    98193733.925                  
  20946202.345   111890847.117    20946210.654    87026244.163                  
  19448192.777   103852270.289    19448200.032    80774009.905                  
  22381992.474   119308636.469    22381998.943    92795608.722                  
  21277443.854   113580423.531                                                  
  19509891.458   104364819.453                                                  
  21958716.222   117423147.521    21958723.442    91329160.262                  
  25706219.459   135087099.848                                                  
  23892964.946   125558390.819                                                  
  26777849.121   140718549.690                                                  
  25492826.532   133965714.232                                                  
  23479295.134   123384527.366                                                  
  25472860.972   133860780.135                                                  
                 113062568.414    21712475.028   113062568.414                  
                 128444553.632    24666426.302   128444553.632                  
                 115367762.681    22155165.866   115367762.681                  
                 118172981.221    22693879.152   118172981.221                  
                 130645953.404    25089177.901   130645953.404                  
                 119708401.024    22988740.188   119708401.024                  
 21  9  1  8 13  5.0000000  0 27G30G21G 7G 8G17G13G14G 1R 4R12R13R14
                                R22R23R24E13E15E19E21E27E30C11C12C23
                                C25C28C34
  20650052.415   108516759.2391   20650056.525    84558519.0361   20650056.454  
  21578037.613   113393363.6021                   88358477.2251   21578038.435  
  20498711.172   107721453.0841   20498711.815    83938801.9331   20498712.298  
  22332638.286   117358804.6411   22332642.825    91448439.0421   22332643.254  
  22755695.250   119581999.8141   22755699.145    93180819.2581   22755698.681  
  23585918.468   123944834.7031                   96580378.7331   23585921.774  
  21929740.369   115241584.3181   21929740.958    89798654.0451   21929739.815  
  21611591.028   113569675.6931   21611596.085    88495890.6971   21611595.066  
  23576492.201   126251094.352    23576498.188    98195279.357                  
  20946645.014   111893211.181    20946653.162    87028082.881                  
  19448033.225   103851420.545    19448041.159    80773349.005                  
  22381349.547   119305207.319    22381355.658    92792941.602                  
  21278061.247   113583718.845                                                  
  19509562.739   104363061.795                                                  
  21957943.209   117419014.433    21957950.571    91325945.624                  
  25705651.760   135084116.712                                                  
  23892823.870   125557649.407                                                  
  26778086.386   140719797.089                                                  
  25492469.795   133963839.991                                                  
  23479308.715   123384598.811                                                  
  25473235.489   133862748.387                                                  
                 113063059.682    21712569.341   113063059.682                  
                 128447453.390    24666983.136   128447453.390                  
                 115366659.688    22154953.993   115366659.688                  
                 118174707.207    22694210.515   118174707.207                  
                 130642693.795    25088551.913   130642693.795                  
                 119710263.737    22989097.908   119710263.737                  
 21  9  1  8 13  6.0000000  0 27G30G21G 7G 8G17G13G14G 1R 4R12R13R14
                                R22R23R24E13E15E19E21E27E30C11C12C23
                                C25C28C34
  20649891.809   108515915.4231   20649896.044    84557861.5181   20649895.883  
  21578011.220   113393225.3401                   88358369.4831   21578012.060  
  20498978.457   107722857.0831   20498978.904    83939895.9601   20498979.476  
  22333196.550   117361737.8981   22333201.500    91450724.6941   22333201.447  
  22755164.540   119579211.2981   22755168.382    93178646.3951   22755168.042  
  23585726.233   123943824.7751                   96579591.7641   23585729.593  
  21929326.433   115239409.4221   21929327.183    89796959.3161   21929325.932  
  21611083.458   113567008.7841   21611088.747    88493812.5881   21611087.514  
  23576863.341   126253082.960    23576869.792    98196826.078                  
  20947087.916   111895576.646    20947096.278    87029922.690                  
  19447874.548   103850572.271    19447883.125    80772689.204                  
  22380706.798   119301779.148    22380712.177    92790275.242                  
  21278678.907   113587015.635                                                  
  19509234.486   104361305.936                                                  
  21957170.498   117414882.640    21957178.289    91322732.042                  
  25705084.293   135081134.713                                                  
  23892683.044   125556909.421                                                  
  26778324.348   140721045.861                                                  
  25492113.344   133961966.765                                                  
  23479322.492   123384671.397                                                  
  25473610.256   133864717.701                                                  
                 113063552.392    21712664.029   113063552.392                  
                 128450354.305    24667540.149   128450354.305                  
                 115365557.997    22154742.335   115365557.997                  
                 118176434.491    22694542.146   118176434.491                  
                 130639435.262    25087926.015   130639435.262                  
                 119712127.770    22989455.914   119712127.770                  
 21  9  1  8 13  7.0000000  0 27G30G21G 7G 8G17G13G14G 1R 4R12R13R14
                                R22R23R24E13E15E19E21E27E30C11C12C23
                                C25C28C34
  20649731.273   108515071.5851   20649735.580    84557203.9791   20649735.294  
  21577984.846   113393087.0951                   88358261.7651   21577985.685  
  20499245.653   107724261.0641   20499246.171    83940989.9731   20499246.635  
  22333754.707   117364670.7651   22333760.050    91453010.0431   22333759.550  
  22754633.955   119576422.4921   22754637.868    93176473.3021   22754637.404  
  23585534.267   123942814.8581                   96578804.8251   23585537.501  
  21928912.497   115237234.1041   21928913.623    89795264.2681   21928911.961  
  21610575.871   113564341.7691   21610581.249    88491734.4021   21610579.891  
  23577234.802   126255071.574    23577241.021    98198372.778                  
  20947530.710   111897941.914    20947538.876    87031762.329                  
  19447715.406   103849723.862    19447724.484    80772029.326                  
  22380063.728   119298350.426    22380069.142    92787608.475                  
  21279296.586   113590312.341                                                  
  19508906.232   104359550.291                                                  
  21956397.681   117410750.558    21956405.490    91319518.193                  
  25704516.684   135078152.299                                                  
  23892542.165   125556169.330                                                  
  26778562.006   140722294.369                                                  
  25491756.732   133960092.991                                                  
  23479336.269   123384743.567                                                  
  25473985.023   133866686.525                                                  
                 113064045.024    21712758.574   113064045.024                  
                 128453254.799    24668097.234   128453254.799                  
                 115364456.057    22154530.658   115364456.057                  
                 118178161.535    22694873.741   118178161.535                  
                 130636176.319    25087300.153   130636176.319                  
                 119713991.593    22989813.884   119713991.593                  
 21  9  1  8 13  8.0000000  0 27G30G21G 7G 8G17G13G14G 1R 4R12R13R14
                                R22R23R24E13E15E19E21E27E30C11C12C23
                                C25C28C34
  20649570.935   108514228.8021   20649575.152    84556547.2651   20649574.919  
  21577958.793   113392949.9511                   88358154.9031   21577959.472  
  20499513.045   107725666.1101   20499513.902    83942084.8121   20499513.992  
  22334312.900   117367604.2861   22334318.332    91455295.9061   22334317.778  
  22754103.495   119573634.4551   22754107.569    93174300.8011   22754106.908  
  23585342.478   123941806.0561                   96578018.7481   23585345.605  
  21928498.597   115235059.4231   21928500.151    89793569.7131   21928498.096  
  21610068.605   113561675.7231   21610073.662    88489656.9661   21610072.465  
  23577606.496   126257061.258    23577612.285    98199920.284                  
  20947973.647   111900308.066    20947981.706    87033602.674                  
  19447556.694   103848876.411    19447564.771    80771370.223                  
  22379420.568   119294922.266    22379425.553    92784942.138                  
  21279914.533   113593610.069                                                  
  19508578.103   104357795.967                                                  
  21955624.935   117406619.273    21955633.316    91316304.974                  
  25703949.324   135075170.541                                                  
  23892401.553   125555430.192                                                  
  26778799.914   140723543.781                                                  
  25491400.263   133958219.742                                                  
  23479350.081   123384816.397                                                  
  25474359.701   133868655.948                                                  
                 113064538.621    21712853.387   113064538.621                  
                 128456155.958    24668654.462   128456155.958                  
                 115363354.927    22154319.214   115363354.927                  
                 118179889.406    22695205.533   118179889.406                  
                 130632918.004    25086674.451   130632918.004                  
                 119715856.274    22990171.997   119715856.274                  
 21  9  1  8 13  9.0000000  0 27G30G21G 7G 8G17G13G14G 1R 4R12R13R14
                                R22R23R24E13E15E19E21E27E30C11C12C23
                                C25C28C34
  20649410.578   108513386.4511   20649414.992    84555890.8901   20649414.634  
  21577932.793   113392813.2881                   88358048.4171   21577933.401  
  20499780.508   107727071.5791   20499781.008    83943179.9851   20499781.419  
  22334871.003   117370537.8431   22334876.864    91457581.7961   22334876.006  
  22753573.071   119570846.5561   22753577.234    93172128.4121   22753576.430  
  23585150.565   123940797.7121                   96577233.0301   23585153.692  
  21928084.875   115232884.7561   21928086.215    89791875.1701   21928084.268  
  21609561.321   113559010.0261   21609566.146    88487579.8061   21609565.074  
  23577978.189   126259051.388    23577983.872    98201468.159                  
  20948416.602   111902674.492    20948424.590    87035443.223                  
  19447398.499   103848029.318    19447406.308    80770711.370                  
  22378777.623   119291494.045    22378782.358    92782275.732                  
  21280532.211   113596908.150                                                  
  19508250.153   104356042.330                                                  
  21954852.368   117402488.176    21954859.658    91313091.892                  
  25703381.840   135072188.807                                                  
  23892260.978   125554691.380                                                  
  26779037.876   140724793.398                                                  
  25491043.811   133956346.402                                                  
  23479363.966   123384889.260                                                  
  25474734.504   133870625.338                                                  
                 113065032.584    21712948.236   113065032.584                  
                 128459057.164    24669211.653   128459057.164                  
                 115362253.992    22154107.788   115362253.992                  
                 118181617.465    22695537.308   118181617.465                  
                 130629659.674    25086048.874   130629659.674                  
                 119717721.185    22990530.253   119717721.185                  
 21  9  1  8 13 10.0000000  0 27G30G21G 7G 8G17G13G14G 1R 4R12R13R14
                                R22R23R24E13E15E19E21E27E30C11C12C23
                                C25C28C34
  20649250.418   108512544.7341   20649254.867    84555235.0071   20649254.456  
  21577906.990   113392677.3141                   88357942.4641   21577907.491  
  20500048.079   107728477.7051   20500048.454    83944275.6651   20500048.954  
  22335429.178   117373471.6841   22335435.271    91459867.9011   22335434.288  
  22753042.736   119568059.0391   22753046.792    93169956.3181   22753045.988  
  23584958.938   123939790.0701                   96576447.8521   23584961.940  
  21927671.136   115230710.3291   21927672.494    89790180.8111   21927670.493  
  21609054.073   113556344.9131   21609058.916    88485503.0921   21609057.790  
  23578350.026   126261042.218    23578355.404    98203016.596                  
  20948859.683   111905041.437    20948867.760    87037284.180                  
  19447240.037   103847182.788    19447247.220    80770053.000                  
  22378134.713   119288065.912    22378139.502    92779609.423                  
  21281150.783   113600206.862                                                  
  19507922.256   104354289.591                                                  
  21954079.944   117398357.512    21954087.377    91309879.141                  
  25702814.463   135069207.328                                                  
  23892120.563   125553953.129                                                  
  26779275.731   140726043.464                                                  
  25490687.253   133954473.199                                                  
  23479377.850   123384962.377                                                  
  25475109.414   133872594.902                                                  
                 113065527.103    21713043.067   113065527.103                  
                 128461958.620    24669768.845   128461958.620                  
                 115361153.476    22153896.505   115361153.476                  
                 118183345.955    22695869.207   118183345.955                  
                 130626401.586    25085423.459   130626401.586                  
                 119719586.550    22990888.509   119719586.550                  
 21  9  1  8 13 11.0000000  0 27G30G21G 7G 8G17G13G14G 1R 4R12R13R14
                                R22R23R24E13E15E19E21E27E30C11C12C23
                                C25C28C34
  20649090.347   108511703.5041   20649094.600    84554579.5031   20649094.404  
  21577881.223   113392541.8541                   88357836.9081   21577881.580  
  20500315.775   107729884.2951   20500316.347    83945371.7121   20500316.597  
  22335987.477   117376405.5951   22335993.481    91462154.0661   22335992.570  
  22752512.348   119565271.6971   22752516.190    93167784.3661   22752515.529  
  23584767.257   123938782.9201                   96575663.0461   23584770.312  
  21927257.522   115228535.9501   21927258.612    89788486.4941   21927256.700  
  21608546.754   113553680.1821   21608551.811    88483426.6801   21608550.631  
  23578722.041   126263033.574    23578727.420    98204565.437                  
  20949302.870   111907408.716    20949310.697    87039125.399                  
  19447081.896   103846336.625    19447088.168    80769394.854                  
  22377491.482   119284637.705    22377496.700    92776943.021                  
  21281768.551   113603505.997                                                  
  19507594.467   104352537.579                                                  
  21953307.644   117394227.096    21953315.096    91306666.589                  
  25702247.086   135066225.902                                                  
  23891980.148   125553215.235                                                  
  26779513.728   140727293.789                                                  
  25490330.801   133952599.915                                                  
  23479391.806   123385035.562                                                  
  25475484.181   133874564.480                                                  
                 113066022.041    21713138.184   113066022.041                  
                 128464860.163    24670326.109   128464860.163                  
                 115360053.187    22153685.239   115360053.187                  
                 118185074.690    22696201.178   118185074.690                  
                 130623143.538    25084797.703   130623143.538                  
                 119721452.191    22991246.783   119721452.191                  
 21  9  1  8 13 12.0000000  0 27G30G21G 7G 8G17G13G14G 1R 4R12R13R14
                                R22R23R24E13E15E19E21E27E30C11C12C23
                                C25C28C34
  20648930.348   108510862.5471   20648934.690    84553924.2141   20648934.386  
  21577855.474   113392406.7051                   88357731.6021   21577855.742  
  20500583.488   107731291.1751   20500584.096    83946467.9771   20500584.310  
  22336545.884   117379339.4131   22336551.585    91464440.1601   22336550.834  
  22751982.049   119562484.3471   22751985.676    93165612.4051   22751985.140  
  23584575.593   123937776.1171                   96574878.5451   23584578.774  
  21926843.818   115226361.4441   21926845.140    89786792.0721   21926842.942  
  21608039.684   113551015.6531   21608044.795    88481350.4241   21608043.526  
  23579094.271   126265025.250    23579099.345    98206114.519                  
  20949745.986   111909776.096    20949753.724    87040966.702                  
  19446923.326   103845490.671    19446930.099    80768736.911                  
  22376848.322   119281209.231    22376853.790    92774276.413                  
  21282386.587   113606805.333                                                  
  19507266.945   104350786.102                                                  
  21952535.220   117390096.722    21952542.689    91303454.101                  
  25701679.744   135063244.379                                                  
  23891839.840   125552477.538                                                  
  26779751.565   140728544.225                                                  
  25489974.314   133950726.408                                                  
  23479405.708   123385108.633                                                  
  25475858.984   133876533.859                                                  
                 113066517.179    21713233.175   113066517.179                  
                 128467761.598    24670883.354   128467761.598                  
                 115358952.959    22153474.045   115358952.959                  
                 118186803.482    22696533.130   118186803.482                  
                 130619885.342    25084171.948   130619885.342                  
                 119723317.907    22991605.111   119723317.907                  
 21  9  1  8 13 13.0000000  0 27G30G21G 7G 8G17G13G14G 1R 4R12R13R14
                                R22R23R24E13E15E19E21E27E30C11C12C23
                                C25C28C34
  20648770.510   108510022.4491   20648774.637    84553269.5951   20648774.548  
  21577829.957   113392272.4691                   88357627.0051   21577830.153  
  20500851.363   107732698.9091   20500852.006    83947564.9131   20500852.167  
  22337104.291   117382273.7051   22337109.974    91466726.6171   22337109.223  
  22751451.803   119559697.5891   22751455.199    93163440.9051   22751454.823  
  23584384.234   123936770.2021                   96574094.7151   23584387.433  
  21926430.043   115224187.3881   21926431.383    89785098.0071   21926429.257  
  21607532.740   113548351.9131   21607538.208    88479274.7801   21607536.493  
  23579466.536   126267017.811    23579471.128    98207664.272                  
  20950189.299   111912144.162    20950196.911    87042808.524                  
  19446765.132   103844645.480    19446772.297    80768079.526                  
  22376205.341   119277781.077    22376210.273    92771610.079                  
  21283004.623   113610105.517                                                  
  19506939.674   104349035.747                                                  
  21951763.064   117385966.984    21951770.855    91300242.041                  
  25701112.420   135060263.308                                                  
  23891699.676   125551740.598                                                  
  26779989.437   140729795.318                                                  
  25489617.845   133948853.223                                                  
  23479419.717   123385182.176                                                  
  25476233.751   133878503.640                                                  
                 113067013.105    21713328.417   113067013.105                  
                 128470663.514    24671440.743   128470663.514                  
                 115357853.353    22153262.869   115357853.353                  
                 118188532.908    22696865.262   118188532.908                  
                 130616627.591    25083546.371   130616627.591                  
                 119725184.301    22991963.528   119725184.301                  
 21  9  1  8 13 14.0000000  0 27G30G21G 7G 8G17G13G14G 1R 4R12R13R14
                                R22R23R24E13E15E19E21E27E30C11C12C23
                                C25C28C34
  20648610.796   108509182.9301   20648614.835    84552615.4211   20648614.799  
  21577804.476   113392138.8611                   88357522.8921   21577804.619  
  20501119.345   107734107.2271   20501120.095    83948662.3021   20501120.131  
  22337662.841   117385208.2101   22337668.256    91469013.2441   22337667.630  
  22750921.612   119556911.1191   22750924.810    93161269.6321   22750924.596  
  23584192.732   123935764.9311                   96573311.3891   23584196.163  
  21926016.178   115222013.4961   21926017.644    89783404.0631   21926015.571  
  21607025.957   113545688.6661   21607031.318    88477199.5251   21607029.566  
  23579839.141   126269010.970    23579843.787    98209214.500                  
  20950632.647   111914512.658    20950640.456    87044650.686                  
  19446607.044   103843800.781    19446614.317    80767422.529                  
  22375562.360   119274352.989    22375567.435    92768943.786                  
  21283622.730   113613406.218                                                  
  19506612.635   104347286.223                                                  
  21950990.943   117381837.544    21950998.859    91297030.287                  
  25700545.079   135057282.416                                                  
  23891559.565   125551004.140                                                  
  26780227.417   140731046.752                                                  
  25489261.340   133946980.094                                                  
  23479433.816   123385255.898                                                  
  25476608.643   133880473.532                                                  
                 113067509.538    21713423.713   113067509.538                  
                 128473565.609    24671998.077   128473565.609                  
                 115356754.094    22153051.747   115356754.094                  
                 118190262.686    22697197.429   118190262.686                  
                 130613369.983    25082920.705   130613369.983                  
                 119727051.061    22992321.927   119727051.061                  
 21  9  1  8 13 15.0000000  0 27G30G21G 7G 8G17G13G14G 1R 4R12R13R14
                                R22R23R24E13E15E19E21E27E30C11C12C23
                                C25C28C34
  20648451.262   108508344.5231   20648455.461    84551962.1171   20648455.282  
  21577779.280   113392006.4111                   88357419.6851   21577779.370  
  20501387.541   107735516.6631   20501388.256    83949760.5661   20501388.291  
  22338221.516   117388143.4441   22338226.645    91471300.4421   22338226.180  
  22750391.634   119554125.4881   22750394.797    93159099.0131   22750394.511  
  23584001.462   123934760.8211                   96572528.9661   23584005.107  
  21925602.493   115219840.3111   21925603.940    89781710.6761   21925602.046  
  21606519.442   113543026.4581   21606524.552    88475125.0781   21606522.890  
  23580211.728   126271005.307    23580216.302    98210765.642                  
  20951076.210   111916882.145    20951083.769    87046493.617                  
  19446448.975   103842957.156    19446457.016    80766766.362                  
  22374919.325   119270925.518    22374924.686    92766277.970                  
  21284240.909   113616708.006                                                  
  19506285.721   104345538.088                                                  
  21950218.877   117377708.983    21950226.810    91293819.183                  
  25699978.059   135054302.246                                                  
  23891419.579   125550268.703                                                  
  26780465.754   140732299.130                                                  
  25488904.961   133945107.567                                                  
  23479448.004   123385330.345                                                  
  25476983.535   133882444.085                                                  
                 113068007.011    21713519.169   113068007.011                  
                 128476468.417    24672555.394   128476468.417                  
                 115355655.706    22152840.803   115355655.706                  
                 118191993.348    22697529.757   118191993.348                  
                 130610113.075    25082295.200   130610113.075                  
                 119728918.752    22992680.469   119728918.752                  
 21  9  1  8 13 16.0000000  0 27G30G21G 7G 8G17G13G14G 1R 4R12R13R14
                                R22R23R24E13E15E19E21E27E30C11C12C23
                                C25C28C34
  20648291.763   108507506.6561   20648296.266    84551309.2341   20648295.855  
  21577754.264   113391874.5311                   88357316.9301   21577754.246  
  20501655.773   107736926.6161   20501656.416    83950859.2281   20501656.541  
  22338779.888   117391078.8111   22338784.980    91473587.7411   22338784.748  
  22749861.532   119551340.0921   22749864.659    93156928.5721   22749864.480  
  23583810.388   123933757.2661                   96571746.9641   23583814.141  
  21925189.021   115217667.2311   21925190.505    89780017.3721   21925188.539  
  21606012.801   113540364.6991   21606017.805    88473050.9821   21606016.286  
  23580584.458   126273000.204    23580589.247    98212317.223                  
  20951519.898   111919251.974    20951527.528    87048336.818                  
  19446290.709   103842113.951    19446299.268    80766110.545                  
  22374276.237   119267498.028    22374281.044    92763612.145                  
  21284859.374   113620010.295                                                  
  19505959.094   104343790.736                                                  
  21949446.756   117373580.708    21949454.869    91290608.293                  
  25699410.986   135051322.196                                                  
  23891279.754   125549533.691                                                  
  26780704.162   140733551.858                                                  
  25488548.652   133943235.031                                                  
  23479462.209   123385404.918                                                  
  25477358.588   133884414.687                                                  
                 113068504.923    21713614.804   113068504.923                  
                 128479371.380    24673112.711   128479371.380                  
                 115354557.609    22152629.966   115354557.609                  
                 118193724.307    22697862.175   118193724.307                  
                 130606856.255    25081669.874   130606856.255                  
                 119730786.763    22993039.118   119730786.763                  
 21  9  1  8 13 17.0000000  0 27G30G21G 7G 8G17G13G14G 1R 4R12R13R14
                                R22R23R24E13E15E19E21E27E30C11C12C23
                                C25C28C34
  20648132.407   108506668.9851   20648136.999    84550656.5101   20648136.463  
  21577729.247   113391742.9011                   88357214.3591   21577729.140  
  20501924.094   107738336.7831   20501924.916    83951958.0591   20501924.880  
  22339338.473   117394014.0141   22339343.477    91475874.9121   22339343.280  
  22749331.519   119548554.6291   22749334.682    93154758.0811   22749334.467  
  23583619.315   123932753.9811                   96570965.1921   23583623.282  
  21924775.568   115215493.9471   21924776.658    89778323.9041   21924774.978  
  21605506.304   113537703.0641   21605511.361    88470976.9831   21605509.681  
  23580957.027   126274995.333    23580961.869    98213868.981                  
  20951963.550   111921621.824    20951971.198    87050180.025                  
  19446133.319   103841270.865    19446141.056    80765454.791                  
  22373632.952   119264070.193    22373638.259    92760946.049                  
  21285478.035   113623312.716                                                  
  19505632.394   104342043.832                                                  
  21948674.618   117369452.433    21948682.516    91287397.434                  
  25698843.769   135048341.953                                                  
  23891139.875   125548798.799                                                  
  26780942.821   140734804.568                                                  
  25488192.308   133941362.178                                                  
  23479476.380   123385479.301                                                  
  25477733.462   133886385.040                                                  
                 113069002.981    21713710.403   113069002.981                  
                 128482274.156    24673669.903   128482274.156                  
                 115353459.484    22152419.165   115353459.484                  
                 118195455.257    22698194.539   118195455.257                  
                 130603599.233    25081044.369   130603599.233                  
                 119732654.776    22993397.820   119732654.776                  
 21  9  1  8 13 18.0000000  0 27G30G21G 7G 8G17G13G14G 1R 4R12R13R14
                                R22R23R24E13E15E19E21E27E30C11C12C23
                                C25C28C34
  20647973.194   108505832.0951   20647977.750    84550004.3881   20647977.214  
  21577704.481   113391612.1091                   88357112.4411   21577704.159  
  20502192.540   107739747.7331   20502193.291    83953057.4941   20502193.327  
  22339897.095   117396949.6271   22339902.205    91478162.4071   22339901.901  
  22748801.416   119545769.6671   22748804.651    93152587.9811   22748804.526  
  23583428.402   123931751.5381                   96570184.0751   23583432.566  
  21924362.114   115213321.0431   21924363.365    89776630.7341   21924361.489  
  21604999.949   113535042.1321   21605005.042    88468903.5321   21605003.201  
  23581329.507   126276991.264    23581334.903    98215421.384                  
  20952407.327   111923992.316    20952415.064    87052023.757                  
  19445975.607   103840428.492    19445984.166    80764799.619                  
  22372989.810   119260642.603    22372995.332    92758280.150                  
  21286096.946   113626615.836                                                  
  19505305.945   104340297.961                                                  
  21947902.712   117365324.758    21947910.020    91284186.967                  
  25698276.821   135045362.115                                                  
  23891000.121   125548064.574                                                  
  26781180.997   140736057.874                                                  
  25487835.982   133939489.598                                                  
  23479490.550   123385554.074                                                  
  25478108.265   133888355.713                                                  
                 113069501.754    21713806.217   113069501.754                  
                 128485177.316    24674227.292   128485177.316                  
                 115352361.925    22152208.347   115352361.925                  
                 118197186.756    22698527.010   118197186.756                  
                 130600342.570    25080419.042   130600342.570                  
                 119734523.389    22993756.630   119734523.389                  
 21  9  1  8 13 19.0000000  0 27G30G21G 7G 8G17G13G14G 1R 4R12R13R14
                                R22R23R24E13E15E19E21E27E30C11C12C23
                                C25C28C34
  20647814.088   108504995.8331   20647818.627    84549352.7531   20647818.073  
  21577679.732   113391481.9731                   88357011.0331   21577679.321  
  20502461.147   107741159.2991   20502461.451    83954157.4181   20502461.862  
  22340455.645   117399885.4841   22340460.969    91480450.0861   22340460.558  
  22748271.296   119542985.0511   22748275.049    93150418.1491   22748274.655  
  23583237.561   123930749.7121                   96569403.4331   23583241.957  
  21923948.750   115211148.3421   21923950.001    89774937.7211   21923948.071  
  21604493.809   113532381.7521   21604499.366    88466830.5111   21604496.811  
  23581702.666   126278987.865    23581707.472    98216974.289                  
  20952851.265   111926363.297    20952858.842    87053867.844                  
  19445818.127   103839586.647    19445826.418    80764144.873                  
  22372347.151   119257215.095    22372351.815    92755614.313                  
  21286716.090   113629919.574                                                  
  19504979.835   104338552.962                                                  
  21947130.716   117361197.474    21947138.168    91280976.894                  
  25697709.676   135042382.481                                                  
  23890860.457   125547330.888                                                  
  26781419.781   140737311.573                                                  
  25487479.692   133937617.103                                                  
  23479504.863   123385629.075                                                  
  25478483.193   133890326.530                                                  
                 113070001.070    21713902.138   113070001.070                  
                 128488080.717    24674784.787   128488080.717                  
                 115351264.741    22151997.635   115351264.741                  
                 118198918.651    22698859.641   118198918.651                  
                 130597086.095    25079793.537   130597086.095                  
                 119736392.420    22994115.566   119736392.420                  
 21  9  1  8 13 20.0000000  0 27G30G21G 7G 8G17G13G14G 1R 4R12R13R14
                                R22R23R24E13E15E19E21E27E30C11C12C23
                                C25C28C34
  20647655.018   108504159.8411   20647659.342    84548701.3351   20647658.985  
  21577655.037   113391352.1531                   88356909.8791   21577654.501  
  20502729.719   107742571.1391   20502730.201    83955257.5531   20502730.469  
  22341014.248   117402821.2391   22341019.573    91482737.6821   22341019.198  
  22747741.497   119540200.4181   22747745.143    93148248.3071   22747744.785  
  23583047.327   123929748.2291                   96568623.0381   23583051.402  
  21923535.136   115208975.5101   21923536.369    89773244.6041   21923534.618  
  21603987.598   113529721.5611   21603993.191    88464757.6361   21603990.475  
  23582075.646   126280984.747    23582080.006    98218527.421                  
  20953295.007   111928734.391    20953303.030    87055712.035                  
  19445660.558   103838745.007    19445668.974    80763490.253                  
  22371704.081   119253787.350    22371708.387    92752948.286                  
  21287335.055   113633223.506                                                  
  19504653.761   104336808.472                                                  
  21946358.685   117357070.200    21946366.029    91277766.801                  
  25697142.585   135039402.731                                                  
  23890720.811   125546597.373                                                  
  26781658.601   140738565.378                                                  
  25487123.330   133935744.364                                                  
  23479519.158   123385703.953                                                  
  25478858.263   133892297.182                                                  
                 113070500.582    21713998.077   113070500.582                  
                 128490983.996    24675342.158   128490983.996                  
                 115350167.604    22151786.870   115350167.604                  
                 118200650.596    22699192.255   118200650.596                  
                 130593829.487    25079168.139   130593829.487                  
                 119738261.527    22994474.447   119738261.527                  
 21  9  1  8 13 21.0000000  0 27G30G21G 7G 8G17G13G14G 1R 4R12R13R14
                                R22R23R24E13E15E19E21E27E30C11C12C23
                                C25C28C34
  20647496.109   108503324.4181   20647500.379    84548050.3561   20647500.022  
  21577630.449   113391222.9551                   88356809.2081   21577629.860  
  20502998.523   107743983.5511   20502998.826    83956358.1311   20502999.184  
  22341572.869   117405757.1781   22341578.302    91485025.4341   22341577.873  
  22747211.627   119537416.0841   22747215.451    93146078.6941   22747215.005  
  23582857.004   123928747.3701                   96567843.1421   23582860.918  
  21923121.718   115206802.8321   21923122.933    89771551.6111   21923121.200  
  21603481.297   113527061.8621   21603487.086    88462685.1441   21603484.281  
  23582448.751   126282982.266    23582453.182    98220081.052                  
  20953738.945   111931105.926    20953746.735    87057556.554                  
  19445503.096   103837903.866    19445511.119    80762836.037                  
  22371061.135   119250359.664    22371065.013    92750282.304                  
  21287953.788   113636527.983                                                  
  19504327.848   104335064.817                                                  
  21945586.583   117352943.220    21945594.034    91274556.945                  
  25696575.583   135036423.148                                                  
  23890581.289   125545864.336                                                  
  26781897.456   140739819.532                                                  
  25486766.986   133933871.661                                                  
  23479533.418   123385779.017                                                  
  25479233.245   133894267.896                                                  
                 113071000.614    21714094.194   113071000.614                  
                 128493887.467    24675899.725   128493887.467                  
                 115349070.810    22151576.212   115349070.810                  
                 118202382.892    22699525.066   118202382.892                  
                 130590573.016    25078542.830   130590573.016                  
                 119740131.021    22994833.489   119740131.021                  
 21  9  1  8 13 22.0000000  0 27G30G21G 7G 8G17G13G14G 1R 4R12R13R14
                                R22R23R24E13E15E19E21E27E30C11C12C23
                                C25C28C34
  20647337.271   108502489.6321   20647341.667    84547399.8741   20647341.167  
  21577605.915   113391094.4081                   88356709.0441   21577605.361  
  20503267.505   107745396.5781   20503267.952    83957459.1941   20503267.987  
  22342131.580   117408693.3491   22342137.066    91487313.3611   22342136.601  
  22746681.954   119534632.0761   22746685.438    93143909.3391   22746685.259  
  23582666.699   123927747.1751                   96567063.7711   23582670.577  
  21922708.319   115204630.3571   21922709.534    89769858.7761   21922707.818  
  21602975.175   113524402.7171   21602981.143    88460613.0881   21602978.177  
  23582821.802   126284980.452    23582826.413    98221635.187                  
  20954183.115   111933477.891    20954190.745    87059401.415                  
  19445345.974   103837063.231    19445353.425    80762182.228                  
  22370417.868   119246932.043    22370421.621    92747616.377                  
  21288572.950   113639833.032                                                  
  19504002.078   104333322.041                                                  
  21944814.819   117348816.567    21944822.610    91271347.283                  
  25696008.706   135033443.779                                                  
  23890441.804   125545131.813                                                  
  26782136.400   140741074.132                                                  
  25486410.624   133931999.069                                                  
  23479547.731   123385854.285                                                  
  25479608.405   133896238.803                                                  
                 113071501.175    21714190.312   113071501.175                  
                 128496791.165    24676457.435   128496791.165                  
                 115347974.383    22151365.661   115347974.383                  
                 118204115.575    22699857.894   118204115.575                  
                 130587316.733    25077917.468   130587316.733                  
                 119742000.910    22995192.585   119742000.910                  
 21  9  1  8 13 23.0000000  0 27G30G21G 7G 8G17G13G14G 1R 4R12R13R14
                                R22R23R24E13E15E19E21E27E30C11C12C23
                                C25C28C34
  20647178.523   108501655.3511   20647182.990    84546749.7841   20647182.400  
  21577581.631   113390966.4311                   88356609.3221   21577580.934  
  20503536.523   107746810.1261   20503537.113    83958560.6571   20503536.881  
  22342690.345   117411629.6721   22342695.920    91489601.3991   22342695.348  
  22746152.316   119531848.3151   22746155.711    93141740.1771   22746155.604  
  23582476.716   123926747.5351                   96566284.8291   23582480.343  
  21922294.919   115202457.9911   21922296.420    89768166.0251   21922294.454  
  21602469.231   113521744.0131   21602475.038    88458541.3731   21602472.197  
  23583195.194   126286979.173    23583199.536    98223189.771                  
  20954627.214   111935850.223    20954634.987    87061246.563                  
  19445188.727   103836223.047    19445196.053    80761528.756                  
  22369774.619   119243504.390    22369778.979    92744950.417                  
  21289191.879   113643138.547                                                  
  19503676.505   104331580.033                                                  
  21944043.128   117344690.227    21944051.348    91268137.926                  
  25695441.668   135030464.548                                                  
  23890302.425   125544399.721                                                  
  26782374.934   140742329.034                                                  
  25486054.244   133930126.465                                                  
  23479562.062   123385929.695                                                  
  25479983.476   133898209.749                                                  
                 113072002.184    21714286.518   113072002.184                  
                 128499694.993    24677015.074   128499694.993                  
                 115346878.263    22151155.111   115346878.263                  
                 118205848.549    22700190.723   118205848.549                  
                 130584060.561    25077291.981   130584060.561                  
                 119743871.148    22995551.770   119743871.148                  
 21  9  1  8 13 24.0000000  0 27G30G21G 7G 8G17G13G14G 1R 4R12R13R14
                                R22R23R24E13E15E19E21E27E30C11C12C23
                                C25C28C34
  20647019.971   108500821.6041   20647024.313    84546100.1091   20647023.759  
  21577557.347   113390839.0171                   88356510.0411   21577556.668  
  20503805.684   107748224.1951   20503806.149    83959662.5301   20503805.899  
  22343248.966   117414566.1391   22343254.523    91491889.5571   22343254.112  
  22745622.607   119529064.7941   22745626.002    93139571.2021   22745625.984  
  23582286.697   123925748.4791                   96565506.3431   23582290.235  
  21921881.501   115200285.7421   21921883.145    89766473.3641   21921881.072  
  21601963.252   113519085.7551   21601969.202    88456470.0001   21601966.289  
  23583568.370   126288978.420    23583572.891    98224744.732                  
  20955071.527   111938222.937    20955079.443    87063092.000                  
  19445031.604   103835383.280    19445037.841    80760875.572                  
  22369131.424   119240076.698    22369135.641    92742284.453                  
  21289811.380   113646444.541                                                  
  19503351.038   104329838.816                                                  
  21943271.472   117340564.188    21943279.960    91264928.785                  
  25694874.773   135027485.431                                                  
  23890163.190   125543668.051                                                  
  26782613.664   140743584.285                                                  
  25485697.954   133928253.856                                                  
  23479576.464   123386005.224                                                  
  25480358.582   133900180.765                                                  
                 113072503.635    21714382.868   113072503.635                  
                 128502598.959    24677572.802   128502598.959                  
                 115345782.426    22150944.703   115345782.426                  
                 118207581.819    22700523.623   118207581.819                  
                 130580804.485    25076666.583   130580804.485                  
                 119745741.703    22995911.027   119745741.703                  
 21  9  1  8 13 25.0000000  0 27G30G21G 7G 8G17G13G14G 1R 4R12R13R14
                                R22R23R24E13E15E19E21E27E30C11C12C23
                                C25C28C34
  20646861.526   108499989.0191   20646865.940    84545451.3411   20646865.297  
  21577533.367   113390712.8011                   88356411.6921   21577532.616  
  20504074.899   107749639.4421   20504075.453    83960765.3171   20504075.131  
  22343807.820   117417503.3901   22343813.341    91494178.3171   22343813.037  
  22745092.897   119526282.1501   22745096.435    93137402.9081   22745096.507  
  23582096.803   123924750.6021                   96564728.7681   23582100.323  
  21921468.173   115198114.2411   21921470.120    89764781.2831   21921467.869  
  21601457.666   113516428.5801   21601463.634    88454399.4721   21601460.632  
  23583941.779   126290978.899    23583946.336    98226300.653                  
  20955515.876   111940596.677    20955524.221    87064938.253                  
  19444874.732   103834544.658    19444880.307    80760223.303                  
  22368488.478   119236649.694    22368492.964    92739618.996                  
  21290430.524   113649751.665                                                  
  19503025.768   104328099.039                                                  
  21942499.923   117336439.135    21942508.590    91261720.429                  
  25694307.897   135024507.104                                                  
  23890024.133   125542937.453                                                  
  26782852.716   140744840.496                                                  
  25485341.699   133926381.892                                                  
  23479591.045   123386081.535                                                  
  25480733.742   133902152.474                                                  
                 113073006.186    21714479.361   113073006.186                  
                 128505503.683    24678130.655   128505503.683                  
                 115344687.513    22150734.420   115344687.513                  
                 118209316.028    22700856.701   118209316.028                  
                 130577549.150    25076041.417   130577549.150                  
                 119747613.226    22996270.409   119747613.226                  
 21  9  1  8 13 26.0000000  0 27G30G21G 7G 8G17G13G14G 1R 4R12R13R14
                                R22R23R24E13E15E19E21E27E30C11C12C23
                                C25C28C34
  20646702.974   108499156.4131   20646707.495    84544802.5601   20646706.852  
  21577509.172   113390586.6281                   88356313.3741   21577508.600  
  20504344.203   107751054.6671   20504344.828    83961868.0851   20504344.364  
  22344366.727   117420440.2331   22344372.088    91496466.7661   22344371.891  
  22744563.420   119523499.2161   22744566.923    93135234.3901   22744566.976  
  23581907.016   123923752.7751                   96563951.2471   23581910.411  
  21921054.969   115195942.3211   21921056.756    89763088.8781   21921054.594  
  21600951.954   113513771.3071   21600958.226    88452328.8721   21600954.974  
  23584315.260   126292979.399    23584320.049    98227856.595                  
  20955960.368   111942970.205    20955968.731    87066784.331                  
  19444717.395   103833705.878    19444723.185    80759570.928                  
  22367845.229   119233222.139    22367849.857    92736953.131                  
  21291050.436   113653058.697                                                  
  19502700.570   104326359.492                                                  
  21941728.321   117332313.819    21941737.059    91258511.867                  
  25693741.145   135021528.337                                                  
  23889885.059   125542206.737                                                  
  26783091.732   140746096.487                                                  
  25484985.158   133924509.391                                                  
  23479605.519   123386157.431                                                  
  25481108.974   133904123.710                                                  
                 113073508.637    21714575.782   113073508.637                  
                 128508408.026    24678688.240   128508408.026                  
                 115343592.359    22150524.066   115343592.359                  
                 118211050.000    22701189.762   118211050.000                  
                 130574293.373    25075416.287   130574293.373                  
                 119749484.537    22996629.826   119749484.537                  
 21  9  1  8 13 27.0000000  0 27G30G21G 7G 8G17G13G14G 1R 4R12R13R14
                                R22R23R24E13E15E19E21E27E30C11C12C23
                                C25C28C34
  20646544.708   108498324.6991   20646549.229    84544154.4711   20646548.604  
  21577485.299   113390461.3831                   88356215.7891   21577484.709  
  20504613.668   107752470.7681   20504614.651    83962971.5421   20504613.775  
  22344925.634   117423377.5871   22344930.763    91498755.6161   22344930.834  
  22744034.104   119520716.8721   22744037.588    93133066.3301   22744037.571  
  23581717.193   123922755.8781                   96563174.4471   23581720.731  
  21920641.730   115193770.8621   21920643.428    89761396.8341   21920641.373  
  21600446.529   113511114.8601   21600452.479    88450258.9201   21600449.477  
  23584688.901   126294980.805    23584693.743    98229413.256                  
  20956404.931   111945344.461    20956413.455    87068630.970                  
  19444560.219   103832867.933    19444566.670    80758919.179                  
  22367202.391   119229794.959    22367208.109    92734287.554                  
  21291670.420   113656366.569                                                  
  19502375.497   104324621.086                                                  
  21940956.880   117328189.119    21940964.903    91255303.747                  
  25693174.357   135018550.068                                                  
  23889746.127   125541476.808                                                  
  26783330.980   140747353.147                                                  
  25484628.832   133922637.248                                                  
  23479620.100   123386233.797                                                  
  25481484.045   133906095.357                                                  
                 113074011.914    21714672.346   113074011.914                  
                 128511312.861    24679246.164   128511312.861                  
                 115342497.848    22150313.855   115342497.848                  
                 118212784.628    22701522.948   118212784.628                  
                 130571038.062    25074791.140   130571038.062                  
                 119751356.522    22996989.298   119751356.522                  
 21  9  1  8 13 28.0000000  0 27G30G21G 7G 8G17G13G14G 1R 4R12R13R14
                                R22R23R24E13E15E19E21E27E30C11C12C23
                                C25C28C34
  20646386.371   108497493.5111   20646390.785    84543506.7921   20646390.445  
  21577461.623   113390336.7011                   88356118.6331   21577460.944  
  20504883.222   107753887.4021   20504884.312    83964075.4111   20504883.222  
  22345484.631   117426315.0611   22345489.724    91501044.5591   22345489.813  
  22743504.931   119517934.7861   22743508.201    93130898.4751   22743508.237  
  23581527.299   123921759.5601                   96562398.0971   23581531.177  
  21920228.509   115191599.5141   21920230.171    89759704.8761   21920228.134  
  21599941.104   113508458.8411   21599947.001    88448189.2951   21599944.016  
  23585062.882   126296982.753    23585067.349    98230970.293                  
  20956849.727   111947719.102    20956857.893    87070477.906                  
  19444402.936   103832030.435    19444409.494    80758267.818                  
  22366559.410   119226367.752    22366565.164    92731621.951                  
  21292289.885   113659674.880                                                  
  19502050.620   104322883.465                                                  
  21940185.527   117324064.678    21940193.265    91252095.856                  
  25692607.659   135015571.923                                                  
  23889607.285   125540747.312                                                  
  26783570.282   140748610.135                                                  
  25484272.524   133920765.105                                                  
  23479634.717   123386310.313                                                  
  25481859.205   133908067.060                                                  
                 113074515.630    21714769.107   113074515.630                  
                 128514217.812    24679803.928   128514217.812                  
                 115341403.627    22150103.662   115341403.627                  
                 118214519.553    22701856.134   118214519.553                  
                 130567782.850    25074165.992   130567782.850                  
                 119753228.842    22997348.804   119753228.842                  
 21  9  1  8 13 29.0000000  0 27G30G21G 7G 8G17G13G14G 1R 4R12R13R14
                                R22R23R24E13E15E19E21E27E30C11C12C23
                                C25C28C34
  20646228.284   108496662.8591   20646232.787    84542859.5311   20646232.358  
  21577437.928   113390212.6031                   88356021.9351   21577437.339  
  20505152.812   107755304.5641   20505153.491    83965179.6961   20505152.794  
  22346043.574   117429252.7081   22346048.613    91503333.6301   22346048.810  
  22742975.632   119515152.9321   22742978.849    93128730.7941   22742978.956  
  23581337.655   123920763.8251                   96561622.1971   23581341.711  
  21919815.395   115189428.2921   21919816.968    89758013.0131   21919814.948  
  21599435.839   113505803.2851   21599441.879    88446120.0311   21599438.698  
  23585436.970   126298985.268    23585441.723    98232527.817                  
  20957294.433   111950094.128    20957302.242    87072325.148                  
  19444245.832   103831193.391    19444252.819    80757616.769                  
  22365916.340   119222940.539    22365922.308    92728956.313                  
  21292909.708   113662983.736                                                  
  19501726.119   104321146.633                                                  
  21939414.229   117319940.568    21939421.823    91248888.215                  
  25692041.014   135012593.913                                                  
  23889468.532   125540018.252                                                  
  26783809.584   140749867.456                                                  
  25483916.233   133918892.971                                                  
  23479649.298   123386386.958                                                  
  25482234.579   133910038.831                                                  
                 113075019.809    21714865.886   113075019.809                  
                 128517122.915    24680361.852   128517122.915                  
                 115340309.712    22149893.593   115340309.712                  
                 118216254.783    22702189.337   118216254.783                  
                 130564527.742    25073540.898   130564527.742                  
                 119755101.494    22997708.347   119755101.494                  
 21  9  1  8 13 30.0000000  0 27G30G21G 7G 8G17G13G14G 1R 4R12R13R14
                                R22R23R24E13E15E19E21E27E30C11C12C23
                                C25C28C34
  20646070.304   108495832.8571   20646074.717    84542212.7761   20646074.396  
  21577414.431   113390089.2041                   88355925.7801   21577413.859  
  20505422.599   107756722.3841   20505423.724    83966284.4911   20505422.527  
  22346602.660   117432190.6301   22346607.949    91505622.9181   22346607.860  
  22742446.352   119512371.4681   22742449.765    93126563.4181   22742449.711  
  23581148.636   123919768.7771                   96560846.8331   23581152.353  
  21919402.263   115187257.3221   21919403.729    89756321.3531   21919401.817  
  21598930.557   113503148.3251   21598936.311    88444051.2291   21598933.487  
  23585811.201   126300988.507    23585815.864    98234085.887                  
  20957739.193   111952469.666    20957746.788    87074172.782                  
  19444088.799   103830356.907    19444096.054    80756966.187                  
  22365273.287   119219513.419    22365279.452    92726290.782                  
  21293529.513   113666293.197                                                  
  19501401.635   104319410.713                                                  
  21938643.109   117315816.886    21938651.347    91245680.897                  
  25691474.298   135009616.166                                                  
  23889329.922   125539289.737                                                  
  26784049.101   140751125.254                                                  
  25483560.193   133917020.981                                                  
  23479663.897   123386463.876                                                  
  25482609.757   133912010.803                                                  
                 113075524.557    21714962.807   113075524.557                  
                 128520028.287    24680919.830   128520028.287                  
                 115339216.227    22149683.579   115339216.227                  
                 118217990.446    22702522.612   118217990.446                  
                 130561272.878    25072915.732   130561272.878                  
                 119756974.613    22998068.033   119756974.613                  
 21  9  1  8 13 31.0000000  0 27G30G21G 7G 8G17G13G14G 1R 4R12R13R14
                                R22R23R24E13E15E19E21E27E30C11C12C23
                                C25C28C34
  20645912.502   108495003.8191   20645916.737    84541566.7731   20645916.630  
  21577391.112   113389966.8111                   88355830.4131   21577390.593  
  20505692.564   107758141.1701   20505694.190    83967390.0351   20505692.439  
  22347161.853   117435129.1401   22347167.178    91507912.6631   22347167.017  
  22741917.232   119509590.6851   22741920.449    93124396.5761   22741920.610  
  23580959.582   123918774.7121                   96560072.2441   23580963.335  
  21918989.292   115185086.8991   21918990.704    89754630.1161   21918988.828  
  21598425.543   113500494.2401   21598431.189    88441983.1101   21598428.473  
  23586185.718   126302992.739    23586190.006    98235644.742                  
  20958184.061   111954845.996    20958191.655    87076021.047                  
  19443931.855   103829521.318    19443939.861    80756316.284                  
  22364630.503   119216086.751    22364636.292    92723625.584                  
  21294149.782   113669603.567                                                  
  19501077.259   104317676.017                                                  
  21937872.347   117311693.971    21937880.388    91242474.195                  
  25690907.707   135006638.981                                                  
  23889191.473   125538562.111                                                  
  26784288.688   140752383.824                                                  
  25483204.135   133915149.416                                                  
  23479678.639   123386541.360                                                  
  25482985.096   133913983.266                                                  
                 113076030.216    21715059.943   113076030.216                  
                 128522934.218    24681477.755   128522934.218                  
                 115338123.454    22149473.689   115338123.454                  
                 118219726.842    22702856.209   118219726.842                  
                 130558018.552    25072290.656   130558018.552                  
                 119758848.489    22998427.825   119758848.489                  
 21  9  1  8 13 32.0000000  0 27G30G21G 7G 8G17G13G14G 1R 4R12R13R14
                                R22R23R24E13E15E19E21E27E30C11C12C23
                                C25C28C34
  20645754.880   108494175.1071   20645759.079    84540921.0231   20645758.936  
  21577367.918   113389844.7821                   88355735.3211   21577367.364  
  20505962.654   107759560.2691   20505964.209    83968495.8251   20505962.386  
  22347720.957   117438067.5881   22347726.407    91510202.3631   22347726.157  
  22741387.970   119506809.9461   22741391.204    93122229.7661   22741391.526  
  23580770.725   123917781.0671                   96559297.9771   23580774.280  
  21918576.232   115182916.3811   21918577.429    89752938.8031   21918575.803  
  21597920.475   113497840.3861   21597925.889    88439915.1811   21597923.512  
  23586560.306   126304997.303    23586563.969    98237203.868                  
  20958628.928   111957222.462    20958636.486    87077869.396                  
  19443775.072   103828685.988    19443783.346    80755666.585                  
  22363987.772   119212659.898    22363993.079    92720960.289                  
  21294770.159   113672914.235                                                  
  19500753.186   104315941.903                                                  
  21937101.388   117307571.145    21937108.785    91239267.548                  
  25690341.152   135003661.730                                                  
  23889053.113   125537834.702                                                  
  26784527.955   140753642.500                                                  
  25482847.952   133913277.664                                                  
  23479693.345   123386618.768                                                  
  25483360.382   133915955.591                                                  
                 113076536.133    21715157.151   113076536.133                  
                 128525840.100    24682035.662   128525840.100                  
                 115337030.778    22149263.800   115337030.778                  
                 118221463.337    22703189.717   118221463.337                  
                 130554764.122    25071665.740   130554764.122                  
                 119760722.493    22998787.690   119760722.493                  
 21  9  1  8 13 33.0000000  0 27G30G21G 7G 8G17G13G14G 1R 4R12R13R14
                                R22R23R24E13E15E19E21E27E30C11C12C23
                                C25C28C34
  20645597.382   108493347.0321   20645601.474    84540275.7751   20645601.331  
  21577344.813   113389723.4371                   88355640.7711   21577344.259  
  20506232.941   107760980.0201   20506234.638    83969602.1211   20506232.476  
  22348280.347   117441006.2801   22348285.690    91512492.2531   22348285.350  
  22740858.922   119504029.5741   22740862.245    93120063.2471   22740862.477  
  23580581.831   123916788.0851                   96558524.2221   23580585.351  
  21918163.154   115180746.0951   21918164.512    89751247.6721   21918162.832  
  21597415.550   113495187.1201   21597421.125    88437847.7031   21597418.641  
  23586935.037   126307002.555    23586937.717    98238763.480                  
  20959073.902   111959599.411    20959081.407    87079718.137                  
  19443618.879   103827851.197    19443627.117    80755017.318                  
  22363344.987   119209233.177    22363349.651    92718295.050                  
  21295390.250   113676225.475                                                  
  19500429.185   104314208.677                                                  
  21936330.268   117303448.711    21936338.666    91236061.217                  
  25689774.615   135000684.721                                                  
  23888914.878   125537107.828                                                  
  26784767.596   140754901.608                                                  
  25482491.965   133911406.008                                                  
  23479708.087   123386696.422                                                  
  25483735.845   133917928.075                                                  
                 113077042.606    21715254.287   113077042.606                  
                 128528746.246    24682593.622   128528746.246                  
                 115335938.505    22149054.053   115335938.505                  
                 118223200.245    22703523.296   118223200.245                  
                 130551509.907    25071040.789   130551509.907                  
                 119762596.950    22999147.607   119762596.950                  
 21  9  1  8 13 34.0000000  0 27G30G21G 7G 8G17G13G14G 1R 4R12R13R14
                                R22R23R24E13E15E19E21E27E30C11C12C23
                                C25C28C34
  20645440.081   108492519.3071   20645443.994    84539630.7961   20645443.816  
  21577321.780   113389602.4731                   88355546.5131   21577321.190  
  20506503.156   107762400.1021   20506504.979    83970708.6811   20506502.638  
  22348839.665   117443944.9271   22348844.829    91514782.1081   22348844.543  
  22740329.730   119501249.2451   22740332.858    93117896.7531   22740333.394  
  23580392.991   123915795.4931                   96557750.7631   23580396.494  
  21917750.129   115178575.7421   21917751.380    89749556.4901   21917749.843  
  21596910.625   113492534.0971   21596916.057    88435780.4081   21596913.805  
  23587309.858   126309008.189    23587312.663    98240323.420                  
  20959518.912   111961976.576    20959526.310    87081567.045                  
  19443462.722   103827016.682    19443470.691    80754368.248                  
  22362702.274   119205806.262    22362706.545    92715629.651                  
  21296011.002   113679536.966                                                  
  19500105.363   104312476.042                                                  
  21935559.470   117299326.360    21935568.208    91232854.973                  
  25689208.167   134997707.649                                                  
  23888776.715   125536381.205                                                  
  26785007.202   140756160.870                                                  
  25482135.674   133909534.188                                                  
  23479722.847   123386774.015                                                  
  25484111.149   133919900.464                                                  
                 113077549.355    21715351.548   113077549.355                  
                 128531652.317    24683151.743   128531652.317                  
                 115334846.355    22148844.289   115334846.355                  
                 118224937.273    22703856.767   118224937.273                  
                 130548255.616    25070415.659   130548255.616                  
                 119764471.535    22999507.507   119764471.535                  
 21  9  1  8 13 35.0000000  0 27G30G21G 7G 8G17G13G14G 1R 4R12R13R14
                                R22R23R24E13E15E19E21E27E30C11C12C23
                                C25C28C34
  20645282.709   108491692.0831   20645286.890    84538986.2061   20645286.408  
  21577298.872   113389482.0551                   88355452.6811   21577298.282  
  20506773.497   107763820.6891   20506775.016    83971815.6281   20506772.871  
  22349398.912   117446883.6891   22349404.094    91517072.0521   22349403.719  
  22739800.611   119498469.1461   22739804.006    93115730.4391   22739804.381  
  23580204.527   123914803.4351                   96556977.7421   23580207.636  
  21917337.051   115176405.4771   21917338.284    89747865.3761   21917336.872  
  21596405.735   113489881.5081   21596411.025    88433713.4561   21596409.041  
  23587684.839   126311014.362    23587687.377    98241883.770                  
  20959964.048   111964354.101    20959971.320    87083416.234                  
  19443306.529   103826182.571    19443314.784    80753719.463                  
  22362059.579   119202379.287    22362064.279    92712964.228                  
  21296631.111   113682848.905                                                  
  19499781.576   104310744.163                                                  
  21934788.529   117295204.278    21934797.624    91229648.881                  
  25688641.701   134994730.663                                                  
  23888638.516   125535654.988                                                  
  26785247.040   140757420.424                                                  
  25481779.491   133907662.335                                                  
  23479737.625   123386851.722                                                  
  25484486.630   133921872.871                                                  
                 113078056.531    21715448.952   113078056.531                  
                 128534558.518    24683709.810   128534558.518                  
                 115333754.469    22148634.578   115333754.469                  
                 118226674.567    22704190.436   118226674.567                  
                 130545001.401    25069790.762   130545001.401                  
                 119766346.422    22999867.479   119766346.422                  
 21  9  1  8 13 36.0000000  0 27G30G21G 7G 8G17G13G14G 1R 4R12R13R14
                                R22R23R24E13E15E19E21E27E30C11C12C23
                                C25C28C34
  20645125.354   108490865.4751   20645129.696    84538342.0941   20645129.089  
  21577276.107   113389362.3061                   88355359.3701   21577275.499  
  20507043.909   107765241.8861   20507045.624    83972923.0521   20507043.230  
  22349958.284   117449822.6921   22349963.484    91519362.1841   22349962.965  
  22739271.384   119495689.4021   22739274.993    93113564.4071   22739275.440  
  23580015.794   123913812.0551                   96556205.2221   23580019.064  
  21916924.116   115174235.4141   21916925.563    89746174.4231   21916923.937  
  21595901.096   113487229.4651   21595906.439    88431646.9291   21595904.366  
  23588059.642   126313021.165    23588062.519    98243444.607                  
  20960409.290   111966732.059    20960416.456    87085265.747                  
  19443150.336   103825348.971    19443158.591    80753071.135                  
  22361416.956   119198952.381    22361421.012    92710298.843                  
  21297251.827   113686161.415                                                  
  19499458.039   104309013.156                                                  
  21934017.963   117291082.585    21934026.826    91226443.124                  
  25688075.235   134991753.915                                                  
  23888500.406   125534929.284                                                  
  26785486.646   140758680.426                                                  
  25481423.236   133905790.586                                                  
  23479752.456   123386929.649                                                  
  25484861.987   133923845.431                                                  
                 113078564.246    21715546.481   113078564.246                  
                 128537464.929    24684267.878   128537464.929                  
                 115332662.959    22148424.921   115332662.959                  
                 118228412.252    22704524.140   118228412.252                  
                 130541747.389    25069165.810   130541747.389                  
                 119768221.734    23000227.558   119768221.734                  
 21  9  1  8 13 37.0000000  0 27G30G21G 7G 8G17G13G14G 1R 4R12R13R14
                                R22R23R24E13E15E19E21E27E30C11C12C23
                                C25C28C34
  20644968.250   108490039.5451   20644972.681    84537698.5121   20644971.895  
  21577253.395   113389243.2701                   88355266.6171   21577252.877  
  20507314.499   107766663.7641   20507315.411    83974031.0071   20507313.713  
  22350517.763   117452761.9821   22350522.748    91521652.5401   22350522.248  
  22738742.300   119492910.0331   22738746.053    93111398.6681   22738746.553  
  23579827.044   123912821.3821                   96555433.2761   23579830.564  
  21916511.216   115172065.6181   21916512.789    89744483.6661   21916511.038  
  21595396.511   113484578.0271   21595402.122    88429580.8771   21595399.817  
  23588434.516   126315028.669    23588437.625    98245006.011                  
  20960854.407   111969110.509    20960861.948    87087115.657                  
  19442994.375   103824515.964    19443003.291    80752423.259                  
  22360774.242   119195525.612    22360777.834    92707633.592                  
  21297872.704   113689474.545                                                  
  19499134.646   104307283.087                                                  
  21933247.254   117286961.315    21933256.903    91223237.699                  
  25687508.823   134988777.448                                                  
  23888362.493   125534204.167                                                  
  26785726.359   140759940.880                                                  
  25481067.143   133903918.974                                                  
  23479767.341   123387007.861                                                  
  25485237.505   133925818.217                                                  
                 113079072.571    21715644.135   113079072.571                  
                 128540371.633    24684826.035   128540371.633                  
                 115331571.902    22148215.442   115331571.902                  
                 118230150.392    22704858.004   118230150.392                  
                 130538493.625    25068540.895   130538493.625                  
                 119770097.532    23000587.726   119770097.532                  
 21  9  1  8 13 38.0000000  0 27G30G21G 7G 8G17G13G14G 1R 4R12R13R14
                                R22R23R24E13E15E19E21E27E30C11C12C23
                                C25C28C34
  20644811.306   108489214.2021   20644815.773    84537055.3871   20644814.844  
  21577230.969   113389124.8591                   88355174.3511   21577230.415  
  20507585.143   107768086.2121   20507585.876    83975139.4051   20507584.321  
  22351077.063   117455701.4961   22351082.102    91523943.0681   22351081.584  
  22738213.252   119490130.9611   22738217.112    93109233.1541   22738217.737  
  23579638.436   123911831.3611                   96554661.8381   23579642.278  
  21916098.495   115169895.9901   21916099.639    89742793.0561   21916098.192  
  21594892.033   113481927.0751   21594897.661    88427515.2031   21594895.356  
  23588809.462   126317036.773    23588812.786    98246567.862                  
  20961299.864   111971489.382    20961307.530    87088965.887                  
  19442838.736   103823683.497    19442847.581    80751775.771                  
  22360131.440   119192098.941    22360134.746    92704968.380                  
  21298493.474   113692788.218                                                  
  19498811.431   104305553.848                                                  
  21932476.670   117282840.395    21932486.623    91220032.559                  
  25686942.500   134985801.166                                                  
  23888224.633   125533479.541                                                  
  26785966.250   140761201.701                                                  
  25480710.959   133902047.427                                                  
  23479782.262   123387086.261                                                  
  25485612.879   133927791.102                                                  
                 113079581.378    21715741.933   113079581.378                  
                 128543278.524    24685384.316   128543278.524                  
                 115330481.191    22148005.946   115330481.191                  
                 118231888.888    22705191.851   118231888.888                  
                 130535240.018    25067916.105   130535240.018                  
                 119771973.702    23000947.947   119771973.702                  
 21  9  1  8 13 39.0000000  0 27G30G21G 7G 8G17G13G14G 1R 4R12R13R14
                                R22R23R24E13E15E19E21E27E30C11C12C23
                                C25C28C34
  20644654.273   108488389.3821   20644658.669    84536412.6701   20644657.883  
  21577208.597   113389007.0241                   88355082.5341   21577208.008  
  20507855.841   107769509.1931   20507856.556    83976248.2221   20507855.055  
  22351636.489   117458641.1671   22351641.903    91526233.7171   22351640.956  
  22737684.418   119487352.1441   22737688.242    93107067.8431   22737688.939  
  23579450.114   123910841.9031                   96553890.8371   23579454.081  
  21915685.685   115167726.4791   21915686.597    89741102.5301   21915685.364  
  21594387.608   113479276.5931   21594393.308    88425449.8931   21594390.967  
  23589184.515   126319045.436    23589187.946    98248130.152                  
  20961745.285   111973868.671    20961752.719    87090816.450                  
  19442683.418   103822851.456    19442691.709    80751128.630                  
  22359488.513   119188672.270    22359492.301    92702303.208                  
  21299114.583   113696102.359                                                  
  19498488.270   104303825.398                                                  
  21931706.176   117278719.773    21931716.736    91216827.615                  
  25686376.248   134982825.007                                                  
  23888086.899   125532755.325                                                  
  26786206.303   140762462.880                                                  
  25480354.919   133900175.882                                                  
  23479797.164   123387164.786                                                  
  25485988.397   133929764.070                                                  
                 113080090.657    21715839.819   113080090.657                  
                 128546185.554    24685942.688   128546185.554                  
                 115329390.771    22147796.521   115329390.771                  
                 118233627.683    22705525.823   118233627.683                  
                 130531986.509    25067291.421   130531986.509                  
                 119773850.200    23001308.151   119773850.200                  
 21  9  1  8 13 40.0000000  0 27G30G21G 7G 8G17G13G14G 1R 4R12R13R14
                                R22R23R24E13E15E19E21E27E30C11C12C23
                                C25C28C34
  20644497.454   108487565.1981   20644501.814    84535770.4491   20644501.064  
  21577186.297   113388889.8571                   88354991.2351   21577185.707  
  20508126.593   107770932.8031   20508127.593    83977357.5301   20508125.914  
  22352196.004   117461581.0651   22352201.364    91528524.5461   22352200.346  
  22737155.781   119484573.6701   22737159.784    93104902.7961   22737160.230  
  23579261.918   123909853.1231                   96553120.3541   23579265.885  
  21915272.839   115165557.1791   21915273.733    89739412.1691   21915272.589  
  21593883.201   113476626.6661   21593889.080    88423385.0171   21593886.668  
  23589559.729   126321054.794    23589563.249    98249692.980                  
  20962190.832   111976248.439    20962198.051    87092667.374                  
  19442527.868   103822019.949    19442536.142    80750481.900                  
  22358845.675   119185245.688    22358849.659    92699638.101                  
  21299735.764   113699417.066                                                  
  19498165.251   104302097.829                                                  
  21930935.931   117274599.542    21930945.974    91213623.001                  
  25685809.961   134979849.080                                                  
  23887949.236   125532031.651                                                  
  26786446.248   140763724.476                                                  
  25479998.843   133898304.444                                                  
  23479812.174   123387243.553                                                  
  25486363.914   133931737.178                                                  
                 113080600.482    21715937.795   113080600.482                  
                 128549092.846    24686501.148   128549092.846                  
                 115328300.743    22147587.114   115328300.743                  
                 118235366.879    22705859.813   118235366.879                  
                 130528733.221    25066666.828   130528733.221                  
                 119775727.132    23001668.551   119775727.132                  
 21  9  1  8 13 41.0000000  0 27G30G21G 7G 8G17G13G14G 1R 4R12R13R14
                                R22R23R24E13E15E19E21E27E30C11C12C23
                                C25C28C34
  20644340.690   108486741.7271   20644345.264    84535128.7881   20644344.353  
  21577164.139   113388773.4591                   88354900.5381   21577163.603  
  20508397.559   107772357.1261   20508398.881    83978467.3901   20508396.933  
  22352755.644   117464521.3031   22352760.718    91530815.6451   22352759.843  
  22736627.233   119481795.6391   22736631.272    93102738.0991   22736631.575  
  23579073.775   123908865.1061                   96552350.4711   23579077.813  
  21914860.154   115163388.1901   21914861.012    89737722.0501   21914859.868  
  21593379.080   113473977.3731   21593384.852    88421320.6341   21593382.547  
  23589934.853   126323064.889    23589938.623    98251256.377                  
  20962636.485   111978628.732    20962643.776    87094518.711                  
  19442372.497   103821189.083    19442380.342    80749835.654                  
  22358202.801   119181819.270    22358207.089    92696973.107                  
  21300356.873   113702732.498                                                  
  19497842.429   104300371.231                                                  
  21930165.437   117270479.801    21930175.194    91210418.758                  
  25685243.781   134976873.485                                                  
  23887811.680   125531308.603                                                  
  26786686.425   140764986.567                                                  
  25479642.749   133896433.208                                                  
  23479827.256   123387322.639                                                  
  25486739.592   133933710.554                                                  
                 113081110.962    21716035.806   113081110.962                  
                 128552000.452    24687059.502   128552000.452                  
                 115327211.204    22147377.796   115327211.204                  
                 118237106.573    22706193.803   118237106.573                  
                 130525480.225    25066042.037   130525480.225                  
                 119777604.581    23002029.005   119777604.581                  
 21  9  1  8 13 42.0000000  0 27G30G21G 7G 8G17G13G14G 1R 4R12R13R14
                                R22R23R24E13E15E19E21E27E30C11C12C23
                                C25C28C34
  20644184.139   108485918.9111   20644188.588    84534487.6351   20644187.766  
  21577142.089   113388657.7511                   88354810.3781   21577141.624  
  20508668.739   107773782.1081   20508670.508    83979577.7641   20508668.078  
  22353315.266   117467461.8111   22353320.376    91533106.9531   22353319.375  
  22736098.542   119479017.9701   22736102.509    93100573.6811   22736102.920  
  23578885.864   123907877.7461                   96551581.1041   23578889.938  
  21914447.523   115161219.4391   21914448.613    89736032.1141   21914447.165  
  21592875.031   113471328.6541   21592880.892    88419256.7001   21592878.551  
  23590310.370   126325075.643    23590314.069    98252820.301                  
  20963082.228   111981009.497    20963089.429    87096370.405                  
  19442216.483   103820358.804    19442225.006    80749189.854                  
  22357560.088   119178392.972    22357564.912    92694308.193                  
  21300978.090   113706048.466                                                  
  19497519.715   104298645.535                                                  
  21929394.818   117266360.488    21929404.681    91207214.842                  
  25684677.637   134973898.122                                                  
  23887674.232   125530586.101                                                  
  26786926.871   140766249.137                                                  
  25479286.637   133894562.086                                                  
  23479842.319   123387401.975                                                  
  25487115.181   133935684.111                                                  
                 113081622.012    21716133.997   113081622.012                  
                 128554908.299    24687617.962   128554908.299                  
                 115326122.080    22147168.675   115326122.080                  
                 118238846.665    22706528.008   118238846.665                  
                 130522227.440    25065417.247   130522227.440                  
                 119779482.487    23002389.692   119779482.487                  
 21  9  1  8 13 43.0000000  0 27G30G21G 7G 8G17G13G14G 1R 4R12R13R14
                                R22R23R24E13E15E19E21E27E30C11C12C23
                                C25C28C34
  20644027.553   108485096.3381   20644031.895    84533846.6691   20644031.252  
  21577120.074   113388542.3301                   88354720.4421   21577119.717  
  20508940.008   107775207.3261   20508941.617    83980688.3211   20508939.240  
  22353874.852   117470402.1871   22353879.819    91535398.1551   22353878.872  
  22735570.102   119476240.2621   22735573.979    93098409.2331   22735574.301  
  23578698.508   123906890.7071                   96550811.9751   23578702.117  
  21914034.784   115159050.5271   21914035.892    89734342.0541   21914034.427  
  21592370.964   113468680.1091   21592377.003    88417192.9041   21592374.555  
  23590686.013   126327086.660    23590690.069    98254384.434                  
  20963528.006   111983390.372    20963535.029    87098222.192                  
  19442061.147   103819528.668    19442068.938    80748544.217                  
  22356917.160   119174966.399    22356922.342    92691643.079                  
  21301599.467   113709364.661                                                  
  19497197.233   104296920.341                                                  
  21928624.609   117262241.165    21928635.599    91204010.929                  
  25684111.510   134970922.615                                                  
  23887536.765   125529863.748                                                  
  26787167.317   140767511.745                                                  
  25478930.561   133892690.691                                                  
  23479857.437   123387481.173                                                  
  25487490.663   133937657.451                                                  
                 113082133.230    21716231.990   113082133.230                  
                 128557816.015    24688176.369   128557816.015                  
                 115325032.978    22146959.518   115325032.978                  
                 118240586.801    22706862.123   118240586.801                  
                 130518974.496    25064792.528   130518974.496                  
                 119781360.434    23002750.431   119781360.434                  
 21  9  1  8 13 44.0000000  0 27G30G21G 7G 8G17G13G14G 1R 4R12R13R14
                                R22R23R24E13E15E19E21E27E30C11C12C23
                                C25C28C34
  20643871.199   108484274.7331   20643875.577    84533206.4571   20643874.916  
  21577098.185   113388427.9191                   88354631.2901   21577098.042  
  20509211.367   107776633.5091   20509213.333    83981799.6341   20509210.617  
  22354434.510   117473343.1381   22354439.406    91537689.8071   22354438.494  
  22735041.536   119473463.2471   22735045.181    93096245.3301   22735045.860  
  23578510.829   123905904.6791                   96550043.6491   23578514.510  
  21913622.081   115156882.1571   21913623.672    89732652.4181   21913621.813  
  21591867.164   113466032.4621   21591873.454    88415129.8061   21591870.720  
  23591061.584   126329098.669    23591065.408    98255949.333                  
  20963973.856   111985772.109    20963980.754    87100074.661                  
  19441905.883   103818699.422    19441913.942    80747899.275                  
  22356274.394   119171540.255    22356279.254    92688978.300                  
  21302220.988   113712681.765                                                  
  19496874.911   104295196.393                                                  
  21927854.204   117258122.579    21927866.391    91200807.576                  
  25683545.366   134967947.694                                                  
  23887399.478   125529142.264                                                  
  26787407.619   140768775.119                                                  
  25478574.467   133890819.737                                                  
  23479872.589   123387560.928                                                  
  25487866.395   133939631.296                                                  
                 113082645.332    21716330.359   113082645.332                  
                 128560724.302    24688734.758   128560724.302                  
                 115323944.604    22146750.522   115323944.604                  
                 118242327.666    22707196.452   118242327.666                  
                 130515722.083    25064167.880   130515722.083                  
                 119783239.148    23003111.278   119783239.148                  
 21  9  1  8 13 45.0000000  0 27G30G21G 7G 8G17G13G14G 1R 4R12R13R14
                                R22R23R24E13E15E19E21E27E30C11C12C23
                                C25C28C34
  20643715.077   108483453.4991   20643719.330    84532566.5341   20643718.633  
  21577076.456   113388313.9191                   88354542.4591   21577076.402  
  20509482.798   107778060.0531   20509484.495    83982911.2251   20509482.083  
  22354994.221   117476284.0901   22354999.099    91539981.4551   22354998.099  
  22734513.113   119470686.3111   22734516.866    93094081.4811   22734517.402  
  23578323.544   123904919.0481                   96549275.6221   23578326.921  
  21913209.378   115154713.7491   21913211.022    89730962.7501   21913209.200  
  21591363.383   113463385.0791   21591369.155    88413066.9111   21591366.975  
  23591437.155   126331111.083    23591440.926    98257514.548                  
  20964419.831   111988154.079    20964426.729    87101927.309                  
  19441750.941   103817870.479    19441758.267    80747254.514                  
  22355631.252   119168113.962    22355636.720    92686313.420                  
  21302842.472   113715999.161                                                  
  19496552.751   104293473.054                                                  
  21927083.835   117254004.140    21927096.200    91197604.371                  
  25682979.329   134964972.718                                                  
  23887262.190   125528421.047                                                  
  26787647.975   140770038.637                                                  
  25478218.445   133888948.621                                                  
  23479887.778   123387640.657                                                  
  25488242.002   133941605.027                                                  
                 113083157.722    21716428.818   113083157.722                  
                 128563632.550    24689293.183   128563632.550                  
                 115322856.356    22146541.633   115322856.356                  
                 118244068.674    22707530.781   118244068.674                  
                 130512469.613    25063543.162   130512469.613                  
                 119785118.022    23003472.108   119785118.022                  
 21  9  1  8 13 46.0000000  0 27G30G21G 7G 8G17G13G14G 1R 4R12R13R14
                                R22R23R24E13E15E19E21E27E30C11C12C23
                                C25C28C34
  20643558.813   108482632.2611   20643562.851    84531926.6091   20643562.333  
  21577054.691   113388199.9651                   88354453.6641   21577054.745  
  20509754.318   107779486.6001   20509756.301    83984022.8151   20509753.532  
  22355553.790   117479224.6651   22355558.775    91542272.8131   22355557.631  
  22733984.708   119467909.0931   22733988.175    93091917.4161   22733988.943  
  23578135.794   123903933.5041                   96548507.6621   23578139.368  
  21912796.675   115152544.9281   21912798.587    89729272.7591   21912796.443  
  21590859.584   113460737.6461   21590865.463    88411003.9731   21590863.247  
  23591812.673   126333123.553    23591816.658    98259079.793                  
  20964865.664   111990535.849    20964872.436    87103779.806                  
  19441595.677   103817041.444    19441603.718    80746609.695                  
  22354988.128   119164687.121    22354993.739    92683648.092                  
  21303463.725   113719316.485                                                  
  19496230.679   104291749.981                                                  
  21926313.448   117249885.472    21926326.438    91194400.962                  
  25682413.095   134961997.355                                                  
  23887124.866   125527699.737                                                  
  26787888.332   140771302.005                                                  
  25477862.244   133887076.983                                                  
  23479902.842   123387719.996                                                  
  25488617.305   133943578.297                                                  
                 113083670.066    21716527.187   113083670.066                  
                 128566540.415    24689851.644   128566540.415                  
                 115321767.884    22146332.619   115321767.884                  
                 118245809.455    22707865.129   118245809.455                  
                 130509216.735    25062918.353   130509216.735                  
                 119786996.701    23003832.883   119786996.701                  
 21  9  1  8 13 47.0000000  0 27G30G21G 7G 8G17G13G14G 1R 4R12R13R14
                                R22R23R24E13E15E19E21E27E30C11C12C23
                                C25C28C34
  20643402.709   108481812.5111   20643406.962    84531287.8431   20643406.336  
  21577033.284   113388087.5351                   88354366.0561   21577033.427  
  20510026.159   107780914.6231   20510027.964    83985135.5581   20510025.266  
  22356113.555   117482166.3351   22356118.540    91544565.0191   22356117.361  
  22733456.643   119465133.0811   22733459.859    93089754.2901   22733460.664  
  23577948.330   123902949.4461                   96547740.8541   23577952.136  
  21912384.062   115150377.1691   21912386.134    89727583.5961   21912383.901  
  21590356.124   113458091.6041   21590361.842    88408942.1251   21590359.752  
  23592188.691   126335137.554    23592192.693    98260646.234                  
  20965311.710   111992918.908    20965318.447    87105633.291                  
  19441440.985   103816213.822    19441448.615    80745966.000                  
  22354345.165   119161261.269    22354350.722    92680983.543                  
  21304085.174   113722635.255                                                  
  19495908.894   104290028.652                                                  
  21925543.436   117245768.066    21925556.230    91191198.514                  
  25681847.184   134959023.077                                                  
  23886987.847   125526979.808                                                  
  26788128.920   140772566.609                                                  
  25477506.239   133885206.301                                                  
  23479918.138   123387800.408                                                  
  25488992.948   133945552.588                                                  
                 113084183.793    21716625.913   113084183.793                  
                 128569449.367    24690410.265   128569449.367                  
                 115320680.657    22146123.819   115320680.657                  
                 118247551.486    22708199.673   118247551.486                  
                 130505964.904    25062293.688   130505964.904                  
                 119788876.666    23004193.927   119788876.666                  
 21  9  1  8 13 48.0000000  0 27G30G21G 7G 8G17G13G14G 1R 4R12R13R14
                                R22R23R24E13E15E19E21E27E30C11C12C23
                                C25C28C34
  20643246.837   108480993.2191   20643250.786    84530649.4361   20643250.429  
  21577012.002   113387975.6091                   88354278.8341   21577012.181  
  20510298.019   107782343.1031   20510300.002    83986248.6621   20510297.125  
  22356673.373   117485108.0791   22356678.269    91546857.2861   22356677.126  
  22732928.560   119462357.2511   22732931.490    93087591.3051   22732932.420  
  23577761.259   123901965.9301                   96546974.4991   23577764.958  
  21911971.466   115148209.4651   21911973.342    89725894.4791   21911971.412  
  21589852.611   113455445.9521   21589858.436    88406880.5801   21589856.310  
  23592564.655   126337152.006    23592569.229    98262213.023                  
  20965757.864   111995302.261    20965764.547    87107487.009                  
  19441286.078   103815386.600    19441293.226    80745322.608                  
  22353702.309   119157835.351    22353708.098    92678318.935                  
  21304707.141   113725954.425                                                  
  19495587.305   104288308.031                                                  
  21924773.459   117241650.848    21924786.736    91187996.248                  
  25681281.254   134956048.861                                                  
  23886850.863   125526260.243                                                  
  26788369.616   140773831.491                                                  
  25477150.217   133883335.552                                                  
  23479933.416   123387880.903                                                  
  25489368.680   133947526.861                                                  
                 113084697.902    21716724.639   113084697.902                  
                 128572358.395    24690968.815   128572358.395                  
                 115319593.648    22145915.020   115319593.648                  
                 118249293.756    22708534.324   118249293.756                  
                 130502713.111    25061669.148   130502713.111                  
                 119790756.889    23004555.042   119790756.889                  
 21  9  1  8 13 49.0000000  0 27G30G21G 7G 8G17G13G14G 1R 4R12R13R14
                                R22R23R24E13E15E19E21E27E30C11C12C23
                                C25C28C34
  20643091.162   108480174.5931   20643094.951    84530011.5431   20643094.665  
  21576990.845   113387864.3821                   88354192.1661   21576991.042  
  20510570.074   107783772.2561   20510572.308    83987362.2851   20510569.092  
  22357233.317   117488050.1181   22357238.016    91549149.7871   22357236.962  
  22732400.530   119459581.8061   22732403.389    93085428.6191   22732404.229  
  23577574.064   123900983.0901                   96546208.6421   23577577.941  
  21911558.960   115146042.0141   21911560.943    89724205.5561   21911558.977  
  21589349.115   113452800.8931   21589354.851    88404819.4951   21589352.975  
  23592940.941   126339167.135    23592946.105    98263780.364                  
  20966204.071   111997686.149    20966210.772    87109341.139                  
  19441131.011   103814559.986    19441137.676    80744679.639                  
  22353059.560   119154409.549    22353065.528    92675654.432                  
  21305328.625   113729274.202                                                  
  19495265.824   104286588.327                                                  
  21924003.644   117237534.081    21924017.028    91184794.318                  
  25680715.306   134953074.897                                                  
  23886714.022   125525541.247                                                  
  26788610.347   140775096.822                                                  
  25476794.266   133881464.959                                                  
  23479948.765   123387961.659                                                  
  25489744.412   133949501.337                                                  
                 113085212.604    21716823.491   113085212.604                  
                 128575267.681    24691527.526   128575267.681                  
                 115318507.077    22145706.345   115318507.077                  
                 118251036.459    22708869.046   118251036.459                  
                 130499461.560    25061044.733   130499461.560                  
                 119792637.563    23004916.246   119792637.563                  
 21  9  1  8 13 50.0000000  0 27G30G21G 7G 8G17G13G14G 1R 4R12R13R14
                                R22R23R24E13E15E19E21E27E30C11C12C23
                                C25C28C34
  20642935.470   108479356.3631   20642939.365    84529373.9611   20642938.972  
  21576969.831   113387753.6001                   88354105.8431   21576970.028  
  20510842.148   107785201.7961   20510844.275    83988476.2121   20510841.165  
  22357793.404   117490992.1611   22357797.781    91551442.2831   22357796.799  
  22731872.590   119456806.4611   22731875.574    93083266.0091   22731876.057  
  23577387.279   123900000.7131                   96545443.1471   23577391.031  
  21911146.542   115143874.5421   21911148.329    89722516.6211   21911146.542  
  21588845.799   113450156.1571   21588851.320    88402758.6571   21588849.730  
  23593317.370   126341182.679    23593322.695    98265348.014                  
  20966650.154   112000070.261    20966657.015    87111195.436                  
  19440976.283   103813733.640    19440983.270    80744036.956                  
  22352416.757   119150983.590    22352422.404    92672989.815                  
  21305950.360   113732594.317                                                  
  19494944.485   104284869.260                                                  
  21923233.900   117233417.467    21923246.998    91181592.502                  
  25680149.430   134950100.951                                                  
  23886577.252   125524822.539                                                  
  26788851.115   140776362.359                                                  
  25476438.262   133879594.219                                                  
  23479964.186   123388042.415                                                  
  25490120.072   133951475.757                                                  
                 113085727.625    21716922.485   113085727.625                  
                 128578176.982    24692086.219   128578176.982                  
                 115317420.667    22145497.724   115317420.667                  
                 118252779.322    22709203.787   118252779.322                  
                 130496209.976    25060420.335   130496209.976                  
                 119794518.440    23005277.558   119794518.440                  
 21  9  1  8 13 51.0000000  0 27G30G21G 7G 8G17G13G14G 1R 4R12R13R14
                                R22R23R24E13E15E19E21E27E30C11C12C23
                                C25C28C34
  20642779.812   108478538.5531   20642783.869    84528736.7091   20642783.333  
  21576948.817   113387643.2801                   88354019.8781   21576949.139  
  20511114.383   107786631.7501   20511116.402    83989590.4641   20511113.275  
  22358353.151   117493934.2481   22358357.761    91553734.8191   22358356.617  
  22731344.632   119454031.2591   22731347.955    93081103.5141   22731347.920  
  23577200.547   123899018.7881                   96544677.9991   23577204.157  
  21910734.108   115141707.0801   21910735.805    89720827.6871   21910734.125  
  21588342.589   113447511.7561   21588348.146    88400698.0851   21588346.520  
  23593693.816   126343198.707    23593699.338    98266916.027                  
  20967096.432   112002454.611    20967103.777    87113049.947                  
  19440821.430   103812907.635    19440828.453    80743394.521                  
  22351773.937   119147557.508    22351779.405    92670325.074                  
  21306572.542   113735914.833                                                  
  19494623.343   104283150.885                                                  
  21922464.299   117229301.055    21922477.111    91178390.849                  
  25679583.482   134947127.023                                                  
  23886440.572   125524104.166                                                  
  26789091.989   140777628.118                                                  
  25476082.168   133877723.385                                                  
  23479979.625   123388123.192                                                  
  25490495.786   133953450.124                                                  
                 113086242.984    21717021.408   113086242.984                  
                 128581086.292    24692644.804   128581086.292                  
                 115316334.454    22145289.175   115316334.454                  
                 118254522.383    22709538.509   118254522.383                  
                 130492958.401    25059795.938   130492958.401                  
                 119796399.536    23005638.887   119796399.536                  
 21  9  1  8 13 52.0000000  0 27G30G21G 7G 8G17G13G14G 1R 4R12R13R14
                                R22R23R24E13E15E19E21E27E30C11C12C23
                                C25C28C34
  20642624.334   108477721.4381   20642628.212    84528099.9941   20642627.819  
  21576927.982   113387533.6841                   88353934.4811   21576928.357  
  20511386.689   107788062.3761   20511388.904    83990705.2381   20511385.563  
  22358912.987   117496876.6371   22358918.008    91556027.5891   22358916.490  
  22730816.549   119451256.4621   22730819.729    93078941.3351   22730819.890  
  23577013.745   123898037.6141                   96543913.4521   23577017.479  
  21910321.673   115139539.8961   21910323.763    89719138.9681   21910321.726  
  21587839.433   113444867.9821   21587845.062    88398638.0041   21587843.454  
  23594070.460   126345215.471    23594076.106    98268484.626                  
  20967542.890   112004839.513    20967550.359    87114904.862                  
  19440666.649   103812082.264    19440673.010    80742752.541                  
  22351131.260   119144131.569    22351136.102    92667660.448                  
  21307194.652   113739235.997                                                  
  19494302.344   104281433.452                                                  
  21921694.984   117225185.092    21921707.618    91175189.509                  
  25679017.624   134944153.373                                                  
  23886304.017   125523386.376                                                  
  26789332.899   140778894.350                                                  
  25475726.235   133875852.706                                                  
  23479995.028   123388204.259                                                  
  25490871.607   133955424.703                                                  
                 113086758.968    21717120.456   113086758.968                  
                 128583995.901    24693203.694   128583995.901                  
                 115315248.692    22145080.608   115315248.692                  
                 118256265.895    22709873.285   118256265.895                  
                 130489707.079    25059171.719   130489707.079                  
                 119798281.120    23006000.253   119798281.120                  
 21  9  1  8 13 53.0000000  0 27G30G21G 7G 8G17G13G14G 1R 4R12R13R14
                                R22R23R24E13E15E19E21E27E30C11C12C23
                                C25C28C34
  20642468.963   108476904.9541   20642472.894    84527463.7721   20642472.447  
  21576907.254   113387424.7691                   88353849.6151   21576907.701  
  20511659.066   107789493.6561   20511661.228    83991820.5191   20511657.976  
  22359472.931   117499819.2841   22359478.113    91558320.5611   22359476.433  
  22730288.465   119448482.0201   22730291.914    93076779.4391   22730291.932  
  23576827.460   123897057.1061                   96543149.4151   23576830.980  
  21909909.327   115137372.9261   21909911.328    89717450.4241   21909909.399  
  21587336.438   113442224.7661   21587342.585    88396578.3571   21587340.530  
  23594447.157   126347232.896    23594452.607    98270053.725                  
  20967989.383   112007224.910    20967997.085    87116760.182                  
  19440512.225   103811257.451    19440518.800    80742111.038                  
  22350488.565   119140705.747    22350493.229    92664995.901                  
  21307816.494   113742557.718                                                  
  19493981.362   104279716.917                                                  
  21920925.669   117221069.538    21920938.392    91171988.543                  
  25678451.819   134941179.987                                                  
  23886167.534   125522669.124                                                  
  26789574.024   140780161.037                                                  
  25475370.480   133873982.148                                                  
  23480010.556   123388285.578                                                  
  25491247.339   133957399.469                                                  
                 113087275.502    21717219.629   113087275.502                  
                 128586905.775    24693762.565   128586905.775                  
                 115314163.332    22144872.201   115314163.332                  
                 118258009.834    22710208.222   118258009.834                  
                 130486455.981    25058547.537   130486455.981                  
                 119800163.143    23006361.743   119800163.143                  
 21  9  1  8 13 54.0000000  0 27G30G21G 7G 8G17G13G14G 1R 4R12R13R14
                                R22R23R24E13E15E19E21E27E30C11C12C23
                                C25C28C34
  20642313.628   108476088.9401   20642317.845    84526827.9191   20642317.166  
  21576886.669   113387316.3761                   88353765.1531   21576887.134  
  20511931.533   107790925.4051   20511933.034    83992936.1661   20511930.497  
  22360032.839   117502762.0231   22360038.396    91560613.6041   22360036.395  
  22729760.561   119445707.7691   22729764.260    93074617.6831   22729764.045  
  23576640.782   123896077.1291                   96542385.7971   23576644.499  
  21909497.053   115135206.0261   21909498.643    89715761.9291   21909497.071  
  21586833.461   113439581.9431   21586839.608    88394519.0191   21586837.624  
  23594823.961   126349250.782    23594829.214    98271623.189                  
  20968435.876   112009610.618    20968443.685    87118615.735                  
  19440357.532   103810433.017    19440364.162    80741469.847                  
  22349845.941   119137279.882    22349850.748    92662331.342                  
  21308438.675   113745879.895                                                  
  19493660.631   104278001.100                                                  
  21920156.479   117216954.243    21920168.880    91168787.777                  
  25677885.871   134938206.652                                                  
  23886031.139   125521952.241                                                  
  26789815.095   140781427.962                                                  
  25475014.511   133872111.528                                                  
  23480026.013   123388366.968                                                  
  25491623.143   133959374.218                                                  
                 113087792.440    21717318.838   113087792.440                  
                 128589815.719    24694321.347   128589815.719                  
                 115313078.198    22144663.831   115313078.198                  
                 118259754.008    22710543.070   118259754.008                  
                 130483204.924    25057923.390   130483204.924                  
                 119802045.434    23006723.287   119802045.434                  
 21  9  1  8 13 55.0000000  0 27G30G21G 7G 8G17G13G14G 1R 4R12R13R14
                                R22R23R24E13E15E19E21E27E30C11C12C23
                                C25C28C34
  20642158.471   108475273.3741   20642162.724    84526192.4141   20642161.973  
  21576866.084   113387208.4531                   88353681.0571   21576866.656  
  20512204.107   107792357.5751   20512205.304    83994052.1391   20512203.089  
  22360592.675   117505704.8081   22360598.465    91562906.6811   22360596.374  
  22729232.728   119442933.6771   22729236.284    93072456.0571   22729236.159  
  23576454.391   123895097.6011                   96541622.5471   23576458.125  
  21909084.725   115133039.1441   21909086.280    89714073.4541   21909084.707  
  21586330.537   113436939.4751   21586336.881    88392459.9481   21586334.736  
  23595200.890   126351269.092    23595205.679    98273192.995                  
  20968882.495   112011996.596    20968890.286    87120471.477                  
  19440202.822   103809608.956    19440209.398    80740828.891                  
  22349203.353   119133853.935    22349207.892    92659666.709                  
  21309060.749   113749202.412                                                  
  19493340.079   104276285.969                                                  
  21919387.075   117212839.124    21919399.708    91165587.134                  
  25677320.013   134935233.363                                                  
  23885894.781   125521235.707                                                  
  26790056.416   140782695.151                                                  
  25474658.543   133870240.820                                                  
  23480041.577   123388448.396                                                  
  25491998.821   133961348.947                                                  
                 113088309.747    21717418.136   113088309.747                  
                 128592725.695    24694880.362   128592725.695                  
                 115311993.279    22144455.442   115311993.279                  
                 118261498.392    22710878.007   118261498.392                  
                 130479953.878    25057299.189   130479953.878                  
                 119803927.960    23007084.920   119803927.960                  
 21  9  1  8 13 56.0000000  0 27G30G21G 7G 8G17G13G14G 1R 4R12R13R14
                                R22R23R24E13E15E19E21E27E30C11C12C23
                                C25C28C34
  20642003.386   108474458.7421   20642007.531    84525557.6381   20642006.977  
  21576845.785   113387101.5041                   88353597.7201   21576846.357  
  20512476.699   107793790.6891   20512477.753    83995168.8521   20512475.841  
  22361152.923   117508648.1621   22361158.516    91565200.2061   22361156.443  
  22728704.966   119440160.2331   22728708.290    93070294.9271   22728708.379  
  23576268.338   123894119.0861                   96540860.0701   23576271.876  
  21908672.487   115130872.7911   21908674.274    89712385.3891   21908672.469  
  21585827.917   113434297.8761   21585834.118    88390401.5661   21585832.045  
  23595577.980   126353288.388    23595582.858    98274763.552                  
  20969329.238   112014383.342    20969337.172    87122327.842                  
  19440048.720   103808785.738    19440055.189    80740188.604                  
  22348560.801   119130428.410    22348564.893    92657002.435                  
  21309683.128   113752525.806                                                  
  19493019.741   104274572.039                                                  
  21918617.831   117208724.732    21918630.161    91162387.039                  
  25676754.298   134932260.617                                                  
  23885758.565   125520520.010                                                  
  26790297.666   140783963.061                                                  
  25474302.610   133868370.529                                                  
  23480057.176   123388530.373                                                  
  25492374.517   133963324.159                                                  
                 113088827.921    21717517.631   113088827.921                  
                 128595636.229    24695439.359   128595636.229                  
                 115310909.067    22144247.197   115310909.067                  
                 118263243.485    22711213.176   118263243.485                  
                 130476703.359    25056675.060   130476703.359                  
                 119805811.225    23007446.607   119805811.225                  
 21  9  1  8 13 57.0000000  0 27G30G21G 7G 8G17G13G14G 1R 4R12R13R14
                                R22R23R24E13E15E19E21E27E30C11C12C23
                                C25C28C34
  20641848.300   108473644.5211   20641852.571    84524923.1801   20641852.035  
  21576825.503   113386995.0221                   88353514.7521   21576826.200  
  20512749.327   107795224.2021   20512750.560    83996285.8751   20512748.684  
  22361713.063   117511591.5261   22361718.674    91567493.7361   22361716.548  
  22728177.115   119437386.9121   22728180.653    93068133.9031   22728180.635  
  23576082.000   123893141.0141                   96540097.9291   23576085.735  
  21908260.195   115128706.4281   21908262.375    89710697.3141   21908260.231  
  21585325.244   113431656.6111   21585331.819    88388343.4401   21585329.425  
  23595954.945   126355308.173    23595959.608    98276334.474                  
  20969775.982   112016770.353    20969783.862    87124184.404                  
  19439894.778   103807962.851    19439902.301    80739548.607                  
  22347918.195   119127002.766    22347923.091    92654338.043                  
  21310306.077   113755849.560                                                  
  19492699.546   104272858.761                                                  
  21917848.588   117204610.491    21917860.685    91159187.065                  
  25676188.600   134929287.877                                                  
  23885622.368   125519804.624                                                  
  26790538.951   140785231.192                                                  
  25473946.623   133866500.117                                                  
  23480072.830   123388612.356                                                  
  25492750.285   133965299.307                                                  
                 113089346.408    21717617.001   113089346.408                  
                 128598546.763    24695998.677   128598546.763                  
                 115309825.027    22144039.022   115309825.027                  
                 118264988.762    22711548.327   118264988.762                  
                 130473452.816    25056050.984   130473452.816                  
                 119807694.699    23007808.455   119807694.699                  
 21  9  1  8 13 58.0000000  0 27G30G21G 7G 8G17G13G14G 1R 4R12R13R14
                                R22R23R24E13E15E19E21E27E30C11C12C23
                                C25C28C34
  20641693.483   108472831.0741   20641697.861    84524289.3271   20641697.236  
  21576805.401   113386889.3441                   88353432.4051   21576806.205  
  20513022.187   107796658.4961   20513023.527    83997403.5001   20513021.686  
  22362273.525   117514535.2941   22362278.725    91569787.5811   22362276.724  
  22727649.354   119434614.0991   22727653.160    93065973.2711   22727652.945  
  23575896.323   123892163.7581                   96539336.4281   23575899.772  
  21907848.171   115126540.4331   21907850.083    89709009.5281   21907848.028  
  21584822.749   113429016.0441   21584829.217    88386285.8561   21584826.930  
  23596332.195   126357328.773    23596336.913    98277906.066                  
  20970222.868   112019157.993    20970230.909    87126041.469                  
  19439740.676   103807140.654    19439748.360    80738909.087                  
  22347275.715   119123577.357    22347280.289    92651673.831                  
  21310929.081   113759174.014                                                  
  19492379.583   104271146.507                                                  
  21917079.290   117200496.761    21917091.370    91155987.506                  
  25675623.010   134926315.527                                                  
  23885486.420   125519089.909                                                  
  26790780.290   140786499.880                                                  
  25473590.761   133864629.964                                                  
  23480088.483   123388694.723                                                  
  25493126.249   133967274.772                                                  
                 113089865.608    21717716.602   113089865.608                  
                 128601457.684    24696557.816   128601457.684                  
                 115308741.527    22143830.938   115308741.527                  
                 118266734.568    22711883.711   118266734.568                  
                 130470202.631    25055427.051   130470202.631                  
                 119809578.740    23008170.463   119809578.740                  
 21  9  1  8 13 59.0000000  0 27G30G21G 7G 8G17G13G14G 1R 4R12R13R14
                                R22R23R24E13E15E19E21E27E30C11C12C23
                                C25C28C34
  20641538.791   108472018.3141   20641543.133    84523656.0081   20641542.561  
  21576785.387   113386784.3991                   88353350.6321   21576786.281  
  20513295.154   107798093.4761   20513296.655    83998521.6691   20513294.779  
  22362833.790   117517479.3731   22362838.883    91572081.6671   22362836.971  
  22727121.967   119431841.6931   22727125.952    93063812.9581   22727125.362  
  23575710.628   123891187.2411                   96538575.5081   23575713.988  
  21907435.968   115124374.7161   21907437.880    89707321.9581   21907435.915  
  21584320.397   113426376.0891   21584326.991    88384228.7501   21584324.578  
  23596709.661   126359350.070    23596714.789    98279478.172                  
  20970669.772   112021546.185    20970678.171    87127898.954                  
  19439587.092   103806319.052    19439594.757    80738270.066                  
  22346633.323   119120152.079    22346637.737    92649009.745                  
  21311552.799   113762499.107                                                  
  19492059.799   104269435.203                                                  
  21916310.118   117196383.512    21916322.841    91152788.306                  
  25675057.419   134923343.468                                                  
  23885350.633   125518375.797                                                  
  26791021.754   140787769.050                                                  
  25473234.971   133862759.972                                                  
  23480104.243   123388777.380                                                  
  25493502.196   133969250.442                                                  
                 113090385.419    21717816.419   113090385.419                  
                 128604368.907    24697116.956   128604368.907                  
                 115307658.487    22143622.871   115307658.487                  
                 118268480.847    22712219.023   118268480.847                  
                 130466952.705    25054803.011   130466952.705                  
                 119811463.270    23008532.454   119811463.270                  
 21  9  1  8 14  0.0000000  0 27G30G21G 7G 8G17G13G14G 1R 4R12R13R14
                                R22R23R24E13E15E19E21E27E30C11C12C23
                                C25C28C34
  20641384.188   108471205.7511   20641388.405    84523022.8441   20641387.959  
  21576765.463   113386679.6951                   88353269.0421   21576766.393  
  20513568.246   107799528.6391   20513569.837    83999639.9791   20513567.907  
  22363393.984   117520423.2321   22363399.130    91574375.5851   22363397.165  
  22726594.509   119429069.1881   22726598.298    93061652.5661   22726597.762  
  23575524.504   123890210.9581                   96537814.7711   23575528.239  
  21907023.837   115122208.7791   21907025.874    89705634.2131   21907023.730  
  21583818.045   113423736.2531   21583824.603    88382171.7351   21583822.280  
  23597087.180   126361371.550    23597092.308    98281050.441                  
  20971116.748   112023934.362    20971125.236    87129756.418                  
  19439433.257   103805497.552    19439441.263    80737631.108                  
  22345990.825   119116726.438    22345995.024    92646345.350                  
  21312175.731   113765824.309                                                  
  19491739.962   104267724.326                                                  
  21915541.053   117192270.227    21915553.901    91149589.084                  
  25674491.775   134920371.194                                                  
  23885214.793   125517661.766                                                  
  26791263.093   140789038.234                                                  
  25472879.056   133860889.640                                                  
  23480119.986   123388859.829                                                  
  25493878.053   133971225.845                                                  
                 113090905.334    21717916.271   113090905.334                  
                 128607279.935    24697676.024   128607279.935                  
                 115306575.409    22143414.840   115306575.409                  
                 118270227.092    22712554.371   118270227.092                  
                 130463702.555    25054178.918   130463702.555                  
                 119813347.791    23008894.463   119813347.791                  
 21  9  1  8 14  1.0000000  0 27G30G21G 7G 8G17G13G14G 1R 4R12R13R14
                                R22R23R24E13E15E19E21E27E30C11C12C23
                                C25C28C34
  20641229.782   108470393.9061   20641233.892    84522390.2351   20641233.481  
  21576745.647   113386575.7361                   88353188.0351   21576746.665  
  20513841.464   107800964.5231   20513842.875    84000758.8481   20513841.213  
  22363954.321   117523367.4491   22363959.503    91576669.7761   22363957.430  
  22726066.837   119426297.1091   22726070.750    93059492.5051   22726070.214  
  23575338.917   123889235.4191                   96537054.6101   23575342.651  
  21906611.724   115120043.1331   21906613.815    89703946.6941   21906611.652  
  21583315.818   113421097.0571   21583322.448    88380115.2161   21583320.143  
  23597464.716   126363393.774    23597469.755    98282623.287                  
  20971563.795   112026323.077    20971572.247    87131614.319                  
  19439279.548   103804676.681    19439287.660    80736992.667                  
  22345348.272   119113301.029    22345352.704    92643681.146                  
  21312799.396   113769150.171                                                  
  19491420.338   104266014.444                                                  
  21914772.042   117188157.440    21914785.247    91146390.264                  
  25673926.221   134917399.250                                                  
  23885079.042   125516948.358                                                  
  26791504.736   140790307.911                                                  
  25472523.194   133859019.501                                                  
  23480135.675   123388942.610                                                  
  25494254.053   133973201.504                                                  
                 113091425.904    21718016.302   113091425.904                  
                 128610191.272    24698234.949   128610191.272                  
                 115305492.808    22143206.880   115305492.808                  
                 118271973.820    22712889.773   118271973.820                  
                 130460452.707    25053554.753   130460452.707                  
                 119815232.830    23009256.507   119815232.830                  
 21  9  1  8 14  2.0000000  0 27G30G21G 7G 8G17G13G14G 1R 4R12R13R14
                                R22R23R24E13E15E19E21E27E30C11C12C23
                                C25C28C34
  20641075.411   108469582.9181   20641079.629    84521758.2991   20641079.164  
  21576725.991   113386472.6901                   88353107.7401   21576727.099  
  20514114.824   107802401.2471   20514115.932    84001878.3731   20514114.663  
  22364514.765   117526312.1211   22364519.911    91578964.3281   22364517.785  
  22725539.415   119423525.6221   22725543.078    93057332.9041   22725542.792  
  23575153.597   123888260.8091                   96536295.1771   23575157.189  
  21906199.771   115117877.9291   21906201.737    89702259.5271   21906199.646  
  21582813.752   113418458.6411   21582820.257    88378059.3061   21582818.130  
  23597842.324   126365416.896    23597847.489    98284196.814                  
  20972010.950   112028712.528    20972019.402    87133472.771                  
  19439126.285   103803856.574    19439134.094    80736354.808                  
  22344705.774   119109875.971    22344710.759    92641017.191                  
  21313422.775   113772476.885                                                  
  19491100.912   104264305.676                                                  
  21914003.013   117184045.254    21914016.468    91143191.892                  
  25673360.791   134914427.757                                                  
  23884943.505   125516235.700                                                  
  26791746.379   140791578.243                                                  
  25472167.422   133857149.700                                                  
  23480151.525   123389025.837                                                  
  25494630.053   133975177.541                                                  
                 113091947.233    21718116.422   113091947.233                  
                 128613103.065    24698794.035   128613103.065                  
                 115304410.814    22142999.117   115304410.814                  
                 118273721.172    22713225.282   118273721.172                  
                 130457203.267    25052930.874   130457203.267                  
                 119817118.514    23009618.748   119817118.514                  
 21  9  1  8 14  3.0000000  0 27G30G21G 7G 8G17G13G14G 1R 4R12R13R14
                                R22R23R24E13E15E19E21E27E30C11C12C23
                                C25C28C34
  20640921.130   108468772.3031   20640925.276    84521126.6511   20640924.919  
  21576706.531   113386370.0641                   88353027.7711   21576707.639  
  20514388.238   107803838.3661   20514389.685    84002998.2041   20514388.166  
  22365075.102   117529256.7881   22365079.998    91581258.8691   22365078.157  
  22725011.868   119420754.2501   22725015.513    93055173.3871   22725015.388  
  23574968.313   123887286.6101                   96535536.0471   23574971.798  
  21905787.730   115115712.7171   21905789.838    89700572.3511   21905787.658  
  21582311.847   113415820.5461   21582318.173    88376003.6491   21582316.118  
  23598220.165   126367440.442    23598225.347    98285770.683                  
  20972458.176   112031102.226    20972466.806    87135331.423                  
  19438972.737   103803036.777    19438980.492    80735717.171                  
  22344063.186   119106450.777    22344068.243    92638353.162                  
  21314046.064   113775803.879                                                  
  19490781.485   104262597.562                                                  
  21913234.306   117179933.203    21913247.493    91139993.618                  
  25672795.290   134911456.237                                                  
  23884807.987   125515523.343                                                  
  26791988.093   140792848.765                                                  
  25471811.543   133855279.758                                                  
  23480167.375   123389109.061                                                  
  25495005.999   133977153.507                                                  
                 113092468.881    21718216.578   113092468.881                  
                 128616014.869    24699353.175   128616014.869                  
                 115303328.989    22142791.336   115303328.989                  
                 118275468.688    22713560.916   118275468.688                  
                 130453953.809    25052306.691   130453953.809                  
                 119819004.387    23009980.917   119819004.387                  
 21  9  1  8 14  4.0000000  0 27G30G21G 7G 8G17G13G14G 1R 4R12R13R14
                                R22R23R24E13E15E19E21E27E30C11C12C23
                                C25C28C34
  20640767.010   108467962.3021   20640771.156    84520495.4791   20640770.780  
  21576687.018   113386268.0801                   88352948.3031   21576688.305  
  20514661.777   107805276.0731   20514663.635    84004118.4931   20514661.813  
  22365635.403   117532201.6711   22365640.424    91583553.5851   22365638.548  
  22724484.571   119417983.1711   22724488.055    93053014.1091   22724488.037  
  23574783.011   123886313.0541                   96534777.4141   23574786.550  
  21905375.724   115113547.6751   21905377.671    89698885.3081   21905375.688  
  21581809.978   113413182.9611   21581816.053    88373948.3861   21581814.177  
  23598598.059   126369464.601    23598603.277    98287345.027                  
  20972905.509   112033492.369    20972914.443    87137190.433                  
  19438819.421   103802217.468    19438826.836    80735079.908                  
  22343420.651   119103025.621    22343426.137    92635689.155                  
  21314669.246   113779131.431                                                  
  19490462.362   104260890.297                                                  
  21912465.652   117175821.509    21912478.607    91136795.648                  
  25672229.754   134908484.935                                                  
  23884672.575   125514811.469                                                  
  26792230.254   140794119.674                                                  
  25471455.753   133853409.877                                                  
  23480183.314   123389192.476                                                  
  25495382.088   133979129.594                                                  
                 113092991.041    21718316.752   113092991.041                  
                 128618926.857    24699912.565   128618926.857                  
                 115302247.528    22142583.626   115302247.528                  
                 118277216.572    22713896.621   118277216.572                  
                 130450704.519    25051682.615   130450704.519                  
                 119820890.652    23010343.212   119820890.652                  
 21  9  1  8 14  5.0000000  0 27G30G21G 7G 8G17G13G14G 1R 4R12R13R14
                                R22R23R24E13E15E19E21E27E30C11C12C23
                                C25C28C34
  20640612.908   108467152.7431   20640616.892    84519864.6541   20640616.749  
  21576667.702   113386166.5711                   88352869.2081   21576669.024  
  20514935.495   107806714.2201   20514937.353    84005239.1291   20514935.548  
  22366195.776   117535146.6191   22366200.797    91585848.3521   22366198.956  
  22723957.149   119415212.2681   22723960.598    93050854.9661   22723960.687  
  23574597.513   123885339.9911                   96534019.1761   23574601.409  
  21904963.610   115111382.6631   21904965.790    89697198.2851   21904963.753  
  21581308.162   113410545.7661   21581313.916    88371893.4291   21581312.326  
  23598975.917   126371489.220    23598980.885    98288919.731                  
  20973353.074   112035882.777    20973361.794    87139049.637                  
  19438665.997   103801398.521    19438672.591    80734442.977                  
  22342778.224   119099600.355    22342783.335    92633025.050                  
  21315293.072   113782459.373                                                  
  19490143.221   104259183.724                                                  
  21911696.801   117171710.063    21911709.256    91133597.839                  
  25671664.342   134905513.686                                                  
  23884537.182   125514099.947                                                  
  26792472.165   140795390.839                                                  
  25471099.837   133851539.923                                                  
  23480199.182   123389275.949                                                  
  25495758.142   133981105.681                                                  
                 113093513.591    21718417.175   113093513.591                  
                 128621838.915    24700472.062   128621838.915                  
                 115301166.282    22142376.006   115301166.282                  
                 118278964.664    22714232.273   118278964.664                  
                 130447455.259    25051058.576   130447455.259                  
                 119822777.162    23010705.506   119822777.162                  
 21  9  1  8 14  6.0000000  0 27G30G21G 7G 8G17G13G14G 1R 4R12R13R14
                                R22R23R24E13E15E19E21E27E30C11C12C23
                                C25C28C34
  20640458.984   108466344.0361   20640463.094    84519234.4941   20640462.897  
  21576648.636   113386065.9731                   88352790.8191   21576649.940  
  20515209.266   107808153.2181   20515211.178    84006360.4231   20515209.409  
  22366756.184   117538092.0331   22366761.205    91588143.4801   22366759.454  
  22723429.905   119412441.9291   22723433.640    93048696.2581   22723433.461  
  23574412.551   123884367.8521                   96533261.6741   23574416.375  
  21904551.622   115109218.1051   21904553.945    89695511.6191   21904551.872  
  21580806.472   113407909.3351   21580812.315    88369839.0711   21580810.671  
  23599354.258   126373514.724    23599359.065    98290495.123                  
  20973800.657   112038273.848    20973809.610    87140909.361                  
  19438512.752   103800580.351    19438519.900    80733806.634                  
  22342135.922   119096175.393    22342141.033    92630361.195                  
  21315916.450   113785788.134                                                  
  19489824.384   104257478.269                                                  
  21910928.040   117167599.266    21910940.262    91130400.559                  
  25671098.930   134902542.871                                                  
  23884401.967   125513389.180                                                  
  26792714.004   140796662.632                                                  
  25470744.065   133849670.298                                                  
  23480215.139   123389359.880                                                  
  25496134.338   133983082.126                                                  
                 113094036.911    21718517.689   113094036.911                  
                 128624751.417    24701031.380   128624751.417                  
                 115300085.640    22142168.404   115300085.640                  
                 118280713.386    22714568.049   118280713.386                  
                 130444206.420    25050434.786   130444206.420                  
                 119824664.324    23011067.908   119824664.324                  
 21  9  1  8 14  7.0000000  0 27G30G21G 7G 8G17G13G14G 1R 4R12R13R14
                                R22R23R24E13E15E19E21E27E30C11C12C23
                                C25C28C34
  20640305.274   108465536.3351   20640309.492    84518605.1191   20640309.224  
  21576629.695   113385966.4181                   88352713.2471   21576631.071  
  20515483.323   107809593.2191   20515485.146    84007482.5051   20515483.484  
  22367316.610   117541038.0551   22367321.917    91590439.0791   22367320.094  
  22722902.698   119409672.3171   22722906.289    93046538.1261   22722906.343  
  23574227.892   123883396.7141                   96532504.9481   23574231.609  
  21904139.723   115107054.1251   21904142.046    89693825.4031   21904140.099  
  21580304.834   113405273.8391   21580310.284    88367785.4381   21580309.177  
  23599732.581   126375541.294    23599737.799    98292071.344                  
  20974248.437   112040665.790    20974257.515    87142769.765                  
  19438359.168   103799763.104    19438366.691    80733170.983                  
  22341493.299   119092750.936    22341498.481    92627697.710                  
  21316539.686   113789117.802                                                  
  19489505.655   104255774.083                                                  
  21910159.297   117163489.265    21910171.394    91127203.873                  
  25670533.715   134899572.687                                                  
  23884266.823   125512679.322                                                  
  26792955.951   140797935.238                                                  
  25470388.293   133847801.160                                                  
  23480231.292   123389444.416                                                  
  25496510.535   133985059.131                                                  
                 113094561.145    21718618.381   113094561.145                  
                 128627664.536    24701590.841   128627664.536                  
                 115299005.781    22141961.034   115299005.781                  
                 118282462.879    22714903.951   118282462.879                  
                 130440958.169    25049810.996   130440958.169                  
                 119826552.282    23011430.470   119826552.282                  
 21  9  1  8 14  8.0000000  0 27G30G21G 7G 8G17G13G14G 1R 4R12R13R14
                                R22R23R24E13E15E19E21E27E30C11C12C23
                                C25C28C34
  20640151.619   108464728.6781   20640156.122    84517975.7761   20640155.550  
  21576610.682   113385866.9471                   88352635.7361   21576612.183  
  20515757.309   107811033.2551   20515759.096    84008604.6111   20515757.577  
  22367876.857   117543983.7371   22367882.308    91592734.4131   22367880.664  
  22722375.437   119406902.4741   22722379.171    93044379.8041   22722379.207  
  23574043.270   123882425.6851                   96531748.3011   23574046.843  
  21903727.914   115104889.7851   21903730.076    89692138.9041   21903728.235  
  21579803.269   113402638.3171   21579809.005    88365731.7801   21579807.682  
  23600111.065   126377567.925    23600116.176    98293647.611                  
  20974696.324   112043057.621    20974705.205    87144630.085                  
  19438205.763   103798945.823    19438214.089    80732535.318                  
  22340850.693   119089326.001    22340855.428    92625033.885                  
  21317163.780   113792447.482                                                  
  19489187.086   104254070.193                                                  
  21909390.697   117159379.041    21909403.062    91124007.039                  
  25669968.375   134896602.139                                                  
  23884131.698   125511969.414                                                  
  26793198.076   140799207.712                                                  
  25470032.538   133845931.529                                                  
  23480247.285   123389528.602                                                  
  25496886.624   133987035.714                                                  
                 113095085.358    21718718.912   113095085.358                  
                 128630577.289    24702150.267   128630577.289                  
                 115297925.727    22141753.592   115297925.727                  
                 118284212.191    22715239.853   118284212.191                  
                 130437709.528    25049187.099   130437709.528                  
                 119828440.094    23011792.943   119828440.094                  
 21  9  1  8 14  9.0000000  0 27G30G21G 7G 8G17G13G14G 1R 4R12R13R14
                                R22R23R24E13E15E19E21E27E30C11C12C23
                                C25C28C34
  20639998.106   108463921.5841   20640002.663    84517346.8771   20640001.984  
  21576591.991   113385768.0941                   88352558.7111   21576593.438  
  20516031.384   107812473.8641   20516033.510    84009727.1631   20516031.759  
  22368437.284   117546929.5911   22368442.895    91595029.8841   22368441.268  
  22721848.390   119404132.8971   22721852.017    93042221.6921   22721852.178  
  23573858.522   123881455.2891                   96530992.1671   23573862.149  
  21903315.997   115102725.5971   21903318.124    89690452.5241   21903316.426  
  21579301.971   113400003.2851   21579307.725    88363678.5131   21579306.278  
  23600489.656   126379595.125    23600494.909    98295224.336                  
  20975144.176   112045449.864    20975153.253    87146490.711                  
  19438052.643   103798129.034    19438061.059    80731900.080                  
  22340208.105   119085901.110    22340213.555    92622370.088                  
  21317787.659   113795777.687                                                  
  19488868.624   104252367.121                                                  
  21908622.096   117155269.118    21908634.962    91120810.430                  
  25669403.142   134893631.764                                                  
  23883996.680   125511259.976                                                  
  26793440.219   140800480.526                                                  
  25469676.695   133844061.957                                                  
  23480263.349   123389612.959                                                  
  25497262.821   133989012.376                                                  
                 113095610.051    21718819.568   113095610.051                  
                 128633490.234    24702709.621   128633490.234                  
                 115296846.005    22141546.329   115296846.005                  
                 118285961.847    22715575.880   118285961.847                  
                 130434461.041    25048563.292   130434461.041                  
                 119830328.267    23012155.595   119830328.267                  
 21  9  1  8 14 10.0000000  0 27G30G21G 7G 8G17G13G14G 1R 4R12R13R14
                                R22R23R24E13E15E19E21E27E30C11C12C23
                                C25C28C34
  20639844.593   108463115.0571   20639849.186    84516718.4091   20639848.524  
  21576573.282   113385669.8281                   88352482.1381   21576574.783  
  20516305.656   107813915.0101   20516307.853    84010850.1341   20516306.102  
  22368997.710   117549875.6371   22369003.696    91597325.5041   22369001.927  
  22721321.396   119401363.6081   22721324.917    93040063.8031   22721325.149  
  23573674.221   123880485.4661                   96530236.4611   23573677.669  
  21902904.170   115100561.5381   21902906.207    89688766.2441   21902904.616  
  21578800.870   113397368.7201   21578806.499    88361625.6071   21578804.980  
  23600868.140   126381622.909    23600873.340    98296801.493                  
  20975591.973   112047842.477    20975601.051    87148351.618                  
  19437899.881   103797312.702    19437907.886    80731265.087                  
  22339565.660   119082476.228    22339570.985    92619706.328                  
  21318410.769   113799108.359                                                  
  19488550.377   104250664.871                                                  
  21907853.496   117151159.509    21907866.808    91117614.070                  
  25668837.963   134890661.542                                                  
  23883861.786   125510550.984                                                  
  26793682.595   140801753.663                                                  
  25469320.976   133842192.388                                                  
  23480279.449   123389697.468                                                  
  25497638.946   133990989.141                                                  
                 113096135.217    21718920.278   113096135.217                  
                 128636403.329    24703269.171   128636403.329                  
                 115295766.608    22141339.013   115295766.608                  
                 118287711.819    22715911.907   118287711.819                  
                 130431212.688    25047939.502   130431212.688                  
                 119832216.781    23012518.229   119832216.781                  
 21  9  1  8 14 11.0000000  0 27G30G21G 7G 8G17G13G14G 1R 4R12R13R14
                                R22R23R24E13E15E19E21E27E30C11C12C23
                                C25C28C34
  20639691.295   108462309.3631   20639695.959    84516090.6001   20639695.208  
  21576554.931   113385572.4511                   88352406.2621   21576556.289  
  20516580.142   107815357.0071   20516582.357    84011973.7701   20516580.642  
  22369558.333   117552822.1461   22369564.390    91599621.4831   22369562.639  
  22720794.653   119398594.8831   22720798.048    93037906.3571   22720798.263  
  23573490.134   123879516.5371                   96529481.4561   23573493.315  
  21902492.414   115098397.9221   21902494.558    89687080.3121   21902492.878  
  21578299.626   113394734.9351   21578305.344    88359573.3121   21578303.879  
  23601246.766   126383651.559    23601252.127    98298379.335                  
  20976040.146   112050235.776    20976049.045    87150213.073                  
  19437747.494   103796497.163    19437755.499    80730630.786                  
  22338923.197   119079051.679    22338928.379    92617042.760                  
  21319034.916   113802439.813                                                  
  19488232.272   104248963.732                                                  
  21907085.074   117147050.536    21907098.405    91114418.199                  
  25668272.730   134887691.768                                                  
  23883727.018   125509842.740                                                  
  26793925.095   140803027.486                                                  
  25468965.311   133840323.162                                                  
  23480295.621   123389782.423                                                  
  25498015.017   133992966.264                                                  
                 113096661.169    21719021.273   113096661.169                  
                 128639316.879    24703828.490   128639316.879                  
                 115294687.828    22141131.857   115294687.828                  
                 118289462.411    22716247.970   118289462.411                  
                 130427964.751    25047315.730   130427964.751                  
                 119834105.934    23012880.970   119834105.934                  
 21  9  1  8 14 12.0000000  0 27G30G21G 7G 8G17G13G14G 1R 4R12R13R14
                                R22R23R24E13E15E19E21E27E30C11C12C23
                                C25C28C34
  20639537.996   108461503.9451   20639542.714    84515463.0021   20639541.946  
  21576536.472   113385475.3831                   88352330.6241   21576537.901  
  20516854.610   107816799.2591   20516856.379    84013097.6011   20516855.182  
  22370118.991   117555768.5171   22370124.852    91601917.3591   22370123.351  
  22720267.714   119395826.1371   22720271.270    93035748.8901   22720271.395  
  23573305.708   123878547.9201                   96528726.6911   23573308.996  
  21902080.801   115096234.1541   21902082.820    89685394.2611   21902081.123  
  21577798.650   113392101.3381   21577804.225    88357521.1631   21577802.832  
  23601625.465   126385680.481    23601630.736    98299957.381                  
  20976488.159   112052629.176    20976496.986    87152074.611                  
  19437594.731   103795681.778    19437601.700    80729996.612                  
  22338280.716   119075626.851    22338285.416    92614378.995                  
  21319658.688   113805771.433                                                  
  19487914.329   104247263.101                                                  
  21906316.546   117142941.614    21906330.537    91111222.357                  
  25667707.515   134884721.854                                                  
  23883592.268   125509134.658                                                  
  26794167.542   140804301.356                                                  
  25468609.610   133838453.648                                                  
  23480311.721   123389867.249                                                  
  25498391.107   133994943.199                                                  
                 113097187.275    21719122.341   113097187.275                  
                 128642230.300    24704387.969   128642230.300                  
                 115293609.068    22140924.720   115293609.068                  
                 118291213.035    22716584.140   118291213.035                  
                 130424716.648    25046691.976   130424716.648                  
                 119835995.159    23013243.711   119835995.159                  
 21  9  1  8 14 13.0000000  0 27G30G21G 7G 8G17G13G14G 1R 4R12R13R14
                                R22R23R24E13E15E19E21E27E30C11C12C23
                                C25C28C34
  20639384.913   108460699.4451   20639389.630    84514836.1141   20639388.844  
  21576518.192   113385379.2651                   88352255.7311   21576519.639  
  20517129.275   107818242.4181   20517131.151    84014222.1421   20517129.864  
  22370679.739   117558715.4341   22370685.600    91604213.6551   22370684.170  
  22719740.989   119393058.0161   22719744.384    93033591.9151   22719744.598  
  23573121.800   123877580.2711                   96527972.6771   23573124.891  
  21901669.045   115094070.8931   21901671.279    89683708.6011   21901669.474  
  21577297.746   113389468.5981   21577303.107    88355469.6731   21577301.909  
  23602004.342   126387710.369    23602010.006    98301536.174                  
  20976936.367   112055023.346    20976945.123    87153936.753                  
  19437442.273   103794867.253    19437448.938    80729363.088                  
  22337638.289   119072202.391    22337643.632    92611715.543                  
  21320282.889   113809103.927                                                  
  19487596.707   104245563.650                                                  
  21905548.231   117138833.387    21905562.544    91108027.083                  
  25667142.532   134881752.480                                                  
  23883457.660   125508427.400                                                  
  26794410.007   140805575.928                                                  
  25468253.999   133836584.551                                                  
  23480327.964   123389952.595                                                  
  25498767.214   133996920.589                                                  
                 113097714.239    21719223.461   113097714.239                  
                 128645144.225    24704947.644   128645144.225                  
                 115292530.994    22140717.618   115292530.994                  
                 118292964.337    22716920.417   118292964.337                  
                 130421469.048    25046068.258   130421469.048                  
                 119837885.086    23013606.595   119837885.086                  
 21  9  1  8 14 14.0000000  0 27G30G21G 7G 8G17G13G14G 1R 4R12R13R14
                                R22R23R24E13E15E19E21E27E30C11C12C23
                                C25C28C34
  20639231.882   108459895.2211   20639236.457    84514209.4511   20639235.831  
  21576500.037   113385283.4871                   88352181.1001   21576501.449  
  20517403.886   107819685.8641   20517405.708    84015346.9081   20517404.636  
  22371240.362   117561662.2511   22371246.366    91606509.8761   22371244.954  
  22719214.299   119390289.9161   22719217.801    93031434.9561   22719217.766  
  23572937.463   123876612.9361                   96527218.9091   23572940.840  
  21901257.325   115091907.5001   21901259.701    89682022.8411   21901257.825  
  21576796.877   113386836.0511   21576802.041    88353418.3361   21576800.987  
  23602383.129   126389740.560    23602389.169    98303115.229                  
  20977384.630   112057417.629    20977393.296    87155798.957                  
  19437289.761   103794052.918    19437295.014    80728729.728                  
  22336995.666   119068777.673    22337000.347    92609051.846                  
  21320906.679   113812436.656                                                  
  19487279.192   104243864.736                                                  
  21904779.899   117134725.208    21904793.962    91104831.822                  
  25666577.407   134878782.982                                                  
  23883323.178   125507720.330                                                  
  26794652.418   140806850.582                                                  
  25467898.316   133834715.208                                                  
  23480344.189   123390037.849                                                  
  25499143.500   133998897.788                                                  
                 113098241.415    21719324.600   113098241.415                  
                 128648058.053    24705507.231   128648058.053                  
                 115291452.978    22140510.605   115291452.978                  
                 118294715.705    22717256.676   118294715.705                  
                 130418221.305    25045444.522   130418221.305                  
                 119839775.108    23013969.444   119839775.108                  
