     2.11           OBSERVATION DATA    M (MIXED)           RINEX VERSION / TYPE
CONVBIN 2.4.3                           20210901 190607 UTC PGM / RUN BY / DATE 
log: logs/21_09_01_06_41_38_sacr_VZ.rtcm                    COMMENT             
format: RTCM 3, station ID: 342                             COMMENT             
0342                                                        MARKER NAME         
                                                            MARKER NUMBER       
                                                            OBSERVER / AGENCY   
                    LEICA GR50                              REC # / TYPE / VERS 
                    GPPNULLANTENNA                          ANT # / TYPE        
 -2599095.5841 -4260310.4995  3958450.7559                  APPROX POSITION XYZ 
        0.0000        0.0000        0.0000                  ANTENNA: DELTA H/E/N
     1     1                                                WAVELENGTH FACT L1/2
     7    C1    L1    C2    L2    P2    C5    L5            # / TYPES OF OBSERV 
  2021     9     1     6    41   46.0000000     GPS         TIME OF FIRST OBS   
  2021     9     1     7    11   42.0000000     GPS         TIME OF LAST OBS    
                                                            END OF HEADER       
 21  9  1  6 41 46.0000000  0 15G 7G 8G 9G27G30R 2R 3R 4R12R13R21E 7
                                E19E21E27
  20726036.755   108916099.251    20726033.967    84869694.965    20726033.681  
                                
  22137599.170   116333861.562    22137595.989    90649737.090    22137595.774  
  22137596.132    86872692.339  
  21759926.880   114349176.221    21759926.648    89103253.688    21759926.398  
  21759926.880    85390619.545  
  23859759.476   125383880.368    23859758.922    97701723.846    23859758.404  
  23859758.744    93630812.965  
  21183411.552   111319610.876    21183411.480    86742570.034    21183410.944  
  21183411.444    83128309.148  
  20827301.741   111138484.314    20827303.778    86441056.049    20827303.831  
                                
  19797470.510   105977422.298    19797469.635    82426886.948    19797469.724  
                                
  22568530.815   120853466.771    22568529.832    93997137.461    22568529.939  
                                
  21150145.363   112980329.432    21150146.579    87873641.024    21150146.561  
                                
  19872882.147   106120103.208    19872883.291    82537877.242    19872883.202  
                                
  23626658.804   126431007.759    23626658.679    98335229.242    23626658.626  
                                
  26135518.840   137343131.889                                                  
  26135522.378   102561477.426  
  24828882.810   130476668.655                                                  
  24828883.685    97433889.591  
  24852009.042   130598223.885                                                  
  24852011.526    97524672.939  
  23520950.078   123603473.341                                                  
  23520951.954    92301335.089  
 21  9  1  6 41 47.0000000  0 15G 7G 8G 9G27G30R 2R 3R 4R12R13R21E 7
                                E19E21E27
  20726075.709   108916303.908    20726072.904    84869854.441    20726072.618  
                                
  22137757.793   116334695.333    22137754.630    90650386.777    22137754.398  
  22137754.755    86873314.980  
  21760456.429   114351958.956    21760456.178    89105422.051    21760455.928  
  21760456.429    85392697.561  
  23860227.448   125386339.647    23860226.912    97703640.170    23860226.376  
  23860226.733    93632649.428  
  21183146.268   111318216.793    21183146.197    86741483.738    21183145.643  
  21183146.161    83127268.116  
  20827989.305   111142153.262    20827991.342    86443909.677    20827991.396  
                                
  19797440.615   105977262.256    19797439.758    82426762.474    19797439.829  
                                
  22567869.321   120849924.480    22567868.338    93994382.344    22567868.446  
                                
  21150600.988   112982763.156    21150602.185    87875533.920    21150602.185  
                                
  19872849.018   106119926.411    19872850.180    82537739.733    19872850.090  
                                
  23626883.650   126432210.919    23626883.525    98336165.036    23626883.454  
                                
  26136053.535   137345941.720                                                  
  26136057.073   102563575.676  
  24828557.522   130474959.233                                                  
  24828558.398    97432613.077  
  24851720.869   130596709.568                                                  
  24851723.352    97523542.123  
  23521105.628   123604290.755                                                  
  23521107.522    92301945.491  
 21  9  1  6 41 48.0000000  0 15G 7G 8G 9G27G30R 2R 3R 4R12R13R21E 7
                                E19E21E27
  20726114.699   108916508.774    20726111.912    84870014.076    20726111.608  
                                
  22137916.595   116335529.758    22137913.432    90651036.978    22137913.200  
  22137913.557    86873938.085  
  21760986.031   114354742.054    21760985.780    89107590.699    21760985.530  
  21760986.031    85394775.844  
  23860695.527   125388799.387    23860694.973    97705556.853    23860694.455  
  23860694.795    93634486.256  
  21182881.020   111316822.875    21182880.949    86740397.563    21182880.395  
  21182880.913    83126227.203  
  20828676.941   111145822.663    20828678.978    86446763.656    20828679.014  
                                
  19797410.864   105977103.064    19797410.006    82426638.655    19797410.077  
                                
  22567207.899   120846382.584    22567206.917    93991627.533    22567207.024  
                                
  21151056.594   112985196.965    21151057.809    87877426.881    21151057.791  
                                
  19872815.996   106119749.926    19872817.140    82537602.467    19872817.050  
                                
  23627108.639   126433414.841    23627108.496    98337101.422    23627108.443  
                                
  26136588.265   137348751.701                                                  
  26136591.803   102565674.025  
  24828232.288   130473250.113                                                  
  24828233.164    97431336.782  
  24851432.748   130595195.452                                                  
  24851435.232    97522411.447  
  23521261.196   123605108.339                                                  
  23521263.090    92302556.029  
 21  9  1  6 41 49.0000000  0 16G 4G 7G 8G 9G27G30R 2R 3R 4R12R13R21
                                E 7E19E21E27
  24620001.204   129379013.529    24620000.739   100814832.169    24620000.453  
  24620004.385    96614235.564  
  20726153.725   108916713.909    20726150.938    84870173.920    20726150.652  
                                
  22138075.504   116336364.922    22138072.359    90651687.758    22138072.127  
  22138072.466    86874561.736  
  21761515.722   114357525.598    21761515.490    89109759.692    21761515.240  
  21761515.722    85396854.465  
  23861163.713   125391259.693    23861163.160    97707473.965    23861162.641  
  23861162.981    93636323.489  
  21182615.808   111315429.211    21182615.737    86739311.596    21182615.183  
  21182615.701    83125186.478  
  20829364.684   111149492.597    20829366.721    86449618.035    20829366.774  
                                
  19797381.308   105976944.822    19797380.450    82426515.576    19797380.522  
                                
  22566546.585   120842841.190    22566545.602    93988873.118    22566545.691  
                                
  21151512.236   112987630.915    21151513.452    87879319.948    21151513.434  
                                
  19872783.010   106119573.826    19872784.154    82537465.496    19872784.064  
                                
  23627333.771   126434619.636    23627333.646    98338038.475    23627333.592  
                                
  26137123.014   137351561.878                                                  
  26137126.534   102567772.546  
  24827907.125   130471541.343                                                  
  24827908.019    97430060.767  
  24851144.682   130593681.608                                                  
  24851147.166    97521280.981  
  23521416.835   123605926.188                                                  
  23521418.729    92303166.756  
 21  9  1  6 41 50.0000000  0 16G 4G 7G 8G 9G27G30R 2R 3R 4R12R13R21
                                E 7E19E21E27
  24620695.398   129382661.559    24620694.933   100817674.801    24620694.647  
  24620698.578    96616959.745  
  20726192.858   108916919.547    20726190.053    84870334.159    20726189.767  
                                
  22138234.610   116337200.988    22138231.501    90652339.235    22138231.250  
  22138231.590    86875186.058  
  21762045.539   114360309.818    21762045.288    89111929.214    21762045.038  
  21762045.539    85398933.585  
  23861632.043   125393720.783    23861631.507    97709391.702    23861630.971  
  23861631.328    93638161.306  
  21182350.704   111314036.008    21182350.614    86738225.981    21182350.078  
  21182350.578    83124146.097  
  20830052.570   111153163.279    20830054.607    86452473.010    20830054.660  
                                
  19797351.967   105976787.781    19797351.109    82426393.435    19797351.181  
                                
  22565885.395   120839300.568    22565884.412    93986119.299    22565884.519  
                                
  21151967.950   112990065.232    21151969.147    87881213.311    21151969.147  
                                
  19872750.131   106119398.341    19872751.292    82537329.012    19872751.203  
                                
  23627559.099   126435825.467    23627558.956    98338976.349    23627558.903  
                                
  26137657.851   137354372.505                                                  
  26137661.372   102569871.394  
  24827582.070   130469833.177                                                  
  24827582.963    97428785.189  
  24850856.687   130592168.266                                                  
  24850859.171    97520150.888  
  23521572.563   123606744.517                                                  
  23521574.440    92303777.846  
 21  9  1  6 41 51.0000000  0 16G 4G 7G 8G 9G27G30R 2R 3R 4R12R13R21
                                E 7E19E21E27
  24621389.609   129386309.595    24621389.145   100820517.426    24621388.859  
  24621392.790    96619683.912  
  20726232.009   108917125.269    20726229.222    84870494.462    20726228.936  
                                
  22138393.769   116338037.514    22138390.642    90652991.076    22138390.410  
  22138390.731    86875810.765  
  21762575.409   114363094.281    21762575.176    89114098.925    21762574.926  
  21762575.409    85401012.892  
  23862100.443   125396182.227    23862099.889    97711309.715    23862099.371  
  23862099.711    93639999.407  
  21182085.581   111312642.859    21182085.509    86737140.412    21182084.955  
  21182085.474    83123105.762  
  20830740.527   111156834.301    20830742.564    86455328.252    20830742.600  
                                
  19797322.769   105976631.530    19797321.929    82426271.909    19797322.001  
                                
  22565224.259   120835760.280    22565223.276    93983365.746    22565223.366  
                                
  21152423.646   112992499.507    21152424.861    87883106.631    21152424.843  
                                
  19872717.323   106119223.055    19872718.485    82537192.676    19872718.378  
                                
  23627784.553   126437031.917    23627784.428    98339914.696    23627784.374  
                                
  26138192.707   137357183.172                                                  
  26138196.245   102571970.267  
  24827257.050   130468125.178                                                  
  24827257.944    97427509.738  
  24850568.745   130590655.012                                                  
  24850571.229    97519020.863  
  23521728.310   123607562.912                                                  
  23521730.186    92304388.991  
 21  9  1  6 41 52.0000000  0 16G 4G 7G 8G 9G27G30R 2R 3R 4R12R13R21
                                E 7E19E21E27
  24622083.821   129389957.690    24622083.356   100823360.095    24622083.070  
  24622087.001    96622408.138  
  20726271.196   108917331.212    20726268.391    84870654.937    20726268.105  
                                
  22138553.072   116338874.700    22138549.944    90653643.438    22138549.712  
  22138550.034    86876435.938  
  21763105.332   114365879.122    21763105.100    89116268.931    21763104.850  
  21763105.350    85403092.472  
  23862568.951   125398644.168    23862568.397    97713228.117    23862567.879  
  23862568.219    93641837.852  
  21181820.512   111311249.879    21181820.440    86736054.973    21181819.886  
  21181820.405    83122065.544  
  20831428.556   111160505.790    20831430.575    86458183.855    20831430.629  
                                
  19797293.750   105976476.155    19797292.910    82426151.061    19797292.982  
                                
  22564563.230   120832220.442    22564562.230    93980612.541    22564562.337  
                                
  21152879.360   112994933.866    21152880.575    87885000.023    21152880.557  
                                
  19872684.552   106119048.094    19872685.713    82537056.596    19872685.624  
                                
  23628010.149   126438239.120    23628010.024    98340853.634    23628009.971  
                                
  26138727.598   137359993.978                                                  
  26138731.119   102574069.241  
  24826932.066   130466417.476                                                  
  24826932.960    97426234.508  
  24850280.822   130589141.969                                                  
  24850283.306    97517890.991  
  23521884.056   123608381.497                                                  
  23521885.950    92305000.272  
 21  9  1  6 41 53.0000000  0 16G 4G 7G 8G 9G27G30R 2R 3R 4R12R13R21
                                E 7E19E21E27
  24622778.032   129393605.837    24622777.568   100826202.800    24622777.282  
  24622781.195    96625132.406  
  20726310.401   108917537.319    20726307.613    84870815.542    20726307.327  
                                
  22138712.517   116339712.506    22138709.426    90654296.269    22138709.175  
  22138709.479    86877061.551  
  21763635.346   114368664.292    21763635.113    89118439.194    21763634.863  
  21763635.346    85405172.318  
  23863037.513   125401106.537    23863036.977    97715146.847    23863036.441  
  23863036.798    93643676.642  
  21181555.461   111309857.049    21181555.389    86734969.653    21181554.835  
  21181555.353    83121025.452  
  20832116.674   111164177.727    20832118.711    86461039.803    20832118.747  
                                
  19797264.874   105976321.619    19797264.034    82426030.869    19797264.105  
                                
  22563902.255   120828680.998    22563901.272    93977859.640    22563901.362  
                                
  21153335.091   112997368.264    21153336.306    87886893.444    21153336.288  
                                
  19872651.833   106118873.396    19872652.995    82536920.722    19872652.888  
                                
  23628235.889   126439447.064    23628235.764    98341793.142    23628235.710  
                                
  26139262.490   137362804.898                                                  
  26139266.010   102576168.307  
  24826607.172   130464710.041                                                  
  24826608.065    97424959.473  
  24849992.934   130587629.094                                                  
  24849995.418    97516761.251  
  23522039.874   123609200.243                                                  
  23522041.750    92305611.671  
 21  9  1  6 41 54.0000000  0 15G 7G 8G 9G27G30R 2R 3R 4R12R13R21E 7
                                E19E21E27
  20726349.731   108917743.924    20726346.943    84870976.533    20726346.657  
                                
  22138872.087   116340551.192    22138868.996    90654949.795    22138868.764  
  22138869.049    86877687.849  
  21764165.466   114371450.152    21764165.234    89120609.991    21764164.983  
  21764165.466    85407252.664  
  23863506.217   125403569.640    23863505.663    97717066.134    23863505.127  
  23863505.485    93645515.977  
  21181290.499   111308464.662    21181290.427    86733884.674    21181289.891  
  21181290.391    83119985.680  
  20832804.953   111167850.429    20832806.972    86463896.354    20832807.026  
                                
  19797236.230   105976168.244    19797235.390    82425911.575    19797235.461  
                                
  22563241.423   120825142.316    22563240.440    93975107.334    22563240.547  
                                
  21153790.876   112999803.013    21153792.092    87888787.140    21153792.074  
                                
  19872619.240   106118699.312    19872620.384    82536785.325    19872620.295  
                                
  23628461.825   126440656.054    23628461.699    98342733.467    23628461.646  
                                
  26139797.488   137365616.258                                                  
  26139801.008   102578267.695  
  24826282.349   130463003.169                                                  
  24826283.242    97423684.863  
  24849705.118   130586116.700                                                  
  24849707.601    97515631.872  
  23522195.763   123610019.465                                                  
  23522197.640    92306223.426  
 21  9  1  6 41 55.0000000  0 15G 7G 8G 9G27G30R 2R 3R 4R12R13R21E 7
                                E19E21E27
  20726389.042   108917950.506    20726386.237    84871137.509    20726385.951  
                                
  22139031.765   116341390.303    22139028.691    90655603.653    22139028.441  
  22139028.745    86878314.462  
  21764695.640   114374236.149    21764695.407    89122780.896    21764695.157  
  21764695.640    85409333.108  
  23863974.993   125406033.059    23863974.439    97718985.688    23863973.921  
  23863974.279    93647355.532  
  21181025.537   111307072.245    21181025.465    86732799.677    21181024.911  
  21181025.430    83118945.889  
  20833493.250   111171523.367    20833495.287    86466753.085    20833495.341  
                                
  19797207.693   105976015.525    19797206.835    82425792.792    19797206.924  
                                
  22562580.644   120821603.841    22562579.662    93972355.182    22562579.751  
                                
  21154246.644   113002237.619    21154247.859    87890680.723    21154247.841  
                                
  19872586.647   106118525.317    19872587.809    82536649.998    19872587.702  
                                
  23628687.868   126441865.618    23628687.743    98343674.244    23628687.689  
                                
  26140332.451   137368427.530                                                  
  26140335.971   102580367.028  
  24825957.561   130461296.379                                                  
  24825958.455    97422410.308  
  24849417.319   130584604.288                                                  
  24849419.803    97514502.476  
  23522351.653   123610838.648                                                  
  23522353.529    92306835.154  
 21  9  1  6 41 56.0000000  0 15G 7G 8G 9G27G30R 2R 3R 4R12R13R21E 7
                                E19E21E27
  20726428.426   108918157.458    20726425.638    84871298.765    20726425.352  
                                
  22139191.585   116342230.198    22139188.512    90656258.112    22139188.262  
  22139188.548    86878941.656  
  21765225.885   114377022.666    21765225.653    89124952.206    21765225.403  
  21765225.885    85411413.948  
  23864443.894   125408497.095    23864443.358    97720905.718    23864442.822  
  23864443.180    93649195.548  
  21180760.629   111305680.143    21180760.557    86731714.919    21180760.003  
  21180760.521    83117906.334  
  20834181.672   111175196.948    20834183.709    86469610.311    20834183.763  
                                
  19797179.370   105975863.857    19797178.513    82425674.830    19797178.602  
                                
  22561919.973   120818065.936    22561918.972    93969603.479    22561919.080  
                                
  21154702.465   113004672.461    21154703.680    87892574.491    21154703.662  
                                
  19872554.161   106118351.776    19872555.323    82536515.022    19872555.216  
                                
  23628914.072   126443076.066    23628913.947    98344615.706    23628913.893  
                                
  26140867.467   137371239.107                                                  
  26140870.970   102582466.580  
  24825632.881   130459590.039                                                  
  24825633.775    97421136.088  
  24849129.592   130583092.249                                                  
  24849132.076    97513373.352  
  23522507.596   123611658.166                                                  
  23522509.472    92307447.136  
 21  9  1  6 41 57.0000000  0 15G 7G 8G 9G27G30R 2R 3R 4R12R13R21E 7
                                E19E21E27
  20726467.881   108918364.848    20726465.093    84871460.370    20726464.807  
                                
  22139351.567   116343071.009    22139348.529    90656913.291    22139348.261  
  22139348.547    86879569.526  
  21765756.274   114379809.806    21765756.023    89127124.000    21765755.773  
  21765756.274    85413495.249  
  23864912.920   125410961.841    23864912.366    97722826.297    23864911.830  
  23864912.188    93651036.118  
  21180495.810   111304288.463    21180495.738    86730630.494    21180495.184  
  21180495.685    83116867.090  
  20834870.237   111178871.242    20834872.274    86472468.095    20834872.328  
                                
  19797151.262   105975713.339    19797150.405    82425557.755    19797150.476  
                                
  22561259.409   120814528.693    22561258.426    93966852.290    22561258.515  
                                
  21155158.321   113007107.625    21155159.536    87894468.505    21155159.519  
                                
  19872521.765   106118178.801    19872522.926    82536380.486    19872522.819  
                                
  23629140.436   126444287.452    23629140.311    98345557.895    23629140.258  
                                
  26141402.555   137374051.057                                                  
  26141406.058   102584566.417  
  24825308.255   130457884.226                                                  
  24825309.166    97419862.267  
  24848841.954   130581580.641                                                  
  24848844.438    97512244.558  
  23522663.646   123612478.107                                                  
  23522665.522    92308059.427  
 21  9  1  6 41 58.0000000  0 15G 7G 8G 9G27G30R 2R 3R 4R12R13R21E 7
                                E19E21E27
  20726507.353   108918572.172    20726504.548    84871621.919    20726504.262  
                                
  22139511.620   116343912.124    22139508.582    90657568.701    22139508.314  
  22139508.582    86880197.653  
  21766286.662   114382597.033    21766286.430    89129295.863    21766286.179  
  21766286.662    85415576.624  
  23865381.982   125413426.795    23865381.428    97724747.039    23865380.910  
  23865381.250    93652876.835  
  21180230.955   111302896.666    21180230.866    86729545.974    21180230.330  
  21180230.830    83115827.768  
  20835558.838   111182545.729    20835560.875    86475326.027    20835560.928  
                                
  19797123.244   105975563.428    19797122.386    82425441.160    19797122.475  
                                
  22560598.898   120810991.620    22560597.898    93964101.235    22560598.005  
                                
  21155614.160   113009542.571    21155615.357    87896362.352    21155615.357  
                                
  19872489.386   106118005.853    19872490.530    82536245.971    19872490.440  
                                
  23629366.908   126445499.383    23629366.783    98346500.510    23629366.748  
                                
  26141937.625   137376862.895                                                  
  26141941.146   102586666.164  
  24824983.664   130456178.431                                                  
  24824984.557    97418588.468  
  24848554.281   130580068.972                                                  
  24848556.765    97511115.714  
  23522819.643   123613297.971                                                  
  23522821.519    92308671.668  
 21  9  1  6 41 59.0000000  0 16G 4G 7G 8G 9G27G30R 2R 3R 4R12R13R21
                                E 7E19E21E27
  24626943.981   129415497.955    24626943.516   100843261.571    24626943.230  
  24626947.143    96641480.375  
  20726546.826   108918779.723    20726544.038    84871783.647    20726543.752  
                                
  22139671.815   116344753.953    22139668.778    90658224.681    22139668.527  
  22139668.778    86880826.267  
  21766817.122   114385384.653    21766816.889    89131468.037    21766816.639  
  21766817.122    85417658.287  
  23865851.169   125415892.284    23865850.615    97726668.205    23865850.097  
  23865850.437    93654717.934  
  21179966.136   111301505.072    21179966.065    86728461.617    21179965.511  
  21179966.029    83114788.588  
  20836247.528   111186220.702    20836249.547    86478184.335    20836249.600  
                                
  19797095.404   105975414.392    19797094.564    82425325.246    19797094.635  
                                
  22559938.459   120807455.032    22559937.476    93961350.544    22559937.566  
                                
  21156069.981   113011977.601    21156071.196    87898256.259    21156071.178  
                                
  19872457.043   106117833.215    19872458.205    82536111.692    19872458.097  
                                
  23629593.541   126446712.090    23629593.416    98347443.715    23629593.363  
                                
  26142472.731   137379674.886                                                  
  26142476.251   102588766.034  
  24824659.109   130454472.945                                                  
  24824660.002    97417314.890  
  24848266.643   130578557.513                                                  
  24848269.127    97509987.028  
  23522975.693   123614118.029                                                  
  23522977.569    92309284.047  
 21  9  1  6 42  0.0000000  0 16G 4G 7G 8G 9G27G30R 2R 3R 4R12R13R21
                                E 7E19E21E27
  24627638.389   129419147.071    24627637.924   100846105.040    24627637.638  
  24627641.534    96644205.373  
  20726586.406   108918987.667    20726583.618    84871945.681    20726583.332  
                                
  22139832.154   116345596.542    22139829.116    90658881.250    22139828.866  
  22139829.116    86881455.480  
  21767347.707   114388172.840    21767347.474    89133640.648    21767347.224  
  21767347.707    85419740.365  
  23866320.428   125418358.376    23866319.874    97728589.838    23866319.355  
  23866319.695    93656559.505  
  21179701.406   111300113.835    21179701.317    86727377.539    21179700.781  
  21179701.281    83113749.675  
  20836936.343   111189896.331    20836938.362    86481043.154    20836938.415  
                                
  19797067.760   105975266.403    19797066.921    82425210.141    19797066.992  
                                
  22559278.145   120803919.080    22559277.162    93958600.364    22559277.252  
                                
  21156525.891   113014412.890    21156527.088    87900150.371    21156527.071  
                                
  19872424.825   106117661.120    19872425.969    82535977.840    19872425.880  
                                
  23629820.353   126447925.759    23629820.228    98348387.678    23629820.174  
                                
  26143007.908   137382487.215                                                  
  26143011.429   102590866.138  
  24824334.661   130452767.933                                                  
  24824335.554    97416041.674  
  24847979.113   130577046.449                                                  
  24847981.597    97508858.633  
  23523131.814   123614938.460                                                  
  23523133.691    92309896.701  
 21  9  1  6 42  1.0000000  0 16G 4G 7G 8G 9G27G30R 2R 3R 4R12R13R21
                                E 7E19E21E27
  24628332.815   129422796.304    24628332.350   100848948.598    24628332.046  
  24628335.960    96646930.441  
  20726626.004   108919195.795    20726623.216    84872107.864    20726622.930  
                                
  22139992.582   116346439.782    22139989.580    90659538.318    22139989.312  
  22139989.562    86882085.183  
  21767878.327   114390961.367    21767878.095    89135813.531    21767877.845  
  21767878.345    85421822.718  
  23866789.811   125420824.959    23866789.239    97730511.851    23866788.721  
  23866789.078    93658401.438  
  21179436.677   111298722.754    21179436.605    86726293.582    21179436.051  
  21179436.570    83112710.890  
  20837625.247   111193572.397    20837627.266    86483902.317    20837627.320  
                                
  19797040.260   105975119.257    19797039.420    82425095.694    19797039.492  
                                
  22558617.903   120800383.533    22558616.902    93955850.493    22558617.009  
                                
  21156981.801   113016848.245    21156982.999    87902044.538    21156982.981  
                                
  19872392.643   106117489.284    19872393.787    82535844.190    19872393.698  
                                
  23630047.289   126449140.146    23630047.182    98349332.201    23630047.128  
                                
  26143543.103   137385299.672                                                  
  26143546.606   102592966.352  
  24824010.267   130451063.215                                                  
  24824011.178    97414768.663  
  24847691.600   130575535.577                                                  
  24847694.084    97507730.385  
  23523287.972   123615759.067                                                  
  23523289.848    92310509.494  
 21  9  1  6 42  2.0000000  0 16G 4G 7G 8G 9G27G30R 2R 3R 4R12R13R21
                                E 7E19E21E27
  24629027.276   129426445.784    24629026.812   100851792.346    24629026.526  
  24629030.421    96649655.719  
  20726665.691   108919404.338    20726662.903    84872270.362    20726662.617  
                                
  22140153.225   116347283.855    22140150.223    90660196.036    22140149.955  
  22140150.187    86882715.489  
  21768409.091   114393750.478    21768408.858    89137986.859    21768408.608  
  21768409.091    85423905.494  
  23867259.338   125423292.252    23867258.784    97732434.422    23867258.248  
  23867258.605    93660243.878  
  21179172.037   111297332.048    21179171.965    86725209.915    21179171.411  
  21179171.929    83111672.369  
  20838314.241   111197249.134    20838316.278    86486761.999    20838316.332  
                                
  19797012.992   105974973.202    19797012.134    82424982.096    19797012.223  
                                
  22557957.785   120796848.604    22557956.785    93953101.109    22557956.874  
                                
  21157437.765   113019283.902    21157438.963    87903938.935    21157438.963  
                                
  19872360.568   106117318.012    19872361.712    82535710.981    19872361.623  
                                
  23630274.422   126450355.483    23630274.297    98350277.465    23630274.244  
                                
  26144078.352   137388112.482                                                  
  26144081.854   102595066.821  
  24823685.944   130449358.985                                                  
  24823686.855    97413496.028  
  24847404.177   130574025.111                                                  
  24847406.661    97506602.435  
  23523444.219   123616580.061                                                  
  23523446.095    92311122.574  
 21  9  1  6 42  3.0000000  0 16G 4G 7G 8G 9G27G30R 2R 3R 4R12R13R21
                                E 7E19E21E27
  24629721.792   129430095.518    24629721.345   100854636.288    24629721.041  
  24629724.954    96652381.153  
  20726705.431   108919613.200    20726702.644    84872433.110    20726702.358  
                                
  22140313.957   116348128.633    22140310.955    90660854.309    22140310.687  
  22140310.919    86883346.343  
  21768939.944   114396540.079    21768939.711    89140160.572    21768939.461  
  21768939.944    85425988.633  
  23867728.953   125425760.106    23867728.399    97734357.422    23867727.863  
  23867728.221    93662086.762  
  21178907.450   111295941.639    21178907.379    86724126.477    21178906.842  
  21178907.343    83110634.079  
  20839003.378   111200926.446    20839005.415    86489622.135    20839005.468  
                                
  19796985.902   105974828.148    19796985.045    82424869.274    19796985.116  
                                
  22557297.757   120793314.231    22557296.756    93950352.152    22557296.864  
                                
  21157893.747   113021719.770    21157894.962    87905833.497    21157894.944  
                                
  19872328.565   106117147.151    19872329.726    82535578.087    19872329.619  
                                
  23630501.699   126451571.722    23630501.573    98351223.426    23630501.538  
                                
  26144613.654   137390925.547                                                  
  26144617.175   102597167.486  
  24823361.728   130447655.168                                                  
  24823362.640    97412223.693  
  24847116.790   130572514.965                                                  
  24847119.291    97505474.726  
  23523600.483   123617401.357                                                  
  23523602.359    92311735.880  
 21  9  1  6 42  4.0000000  0 16G 4G 7G 8G 9G27G30R 2R 3R 4R12R13R21
                                E 7E19E21E27
  24630416.307   129433745.221    24630415.842   100857480.213    24630415.539  
  24630419.452    96655106.611  
  20726745.208   108919822.206    20726742.420    84872595.971    20726742.134  
                                
  22140474.831   116348974.015    22140471.847    90661513.030    22140471.579  
  22140471.812    86883977.598  
  21769470.832   114399329.997    21769470.600    89142334.537    21769470.350  
  21769470.850    85428072.015  
  23868198.641   125428228.364    23868198.087    97736280.731    23868197.551  
  23868197.908    93663929.948  
  21178642.899   111294551.338    21178642.810    86723043.124    21178642.274  
  21178642.774    83109595.863  
  20839692.586   111204604.155    20839694.605    86492482.580    20839694.659  
                                
  19796958.938   105974683.931    19796958.098    82424757.105    19796958.170  
                                
  22556637.800   120789780.250    22556636.818    93947603.505    22556636.907  
                                
  21158349.747   113024155.620    21158350.962    87907728.052    21158350.944  
                                
  19872296.615   106116976.553    19872297.777    82535445.404    19872297.669  
                                
  23630729.118   126452788.666    23630728.993    98352169.943    23630728.957  
                                
  26145148.993   137393738.694                                                  
  26145152.513   102599268.211  
  24823037.549   130445951.571                                                  
  24823038.442    97410951.531  
  24846829.438   130571004.953                                                  
  24846831.940    97504347.133  
  23523756.801   123618222.780                                                  
  23523758.678    92312349.282  
 21  9  1  6 42  5.0000000  0 16G 4G 7G 8G 9G27G30R 2R 3R 4R12R13R21
                                E 7E19E21E27
  24631110.876   129437395.217    24631110.429   100860324.375    24631110.125  
  24631114.021    96657832.244  
  20726785.074   108920031.570    20726782.268    84872759.110    20726781.982  
                                
  22140635.831   116349820.169    22140632.865    90662172.382    22140632.597  
  22140632.811    86884609.461  
  21770001.846   114402120.423    21770001.614    89144508.894    21770001.364  
  21770001.846    85430155.771  
  23868668.471   125430697.286    23868667.917    97738204.573    23868667.399  
  23868667.738    93665773.613  
  21178378.384   111293161.358    21178378.313    86721960.022    21178377.759  
  21178378.277    83108557.893  
  20840381.901   111208282.504    20840383.938    86495343.511    20840383.992  
                                
  19796932.206   105974540.761    19796931.366    82424645.755    19796931.438  
                                
  22555977.987   120786246.894    22555977.004    93944855.337    22555977.093  
                                
  21158805.782   113026591.688    21158806.997    87909622.771    21158806.979  
                                
  19872264.755   106116806.408    19872265.898    82535313.069    19872265.809  
                                
  23630956.698   126454006.540    23630956.572    98353117.178    23630956.519  
                                
  26145684.366   137396552.137                                                  
  26145687.869   102601369.163  
  24822713.440   130444248.437                                                  
  24822714.352    97409679.710  
  24846542.175   130569495.297                                                  
  24846544.659    97503219.797  
  23523913.191   123619044.546                                                  
  23523915.067    92312962.939  
 21  9  1  6 42  6.0000000  0 16G 4G 7G 8G 9G27G30R 2R 3R 4R12R13R21
                                E 7E19E21E27
  24631805.427   129441045.105    24631804.962   100863168.440    24631804.659  
  24631808.572    96660557.825  
  20726824.904   108920240.996    20726822.116    84872922.299    20726821.830  
                                
  22140796.938   116350666.775    22140793.954    90662832.055    22140793.686  
  22140793.901    86885241.687  
  21770532.896   114404911.089    21770532.663    89146683.437    21770532.413  
  21770532.914    85432239.712  
  23869138.355   125433166.510    23869137.783    97740128.657    23869137.265  
  23869137.622    93667617.529  
  21178113.887   111291771.409    21178113.815    86720876.945    21178113.261  
  21178113.780    83107519.946  
  20841071.288   111211961.154    20841073.325    86498204.683    20841073.379  
                                
  19796905.599   105974398.331    19796904.759    82424534.970    19796904.831  
                                
  22555318.227   120782713.852    22555317.226    93942107.418    22555317.315  
                                
  21159261.817   113029027.660    21159263.015    87911517.421    21159262.997  
                                
  19872232.930   106116636.433    19872234.074    82535180.866    19872233.966  
                                
  23631184.385   126455225.002    23631184.277    98354064.876    23631184.224  
                                
  26146219.758   137399365.587                                                  
  26146223.260   102603470.118  
  24822389.386   130442545.451                                                  
  24822390.297    97408407.988  
  24846254.895   130567985.705                                                  
  24846257.397    97502092.504  
  23524069.563   123619866.338                                                  
  23524071.421    92313576.619  
 21  9  1  6 42  7.0000000  0 16G 4G 7G 8G 9G27G30R 2R 3R 4R12R13R21
                                E 7E19E21E27
  24632499.978   129444694.983    24632499.513   100866012.497    24632499.210  
  24632503.123    96663283.370  
  20726864.787   108920450.498    20726861.982    84873085.549    20726861.696  
                                
  22140958.117   116351513.871    22140955.169    90663492.125    22140954.883  
  22140955.097    86885874.254  
  21771063.981   114407701.987    21771063.749    89148858.161    21771063.498  
  21771063.999    85434323.820  
  23869608.292   125435636.121    23869607.738    97742053.027    23869607.202  
  23869607.559    93669461.708  
  21177849.407   111290381.499    21177849.318    86719793.900    21177848.782  
  21177849.282    83106482.026  
  20841760.729   111215640.137    20841762.766    86501066.115    20841762.819  
                                
  19796879.117   105974256.650    19796878.277    82424424.775    19796878.349  
                                
  22554658.502   120779181.094    22554657.502    93939359.715    22554657.591  
                                
  21159717.817   113031463.591    21159719.014    87913412.029    21159718.996  
                                
  19872201.123   106116466.616    19872202.267    82535048.791    19872202.177  
                                
  23631412.197   126456444.053    23631412.090    98355013.024    23631412.036  
                                
  26146755.132   137402179.039                                                  
  26146758.652   102605571.070  
  24822065.349   130440842.611                                                  
  24822066.260    97407136.392  
  24845967.651   130566476.184                                                  
  24845970.134    97500965.260  
  23524225.970   123620688.192                                                  
  23524227.847    92314190.337  
 21  9  1  6 42  8.0000000  0 16G 4G 7G 8G 9G27G30R 2R 3R 4R12R13R21
                                E 7E19E21E27
  24633194.583   129448345.064    24633194.118   100868856.716    24633193.814  
  24633197.728    96666009.069  
  20726904.689   108920660.311    20726901.901    84873249.038    20726901.615  
                                
  22141119.456   116352361.777    22141116.526    90664152.831    22141116.240  
  22141116.437    86886507.418  
  21771595.173   114410493.378    21771594.941    89151033.269    21771594.673  
  21771595.173    85436408.304  
  23870078.372   125438106.325    23870077.819    97743977.846    23870077.282  
  23870077.640    93671306.328  
  21177584.964   111288991.882    21177584.892    86718711.080    21177584.338  
  21177584.856    83105444.325  
  20842450.294   111219319.708    20842452.314    86503928.003    20842452.367  
                                
  19796852.850   105974115.945    19796851.992    82424315.338    19796852.081  
                                
  22553998.885   120775648.871    22553997.885    93936612.433    22553997.974  
                                
  21160173.852   113033899.709    21160175.067    87915306.788    21160175.049  
                                
  19872169.406   106116297.228    19872170.549    82534917.043    19872170.442  
                                
  23631640.170   126457663.944    23631640.045    98355961.833    23631640.009  
                                
  26147290.577   137404992.773                                                  
  26147294.079   102607672.220  
  24821741.383   130439140.191                                                  
  24821742.295    97405865.108  
  24845680.460   130564966.991                                                  
  24845682.944    97499838.268  
  23524382.396   123621510.348                                                  
  23524384.272    92314804.287  
 21  9  1  6 42  9.0000000  0 17G 4G 7G 8G 9G20G27G30R 2R 3R 4R12R13
                                R21E 7E19E21E27
  24633889.223   129451995.436    24633888.758   100871701.166    24633888.455  
  24633892.350    96668735.007  
  20726944.715   108920870.576    20726941.928    84873412.883    20726941.642  
                                
  22141280.939   116353210.438    22141277.990    90664814.118    22141277.704  
  22141277.919    86887141.208  
  21772126.455   114413285.374    21772126.223    89153208.850    21772125.973  
  21772126.473    85438493.234  
  23508081.701   123535803.226                    96261652.490    23508079.164  
                                
  23870548.560   125440577.192    23870547.988    97745903.199    23870547.452  
  23870547.827    93673151.480  
  21177320.609   111287602.664    21177320.520    86717628.572    21177319.984  
  21177320.484    83104406.925  
  20843139.967   111223000.000    20843142.004    86506790.455    20843142.058  
                                
  19796826.779   105973976.356    19796825.921    82424206.771    19796826.010  
                                
  22553339.393   120772117.345    22553338.393    93933865.690    22553338.482  
                                
  21160629.959   113036336.150    21160631.174    87917201.800    21160631.156  
                                
  19872137.795   106116128.401    19872138.939    82534785.735    19872138.832  
                                
  23631868.339   126458884.922    23631868.214    98356911.483    23631868.161  
                                
  26147826.058   137407806.845                                                  
  26147829.560   102609773.672  
  24821417.525   130437438.301                                                  
  24821418.436    97404594.210  
  24845393.358   130563458.230                                                  
  24845395.860    97498711.593  
  23524538.928   123622332.932                                                  
  23524540.805    92315418.554  
 21  9  1  6 42 10.0000000  0 17G 4G 7G 8G 9G20G27G30R 2R 3R 4R12R13
                                R21E 7E19E21E27
  24634583.917   129455645.975    24634583.452   100874545.749    24634583.149  
  24634587.044    96671461.050  
  20726984.778   108921081.117    20726981.990    84873576.939    20726981.704  
                                
  22141442.582   116354059.893    22141439.669    90665476.033    22141439.383  
  22141439.580    86887775.511  
  21772657.844   114416077.819    21772657.612    89155384.783    21772657.362  
  21772657.862    85440578.497  
  23508330.331   123537109.731                    96262670.543    23508327.776  
                                
  23871018.855   125443048.626    23871018.301    97747828.991    23871017.765  
  23871018.122    93674997.033  
  21177056.291   111286213.690    21177056.219    86716546.255    21177055.665  
  21177056.184    83103369.704  
  20843829.765   111226680.837    20843831.802    86509653.321    20843831.856  
                                
  19796800.887   105973837.732    19796800.047    82424098.950    19796800.118  
                                
  22552680.008   120768586.322    22552679.008    93931119.341    22552679.097  
                                
  21161086.102   113038772.716    21161087.299    87919096.907    21161087.299  
                                
  19872106.239   106115959.926    19872107.382    82534654.696    19872107.275  
                                
  23632096.652   126460106.684    23632096.527    98357861.746    23632096.491  
                                
  26148361.611   137410621.168                                                  
  26148365.131   102611875.269  
  24821093.738   130435736.761                                                  
  24821094.650    97403323.578  
  24845106.292   130561949.733                                                  
  24845108.794    97497585.125  
  23524695.515   123623155.755                                                  
  23524697.391    92316033.000  
 21  9  1  6 42 11.0000000  0 17G 4G 7G 8G 9G20G27G30R 2R 3R 4R12R13
                                R21E 7E19E21E27
  24635278.522   129459296.268    24635278.057   100877390.126    24635277.753  
  24635281.667    96674186.918  
  20727024.822   108921291.526    20727022.035    84873740.898    20727021.749  
                                
  22141604.279   116354909.624    22141601.366    90666138.166    22141601.080  
  22141601.259    86888410.059  
  21773189.251   114418870.287    21773189.019    89157560.727    21773188.769  
  21773189.251    85442663.779  
  23508578.978   123538416.344                    96263688.684    23508576.423  
                                
  23871489.203   125445520.244    23871488.649    97749754.930    23871488.131  
  23871488.489    93676842.698  
  21176791.936   111284824.563    21176791.865    86715463.821    21176791.311  
  21176791.829    83102332.364  
  20844519.563   111230361.811    20844521.600    86512516.301    20844521.654  
                                
  19796775.084   105973699.670    19796774.244    82423991.568    19796774.315  
                                
  22552020.641   120765055.442    22552019.641    93928373.101    22552019.730  
                                
  21161542.191   113041209.025    21161543.388    87920991.816    21161543.370  
                                
  19872074.682   106115791.430    19872075.825    82534523.648    19872075.718  
                                
  23632325.054   126461328.890    23632324.929    98358812.354    23632324.893  
                                
  26148897.181   137413435.293                                                  
  26148900.737   102613976.721  
  24820769.987   130434035.192                                                  
  24820770.934    97402052.925  
  24844819.262   130560441.118                                                  
  24844821.800    97496458.555  
  23524852.119   123623978.436                                                  
  23524854.031    92316647.342  
 21  9  1  6 42 12.0000000  0 17G 4G 7G 8G 9G20G27G30R 2R 3R 4R12R13
                                R21E 7E19E21E27
  24635973.198   129462946.842    24635972.733   100880234.713    24635972.412  
  24635976.325    96676913.022  
  20727064.938   108921502.363    20727062.151    84873905.178    20727061.865  
                                
  22141766.136   116355760.218    22141763.224    90666800.966    22141762.938  
  22141763.116    86889045.236  
  21773720.747   114421663.365    21773720.515    89159737.143    21773720.247  
  21773720.747    85444749.515  
  23508827.751   123539723.638                    96264707.345    23508825.213  
                                
  23871959.659   125447992.535    23871959.105    97751681.388    23871958.569  
  23871958.944    93678688.898  
  21176527.671   111283435.827    21176527.582    86714381.679    21176527.046  
  21176527.546    83101295.323  
  20845209.539   111234043.486    20845211.577    86515379.814    20845211.630  
                                
  19796749.513   105973562.723    19796748.673    82423885.045    19796748.745  
                                
  22551361.400   120761525.220    22551360.399    93925627.363    22551360.488  
                                
  21161998.333   113043645.630    21161999.530    87922886.944    21161999.530  
                                
  19872043.250   106115623.488    19872044.394    82534393.016    19872044.287  
                                
  23632553.634   126462552.029    23632553.527    98359763.677    23632553.473  
                                
  26149432.716   137416249.790                                                  
  26149436.218   102616078.455  
  24820446.236   130432334.136                                                  
  24820447.148    97400782.663  
  24844532.196   130558932.923                                                  
  24844534.698    97495332.312  
  23525008.705   123624801.534                                                  
  23525010.581    92317261.991  
 21  9  1  6 42 13.0000000  0 17G 4G 7G 8G 9G20G27G30R 2R 3R 4R12R13
                                R21E 7E19E21E27
  24636667.928   129466597.565    24636667.463   100883079.435    24636667.141  
  24636671.055    96679639.186  
  20727105.108   108921713.405    20727102.320    84874069.629    20727102.034  
                                
  22141928.137   116356611.484    22141925.242    90667464.302    22141924.956  
  22141925.117    86889680.911  
  21774252.333   114424456.807    21774252.100    89161913.856    21774251.832  
  21774252.333    85446835.527  
  23509076.595   123541031.342                    96265726.347    23509074.040  
                                
  23872430.204   125450465.303    23872429.650    97753608.230    23872429.114  
  23872429.471    93680535.444  
  21176263.442   111282047.269    21176263.353    86713299.689    21176262.817  
  21176263.317    83100258.411  
  20845899.552   111237725.607    20845901.589    86518243.689    20845901.642  
                                
  19796724.085   105973426.651    19796723.246    82423779.218    19796723.335  
                                
  22550702.229   120757995.410    22550701.229    93922881.958    22550701.336  
                                
  21162454.476   113046082.289    21162455.691    87924782.125    21162455.673  
                                
  19872011.854   106115455.863    19872012.998    82534262.645    19872012.891  
                                
  23632782.358   126463775.984    23632782.250    98360715.642    23632782.197  
                                
  26149968.304   137419064.427                                                  
  26149971.824   102618180.309  
  24820122.593   130430633.380                                                  
  24820123.504    97399512.611  
  24844245.256   130557424.942                                                  
  24844247.739    97494206.223  
  23525165.363   123625624.811                                                  
  23525167.239    92317876.780  
 21  9  1  6 42 14.0000000  0 17G 4G 7G 8G 9G20G27G30R 2R 3R 4R12R13
                                R21E 7E19E21E27
  24637362.657   129470248.404    24637362.193   100885924.246    24637361.889  
  24637365.784    96682365.465  
  20727145.313   108921924.715    20727142.526    84874234.288    20727142.240  
                                
  22142090.245   116357463.398    22142087.350    90668128.117    22142087.046  
  22142087.225    86890317.098  
  21774783.990   114427250.663    21774783.758    89164090.896    21774783.507  
  21774783.990    85448921.857  
  23509325.528   123542339.581                    96266745.754    23509322.973  
                                
  23872900.856   125452938.621    23872900.302    97755535.486    23872899.766  
  23872900.124    93682382.404  
  21175999.249   111280658.932    21175999.159    86712217.872    21175998.623  
  21175999.124    83099221.674  
  20846589.689   111241408.235    20846591.726    86521107.959    20846591.780  
                                
  19796698.819   105973291.507    19796697.997    82423674.108    19796698.068  
                                
  22550043.148   120754466.070    22550042.148    93920136.921    22550042.237  
                                
  21162910.654   113048519.078    21162911.851    87926677.411    21162911.833  
                                
  19871980.530   106115288.562    19871981.674    82534132.527    19871981.566  
                                
  23633011.242   126465000.745    23633011.117    98361668.238    23633011.081  
                                
  26150503.946   137421879.271                                                  
  26150507.448   102620282.278  
  24819799.020   130428932.964                                                  
  24819799.932    97398242.826  
  24843958.333   130555917.202                                                  
  24843960.816    97493080.313  
  23525322.074   123626448.335                                                  
  23525323.933    92318491.747  
 21  9  1  6 42 15.0000000  0 17G 4G 7G 8G 9G20G27G30R 2R 3R 4R12R13
                                R21E 7E19E21E27
  24638057.459   129473899.585    24638056.994   100888769.332    24638056.672  
  24638060.586    96685091.986  
  20727185.608   108922136.488    20727182.820    84874399.308    20727182.516  
                                
  22142252.513   116358316.202    22142249.636    90668792.651    22142249.333  
  22142249.493    86890953.927  
  21775315.772   114430045.180    21775315.540    89166268.441    21775315.289  
  21775315.790    85451008.669  
  23509574.622   123543648.486                    96267765.682    23509572.067  
                                
  23873371.669   125455412.678    23873371.097    97757463.315    23873370.579  
  23873370.937    93684229.905  
  21175735.145   111279271.032    21175735.055    86711136.393    21175734.519  
  21175735.019    83098185.253  
  20847279.934   111245091.578    20847281.971    86523972.787    20847282.025  
                                
  19796673.802   105973157.501    19796672.962    82423569.882    19796673.034  
                                
  22549384.192   120750937.448    22549383.192    93917392.434    22549383.281  
                                
  21163366.886   113050956.229    21163368.083    87928572.975    21163368.083  
                                
  19871949.313   106115121.864    19871950.456    82534002.876    19871950.349  
                                
  23633240.287   126466226.474    23633240.180    98362621.586    23633240.144  
                                
  26151039.677   137424694.510                                                  
  26151043.179   102622384.567  
  24819475.538   130427233.097                                                  
  24819476.449    97396973.449  
  24843671.517   130554409.934                                                  
  24843674.019    97491954.758  
  23525478.875   123627272.302                                                  
  23525480.751    92319107.047  
 21  9  1  6 42 16.0000000  0 17G 4G 7G 8G 9G20G27G30R 2R 3R 4R12R13
                                R21E 7E19E21E27
  24638752.260   129477550.738    24638751.795   100891614.384    24638751.491  
  24638755.387    96687818.492  
  20727225.920   108922348.344    20727223.133    84874564.390    20727222.847  
                                
  22142414.889   116359169.519    22142412.030    90669457.583    22142411.726  
  22142411.887    86891591.143  
  21775847.590   114432839.934    21775847.358    89168446.171    21775847.107  
  21775847.590    85453095.661  
  23509823.734   123544957.728                    96268785.875    23509821.179  
                                
  23873842.518   125457887.075    23873841.964    97759391.419    23873841.428  
  23873841.785    93686077.678  
  21175471.040   111277883.199    21175470.969    86710054.965    21175470.415  
  21175470.933    83097148.878  
  20847970.232   111248775.252    20847972.269    86526837.862    20847972.341  
                                
  19796648.910   105973024.240    19796648.071    82423466.236    19796648.142  
                                
  22548725.326   120747409.154    22548724.325    93914648.208    22548724.414  
                                
  21163823.118   113053393.326    21163824.315    87930468.497    21163824.315  
                                
  19871918.131   106114955.339    19871919.257    82533873.358    19871919.150  
                                
  23633469.457   126467452.891    23633469.350    98363575.466    23633469.314  
                                
  26151575.426   137427509.788                                                  
  26151578.928   102624486.876  
  24819152.108   130425533.420                                                  
  24819153.020    97395704.208  
  24843384.719   130552902.761                                                  
  24843387.203    97490829.267  
  23525635.675   123628096.336                                                  
  23525637.552    92319722.397  
 21  9  1  6 42 17.0000000  0 17G 4G 7G 8G 9G20G27G30R 2R 3R 4R12R13
                                R21E 7E19E21E27
  24639447.079   129481202.145    24639446.614   100894459.632    24639446.311  
  24639450.206    96690545.203  
  20727266.322   108922560.598    20727263.517    84874729.783    20727263.231  
                                
  22142577.444   116360023.687    22142574.602    90670123.175    22142574.281  
  22142574.442    86892228.967  
  21776379.515   114435635.242    21776379.283    89170624.331    21776379.032  
  21776379.533    85455183.066  
  23510073.007   123546267.590                    96269806.542    23510070.452  
                                
  23874313.527   125460362.180    23874312.974    97761320.081    23874312.437  
  23874312.795    93687925.960  
  21175207.026   111276495.721    21175206.936    86708973.814    21175206.400  
  21175206.900    83096112.779  
  20848660.691   111252459.572    20848662.728    86529703.444    20848662.782  
                                
  19796624.216   105972892.070    19796623.394    82423363.435    19796623.465  
                                
  22548066.548   120743881.512    22548065.548    93911904.489    22548065.637  
                                
  21164279.403   113055830.700    21164280.600    87932364.235    21164280.583  
                                
  19871887.039   106114789.333    19871888.183    82533744.240    19871888.076  
                                
  23633698.824   126468680.246    23633698.717    98364530.080    23633698.681  
                                
  26152111.211   137430325.388                                                  
  26152114.713   102626589.445  
  24818828.750   130423834.231                                                  
  24818829.662    97394435.333  
  24843097.975   130551395.974                                                  
  24843100.477    97489704.076  
  23525792.548   123628920.749                                                  
  23525794.424    92320338.028  
 21  9  1  6 42 18.0000000  0 17G 4G 7G 8G 9G20G27G30R 2R 3R 4R12R13
                                R21E 7E19E21E27
  24640141.987   129484853.828    24640141.523   100897305.085    24640141.201  
  24640145.114    96693272.109  
  20727306.778   108922773.220    20727303.990    84874895.465    20727303.704  
                                
  22142740.105   116360878.591    22142737.246    90670789.321    22142736.942  
  22142737.085    86892867.405  
  21776911.565   114438431.100    21776911.333    89172802.919    21776911.065  
  21776911.565    85457270.878  
  23510322.405   123547578.094                    96270827.709    23510319.850  
                                
  23874784.644   125462837.901    23874784.072    97763249.203    23874783.554  
  23874783.912    93689774.717  
  21174943.064   111275108.587    21174942.975    86707892.932    21174942.439  
  21174942.939    83095076.934  
  20849351.257   111256144.522    20849353.294    86532569.513    20849353.348  
                                
  19796599.717   105972760.963    19796598.877    82423261.463    19796598.949  
                                
  22547407.914   120740354.481    22547406.895    93909161.245    22547406.985  
                                
  21164735.724   113058268.337    21164736.922    87934260.174    21164736.922  
                                
  19871856.019   106114623.792    19871857.162    82533615.488    19871857.055  
                                
  23633928.370   126469908.546    23633928.262    98365485.426    23633928.227  
                                
  26152647.049   137433141.323                                                  
  26152650.569   102628692.247  
  24818505.500   130422135.508                                                  
  24818506.429    97393166.800  
  24842811.320   130549889.572                                                  
  24842813.804    97488579.163  
  23525949.509   123629745.519                                                  
  23525951.385    92320953.930  
 21  9  1  6 42 19.0000000  0 17G 4G 7G 8G 9G20G27G30R 2R 3R 4R12R13
                                R21E 7E19E21E27
  24640836.896   129488505.644    24640836.431   100900150.670    24640836.127  
  24640840.023    96695999.119  
  20727347.287   108922986.090    20727344.499    84875061.340    20727344.213  
                                
  22142902.892   116361734.189    22142900.051    90671456.029    22142899.747  
  22142899.890    86893506.338  
  21777443.669   114441227.377    21777443.437    89174981.843    21777443.168  
  21777443.669    85459359.015  
  23510571.857   123548889.044                    96271849.234    23510569.302  
                                
  23875255.833   125465314.100    23875255.261    97765178.725    23875254.743  
  23875255.100    93691623.857  
  21174679.121   111273721.652    21174679.050    86706812.206    21174678.496  
  21174679.014    83094041.245  
  20850041.913   111259829.989    20850043.950    86535435.988    20850044.004  
                                
  19796575.397   105972630.775    19796574.575    82423160.203    19796574.647  
                                
  22546749.351   120736827.931    22546748.333    93906418.370    22546748.422  
                                
  21165192.081   113060706.070    21165193.279    87936156.182    21165193.261  
                                
  19871825.087   106114458.612    19871826.231    82533487.012    19871826.124  
                                
  23634158.058   126471137.625    23634157.933    98366441.372    23634157.897  
                                
  26153182.941   137435957.431                                                  
  26153186.443   102630795.198  
  24818182.303   130420437.114                                                  
  24818183.214    97391898.527  
  24842524.701   130548383.408                                                  
  24842527.203    97487454.445  
  23526106.506   123630570.513                                                  
  23526108.383    92321569.999  
 21  9  1  6 42 20.0000000  0 17G 4G 7G 8G 9G20G27G30R 2R 3R 4R12R13
                                R21E 7E19E21E27
  24641531.786   129492157.357    24641531.304   100902996.165    24641530.982  
  24641534.896    96698726.091  
  20727387.814   108923199.052    20727385.026    84875227.282    20727384.740  
                                
  22143065.804   116362590.285    22143062.999    90672123.126    22143062.677  
  22143062.802    86894145.617  
  21777975.826   114444023.894    21777975.594    89177160.946    21777975.344  
  21777975.844    85461447.320  
  23510821.398   123550200.346                    96272871.025    23510818.842  
                                
  23875727.128   125467790.695    23875726.538    97767108.544    23875726.020  
  23875726.378    93693473.265  
  21174415.213   111272334.785    21174415.142    86705731.533    21174414.606  
  21174415.106    83093005.593  
  20850732.640   111263515.817    20850734.677    86538302.739    20850734.731  
                                
  19796551.221   105972501.331    19796550.399    82423059.529    19796550.470  
                                
  22546090.860   120733301.694    22546089.841    93903675.740    22546089.931  
                                
  21165648.403   113063143.727    21165649.600    87938052.135    21165649.600  
                                
  19871794.210   106114293.631    19871795.335    82533358.697    19871795.228  
                                
  23634387.854   126472367.341    23634387.746    98367397.822    23634387.711  
                                
  26153718.833   137438773.562                                                  
  26153722.353   102632898.145  
  24817859.159   130418738.896                                                  
  24817860.071    97390630.377  
  24842238.100   130546877.329                                                  
  24842240.601    97486329.767  
  23526263.504   123631395.569                                                  
  23526265.362    92322186.114  
 21  9  1  6 42 21.0000000  0 17G 4G 7G 8G 9G20G27G30R 2R 3R 4R12R13
                                R21E 7E19E21E27
  24642226.730   129495809.222    24642226.266   100905841.781    24642225.944  
  24642229.840    96701453.085  
  20727428.358   108923412.175    20727425.571    84875393.352    20727425.285  
                                
  22143228.823   116363446.997    22143226.018    90672790.705    22143225.696  
  22143225.821    86894785.361  
  21778508.055   114446820.746    21778507.823    89179340.311    21778507.573  
  21778508.073    85463535.880  
  23511070.992   123551512.024                    96273893.110    23511068.437  
                                
  23876198.495   125470267.733    23876197.905    97769038.706    23876197.387  
  23876197.762    93695322.997  
  21174151.342   111270948.044    21174151.252    86704650.955    21174150.698  
  21174151.216    83091970.042  
  20851423.439   111267202.045    20851425.476    86541169.805    20851425.529  
                                
  19796527.187   105972372.730    19796526.347    82422959.506    19796526.436  
                                
  22545432.422   120729775.865    22545431.404    93900933.428    22545431.493  
                                
  21166104.742   113065581.403    21166105.939    87939948.110    21166105.939  
                                
  19871763.350   106114128.904    19871764.493    82533230.571    19871764.386  
                                
  23634617.774   126473597.735    23634617.667    98368354.805    23634617.631  
                                
  26154254.761   137441589.796                                                  
  26154258.263   102635001.183  
  24817536.034   130417040.921                                                  
  24817536.963    97389362.407  
  24841951.534   130545371.402                                                  
  24841954.018    97485205.218  
  23526420.537   123632220.774                                                  
  23526422.413    92322802.336  
 21  9  1  6 42 22.0000000  0 17G 4G 7G 8G 9G20G27G30R 2R 3R 4R12R13
                                R21E 7E19E21E27
  24642921.657   129499461.090    24642921.174   100908687.399    24642920.871  
  24642924.766    96704180.151  
  20727468.957   108923625.507    20727466.169    84875559.587    20727465.883  
                                
  22143391.949   116364304.287    22143389.144    90673458.719    22143388.822  
  22143388.947    86895425.558  
  21779040.355   114449617.974    21779040.123    89181519.964    21779039.873  
  21779040.373    85465624.708  
  23511320.694   123552824.145                    96274915.537    23511318.139  
                                
  23876669.969   125472745.276    23876669.397    97770969.266    23876668.879  
  23876669.237    93697173.090  
  21173887.470   111269561.482    21173887.398    86703570.520    21173886.844  
  21173887.345    83090934.617  
  20852114.327   111270888.746    20852116.364    86544037.232    20852116.435  
                                
  19796503.332   105972245.028    19796502.510    82422860.178    19796502.581  
                                
  22544774.092   120726250.484    22544773.073    93898191.462    22544773.162  
                                
  21166561.099   113068019.162    21166562.296    87941844.142    21166562.296  
                                
  19871732.579   106113964.490    19871733.705    82533102.693    19871733.598  
                                
  23634847.838   126474828.906    23634847.731    98369312.380    23634847.695  
                                
  26154790.671   137444406.163                                                  
  26154794.191   102637104.316  
  24817212.980   130415343.249                                                  
  24817213.909    97388094.667  
  24841665.004   130543865.690                                                  
  24841667.506    97484080.820  
  23526577.605   123633046.158                                                  
  23526579.482    92323418.694  
 21  9  1  6 42 23.0000000  0 17G 4G 7G 8G 9G20G27G30R 2R 3R 4R12R13
                                R21E 7E19E21E27
  24643616.583   129503113.008    24643616.119   100911533.059    24643615.797  
  24643619.692    96706907.229  
  20727509.573   108923838.979    20727506.786    84875725.927    20727506.500  
                                
  22143555.183   116365162.170    22143552.395    90674127.199    22143552.056  
  22143552.181    86896066.190  
  21779572.709   114452415.507    21779572.477    89183699.860    21779572.227  
  21779572.709    85467713.773  
  23511570.449   123554136.656                    96275938.273    23511567.912  
                                
  23877141.497   125475223.189    23877140.925    97772900.121    23877140.389  
  23877140.764    93699023.493  
  21173623.634   111268175.028    21173623.562    86702490.164    21173623.008  
  21173623.508    83089899.281  
  20852805.286   111274575.838    20852807.323    86546904.968    20852807.377  
                                
  19796479.637   105972118.164    19796478.815    82422761.506    19796478.887  
                                
  22544115.815   120722725.512    22544114.814    93895449.820    22544114.885  
                                
  21167017.456   113070456.927    21167018.653    87943740.177    21167018.635  
                                
  19871701.809   106113800.318    19871702.953    82532975.001    19871702.845  
                                
  23635078.045   126476060.764    23635077.937    98370270.496    23635077.902  
                                
  26155326.634   137447222.632                                                  
  26155330.136   102639207.521  
  24816889.979   130413645.811                                                  
  24816890.891    97386827.098  
  24841378.492   130542360.112                                                  
  24841380.994    97482956.527  
  23526734.692   123633871.674                                                  
  23526736.568    92324035.149  
 21  9  1  6 42 24.0000000  0 17G 4G 7G 8G 9G20G27G30R 2R 3R 4R12R13
                                R21E 7E19E21E27
  24644311.563   129506765.055    24644311.098   100914378.780    24644310.777  
  24644314.672    96709634.372  
  20727550.243   108924052.698    20727547.455    84875892.461    20727547.170  
                                
  22143718.577   116366020.752    22143715.808    90674796.201    22143715.468  
  22143715.593    86896707.301  
  21780105.135   114455213.439    21780104.902    89185880.067    21780104.652  
  21780105.153    85469803.140  
  23511820.294   123555449.620                    96276961.364    23511817.739  
                                
  23877613.096   125477701.642    23877612.524    97774831.353    23877611.988  
  23877612.364    93700874.281  
  21173359.833   111266788.792    21173359.762    86701409.977    21173359.208  
  21173359.726    83088864.102  
  20853496.335   111278263.418    20853498.372    86549773.093    20853498.425  
                                
  19796456.122   105971992.226    19796455.282    82422663.554    19796455.371  
                                
  22543457.645   120719200.993    22543456.644    93892708.522    22543456.716  
                                
  21167473.831   113072894.800    21167475.028    87945636.300    21167475.010  
                                
  19871671.146   106113636.489    19871672.271    82532847.583    19871672.164  
                                
  23635308.394   126477293.438    23635308.305    98371229.217    23635308.269  
                                
  26155862.633   137450039.277                                                  
  26155866.136   102641310.849  
  24816567.032   130411948.699                                                  
  24816567.962    97385559.769  
  24841092.052   130540854.781                                                  
  24841094.536    97481832.408  
  23526891.814   123634697.401                                                  
  23526893.690    92324651.766  
 21  9  1  6 42 25.0000000  0 17G 4G 7G 8G 9G20G27G30R 2R 3R 4R12R13
                                R21E 7E19E21E27
  24645006.525   129510417.226    24645006.060   100917224.650    24645005.757  
  24645009.652    96712361.649  
  20727590.967   108924266.687    20727588.179    84876059.210    20727587.893  
                                
  22143882.079   116366879.996    22143879.309    90675465.742    22143878.987  
  22143879.095    86897348.949  
  21780637.649   114458011.802    21780637.417    89188060.607    21780637.167  
  21780637.667    85471892.824  
  23512070.246   123556763.079                    96277984.841    23512067.708  
                                
  23878084.838   125480180.620    23878084.267    97776763.026    23878083.748  
  23878084.106    93702725.451  
  21173096.086   111265402.773    21173096.015    86700329.965    21173095.461  
  21173095.979    83087829.092  
  20854187.508   111281951.514    20854189.545    86552641.609    20854189.599  
                                
  19796432.749   105971867.221    19796431.927    82422566.326    19796431.998  
                                
  22542799.582   120715676.993    22542798.564    93889967.634    22542798.635  
                                
  21167930.223   113075332.842    21167931.421    87947532.556    21167931.421  
                                
  19871640.536   106113473.032    19871641.680    82532720.453    19871641.555  
                                
  23635538.905   126478526.889    23635538.797    98372188.577    23635538.762  
                                
  26156398.668   137452856.124                                                  
  26156402.188   102643414.333  
  24816244.139   130410251.937                                                  
  24816245.068    97384292.706  
  24840805.647   130539349.711                                                  
  24840808.131    97480708.490  
  23527049.008   123635523.375                                                  
  23527050.866    92325268.562  
 21  9  1  6 42 26.0000000  0 17G 4G 7G 8G 9G20G27G30R 2R 3R 4R12R13
                                R21E 7E19E21E27
  24645701.523   129514069.367    24645701.058   100920070.486    24645700.754  
  24645704.632    96715088.875  
  20727631.690   108924480.705    20727628.902    84876225.975    20727628.617  
                                
  22144045.670   116367739.716    22144042.900    90676135.640    22144042.578  
  22144042.686    86897990.946  
  21781170.218   114460810.371    21781169.986    89190241.310    21781169.717  
  21781170.218    85473982.667  
  23512320.234   123558076.822                    96279008.535    23512317.696  
                                
  23878556.652   125482659.924    23878556.062    97778694.949    23878555.544  
  23878555.902    93704576.879  
  21172832.340   111264016.777    21172832.268    86699249.966    21172831.714  
  21172832.232    83086794.093  
  20854878.700   111285639.911    20854880.737    86555510.360    20854880.791  
                                
  19796409.537   105971742.897    19796408.715    82422469.634    19796408.787  
                                
  22542141.538   120712153.263    22542140.519    93887226.955    22542140.609  
                                
  21168386.616   113077770.801    21168387.813    87949428.748    21168387.813  
                                
  19871609.962   106113309.733    19871611.088    82532593.445    19871610.981  
                                
  23635769.522   126479760.940    23635769.415    98373148.400    23635769.379  
                                
  26156934.703   137455672.939                                                  
  26156938.206   102645517.801  
  24815921.282   130408555.315                                                  
  24815922.193    97383025.753  
  24840519.243   130537844.680                                                  
  24840521.726    97479584.602  
  23527206.184   123636349.381                                                  
  23527208.060    92325885.383  
 21  9  1  6 42 27.0000000  0 17G 4G 7G 8G 9G20G27G30R 2R 3R 4R12R13
                                R21E 7E19E21E27
  24646396.592   129517721.855    24646396.163   100922916.578    24646395.842  
  24646399.719    96717816.351  
  20727672.521   108924695.189    20727669.715    84876393.108    20727669.429  
                                
  22144209.421   116368600.276    22144206.652    90676806.208    22144206.312  
  22144206.419    86898633.597  
  21781702.858   114463609.571    21781702.625    89192422.503    21781702.375  
  21781702.876    85476072.981  
  23512570.346   123559391.259                    96280032.773    23512567.809  
                                
  23879028.591   125485139.973    23879028.019    97780627.453    23879027.501  
  23879027.858    93706428.848  
  21172568.682   111262631.204    21172568.593    86698170.298    21172568.057  
  21172568.557    83085759.416  
  20855570.035   111289329.029    20855572.072    86558379.672    20855572.125  
                                
  19796386.522   105971619.700    19796385.700    82422373.810    19796385.771  
                                
  22541483.636   120708630.235    22541482.617    93884486.827    22541482.707  
                                
  21168843.080   113080209.068    21168844.277    87951325.178    21168844.260  
                                
  19871579.478   106113146.992    19871580.603    82532466.864    19871580.496  
                                
  23636000.319   126480996.053    23636000.229    98374109.045    23636000.193  
                                
  26157470.774   137458490.156                                                  
  26157474.276   102647621.578  
  24815598.514   130406859.236                                                  
  24815599.425    97381759.205  
  24840232.945   130536340.115                                                  
  24840235.429    97478461.066  
  23527363.449   123637175.822                                                  
  23527365.308    92326502.534  
 21  9  1  6 42 29.0000000  0 17G 4G 7G 8G 9G20G27G30R 2R 3R 4R12R13
                                R21E 7E19E21E27
  24647786.713   129525027.190    24647786.248   100928609.031    24647785.944  
  24647789.822    96723271.665  
  20727754.325   108925125.086    20727751.538    84876728.093    20727751.252  
                                
  22144537.372   116370323.677    22144534.620    90678149.135    22144534.280  
  22144534.387    86899920.553  
  21782768.495   114469209.408    21782768.262    89196786.021    21782767.994  
  21782768.495    85480254.679  
  23513070.911   123562021.736                    96282082.503    23513068.374  
                                
  23879972.790   125490101.758    23879972.218    97784493.795    23879971.700  
  23879972.075    93710134.093  
  21172041.510   111259860.885    21172041.439    86696011.615    21172040.885  
  21172041.403    83083690.672  
  20856953.061   111296709.017    20856955.098    86564119.667    20856955.152  
                                
  19796341.063   105971376.260    19796340.223    82422184.472    19796340.312  
                                
  22540168.136   120701585.818    22540167.100    93879007.841    22540167.189  
                                
  21169756.044   113085086.077    21169757.259    87955118.412    21169757.242  
                                
  19871518.759   106112822.777    19871519.902    82532214.701    19871519.795  
                                
  23636462.412   126483468.787    23636462.322    98376032.283    23636462.304  
                                
  26158543.130   137464125.330                                                  
  26158546.632   102651829.653  
  24814953.245   130403468.278                                                  
  24814954.174    97379226.985  
  24839660.475   130533331.868                                                  
  24839662.977    97476214.652  
  23527678.141   123638829.553                                                  
  23527680.017    92327737.462  
 21  9  1  6 42 30.0000000  0 17G 4G 7G 8G 9G20G27G30R 2R 3R 4R12R13
                                R21E 7E19E21E27
  24648481.853   129528680.106    24648481.389   100931455.457    24648481.085  
  24648484.963    96725999.476  
  20727795.299   108925340.392    20727792.493    84876895.861    20727792.207  
                                
  22144701.534   116371186.367    22144698.800    90678821.358    22144698.461  
  22144698.550    86900564.761  
  21783301.420   114472009.920    21783301.188    89198968.236    21783300.920  
  21783301.420    85482345.970  
  23513321.346   123563337.675                    96283107.907    23513318.790  
                                
  23880445.015   125492583.404    23880444.443    97786427.551    23880443.925  
  23880444.282    93711987.276  
  21171777.960   111258476.034    21171777.889    86694932.513    21171777.335  
  21171777.853    83082656.530  
  20857644.700   111300399.773    20857646.737    86566990.256    20857646.790  
                                
  19796318.566   105971255.927    19796317.744    82422090.880    19796317.815  
                                
  22539510.521   120698064.349    22539509.502    93876268.924    22539509.574  
                                
  21170212.580   113087524.746    21170213.777    87957015.157    21170213.759  
                                
  19871488.506   106112661.199    19871489.632    82532089.029    19871489.525  
                                
  23636693.672   126484706.317    23636693.583    98376994.804    23636693.565  
                                
  26159079.343   137466943.193                                                  
  26159082.864   102653933.902  
  24814630.709   130401773.288                                                  
  24814631.621    97377961.242  
  24839374.321   130531828.107                                                  
  24839376.822    97475091.718  
  23527835.549   123639656.754                                                  
  23527837.425    92328355.174  
 21  9  1  6 42 31.0000000  0 17G 4G 7G 8G 9G20G27G30R 2R 3R 4R12R13
                                R21E 7E19E21E27
  24649177.030   129532333.131    24649176.583   100934301.956    24649176.262  
  24649180.139    96728727.360  
  20727836.308   108925555.922    20727833.521    84877063.809    20727833.217  
                                
  22144865.804   116372049.705    22144863.088    90679494.087    22144862.731  
  22144862.820    86901209.466  
  21783834.418   114474810.821    21783834.185    89201150.759    21783833.917  
  21783834.418    85484437.553  
  23513571.833   123564654.066                    96284133.664    23513569.296  
                                
  23880917.364   125495065.565    23880916.793    97788361.706    23880916.274  
  23880916.632    93713840.834  
  21171514.481   111257091.373    21171514.392    86693853.554    21171513.856  
  21171514.356    83081622.530  
  20858336.445   111304091.031    20858338.482    86569861.231    20858338.536  
                                
  19796296.247   105971136.503    19796295.425    82421997.994    19796295.497  
                                
  22538853.012   120694543.348    22538851.976    93873530.371    22538852.047  
                                
  21170669.134   113089963.526    21170670.331    87958911.985    21170670.313  
                                
  19871458.308   106112499.949    19871459.434    82531963.615    19871459.326  
                                
  23636925.094   126485944.618    23636925.005    98377957.920    23636924.969  
                                
  26159615.593   137469761.208                                                  
  26159619.113   102656038.259  
  24814308.209   130400078.600                                                  
  24814309.138    97376695.737  
  24839088.202   130530324.563                                                  
  24839090.704    97473968.939  
  23527992.993   123640484.142                                                  
  23527994.869    92328973.038  
 21  9  1  6 42 32.0000000  0 17G 4G 7G 8G 9G20G27G30R 2R 3R 4R12R13
                                R21E 7E19E21E27
  24649872.153   129535986.252    24649871.688   100937148.548    24649871.384  
  24649875.262    96731455.373  
  20727877.371   108925771.739    20727874.584    84877231.975    20727874.298  
                                
  22145030.217   116372913.747    22145027.519    90680167.373    22145027.162  
  22145027.251    86901854.694  
  21784367.486   114477612.172    21784367.254    89203333.629    21784366.986  
  21784367.486    85486529.466  
  23513822.429   123565970.982                    96285159.830    23513819.891  
                                
  23881389.804   125497548.244    23881389.214    97790296.256    23881388.696  
  23881389.053    93715694.800  
  21171251.038   111255706.974    21171250.967    86692774.801    21171250.413  
  21171250.913    83080588.723  
  20859028.298   111307782.866    20859030.335    86572732.656    20859030.407  
                                
  19796274.126   105971018.050    19796273.304    82421905.862    19796273.375  
                                
  22538195.575   120691022.832    22538194.539    93870792.192    22538194.628  
                                
  21171125.705   113092402.475    21171126.902    87960808.946    21171126.884  
                                
  19871428.198   106112339.107    19871429.324    82531838.516    19871429.217  
                                
  23637156.659   126487183.818    23637156.569    98378921.742    23637156.552  
                                
  26160151.896   137472579.435                                                  
  26160155.398   102658142.784  
  24813985.798   130398384.300                                                  
  24813986.728    97375430.512  
  24838802.155   130528821.304                                                  
  24838804.638    97472846.374  
  23528150.508   123641311.806                                                  
  23528152.384    92329591.094  
 21  9  1  6 42 33.0000000  0 17G 4G 7G 8G 9G20G27G30R 2R 3R 4R12R13
                                R21E 7E19E21E27
  24650567.347   129539639.464    24650566.883   100939995.207    24650566.579  
  24650570.456    96734183.423  
  20727918.470   108925987.717    20727915.682    84877400.273    20727915.396  
                                
  22145194.719   116373778.365    22145192.021    90680841.117    22145191.664  
  22145191.753    86902500.370  
  21784900.627   114480413.851    21784900.376    89205516.754    21784900.126  
  21784900.627    85488621.636  
  23514073.131   123567288.294                    96286186.307    23514070.576  
                                
  23881862.314   125500031.386    23881861.724    97792231.174    23881861.206  
  23881861.581    93717549.108  
  21170987.613   111254322.700    21170987.542    86691696.149    21170986.988  
  21170987.506    83079555.017  
  20859720.240   111311475.134    20859722.260    86575604.413    20859722.331  
                                
  19796252.165   105970900.410    19796251.343    82421814.362    19796251.414  
                                
  22537538.191   120687502.693    22537537.155    93868054.311    22537537.244  
                                
  21171582.276   113094841.418    21171583.474    87962705.900    21171583.456  
                                
  19871398.107   106112178.540    19871399.251    82531713.635    19871399.126  
                                
  23637388.384   126488423.723    23637388.295    98379886.110    23637388.277  
                                
  26160688.199   137475397.785                                                  
  26160691.719   102660247.398  
  24813663.423   130396690.263                                                  
  24813664.353    97374165.480  
  24838516.125   130527318.215                                                  
  24838518.609    97471723.943  
  23528308.024   123642139.623                                                  
  23528309.900    92330209.269  
 21  9  1  6 42 34.0000000  0 17G 4G 7G 8G 9G20G27G30R 2R 3R 4R12R13
                                R21E 7E19E21E27
  24651262.559   129543292.908    24651262.095   100942842.019    24651261.773  
  24651265.669    96736911.640  
  20727959.640   108926204.039    20727956.853    84877568.835    20727956.549  
                                
  22145359.418   116374643.769    22145356.720    90681515.447    22145356.363  
  22145356.434    86903146.589  
  21785433.874   114483216.047    21785433.624    89207700.283    21785433.374  
  21785433.874    85490714.185  
  23514323.905   123568606.169                    96287213.232    23514321.350  
                                
  23882334.986   125502515.194    23882334.396    97794166.597    23882333.860  
  23882334.235    93719403.880  
  21170724.259   111252938.732    21170724.188    86690617.735    21170723.634  
  21170724.152    83078521.534  
  20860412.272   111315167.988    20860414.309    86578476.645    20860414.363  
                                
  19796230.364   105970783.780    19796229.560    82421723.650    19796229.632  
                                
  22536880.951   120683983.182    22536879.915    93865316.911    22536879.986  
                                
  21172038.884   113097280.547    21172040.081    87964603.004    21172040.063  
                                
  19871368.141   106112018.426    19871369.266    82531589.097    19871369.159  
                                
  23637620.235   126489664.444    23637620.163    98380851.137    23637620.128  
                                
  26161224.555   137478216.405                                                  
  26161228.075   102662352.222  
  24813341.156   130394996.643                                                  
  24813342.085    97372900.764  
  24838230.149   130525815.469                                                  
  24838232.633    97470601.763  
  23528465.611   123642967.754                                                  
  23528467.487    92330827.681  
 21  9  1  6 42 35.0000000  0 17G 4G 7G 8G 9G20G27G30R 2R 3R 4R12R13
                                R21E 7E19E21E27
  24651957.825   129546946.405    24651957.361   100945688.904    24651957.057  
  24651960.934    96739639.877  
  20728000.828   108926420.525    20727998.041    84877737.525    20727997.755  
                                
  22145524.206   116375509.751    22145521.508    90682190.240    22145521.151  
  22145521.222    86903793.271  
  21785967.175   114486018.568    21785966.943    89209884.071    21785966.675  
  21785967.175    85492806.974  
  23514574.750   123569924.470                    96288240.479    23514572.213  
                                
  23882807.693   125504999.395    23882807.103    97796102.343    23882806.585  
  23882806.960    93721258.958  
  21170460.924   111251554.908    21170460.852    86689539.430    21170460.298  
  21170460.816    83077488.165  
  20861104.393   111318861.242    20861106.412    86581349.173    20861106.483  
                                
  19796208.725   105970667.988    19796207.903    82421633.591    19796207.974  
                                
  22536223.800   120680464.102    22536222.745    93862579.853    22536222.835  
                                
  21172495.509   113099719.708    21172496.706    87966500.127    21172496.688  
                                
  19871338.192   106111858.577    19871339.318    82531464.773    19871339.211  
                                
  23637852.228   126490905.901    23637852.139    98381816.721    23637852.121  
                                
  26161760.948   137481035.142                                                  
  26161764.468   102664457.123  
  24813018.906   130393303.279                                                  
  24813019.835    97371636.241  
  24837944.209   130524312.882                                                  
  24837946.711    97469479.701  
  23528623.233   123643796.031                                                  
  23528625.092    92331446.195  
 21  9  1  6 42 36.0000000  0 17G 4G 7G 8G 9G20G27G30R 2R 3R 4R12R13
                                R21E 7E19E21E27
  24652653.055   129550599.963    24652652.591   100948535.842    24652652.287  
  24652656.164    96742368.203  
  20728042.070   108926637.243    20728039.282    84877906.396    20728038.997  
                                
  22145689.102   116376376.385    22145686.403    90682865.542    22145686.046  
  22145686.117    86904440.437  
  21786500.547   114488821.480    21786500.315    89212068.155    21786500.065  
  21786500.547    85494900.062  
  23514825.721   123571243.214                    96289268.070    23514823.183  
                                
  23883280.525   125507484.098    23883279.935    97798038.485    23883279.417  
  23883279.774    93723114.419  
  21170197.642   111250171.286    21170197.552    86688461.283    21170197.016  
  21170197.516    83076454.939  
  20861796.585   111322554.970    20861798.622    86584222.075    20861798.676  
                                
  19796187.282   105970553.125    19796186.460    82421544.251    19796186.532  
                                
  22535566.720   120676945.470    22535565.666    93859843.139    22535565.737  
                                
  21172952.134   113102158.994    21172953.331    87968397.350    21172953.331  
                                
  19871308.333   106111699.077    19871309.459    82531340.717    19871309.334  
                                
  23638084.365   126492148.187    23638084.293    98382782.946    23638084.276  
                                
  26162297.394   137483854.053                                                  
  26162300.914   102666562.145  
  24812696.745   130391610.246                                                  
  24812697.674    97370371.968  
  24837658.341   130522810.526                                                  
  24837660.824    97468357.813  
  23528780.892   123644624.523                                                  
  23528782.768    92332064.876  
 21  9  1  6 42 37.0000000  0 17G 4G 7G 8G 9G20G27G30R 2R 3R 4R12R13
                                R21E 7E19E21E27
  24653348.357   129554253.663    24653347.892   100951382.874    24653347.588  
  24653351.466    96745096.575  
  20728083.347   108926854.157    20728080.560    84878075.418    20728080.274  
                                
  22145854.140   116377243.638    22145851.460    90683541.314    22145851.102  
  22145851.156    86905088.054  
  21787034.009   114491624.753    21787033.759    89214252.526    21787033.509  
  21787034.009    85496993.411  
  23515076.745   123572562.378                    96290295.987    23515074.207  
                                
  23883753.446   125509969.271    23883752.875    97799974.997    23883752.339  
  23883752.714    93724970.214  
  21169934.359   111248787.820    21169934.288    86687383.258    21169933.734  
  21169934.234    83075421.827  
  20862488.885   111326249.111    20862490.922    86587095.292    20862490.975  
                                
  19796165.982   105970439.162    19796165.178    82421455.611    19796165.250  
                                
  22534909.712   120673427.250    22534908.658    93857106.746    22534908.747  
                                
  21173408.794   113104598.343    21173409.992    87970294.624    21173409.992  
                                
  19871278.528   106111539.855    19871279.653    82531216.877    19871279.528  
                                
  23638316.662   126493391.239    23638316.591    98383749.762    23638316.573  
                                
  26162833.822   137486673.063                                                  
  26162837.342   102668667.257  
  24812374.620   130389917.480                                                  
  24812375.549    97369107.891  
  24837372.472   130521308.350                                                  
  24837374.974    97467236.062  
  23528938.586   123645453.173                                                  
  23528940.444    92332683.676  
 21  9  1  6 42 38.0000000  0 17G 4G 7G 8G 9G20G27G30R 2R 3R 4R12R13
                                R21E 7E19E21E27
  24654043.623   129557907.450    24654043.140   100954229.976    24654042.836  
  24654046.732    96747825.097  
  20728124.696   108927071.380    20728121.909    84878244.683    20728121.623  
                                
  22146019.285   116378111.598    22146016.605    90684217.653    22146016.248  
  22146016.301    86905736.219  
  21787567.525   114494428.513    21787567.292    89216437.269    21787567.042  
  21787567.542    85499087.119  
  23515327.876   123573882.117                    96291324.358    23515325.339  
                                
  23884226.457   125512455.004    23884225.886    97801911.922    23884225.349  
  23884225.725    93726826.456  
  21169671.149   111247404.630    21169671.077    86686305.449    21169670.523  
  21169671.024    83074388.927  
  20863181.274   111329943.795    20863183.293    86589968.932    20863183.364  
                                
  19796144.897   105970326.209    19796144.075    82421367.759    19796144.146  
                                
  22534252.811   120669909.602    22534251.774    93854370.797    22534251.846  
                                
  21173865.473   113107037.874    21173866.670    87972192.032    21173866.670  
                                
  19871248.776   106111381.065    19871249.901    82531093.372    19871249.794  
                                
  23638549.120   126494635.110    23638549.049    98384717.217    23638549.013  
                                
  26163370.303   137489492.340                                                  
  26163373.823   102670772.561  
  24812052.585   130388225.125                                                  
  24812053.514    97367844.117  
  24837086.675   130519806.493                                                  
  24837089.159    97466114.543  
  23529096.316   123646282.125                                                  
  23529098.192    92333302.696  
 21  9  1  6 42 39.0000000  0 17G 4G 7G 8G 9G20G27G30R 2R 3R 4R12R13
                                R21E 7E19E21E27
  24654738.942   129561561.358    24654738.460   100957077.202    24654738.156  
  24654742.033    96750553.699  
  20728166.063   108927288.781    20728163.276    84878414.084    20728162.990  
                                
  22146184.592   116378980.224    22146181.929    90684894.505    22146181.554  
  22146181.626    86906384.851  
  21788101.129   114497232.569    21788100.879    89218622.253    21788100.629  
  21788101.129    85501181.070  
  23515579.079   123575202.208                    96292352.993    23515576.541  
                                
  23884699.558   125514941.174    23884698.986    97803849.182    23884698.450  
  23884698.825    93728683.008  
  21169407.974   111246021.574    21169407.884    86685227.741    21169407.330  
  21169407.849    83073356.128  
  20863873.734   111333638.882    20863875.753    86592842.889    20863875.825  
                                
  19796123.954   105970214.093    19796123.132    82421280.560    19796123.204  
                                
  22533595.999   120666392.372    22533594.945    93851635.165    22533595.034  
                                
  21174322.152   113109477.426    21174323.349    87974089.461    21174323.349  
                                
  19871219.095   106111222.546    19871220.221    82530970.075    19871220.114  
                                
  23638781.686   126495879.677    23638781.614    98385685.202    23638781.596  
                                
  26163906.821   137492311.746                                                  
  26163910.341   102672877.944  
  24811730.585   130386533.034                                                  
  24811731.514    97366580.547  
  24836800.913   130518304.807                                                  
  24836803.397    97464993.156  
  23529254.081   123647111.224                                                  
  23529255.957    92333921.829  
 21  9  1  6 42 40.0000000  0 17G 4G 7G 8G 9G20G27G30R 2R 3R 4R12R13
                                R21E 7E19E21E27
  24655434.333   129565215.488    24655433.868   100959924.579    24655433.565  
  24655437.442    96753282.400  
  20728207.501   108927506.517    20728204.696    84878583.751    20728204.410  
                                
  22146350.005   116379849.545    22146347.361    90685571.889    22146346.985  
  22146347.039    86907034.024  
  21788634.823   114500037.148    21788634.591    89220807.636    21788634.323  
  21788634.823    85503275.394  
  23515830.407   123576522.906                    96293382.111    23515827.869  
                                
  23885172.783   125517427.967    23885172.193    97805786.940    23885171.657  
  23885172.032    93730540.017  
  21169144.834   111244638.827    21169144.763    86684150.276    21169144.209  
  21169144.727    83072323.555  
  20864566.284   111337334.537    20864568.321    86595717.285    20864568.374  
                                
  19796103.173   105970102.973    19796102.369    82421194.133    19796102.440  
                                
  22532939.295   120662875.732    22532938.240    93848900.000    22532938.312  
                                
  21174778.884   113111917.160    21174780.081    87975987.030    21174780.081  
                                
  19871189.486   106111064.436    19871190.612    82530847.102    19871190.487  
                                
  23639014.430   126497125.161    23639014.358    98386653.921    23639014.340  
                                
  26164443.392   137495131.396                                                  
  26164446.912   102674983.538  
  24811408.674   130384841.368                                                  
  24811409.604    97365317.284  
  24836515.223   130516803.443                                                  
  24836517.707    97463872.008  
  23529411.918   123647940.634                                                  
  23529413.777    92334541.191  
 21  9  1  6 42 41.0000000  0 17G 4G 7G 8G 9G20G27G30R 2R 3R 4R12R13
                                R21E 7E19E21E27
  24656129.670   129568869.602    24656129.188   100962771.933    24656128.884  
  24656132.762    96756011.137  
  20728248.958   108927724.391    20728246.152    84878753.525    20728245.866  
                                
  22146515.544   116380719.468    22146512.899    90686249.765    22146512.524  
  22146512.578    86907683.633  
  21789168.571   114502842.043    21789168.339    89222993.269    21789168.089  
  21789168.589    85505369.957  
  23516081.788   123577843.954                    96294411.499    23516079.251  
                                
  23885646.062   125519915.155    23885645.472    97807725.011    23885644.954  
  23885645.329    93732397.346  
  21168881.731   111243256.191    21168881.659    86683072.897    21168881.106  
  21168881.606    83071291.067  
  20865258.923   111341030.592    20865260.960    86598591.994    20865261.013  
                                
  19796082.570   105969992.648    19796081.748    82421108.322    19796081.819  
                                
  22532282.662   120659359.471    22532281.607    93846165.131    22532281.679  
                                
  21175235.616   113114356.936    21175236.813    87977884.633    21175236.795  
                                
  19871159.931   106110906.612    19871161.057    82530724.353    19871160.949  
                                
  23639247.299   126498371.341    23639247.245    98387623.172    23639247.227  
                                
  26164979.981   137497951.149                                                  
  26164983.519   102677089.186  
  24811086.800   130383149.932                                                  
  24811087.729    97364054.196  
  24836229.533   130515302.229                                                  
  24836232.017    97462750.972  
  23529569.791   123648770.171                                                  
  23529571.649    92335160.650  
 21  9  1  6 42 42.0000000  0 17G 4G 7G 8G 9G20G27G30R 2R 3R 4R12R13
                                R21E 7E19E21E27
  24656825.079   129572523.820    24656824.632   100965619.374    24656824.328  
  24656828.188    96758739.893  
  20728290.449   108927942.444    20728287.644    84878923.436    20728287.358  
                                
  22146681.190   116381589.972    22146678.545    90686928.091    22146678.188  
  22146678.224    86908333.689  
  21789702.390   114505647.252    21789702.158    89225179.149    21789701.908  
  21789702.390    85507464.756  
  23516333.259   123579165.394                    96295441.193    23516330.721  
                                
  23886119.448   125522402.787    23886118.858    97809663.423    23886118.340  
  23886118.715    93734254.993  
  21168618.663   111241873.693    21168618.574    86681995.624    21168618.020  
  21168618.538    83070258.682  
  20865951.651   111344727.082    20865953.670    86601467.042    20865953.724  
                                
  19796062.128   105969883.163    19796061.306    82421023.169    19796061.377  
                                
  22531626.100   120655843.593    22531625.046    93843430.552    22531625.117  
                                
  21175692.366   113116796.774    21175693.563    87979782.285    21175693.545  
                                
  19871130.411   106110749.035    19871131.537    82530601.793    19871131.430  
                                
  23639480.329   126499618.269    23639480.275    98388593.005    23639480.257  
                                
  26165516.570   137500770.980                                                  
  26165520.090   102679194.909  
  24810764.979   130381458.736                                                  
  24810765.908    97362791.294  
  24835943.897   130513801.174                                                  
  24835946.399    97461630.049  
  23529727.664   123649599.839                                                  
  23529729.540    92335780.210  
 21  9  1  6 42 43.0000000  0 17G 4G 7G 8G 9G20G27G30R 2R 3R 4R12R13
                                R21E 7E19E21E27
                                  24657520.041   100968422.0501                 
  24657523.418    96761468.949  
  20728332.048   108928160.996    20728329.261    84879093.734    20728328.975  
                                
  22146847.014   116382461.424    22146844.370    90687607.142    22146844.012  
  22146844.048    86908984.462  
  21790236.335   114508453.149    21790236.102    89227365.559    21790235.834  
  21790236.335    85509560.072  
  23516584.855   123580487.592                    96296471.472    23516582.317  
                                
  23886592.995   125524891.217    23886592.405    97811602.464    23886591.869  
  23886592.244    93736113.228  
  21168355.667   111240491.665    21168355.595    86680918.726    21168355.041  
  21168355.542    83069226.650  
  20866644.523   111348424.361    20866646.542    86604342.699    20866646.595  
                                
  19796041.900   105969774.888    19796041.096    82420938.951    19796041.167  
                                
  22530969.682   120652328.466    22530968.627    93840696.562    22530968.699  
                                
  21176149.170   113119237.012    21176150.367    87981680.250    21176150.367  
                                
  19871101.035   106110592.073    19871102.160    82530479.714    19871102.035  
                                
  23639713.555   126500866.248    23639713.502    98389563.653    23639713.466  
                                
  26166053.248   137503591.279                                                  
  26166056.786   102681300.974  
  24810443.265   130379768.165                                                  
  24810444.194    97361528.851  
  24835658.368   130512300.632                                                  
  24835660.852    97460509.519  
  23529885.644   123650430.012                                                  
  23529887.502    92336400.144  
 21  9  1  6 42 44.0000000  0 16G 7G 8G 9G20G27G30R 2R 3R 4R12R13R21
                                E 7E19E21E27
  20728373.665   108928379.736    20728370.878    84879264.183    20728370.592  
                                
  22147012.946   116383333.475    22147010.319    90688286.660    22147009.944  
  22147009.980    86909635.655  
  21790770.350   114511259.403    21790770.118    89229552.251    21790769.868  
  21790770.368    85511655.641  
  23516836.540   123581810.183                    96297502.063    23516834.002  
                                
  23887066.596   125527380.140    23887066.024    97813541.891    23887065.506  
  23887065.863    93737971.824  
  21168092.688   111239109.801    21168092.599    86679841.948    21168092.063  
  21168092.563    83068194.743  
  20867337.465   111352122.100    20867339.485    86607218.725    20867339.556  
                                
  19796021.833   105969667.468    19796021.029    82420855.405    19796021.100  
                                
  22530313.334   120648813.772    22530312.280    93837962.918    22530312.352  
                                
  21176605.991   113121677.232    21176607.189    87983578.201    21176607.189  
                                
  19871071.694   106110435.388    19871072.801    82530357.845    19871072.694  
                                
  23639946.889   126502114.936    23639946.853    98390534.845    23639946.817  
                                
  26166589.962   137506411.671                                                  
  26166593.482   102683407.124  
  24810121.622   130378077.852                                                  
  24810122.551    97360266.606  
  24835372.839   130510800.251                                                  
  24835375.323    97459389.121  
  23530043.642   123651260.338                                                  
  23530045.500    92337020.195  
 21  9  1  6 42 45.0000000  0 16G 7G 8G 9G20G27G30R 2R 3R 4R12R13R21
                                E 7E19E21E27
  20728415.318   108928598.663    20728412.531    84879434.774    20728412.245  
                                
  22147179.003   116384206.151    22147176.412    90688966.665    22147176.019  
  22147176.055    86910287.318  
  21791304.420   114514065.985    21791304.187    89231739.198    21791303.937  
  21791304.438    85513751.474  
  23517088.314   123583133.203                    96298532.980    23517085.777  
                                
  23887540.303   125529869.453    23887539.732    97815481.616    23887539.195  
  23887539.571    93739830.735  
  21167829.764   111237728.081    21167829.674    86678765.281    21167829.120  
  21167829.639    83067162.937  
  20868030.515   111355820.291    20868032.535    86610095.098    20868032.588  
                                
  19796001.927   105969560.915    19796001.123    82420772.528    19796001.194  
                                
  22529657.077   120645299.535    22529656.022    93835229.625    22529656.094  
                                
  21177062.795   113124117.464    21177063.992    87985476.160    21177063.992  
                                
  19871042.406   106110278.998    19871043.532    82530236.207    19871043.407  
                                
  23640180.383   126503364.373    23640180.330    98391506.627    23640180.312  
                                
  26167126.694   137509232.213                                                  
  26167130.214   102685513.369  
  24809800.016   130376387.803                                                  
  24809800.945    97359004.577  
  24835087.381   130509300.076                                                  
  24835089.865    97458268.856  
  23530201.675   123652090.834                                                  
  23530203.534    92337640.370  
 21  9  1  6 42 46.0000000  0 16G 7G 8G 9G20G27G30R 2R 3R 4R12R13R21
                                E 7E19E21E27
  20728457.042   108928817.943    20728454.255    84879605.643    20728453.969  
                                
  22147345.221   116385079.586    22147342.630    90689647.252    22147342.236  
  22147342.272    86910939.559  
  21791838.578   114516873.088    21791838.346    89233926.548    21791838.096  
  21791838.596    85515847.685  
  23517340.178   123584456.792                    96299564.344    23517337.641  
                                
  23888014.118   125532359.412    23888013.547    97817421.853    23888013.011  
  23888013.386    93741690.129  
  21167566.892   111236346.680    21167566.803    86677688.865    21167566.267  
  21167566.767    83066131.372  
  20868723.673   111359519.120    20868725.692    86612971.963    20868725.746  
                                
  19795982.199   105969455.394    19795981.395    82420690.458    19795981.467  
                                
  22529000.926   120641785.900    22528999.872    93832496.802    22528999.943  
                                
  21177519.670   113126557.914    21177520.867    87987374.285    21177520.850  
                                
  19871013.208   106110123.074    19871014.316    82530114.937    19871014.209  
                                
  23640414.039   126504614.746    23640414.003    98392479.140    23640413.967  
                                
  26167663.479   137512053.040                                                  
  26167667.017   102687619.830  
  24809478.498   130374698.221                                                  
  24809479.427    97357742.869  
  24834801.959   130507800.244                                                  
  24834804.443    97457148.851  
  23530359.798   123652921.661                                                  
  23530361.657    92338260.791  
 21  9  1  6 42 47.0000000  0 16G 7G 8G 9G20G27G30R 2R 3R 4R12R13R21
                                E 7E19E21E27
  20728498.838   108929037.498    20728496.050    84879776.725    20728495.764  
                                
  22147511.545   116385953.726    22147508.954    90690328.412    22147508.579  
  22147508.597    86911592.323  
  21792372.844   114519680.633    21792372.612    89236114.248    21792372.344  
  21792372.844    85517944.228  
  23517592.149   123585780.915                    96300596.130    23517589.612  
                                
  23888488.058   125534849.913    23888487.487    97819362.503    23888486.951  
  23888487.326    93743549.910  
  21167304.075   111234965.523    21167303.986    86676612.641    21167303.432  
  21167303.950    83065099.988  
  20869416.919   111363218.479    20869418.939    86615849.242    20869418.992  
                                
  19795962.669   105969350.808    19795961.864    82420609.111    19795961.936  
                                
  22528344.865   120638272.728    22528343.811    93829764.335    22528343.882  
                                
  21177976.545   113128998.518    21177977.743    87989272.533    21177977.743  
                                
  19870984.064   106109967.519    19870985.190    82529993.950    19870985.065  
                                
  23640647.837   126505865.878    23640647.801    98393452.238    23640647.783  
                                
  26168200.318   137514874.089                                                  
  26168203.856   102689726.456  
  24809157.052   130373008.997                                                  
  24809157.982    97356481.434  
  24834516.609   130506300.686                                                  
  24834519.093    97456029.053  
  23530517.939   123653752.741                                                  
  23530519.798    92338881.403  
 21  9  1  6 42 48.0000000  0 16G 7G 8G 9G20G27G30R 2R 3R 4R12R13R21
                                E 7E19E21E27
  20728540.651   108929257.297    20728537.864    84879947.995    20728537.578  
                                
  22147678.013   116386828.523    22147675.422    90691010.086    22147675.047  
  22147675.065    86912245.587  
  21792907.182   114522488.580    21792906.932    89238302.259    21792906.681  
  21792907.182    85520041.076  
  23517844.228   123587105.490                    96301628.269    23517841.690  
                                
  23888962.088   125537340.914    23888961.498    97821303.543    23888960.980  
  23888961.337    93745410.077  
  21167041.293   111233584.581    21167041.204    86675536.582    21167040.650  
  21167041.168    83064068.767  
  20870110.273   111366918.354    20870112.292    86618726.925    20870112.346  
                                
  19795943.299   105969247.133    19795942.494    82420528.478    19795942.566  
                                
  22527688.893   120634760.065    22527687.839    93827032.264    22527687.910  
                                
  21178433.474   113131439.272    21178434.671    87991170.897    21178434.654  
                                
  19870955.009   106109812.322    19870956.135    82529873.241    19870956.010  
                                
  23640881.796   126507117.828    23640881.760    98394425.977    23640881.743  
                                
  26168737.175   137517695.306                                                  
  26168740.713   102691833.202  
  24808835.660   130371320.102                                                  
  24808836.589    97355220.243  
  24834231.294   130504801.367                                                  
  24834233.778    97454909.434  
  23530676.134   123654584.047                                                  
  23530677.992    92339502.181  
 21  9  1  6 42 49.0000000  0 16G 7G 8G 9G20G27G30R 2R 3R 4R12R13R21
                                E 7E19E21E27
  20728582.554   108929477.454    20728579.749    84880119.546    20728579.463  
                                
  22147844.624   116387704.075    22147842.033    90691692.311    22147841.658  
  22147841.676    86912899.399  
  21793441.626   114525297.067    21793441.376    89240490.689    21793441.126  
  21793441.626    85522138.319  
  23518096.395   123588430.657                    96302660.871    23518093.858  
                                
  23889436.207   125539832.548    23889435.635    97823245.051    23889435.099  
  23889435.474    93747270.702  
  21166778.547   111232203.970    21166778.475    86674460.779    21166777.921  
  21166778.422    83063037.789  
  20870803.752   111370618.834    20870805.753    86621605.074    20870805.825  
                                
  19795924.143   105969144.514    19795923.339    82420448.663    19795923.410  
                                
  22527033.046   120631248.017    22527031.974    93824300.669    22527032.064  
                                
  21178890.439   113133880.268    21178891.636    87993069.452    21178891.618  
                                
  19870926.025   106109657.620    19870927.151    82529752.919    19870927.026  
                                
  23641115.916   126508370.687    23641115.898    98395400.446    23641115.862  
                                
  26169274.086   137520516.810                                                  
  26169277.624   102693940.179  
  24808514.357   130369631.667                                                  
  24808515.286    97353959.399  
  24833946.051   130503302.422                                                  
  24833948.535    97453790.083  
  23530834.382   123655415.684                                                  
  23530836.240    92340123.213  
 21  9  1  6 42 50.0000000  0 16G 7G 8G 9G20G27G30R 2R 3R 4R12R13R21
                                E 7E19E21E27
  20728624.475   108929697.714    20728621.687    84880291.177    20728621.402  
                                
  22148011.342   116388580.178    22148008.769    90692374.977    22148008.376  
  22148008.394    86913553.630  
  21793976.107   114528105.804    21793975.874    89242679.312    21793975.606  
  21793976.107    85524235.748  
  23518348.634   123589756.159                    96303693.730    23518346.097  
                                
  23889910.433   125542324.564    23889909.861    97825186.879    23889909.325  
  23889909.700    93749131.616  
  21166515.854   111230823.423    21166515.765    86673385.031    21166515.211  
  21166515.729    83062006.857  
  20871497.285   111374319.668    20871499.304    86624483.503    20871499.357  
                                
  19795905.112   105969042.675    19795904.308    82420369.450    19795904.380  
                                
  22526377.271   120627736.314    22526376.199    93821569.344    22526376.271  
                                
  21179347.368   113136321.207    21179348.565    87994967.960    21179348.565  
                                
  19870897.095   106109503.097    19870898.203    82529632.735    19870898.078  
                                
  23641350.179   126509624.197    23641350.143    98396375.396    23641350.125  
                                
  26169811.014   137523338.365                                                  
  26169814.552   102696047.173  
  24808193.108   130367943.403                                                  
  24808194.037    97352698.689  
  24833660.826   130501803.552                                                  
  24833663.292    97452670.791  
  23530992.648   123656247.398                                                  
  23530994.506    92340744.296  
 21  9  1  6 42 51.0000000  0 16G 7G 8G 9G20G27G30R 2R 3R 4R12R13R21
                                E 7E19E21E27
  20728666.449   108929918.343    20728663.662    84880463.098    20728663.376  
                                
  22148178.185   116389457.070    22148175.630    90693058.270    22148175.237  
  22148175.255    86914208.446  
  21794510.694   114530915.072    21794510.444    89244868.352    21794510.194  
  21794510.694    85526333.578  
  23518600.981   123591082.266                    96304727.055    23518598.443  
                                
  23890384.748   125544817.181    23890384.176    97827129.194    23890383.640  
  23890384.015    93750993.004  
  21166253.198   111229443.208    21166253.108    86672309.543    21166252.572  
  21166253.073    83060976.186  
  20872190.942   111378021.116    20872192.944    86627362.409    20872192.997  
                                
  19795886.278   105968941.865    19795885.474    82420291.044    19795885.546  
                                
  22525721.603   120624225.226    22525720.531    93818838.498    22525720.602  
                                
  21179804.368   113138762.358    21179805.565    87996866.633    21179805.547  
                                
  19870868.255   106109349.060    19870869.363    82529512.926    19870869.255  
                                
  23641584.585   126510878.625    23641584.567    98397351.067    23641584.549  
                                
  26170348.014   137526160.216                                                  
  26170351.552   102698154.407  
  24807871.930   130366255.620                                                  
  24807872.859    97351438.327  
  24833375.672   130500305.065                                                  
  24833378.156    97451551.793  
  23531150.985   123657079.463                                                  
  23531152.844    92341365.644  
 21  9  1  6 42 52.0000000  0 16G 7G 8G 9G20G27G30R 2R 3R 4R12R13R21
                                E 7E19E21E27
  20728708.477   108930139.237    20728705.690    84880635.221    20728705.404  
                                
  22148345.189   116390334.655    22148342.634    90693742.095    22148342.241  
  22148342.258    86914863.779  
  21795045.371   114533724.765    21795045.121    89247057.723    21795044.871  
  21795045.353    85528431.725  
  23518853.416   123592408.857                    96305760.762    23518850.897  
                                
  23890859.188   125547310.356    23890858.617    97829071.937    23890858.081  
  23890858.456    93752854.786  
  21165990.612   111228063.234    21165990.523    86671234.236    21165989.969  
  21165990.487    83059945.684  
  20872884.689   111381723.077    20872886.690    86630241.712    20872886.744  
                                
  19795867.623   105968841.990    19795866.819    82420213.363    19795866.891  
                                
  22525066.007   120620714.629    22525064.952    93816108.031    22525065.024  
                                
  21180261.386   113141203.616    21180262.583    87998765.389    21180262.565  
                                
  19870839.468   106109195.399    19870840.594    82529393.411    19870840.468  
                                
  23641819.169   126512133.875    23641819.134    98398327.372    23641819.116  
                                
  26170885.014   137528982.286                                                  
  26170888.570   102700261.796  
  24807550.806   130364568.177                                                  
  24807551.753    97350178.223  
  24833090.554   130498806.826                                                  
  24833093.037    97450432.980  
  23531309.376   123657911.770                                                  
  23531311.252    92341987.169  
 21  9  1  6 42 53.0000000  0 16G 7G 8G 9G20G27G30R 2R 3R 4R12R13R21
                                E 7E19E21E27
  20728750.577   108930360.365    20728747.789    84880807.528    20728747.485  
                                
  22148512.300   116391212.874    22148509.745    90694426.417    22148509.334  
  22148509.352    86915519.613  
  21795580.102   114536534.857    21795579.869    89249247.408    21795579.619  
  21795580.102    85530530.166  
  23519105.959   123593735.917                    96306794.835    23519103.422  
                                
  23891333.718   125549804.044    23891333.129    97831015.078    23891332.610  
  23891332.968    93754716.958  
  21165728.045   111226683.474    21165727.973    86670159.099    21165727.420  
  21165727.920    83058915.341  
  20873578.525   111385425.518    20873580.527    86633121.385    20873580.580  
                                
  19795849.129   105968743.044    19795848.325    82420136.406    19795848.396  
                                
  22524410.517   120617204.501    22524409.445    93813377.932    22524409.517  
                                
  21180718.386   113143644.975    21180719.583    88000664.226    21180719.583  
                                
  19870810.752   106109042.053    19870811.860    82529274.143    19870811.753  
                                
  23642053.879   126513389.931    23642053.861    98399304.307    23642053.843  
                                
  26171422.085   137531804.518                                                  
  26171425.623   102702369.309  
  24807229.753   130362881.060                                                  
  24807230.682    97348918.368  
  24832805.507   130497308.823                                                  
  24832807.991    97449314.343  
  23531467.803   123658744.290                                                  
  23531469.661    92342608.859  
 21  9  1  6 42 54.0000000  0 17G 4G 7G 8G 9G20G27G30R 2R 3R 4R12R13
                                R21E 7E19E21E27
  24665171.682   129616351.8651   24665171.449   100999754.3571   24665171.717  
  24665174.880    96791494.710  
  20728792.676   108930581.658    20728789.889    84880979.967    20728789.603  
                                
  22148679.518   116392091.703    22148676.981    90695111.240    22148676.570  
  22148676.588    86916175.895  
  21796114.904   114539345.267    21796114.671    89251437.328    21796114.403  
  21796114.904    85532628.846  
  23519358.538   123595063.341                    96307829.199    23519356.000  
                                
  23891808.320   125552298.141    23891807.730    97832958.499    23891807.194  
  23891807.587    93756579.422  
  21165465.513   111225303.826    21165465.424    86669084.046    21165464.888  
  21165465.388    83057885.082  
  20874272.433   111389128.339    20874274.435    86636001.349    20874274.488  
                                
  19795830.813   105968644.939    19795830.009    82420060.102    19795830.080  
                                
  22523755.117   120613694.783    22523754.045    93810648.153    22523754.117  
                                
  21181175.440   113146086.398    21181176.637    88002563.106    21181176.619  
                                
  19870782.090   106108888.986    19870783.216    82529155.095    19870783.091  
                                
  23642288.732   126514646.636    23642288.714    98400281.744    23642288.696  
                                
  26171959.156   137534626.839                                                  
  26171962.694   102704476.884  
  24806908.772   130361194.195                                                  
  24806909.719    97347658.689  
  24832520.460   130495810.974                                                  
  24832522.944    97448195.825  
  23531626.248   123659576.943                                                  
  23531628.106    92343230.642  
 21  9  1  6 42 55.0000000  0 17G 4G 7G 8G 9G20G27G30R 2R 3R 4R12R13
                                R21E 7E19E21E27
  24665867.359   129620007.727    24665867.108   101002603.076    24665867.376  
  24665870.575    96794224.754  
  20728834.811   108930803.044    20728832.024    84881152.473    20728831.738  
                                
  22148846.844   116392971.031    22148844.306    90695796.437    22148843.913  
  22148843.913    86916832.547  
  21796649.759   114542155.931    21796649.527    89253627.459    21796649.277  
  21796649.759    85534727.713  
  23519611.206   123596391.085                    96308863.800    23519608.668  
                                
  23892283.010   125554792.604    23892282.420    97834902.232    23892281.902  
  23892282.277    93758442.159  
  21165202.982   111223924.239    21165202.892    86668009.045    21165202.338  
  21165202.856    83056854.867  
  20874966.395   111392831.501    20874968.396    86638881.590    20874968.467  
                                
  19795812.622   105968547.611    19795811.818    82419984.404    19795811.890  
                                
  22523099.753   120610185.403    22523098.699    93807918.633    22523098.770  
                                
  21181632.476   113148527.787    21181633.673    88004461.966    21181633.655  
                                
  19870753.464   106108736.094    19870754.572    82529036.176    19870754.447  
                                
  23642523.691   126515903.995    23642523.673    98401259.694    23642523.656  
                                
  26172496.228   137537449.191                                                  
  26172499.766   102706584.476  
  24806587.809   130359507.503                                                  
  24806588.738    97346399.143  
  24832235.467   130494313.211                                                  
  24832237.951    97447077.366  
  23531784.710   123660409.669                                                  
  23531786.568    92343852.483  
 21  9  1  6 42 56.0000000  0 17G 4G 7G 8G 9G20G27G30R 2R 3R 4R12R13
                                R21E 7E19E21E27
  24666563.071   129623663.773    24666562.821   101005451.934    24666563.089  
  24666566.288    96796954.921  
  20728876.982   108931024.689    20728874.195    84881325.183    20728873.909  
                                
  22149014.295   116393851.031    22149011.757    90696482.167    22149011.346  
  22149011.364    86917489.703  
  21797184.704   114544967.027    21797184.454    89255817.921    21797184.204  
  21797184.704    85536826.910  
  23519863.963   123597719.360                    96309898.812    23519861.444  
                                
  23892757.790   125557287.619    23892757.218    97836846.402    23892756.682  
  23892757.057    93760305.322  
  21164940.503   111222544.881    21164940.414    86666934.221    21164939.860  
  21164940.361    83055824.829  
  20875660.463   111396535.181    20875662.464    86641762.230    20875662.536  
                                
  19795794.628   105968451.236    19795793.824    82419909.444    19795793.896  
                                
  22522444.496   120606676.504    22522443.424    93805189.490    22522443.495  
                                
  21182089.512   113150969.281    21182090.709    88006360.908    21182090.709  
                                
  19870724.892   106108583.571    19870725.999    82528917.550    19870725.874  
                                
  23642758.812   126517162.173    23642758.794    98402238.275    23642758.776  
                                
  26173033.353   137540271.752                                                  
  26173036.891   102708692.239  
  24806266.899   130357821.184                                                  
  24806267.846    97345139.881  
  24831950.492   130492815.727                                                  
  24831952.976    97445959.114  
  23531943.208   123661242.639                                                  
  23531945.067    92344474.506  
 21  9  1  6 42 57.0000000  0 17G 4G 7G 8G 9G20G27G30R 2R 3R 4R12R13
                                R21E 7E19E21E27
  24667258.784   129627319.856    24667258.551   101008300.825    24667258.801  
  24667262.036    96799685.108  
  20728919.189   108931246.513    20728916.401    84881498.033    20728916.098  
                                
  22149181.888   116394731.668    22149179.351    90697168.378    22149178.958  
  22149178.958    86918147.308  
  21797719.703   114547778.461    21797719.453    89258008.648    21797719.202  
  21797719.703    85538926.361  
  23520116.810   123599048.008                    96310934.127    23520114.272  
                                
  23893232.659   125559783.044    23893232.070    97838790.885    23893231.551  
  23893231.927    93762168.793  
  21164678.043   111221165.669    21164677.954    86665859.508    21164677.418  
  21164677.918    83054794.894  
  20876354.603   111400239.269    20876356.605    86644643.190    20876356.676  
                                
  19795776.777   105968355.686    19795775.973    82419835.130    19795776.044  
                                
  22521789.310   120603168.027    22521788.238    93802460.672    22521788.310  
                                
  21182546.566   113153410.801    21182547.763    88008259.871    21182547.763  
                                
  19870696.391   106108431.320    19870697.516    82528799.135    19870697.391  
                                
  23642994.075   126518421.127    23642994.058    98403217.464    23642994.040  
                                
  26173570.478   137543094.404                                                  
  26173574.034   102710800.074  
  24805946.060   130356135.106                                                  
  24805946.990    97343880.801  
  24831665.553   130491318.396                                                  
  24831668.019    97444840.975  
  23532101.742   123662075.758                                                  
  23532103.619    92345096.643  
 21  9  1  6 42 58.0000000  0 17G 4G 7G 8G 9G20G27G30R 2R 3R 4R12R13
                                R21E 7E19E21E27
  24667954.532   129630976.149    24667954.300   101011149.878    24667954.532  
  24667957.784    96802415.473  
  20728961.467   108931468.692    20728958.679    84881671.162    20728958.393  
                                
  22149349.607   116395613.076    22149347.087    90697855.192    22149346.676  
  22149346.676    86918805.492  
  21798254.791   114550590.411    21798254.540    89260199.776    21798254.290  
  21798254.791    85541026.196  
  23520369.746   123600377.225                    96311969.881    23520367.208  
                                
  23893707.636   125562279.133    23893707.064    97840735.889    23893706.528  
  23893706.903    93764032.749  
  21164415.655   111219786.775    21164415.565    86664785.047    21164415.011  
  21164415.529    83053765.211  
  20877048.868   111403943.965    20877050.870    86647524.620    20877050.941  
                                
  19795759.123   105968261.147    19795758.318    82419761.597    19795758.390  
                                
  22521134.250   120599660.163    22521133.178    93799732.331    22521133.249  
                                
  21183003.673   113155852.531    21183004.871    88010158.994    21183004.853  
                                
  19870667.961   106108279.532    19870669.087    82528681.077    19870668.962  
                                
  23643229.500   126519680.973    23643229.500    98404197.346    23643229.482  
                                
  26174107.674   137545917.387                                                  
  26174111.230   102712908.122  
  24805625.294   130354449.491                                                  
  24805626.223    97342622.067  
  24831380.703   130489821.428                                                  
  24831383.186    97443723.111  
  23532260.348   123662909.218                                                  
  23532262.206    92345719.027  
 21  9  1  6 42 59.0000000  0 16G 7G 8G 9G20G27G30R 2R 3R 4R12R13R21
                                E 7E19E21E27
  20729003.852   108931691.410    20729001.065    84881844.709    20729000.761  
                                
  22149517.504   116396495.412    22149515.002    90698542.708    22149514.591  
  22149514.591    86919464.355  
  21798790.022   114553403.056    21798789.771    89262391.450    21798789.521  
  21798790.022    85543126.553  
  23520622.843   123601707.258                    96313006.277    23520620.305  
                                
  23894182.791   125564776.035    23894182.219    97842681.554    23894181.683  
  23894182.058    93765897.334  
  21164153.337   111218408.397    21164153.248    86663710.987    21164152.694  
  21164153.212    83052735.898  
  20877743.276   111407649.454    20877745.278    86650406.662    20877745.349  
                                
  19795741.682   105968167.824    19795740.878    82419689.015    19795740.950  
                                
  22520479.332   120596153.097    22520478.260    93797004.622    22520478.331  
                                
  21183460.852   113158294.687    21183462.050    88012058.446    21183462.050  
                                
  19870639.656   106108128.375    19870640.764    82528563.504    19870640.639  
                                
  23643465.139   126520941.885    23643465.121    98405178.051    23643465.103  
                                
  26174644.960   137548740.805                                                  
  26174648.516   102715016.532  
  24805304.652   130352764.502                                                  
  24805305.581    97341363.791  
  24831095.942   130488324.982                                                  
  24831098.408    97442605.645  
  23532419.043   123663743.182                                                  
  23532420.901    92346341.799  
 21  9  1  6 43  0.0000000  0 16G 7G 8G 9G20G27G30R 2R 3R 4R12R13R21
                                E 7E19E21E27
  20729046.273   108931914.317    20729043.486    84882018.405    20729043.200  
                                
  22149685.526   116397378.385    22149683.025    90699230.730    22149682.596  
  22149682.596    86920123.733  
  21799325.324   114556216.065    21799325.074    89264583.407    21799324.806  
  21799325.306    85545227.176  
  23520876.011   123603037.661                    96314042.952    23520873.492  
                                
  23894658.000   125567273.335    23894657.428    97844627.496    23894656.892  
  23894657.267    93767762.214  
  21163891.074   111217030.178    21163890.984    86662637.052    21163890.448  
  21163890.949    83051706.709  
  20878437.756   111411355.387    20878439.757    86653289.054    20878439.811  
                                
  19795724.421   105968075.374    19795723.617    82419617.105    19795723.688  
                                
  22519824.504   120592646.503    22519823.450    93794277.269    22519823.521  
                                
  21183918.049   113160736.890    21183919.246    88013957.938    21183919.229  
                                
  19870611.405   106107977.535    19870612.513    82528446.184    19870612.388  
                                
  23643700.903   126522203.523    23643700.885    98406159.334    23643700.867  
                                
  26175182.281   137551564.372                                                  
  26175185.837   102717125.035  
  24804984.082   130351079.797                                                  
  24804985.011    97340105.732  
  24830811.199   130486828.739                                                  
  24830813.665    97441488.318  
  23532577.791   123664577.325                                                  
  23532579.649    92346964.696  
 21  9  1  6 43  1.0000000  0 16G 7G 8G 9G20G27G30R 2R 3R 4R12R13R21
                                E 7E19E21E27
  20729088.712   108932137.391    20729085.925    84882192.226    20729085.639  
                                
  22149853.656   116398261.933    22149851.154    90699919.211    22149850.726  
  22149850.726    86920783.534  
  21799860.680   114559029.391    21799860.430    89266775.607    21799860.179  
  21799860.680    85547328.035  
  23521129.251   123604368.495                    96315079.968    23521126.713  
                                
  23895133.334   125569771.123    23895132.762    97846573.822    23895132.226  
  23895132.601    93769627.428  
  21163628.846   111215652.075    21163628.756    86661563.208    21163628.202  
  21163628.721    83050677.600  
  20879132.325   111415061.731    20879134.326    86656171.769    20879134.380  
                                
  19795707.302   105967983.791    19795706.516    82419545.876    19795706.588  
                                
  22519169.747   120589140.275    22519168.675    93791550.203    22519168.747  
                                
  21184375.246   113163179.133    21184376.443    88015857.458    21184376.425  
                                
  19870583.226   106107826.945    19870584.334    82528329.061    19870584.209  
                                
  23643936.792   126523465.887    23643936.792    98407141.175    23643936.774  
                                
  26175719.585   137554388.019                                                  
  26175723.141   102719233.602  
  24804663.529   130349395.335                                                  
  24804664.458    97338847.851  
  24830526.528   130485332.649                                                  
  24830528.994    97440371.106  
  23532736.557   123665411.601                                                  
  23532738.416    92347587.690  
 21  9  1  6 43  2.0000000  0 16G 7G 8G 9G20G27G30R 2R 3R 4R12R13R21
                                E 7E19E21E27
  20729131.241   108932360.829    20729128.453    84882366.331    20729128.167  
                                
  22150021.947   116399146.337    22150019.463    90700608.352    22150019.034  
  22150019.034    86921443.942  
  21800396.143   114561843.260    21800395.893    89268968.232    21800395.643  
  21800396.143    85549429.300  
  23521382.616   123605699.904                    96316117.434    23521380.078  
                                
  23895608.739   125572269.515    23895608.167    97848520.628    23895607.631  
  23895608.006    93771493.119  
  21163366.671   111214274.328    21163366.582    86660489.639    21163366.028  
  21163366.528    83049648.769  
  20879827.019   111418768.709    20879829.002    86659054.974    20879829.074  
                                
  19795690.380   105967893.282    19795689.594    82419475.477    19795689.666  
                                
  22518515.098   120585634.639    22518514.026    93788823.592    22518514.097  
                                
  21184832.461   113165621.638    21184833.658    88017757.181    21184833.658  
                                
  19870555.100   106107676.856    19870556.208    82528212.327    19870556.083  
                                
  23644172.877   126524729.204    23644172.877    98408123.760    23644172.841  
                                
  26176256.978   137557211.988                                                  
  26176260.534   102721342.415  
  24804343.066   130347711.346                                                  
  24804343.995    97337590.331  
  24830241.892   130483836.934                                                  
  24830244.358    97439254.180  
  23532895.377   123666246.237                                                  
  23532897.235    92348210.959  
 21  9  1  6 43  3.0000000  0 16G 7G 8G 9G20G27G30R 2R 3R 4R12R13R21
                                E 7E19E21E27
  20729173.769   108932584.328    20729170.963    84882540.486    20729170.677  
                                
  22150190.291   116400031.132    22150187.789    90701297.826    22150187.378  
  22150187.360    86922104.702  
  21800931.642   114564657.346    21800931.392    89271161.027    21800931.141  
  21800931.642    85551530.726  
  23521636.034   123607031.603                    96317155.117    23521633.497  
                                
  23896084.234   125574768.239    23896083.644    97850467.701    23896083.126  
  23896083.501    93773359.054  
  21163104.497   111212896.596    21163104.408    86659416.079    21163103.854  
  21163104.372    83048619.943  
  20880521.767   111422475.995    20880523.750    86661938.419    20880523.822  
                                
  19795673.619   105967803.504    19795672.815    82419405.650    19795672.887  
                                
  22517860.484   120582129.256    22517859.412    93786097.179    22517859.483  
                                
  21185289.693   113168064.038    21185290.890    88019656.826    21185290.890  
                                
  19870527.028   106107526.904    19870528.136    82528095.695    19870528.011  
                                
  23644409.052   126525993.075    23644409.052    98409106.773    23644409.034  
                                
  26176794.335   137560035.943                                                  
  26176797.891   102723451.219  
  24804022.657   130346027.504                                                  
  24804023.586    97336332.912  
  24829957.274   130482341.266                                                  
  24829959.740    97438137.290  
  23533054.197   123667080.897                                                  
  23533056.055    92348834.244  
 21  9  1  6 43  4.0000000  0 17G 4G 7G 8G 9G20G27G30R 2R 3R 4R12R13
                                R21E 7E19E21E27
  24672129.844   129652917.953    24672129.647   101028247.413    24672129.861  
  24672133.203    96818800.603  
  20729216.369   108932808.226    20729213.581    84882714.955    20729213.295  
                                
  22150358.831   116400916.816    22150356.365    90701987.965    22150355.954  
  22150355.919    86922766.057  
  21801467.248   114567471.981    21801466.998    89273354.249    21801466.748  
  21801467.248    85553632.566  
  23521889.560   123608363.922                    96318193.285    23521887.040  
                                
  23896559.854   125577267.623    23896559.282    97852415.248    23896558.746  
  23896559.121    93775225.453  
  21162842.376   111211519.228    21162842.287    86658342.805    21162841.733  
  21162842.251    83047591.389  
  20881216.639   111426183.945    20881218.623    86664822.370    20881218.694  
                                
  19795657.037   105967714.785    19795656.251    82419336.648    19795656.322  
                                
  22517206.013   120578624.550    22517204.941    93783371.308    22517205.012  
                                
  21185746.962   113170506.684    21185748.159    88021556.668    21185748.141  
                                
  19870499.027   106107377.468    19870500.135    82527979.470    19870500.010  
                                
  23644645.406   126527257.886    23644645.406    98410090.504    23644645.388  
                                
  26177331.800   137562860.244                                                  
  26177335.356   102725560.255  
  24803702.301   130344344.125                                                  
  24803703.230    97335075.854  
  24829672.728   130480845.995                                                  
  24829675.194    97437020.680  
  23533213.106   123667915.929                                                  
  23533214.965    92349457.810  
 21  9  1  6 43  5.0000000  0 17G 4G 7G 8G 9G20G27G30R 2R 3R 4R12R13
                                R21E 7E19E21E27
  24672825.842   129656575.441    24672825.645   101031097.403    24672825.842  
  24672829.219    96821531.842  
  20729259.040   108933032.436    20729256.252    84882889.666    20729255.966  
                                
  22150527.515   116401803.240    22150525.067    90702678.682    22150524.638  
  22150524.620    86923427.988  
  21802002.943   114570287.103    21802002.711    89275547.848    21802002.443  
  21802002.943    85555734.761  
  23522143.193   123609696.804                    96319231.893    23522140.673  
                                
  23897035.581   125579767.606    23897035.009    97854363.278    23897034.473  
  23897034.866    93777092.325  
  21162580.327   111210142.153    21162580.238    86657269.760    21162579.684  
  21162580.202    83046563.054  
  20881911.583   111429892.467    20881913.585    86667706.779    20881913.638  
                                
  19795640.651   105967627.037    19795639.865    82419268.400    19795639.936  
                                
  22516551.632   120575120.426    22516550.577    93780645.879    22516550.649  
                                
  21186204.266   113172949.514    21186205.463    88023456.647    21186205.445  
                                
  19870471.116   106107228.443    19870472.224    82527863.559    19870472.099  
                                
  23644881.920   126528523.573    23644881.920    98411074.927    23644881.902  
                                
  26177869.300   137565684.783                                                  
  26177872.856   102727669.493  
  24803382.052   130342661.172                                                  
  24803382.981    97333819.103  
  24829388.253   130479351.043                                                  
  24829390.719    97435904.320  
  23533372.051   123668751.264                                                  
  23533373.927    92350081.599  
 21  9  1  6 43  6.0000000  0 17G 4G 7G 8G 9G20G27G30R 2R 3R 4R12R13
                                R21E 7E19E21E27
  24673521.858   129660233.031    24673521.662   101033947.487    24673521.858  
  24673525.236    96824263.144  
  20729301.747   108933256.871    20729298.959    84883064.553    20729298.673  
                                
  22150696.288   116402690.256    22150693.840    90703369.857    22150693.411  
  22150693.375    86924090.374  
  21802538.710   114573102.592    21802538.478    89277741.735    21802538.210  
  21802538.710    85557837.241  
  23522396.933   123611030.124                    96320270.836    23522394.396  
                                
  23897511.415   125582268.082    23897510.825    97856311.698    23897510.307  
  23897510.682    93778959.549  
  21162318.332   111208765.257    21162318.242    86656196.854    21162317.688  
  21162318.189    83045534.850  
  20882606.653   111433601.448    20882608.654    86670591.544    20882608.708  
                                
  19795624.426   105967540.177    19795623.640    82419200.842    19795623.711  
                                
  22515897.375   120571616.794    22515896.303    93777920.828    22515896.374  
                                
  21186661.587   113175392.424    21186662.785    88025356.689    21186662.785  
                                
  19870443.276   106107079.735    19870444.384    82527747.902    19870444.259  
                                
  23645118.613   126529790.064    23645118.631    98412059.978    23645118.595  
                                
  26178406.818   137568509.477                                                  
  26178410.392   102729778.840  
  24803061.857   130340978.527                                                  
  24803062.786    97332562.581  
  24829103.814   130477856.296                                                  
  24829106.280    97434788.115  
  23533531.050   123669586.784                                                  
  23533532.908    92350705.526  
 21  9  1  6 43  7.0000000  0 17G 4G 7G 8G 9G20G27G30R 2R 3R 4R12R13
                                R21E 7E19E21E27
  24674217.785   129663890.305    24674217.589   101036797.297    24674217.767  
  24674221.180    96826994.249  
  20729344.436   108933481.148    20729341.648    84883239.310    20729341.345  
                                
  22150865.132   116403577.551    22150862.684    90704061.258    22150862.255  
  22150862.237    86924752.967  
  21803074.495   114575918.107    21803074.245    89279935.641    21803073.995  
  21803074.495    85559939.734  
  23522650.655   123612363.499                    96321309.832    23522648.136  
                                
  23897987.249   125584768.658    23897986.677    97858260.199    23897986.159  
  23897986.534    93780826.859  
  21162056.282   111207388.179    21162056.193    86655123.808    21162055.639  
  21162056.139    83044506.517  
  20883301.740   111437310.524    20883303.741    86673476.381    20883303.795  
                                
  19795608.308   105967453.846    19795607.504    82419133.694    19795607.575  
                                
  22515243.101   120568113.241    22515242.029    93775195.846    22515242.100  
                                
  21187118.856   113177835.064    21187120.053    88027256.517    21187120.035  
                                
  19870415.418   106106930.991    19870416.526    82527632.212    19870416.401  
                                
  23645355.360   126531056.943    23645355.360    98413045.328    23645355.342  
                                
  26178944.300   137571333.957                                                  
  26178947.856   102731888.032  
  24802741.644   130339295.824                                                  
  24802742.573    97331306.018  
  24828819.339   130476361.397                                                  
  24828821.787    97433671.795  
  23533690.013   123670422.136                                                  
  23533691.871    92351329.328  
 21  9  1  6 43  8.0000000  0 17G 4G 7G 8G 9G20G27G30R 2R 3R 4R12R13
                                R21E 7E19E21E27
  24674913.819   129667547.992    24674913.623   101039647.429    24674913.802  
  24674917.232    96829725.637  
  20729387.214   108933705.947    20729384.427    84883414.480    20729384.141  
                                
  22151034.155   116404465.785    22151031.725    90704753.393    22151031.296  
  22151031.260    86925416.259  
  21803610.405   114578734.294    21803610.155    89282130.073    21803609.887  
  21803610.387    85562042.724  
  23522904.538   123613697.643                    96322349.425    23522902.001  
                                
  23898463.226   125587269.990    23898462.654    97860209.291    23898462.118  
  23898462.511    93782694.757  
  21161794.305   111206011.588    21161794.215    86654051.142    21161793.679  
  21161794.180    83043478.534  
  20883996.970   111441020.381    20883998.953    86676361.823    20883999.025  
                                
  19795592.405   105967368.725    19795591.600    82419067.491    19795591.672  
                                
  22514588.987   120564610.434    22514587.915    93772471.440    22514587.987  
                                
  21187576.196   113180278.076    21187577.393    88029156.638    21187577.375  
                                
  19870387.685   106106782.846    19870388.793    82527516.991    19870388.668  
                                
  23645592.285   126532324.848    23645592.303    98414031.476    23645592.267  
                                
  26179481.872   137574158.892                                                  
  26179485.446   102733997.557  
  24802421.556   130337613.727                                                  
  24802422.504    97330049.901  
  24828534.953   130474867.009                                                  
  24828537.419    97432555.855  
  23533849.065   123671257.979                                                  
  23533850.923    92351953.494  
 21  9  1  6 43  9.0000000  0 17G 4G 7G 8G 9G20G27G30R 2R 3R 4R12R13
                                R21E 7E19E21E27
  24675609.836   129671205.679    24675609.639   101042497.605    24675609.800  
  24675613.267    96832457.057  
  20729430.011   108933930.882    20729427.223    84883589.751    20729426.937  
                                
  22151203.286   116405354.524    22151200.837    90705445.930    22151200.409  
  22151200.373    86926079.943  
  21804146.350   114581550.769    21804146.100    89284324.731    21804145.850  
  21804146.350    85564145.947  
  23523158.475   123615032.116                    96323389.276    23523155.955  
                                
  23898939.311   125589771.760    23898938.739    97862158.736    23898938.203  
  23898938.596    93784562.973  
  21161532.380   111204635.079    21161532.273    86652978.540    21161531.719  
  21161532.238    83042450.633  
  20884692.254   111444730.626    20884694.237    86679247.574    20884694.309  
                                
  19795576.644   105967284.421    19795575.858    82419001.921    19795575.929  
                                
  22513934.928   120561107.985    22513933.855    93769747.322    22513933.927  
                                
  21188033.517   113182721.073    21188034.715    88031056.749    21188034.715  
                                
  19870359.988   106106634.936    19870361.096    82527401.948    19870360.971  
                                
  23645829.353   126533593.418    23645829.353    98415018.142    23645829.335  
                                
  26180019.444   137576983.897                                                  
  26180023.018   102736107.139  
  24802101.504   130335931.851                                                  
  24802102.434    97328793.952  
  24828250.604   130473372.762                                                  
  24828253.070    97431440.025  
  23534008.135   123672093.933                                                  
  23534009.993    92352577.749  
 21  9  1  6 43 10.0000000  0 17G 4G 7G 8G 9G20G27G30R 2R 3R 4R12R13
                                R21E 7E19E21E27
  24676305.959   129674863.754    24676305.763   101045348.057    24676305.906  
  24676309.390    96835188.732  
  20729472.914   108934156.324    20729470.127    84883765.425    20729469.841  
                                
  22151372.577   116406244.240    22151370.164    90706139.211    22151369.718  
  22151369.682    86926744.339  
  21804682.439   114584367.913    21804682.189    89286519.908    21804681.921  
  21804682.421    85566249.658  
  23523412.572   123616367.334                    96324429.706    23523410.035  
                                
  23899415.520   125592274.287    23899414.948    97864108.759    23899414.412  
  23899414.805    93786431.745  
  21161270.528   111203259.058    21161270.438    86651906.316    21161269.885  
  21161270.403    83041423.087  
  20885387.698   111448441.654    20885389.699    86682133.929    20885389.753  
                                
  19795561.116   105967201.292    19795560.330    82418937.265    19795560.401  
                                
  22513281.011   120557606.302    22513279.939    93767023.786    22513280.010  
                                
  21188490.929   113185164.425    21188492.126    88032957.134    21188492.108  
                                
  19870332.399   106106487.629    19870333.506    82527287.378    19870333.381  
                                
  23646066.600   126534863.068    23646066.618    98416005.652    23646066.583  
                                
  26180557.123   137579809.333                                                  
  26180560.679   102738217.041  
  24801781.577   130334250.562                                                  
  24801782.507    97327538.446  
  24827966.361   130471879.010                                                  
  24827968.809    97430324.557  
  23534167.312   123672930.365                                                  
  23534169.170    92353202.356  
 21  9  1  6 43 11.0000000  0 17G 4G 7G 8G 9G20G27G30R 2R 3R 4R12R13
                                R21E 7E19E21E27
  24677002.029   129678521.796    24677001.815   101048198.491    24677001.958  
  24677005.460    96837920.416  
  20729515.836   108934381.889    20729513.048    84883941.190    20729512.762  
                                
  22151541.975   116407134.490    22151539.545    90706832.889    22151539.116  
  22151539.080    86927409.138  
  21805218.563   114587185.336    21805218.313    89288715.300    21805218.063  
  21805218.563    85568353.578  
  23523666.724   123617702.913                    96325470.412    23523664.186  
                                
  23899891.783   125594777.163    23899891.193    97866059.046    23899890.657  
  23899891.050    93788300.798  
  21161008.711   111201883.124    21161008.622    86650834.160    21161008.068  
  21161008.568    83040395.597  
  20886083.214   111452153.051    20886085.215    86685020.574    20886085.269  
                                
  19795545.748   105967118.942    19795544.962    82418873.215    19795545.016  
                                
  22512627.165   120554104.995    22512626.093    93764300.550    22512626.165  
                                
  21188948.322   113187607.741    21188949.519    88034857.493    21188949.501  
                                
  19870304.862   106106340.546    19870305.952    82527172.982    19870305.827  
                                
  23646304.008   126536133.413    23646304.026    98416993.701    23646303.990  
                                
  26181094.784   137582634.823                                                  
  26181098.358   102740326.982  
  24801461.668   130332569.490                                                  
  24801462.597    97326283.102  
  24827682.137   130470385.373                                                  
  24827684.602    97429209.181  
  23534326.489   123673766.897                                                  
  23534328.348    92353827.039  
 21  9  1  6 43 12.0000000  0 17G 4G 7G 8G 9G20G27G30R 2R 3R 4R12R13
                                R21E 7E19E21E27
  24677698.171   129682180.047    24677697.992   101051049.062    24677698.117  
  24677701.637    96840652.187  
  20729558.793   108934607.703    20729556.005    84884117.145    20729555.719  
                                
  22151711.516   116408025.429    22151709.104    90707527.121    22151708.657  
  22151708.622    86928074.441  
  21805754.795   114590003.181    21805754.545    89290911.021    21805754.277  
  21805754.777    85570457.806  
  23523920.964   123619038.973                    96326511.498    23523918.445  
                                
  23900368.207   125597280.641    23900367.635    97868009.817    23900367.099  
  23900367.492    93790170.252  
  21160746.894   111200507.416    21160746.805    86649762.180    21160746.251  
  21160746.769    83039368.285  
  20886778.837   111455864.929    20886780.821    86687907.589    20886780.874  
                                
  19795530.524   105967037.517    19795529.738    82418809.880    19795529.809  
                                
  22511973.427   120550604.185    22511972.355    93761577.695    22511972.426  
                                
  21189405.733   113190051.195    21189406.931    88036757.955    21189406.913  
                                
  19870277.380   106106193.824    19870278.488    82527058.865    19870278.345  
                                
  23646541.541   126537404.542    23646541.559    98417982.358    23646541.523  
                                
  26181632.498   137585460.515                                                  
  26181636.072   102742437.076  
  24801141.849   130330888.770                                                  
  24801142.778    97325028.010  
  24827397.965   130468891.988                                                  
  24827400.413    97428093.993  
  23534485.720   123674603.658                                                  
  23534487.578    92354451.897  
 21  9  1  6 43 13.0000000  0 17G 4G 7G 8G 9G20G27G30R 2R 3R 4R12R13
                                R21E 7E19E21E27
  24678394.312   129685838.306    24678394.133   101053899.645    24678394.241  
  24678397.796    96843384.019  
  20729601.821   108934833.729    20729599.034    84884293.269    20729598.748  
                                
  22151881.165   116408916.965    22151878.752    90708221.828    22151878.306  
  22151878.270    86928740.209  
  21806291.080   114592821.390    21806290.830    89293107.026    21806290.562  
  21806291.062    85572562.317  
  23524175.312   123620375.462                    96327552.911    23524172.774  
                                
  23900844.667   125599784.529    23900844.095    97869960.905    23900843.559  
  23900843.952    93792040.059  
  21160485.149   111199131.891    21160485.059    86648690.344    21160484.505  
  21160485.023    83038341.105  
  20887474.514   111459577.244    20887476.498    86690794.948    20887476.551  
                                
  19795515.496   105966956.985    19795514.710    82418747.246    19795514.764  
                                
  22511319.742   120547103.811    22511318.670    93758855.182    22511318.742  
                                
  21189863.162   113192494.762    21189864.360    88038658.509    21189864.360  
                                
  19870249.969   106106047.414    19870251.059    82526944.991    19870250.934  
                                
  23646779.217   126538676.438    23646779.253    98418971.611    23646779.217  
                                
  26182170.249   137588286.342                                                  
  26182173.823   102744547.270  
  24800822.047   130329208.334                                                  
  24800822.976    97323773.153  
  24827113.812   130467398.806                                                  
  24827116.260    97426978.957  
  23534644.987   123675440.609                                                  
  23534646.845    92355076.891  
 21  9  1  6 43 14.0000000  0 17G 4G 7G 8G 9G20G27G30R 2R 3R 4R12R13
                                R21E 7E19E21E27
  24679090.471   129689496.768    24679090.275   101056750.383    24679090.364  
  24679093.956    96846115.996  
  20729644.886   108935060.054    20729642.098    84884469.629    20729641.812  
                                
  22152050.956   116409809.272    22152048.562    90708917.162    22152048.115  
  22152048.061    86929406.562  
  21806827.454   114595640.086    21806827.204    89295303.417    21806826.936  
  21806827.454    85574667.190  
  23524429.731   123621712.487                    96328594.758    23524427.193  
                                
  23901321.251   125602289.034    23901320.662    97871912.463    23901320.143  
  23901320.537    93793910.292  
  21160223.457   111197756.641    21160223.367    86647618.718    21160222.813  
  21160223.332    83037314.128  
  20888170.298   111463290.120    20888172.282    86693682.729    20888172.335  
                                
  19795500.629   105966877.457    19795499.843    82418685.391    19795499.914  
                                
  22510666.201   120543604.033    22510665.129    93756133.135    22510665.200  
                                
  21190320.645   113194938.508    21190321.842    88040559.196    21190321.842  
                                
  19870222.629   106105901.434    19870223.719    82526831.448    19870223.594  
                                
  23647017.054   126539949.144    23647017.089    98419961.492    23647017.054  
                                
  26182708.017   137591112.415                                                  
  26182711.591   102746657.658  
  24800502.370   130327528.322                                                  
  24800503.299    97322518.585  
  24826829.731   130465905.937                                                  
  24826832.179    97425864.152  
  23534804.325   123676277.849                                                  
  23534806.183    92355702.100  
 21  9  1  6 43 15.0000000  0 17G 4G 7G 8G 9G20G27G30R 2R 3R 4R12R13
                                R21E 7E19E21E27
  24679786.648   129693155.262    24679786.452   101059601.158    24679786.541  
  24679790.151    96848847.980  
  20729687.968   108935286.529    20729685.180    84884646.105    20729684.894  
                                
  22152220.855   116410702.101    22152218.443    90709612.885    22152218.014  
  22152217.960    86930073.294  
  21807363.883   114598459.067    21807363.632    89297500.025    21807363.364  
  21807363.883    85576772.275  
  23524684.221   123623049.877                    96329636.884    23524681.702  
                                
  23901797.907   125604793.912    23901797.318    97873864.313    23901796.782  
  23901797.175    93795780.840  
  21159961.783   111196381.497    21159961.693    86646547.175    21159961.139  
  21159961.640    83036287.235  
  20888866.171   111467003.377    20888868.155    86696570.824    20888868.209  
                                
  19795485.923   105966798.734    19795485.137    82418624.160    19795485.208  
                                
  22510012.713   120540104.613    22510011.641    93753411.366    22510011.694  
                                
  21190778.110   113197382.203    21190779.307    88042459.848    21190779.289  
                                
  19870195.325   106105755.678    19870196.415    82526718.082    19870196.290  
                                
  23647255.015   126541222.535    23647255.051    98420951.909    23647255.015  
                                
  26183245.821   137593938.567                                                  
  26183249.395   102748768.094  
  24800182.693   130325848.517                                                  
  24800183.622    97321264.194  
  24826545.667   130464413.201                                                  
  24826548.133    97424749.447  
  23534963.681   123677115.205                                                  
  23534965.539    92356327.401  
 21  9  1  6 43 16.0000000  0 17G 4G 7G 8G 9G20G27G30R 2R 3R 4R12R13
                                R21E 7E19E21E27
  24680482.897   129696813.965    24680482.718   101062452.104    24680482.790  
  24680486.417    96851580.104  
  20729731.139   108935513.330    20729728.352    84884822.830    20729728.066  
                                
  22152390.897   116411595.699    22152388.520    90710309.198    22152388.073  
  22152388.020    86930740.576  
  21807900.436   114601278.538    21807900.185    89299697.015    21807899.917  
  21807900.418    85578877.720  
  23524938.819   123624387.812                    96330679.436    23524936.282  
                                
  23902274.671   125607299.382    23902274.081    97875816.614    23902273.563  
  23902273.956    93797651.808  
  21159700.127   111195006.634    21159700.037    86645475.854    21159699.483  
  21159700.002    83035260.550  
  20889562.116   111470717.191    20889564.118    86699459.344    20889564.171  
                                
  19795471.413   105966720.996    19795470.627    82418563.697    19795470.699  
                                
  22509359.314   120536605.749    22509358.242    93750690.023    22509358.313  
                                
  21191235.611   113199826.062    21191236.808    88044360.625    21191236.808  
                                
  19870168.111   106105610.357    19870169.201    82526605.057    19870169.076  
                                
  23647493.138   126542496.819    23647493.174    98421943.018    23647493.138  
                                
  26183783.679   137596764.964                                                  
  26183787.252   102750878.724  
  24799863.141   130324169.141                                                  
  24799864.070    97320010.115  
  24826261.674   130462920.779                                                  
  24826264.122    97423634.980  
  23535123.072   123677952.852                                                  
  23535124.931    92356952.917  
 21  9  1  6 43 17.0000000  0 17G 4G 7G 8G 9G20G27G30R 2R 3R 4R12R13
                                R21E 7E19E21E27
  24681179.163   129700472.911    24681178.949   101065303.240    24681179.038  
  24681182.684    96854312.447  
  20729774.382   108935740.538    20729771.577    84884999.876    20729771.291  
                                
  22152561.081   116412490.110    22152558.705    90711006.139    22152558.258  
  22152558.204    86931408.481  
  21808437.060   114604098.569    21808436.810    89301894.440    21808436.560  
  21808437.060    85580983.590  
  23525193.542   123625726.405                    96331722.497    23525191.023  
                                
  23902751.595   125609805.553    23902751.005    97877769.475    23902750.487  
  23902750.880    93799523.289  
  21159438.578   111193632.151    21159438.488    86644404.827    21159437.934  
  21159438.453    83034234.149  
  20890258.222   111474431.655    20890260.205    86702348.369    20890260.259  
                                
  19795457.065   105966644.356    19795456.296    82418504.089    19795456.350  
                                
  22508706.040   120533107.553    22508704.968    93747969.201    22508705.040  
                                
  21191693.165   113202270.219    21191694.362    88046261.641    21191694.362  
                                
  19870140.986   106105465.545    19870142.093    82526492.426    19870141.950  
                                
  23647731.457   126543772.089    23647731.493    98422934.893    23647731.439  
                                
  26184321.590   137599591.724                                                  
  26184325.164   102752989.603  
  24799543.643   130322490.258                                                  
  24799544.572    97318756.397  
  24825977.753   130461428.767                                                  
  24825980.201    97422520.820  
  23535282.553   123678790.887                                                  
  23535284.394    92357578.722  
 21  9  1  6 43 18.0000000  0 17G 4G 7G 8G 9G20G27G30R 2R 3R 4R12R13
                                R21E 7E19E21E27
  24681875.430   129704131.939    24681875.233   101068154.438    24681875.305  
  24681878.986    96857044.834  
  20729817.643   108935967.917    20729814.856    84885177.054    20729814.570  
                                
  22152731.409   116413385.135    22152729.032    90711703.561    22152728.585  
  22152728.514    86932076.830  
  21808973.774   114606918.959    21808973.524    89304092.146    21808973.256  
  21808973.756    85583089.714  
  23525448.337   123627065.394                    96332765.865    23525445.817  
                                
  23903228.591   125612312.183    23903228.019    97879722.686    23903227.483  
  23903227.876    93801395.105  
  21159177.065   111192257.828    21159176.975    86643333.925    21159176.421  
  21159176.939    83033207.867  
  20890954.381   111478146.554    20890956.365    86705237.733    20890956.436  
                                
  19795442.912   105966568.568    19795442.126    82418445.145    19795442.198  
                                
  22508052.874   120529609.787    22508051.802    93745248.716    22508051.873  
                                
  21192150.719   113204714.451    21192151.916    88048162.708    21192151.916  
                                
  19870113.932   106105321.021    19870115.022    82526380.016    19870114.897  
                                
  23647969.919   126545048.055    23647969.955    98423927.309    23647969.901  
                                
  26184859.519   137602418.578                                                  
  26184863.093   102755100.574  
  24799224.216   130320811.642                                                  
  24799225.146    97317502.891  
  24825693.868   130459936.929                                                  
  24825696.316    97421406.778  
  23535442.052   123679629.080                                                  
  23535443.911    92358204.641  
 21  9  1  6 43 19.0000000  0 17G 4G 7G 8G 9G20G27G30R 2R 3R 4R12R13
                                R21E 7E19E21E27
  24682571.768   129707791.044    24682571.554   101071005.683    24682571.625  
  24682575.324    96859777.260  
  20729860.958   108936195.510    20729858.170    84885354.397    20729857.884  
                                
  22152901.843   116414280.764    22152899.485    90712401.437    22152899.038  
  22152898.966    86932745.619  
  21809510.524   114609739.688    21809510.274    89306290.120    21809510.024  
  21809510.524    85585196.116  
  23525703.238   123628404.840                    96333809.581    23525700.719  
                                
  23903705.676   125614819.267    23903705.104    97881676.288    23903704.586  
  23903704.979    93803267.291  
  21158915.569   111190883.667    21158915.480    86642263.159    21158914.926  
  21158915.444    83032181.719  
  20891650.648   111481861.926    20891652.631    86708127.467    20891652.703  
                                
  19795428.921   105966493.677    19795428.152    82418386.896    19795428.206  
                                
  22507399.779   120526112.493    22507398.707    93742528.606    22507398.778  
                                
  21192608.309   113207158.806    21192609.506    88050063.872    21192609.506  
                                
  19870086.932   106105176.806    19870088.022    82526267.846    19870087.879  
                                
  23648208.507   126546324.772    23648208.542    98424920.315    23648208.489  
                                
  26185397.484   137605245.602                                                  
  26185401.057   102757211.654  
  24798904.861   130319133.340                                                  
  24798905.790    97316249.609  
  24825410.019   130458445.305                                                  
  24825412.467    97420292.905  
  23535601.587   123680467.463                                                  
  23535603.445    92358830.708  
 21  9  1  6 43 20.0000000  0 17G 4G 7G 8G 9G20G27G30R 2R 3R 4R12R13
                                R21E 7E19E21E27
  24683267.999   129711449.940    24683267.784   101073856.760    24683267.838  
  24683271.572    96862509.570  
  20729904.254   108936423.053    20729901.449    84885531.705    20729901.163  
                                
  22153072.332   116415176.751    22153069.973    90713099.600    22153069.526  
  22153069.455    86933414.712  
  21810047.327   114612560.541    21810047.059    89308488.182    21810046.809  
  21810047.309    85587302.595  
  23525958.158   123629744.442                    96334853.427    23525955.620  
                                
  23904182.779   125617326.536    23904182.207    97883630.013    23904181.671  
  23904182.082    93805139.624  
  21158654.056   111189509.432    21158653.967    86641192.329    21158653.413  
  21158653.931    83031155.503  
  20892346.950   111485577.525    20892348.951    86711017.373    20892349.005  
                                
  19795415.054   105966419.402    19795414.268    82418329.126    19795414.340  
                                
  22506746.720   120522615.391    22506745.648    93739808.638    22506745.719  
                                
  21193065.863   113209602.960    21193067.043    88051964.881    21193067.043  
                                
  19870059.932   106105032.642    19870061.022    82526155.719    19870060.897  
                                
  23648447.183   126547601.960    23648447.219    98425913.684    23648447.165  
                                
  26185935.431   137608072.482                                                  
  26185938.987   102759322.641  
  24798585.488   130317455.064                                                  
  24798586.417    97314996.360  
  24825126.151   130456953.625                                                  
  24825128.600    97419178.988  
  23535761.104   123681305.768                                                  
  23535762.962    92359456.715  
 21  9  1  6 43 21.0000000  0 17G 4G 7G 8G 9G20G27G30R 2R 3R 4R12R13
                                R21E 7E19E21E27
  24683964.247   129715108.889    24683964.033   101076707.894    24683964.069  
  24683967.839    96865241.920  
  20729947.587   108936650.754    20729944.781    84885709.135    20729944.496  
                                
  22153242.927   116416073.342    22153240.569    90713798.235    22153240.122  
  22153240.050    86934084.266  
  21810584.166   114615381.726    21810583.916    89310686.506    21810583.648  
  21810584.166    85589409.323  
  23526213.131   123631084.438                    96335897.574    23526210.611  
                                
  23904659.989   125619834.248    23904659.417    97885584.074    23904658.881  
  23904659.274    93807012.271  
  21158392.579   111188135.327    21158392.489    86640121.598    21158391.935  
  21158392.454    83030129.390  
  20893043.324   111489293.559    20893045.325    86713907.622    20893045.379  
                                
  19795401.331   105966345.969    19795400.563    82418272.009    19795400.616  
                                
  22506093.750   120519118.695    22506092.678    93737088.986    22506092.732  
                                
  21193523.417   113212047.100    21193524.615    88053865.879    21193524.615  
                                
  19870032.985   106104888.737    19870034.075    82526043.790    19870033.932  
                                
  23648685.985   126548879.893    23648686.020    98426907.634    23648685.985  
                                
  26186473.395   137610899.480                                                  
  26186476.969   102761433.708  
  24798266.169   130315777.050                                                  
  24798267.098    97313743.293  
  24824842.338   130455462.103                                                  
  24824844.786    97418065.188  
  23535920.656   123682144.213                                                  
  23535922.515    92360082.827  
 21  9  1  6 43 22.0000000  0 17G 4G 7G 8G 9G20G27G30R 2R 3R 4R12R13
                                R21E 7E19E21E27
  24684660.585   129718767.929    24684660.371   101079559.096    24684660.407  
  24684664.195    96867974.265  
  20729990.937   108936878.611    20729988.150    84885886.688    20729987.864  
                                
  22153413.684   116416970.549    22153411.343    90714497.349    22153410.878  
  22153410.789    86934754.237  
  21811121.077   114618203.210    21811120.827    89312885.067    21811120.577  
  21811121.077    85591516.271  
  23526468.211   123632424.826                    96336942.026    23526465.692  
                                
  23905137.270   125622342.415    23905136.699    97887538.485    23905136.163  
  23905136.574    93808885.239  
  21158131.119   111186761.342    21158131.030    86639050.958    21158130.476  
  21158130.994    83029103.360  
  20893739.805   111493010.002    20893741.788    86716798.185    20893741.842  
                                
  19795387.768   105966273.352    19795386.982    82418215.532    19795387.054  
                                
  22505440.834   120515622.376    22505439.762    93734369.629    22505439.833  
                                
  21193980.954   113214491.216    21193982.151    88055766.855    21193982.151  
                                
  19870006.057   106104745.089    19870007.164    82525932.066    19870007.021  
                                
  23648924.929   126550158.551    23648924.983    98427902.146    23648924.929  
                                
  26187011.360   137613726.554                                                  
  26187014.934   102763544.835  
  24797946.903   130314099.273                                                  
  24797947.814    97312490.406  
  24824558.524   130453970.723                                                  
  24824560.972    97416951.499  
  23536080.244   123682982.779                                                  
  23536082.085    92360709.026  
 21  9  1  6 43 23.0000000  0 17G 4G 7G 8G 9G20G27G30R 2R 3R 4R12R13
                                R21E 7E19E21E27
  24685356.887   129722427.128    24685356.655   101082410.431    24685356.691  
  24685360.497    96870706.801  
  20730034.377   108937106.818    20730031.571    84886064.509    20730031.285  
                                
  22153584.547   116417868.505    22153582.206    90715197.048    22153581.742  
  22153581.670    86935424.793  
  21811658.077   114621025.204    21811657.827    89315084.017    21811657.559  
  21811658.077    85593623.607  
  23526723.381   123633765.764                    96337986.917    23526720.861  
                                
  23905614.677   125624851.175    23905614.105    97889493.370    23905613.569  
  23905613.980    93810758.662  
  21157869.731   111185387.674    21157869.624    86637980.569    21157869.070  
  21157869.588    83028077.568  
  20894436.357   111496727.022    20894438.358    86719689.201    20894438.412  
                                
  19795374.385   105966201.770    19795373.616    82418159.855    19795373.688  
                                
  22504788.043   120512126.659    22504786.971    93731650.733    22504787.024  
                                
  21194438.544   113216935.537    21194439.723    88057667.992    21194439.723  
                                
  19869979.253   106104601.900    19869980.343    82525820.697    19869980.200  
                                
  23649164.053   126551438.088    23649164.088    98428897.341    23649164.053  
                                
  26187549.396   137616553.921                                                  
  26187552.952   102765656.181  
  24797627.726   130312421.940                                                  
  24797628.656    97311237.854  
  24824274.800   130452479.694                                                  
  24824277.248    97415838.066  
  23536239.886   123683821.682                                                  
  23536241.745    92361335.482  
 21  9  1  6 43 24.0000000  0 17G 4G 7G 8G 9G20G27G30R 2R 3R 4R12R13
                                R21E 7E19E21E27
  24686053.208   129726086.338    24686052.993   101085261.736    24686053.011  
  24686056.853    96873439.289  
  20730077.816   108937335.121    20730075.029    84886242.410    20730074.743  
                                
  22153755.500   116418766.984    22153753.177    90715897.204    22153752.713  
  22153752.623    86936095.765  
  21812195.166   114623847.472    21812194.898    89317283.188    21812194.648  
  21812195.148    85595731.147  
  23526978.622   123635107.050                    96339032.077    23526976.102  
                                
  23906092.155   125627360.278    23906091.584    97891448.486    23906091.047  
  23906091.458    93812632.316  
  21157608.325   111184014.076    21157608.236    86636910.231    21157607.664  
  21157608.200    83027051.832  
  20895132.999   111500444.355    20895134.982    86722580.463    20895135.036  
                                
  19795361.161   105966130.956    19795360.393    82418104.782    19795360.465  
                                
  22504135.305   120508631.258    22504134.233    93728932.097    22504134.287  
                                
  21194896.116   113219379.823    21194897.295    88059569.108    21194897.295  
                                
  19869952.467   106104458.902    19869953.575    82525709.476    19869953.432  
                                
  23649403.283   126552718.250    23649403.337    98429893.016    23649403.283  
                                
  26188087.415   137619381.315                                                  
  26188090.989   102767767.540  
  24797308.568   130310744.797                                                  
  24797309.497    97309985.442  
  24823991.075   130450988.763                                                  
  24823993.523    97414724.710  
  23536399.528   123684660.646                                                  
  23536401.387    92361961.981  
 21  9  1  6 43 25.0000000  0 17G 4G 7G 8G 9G20G27G30R 2R 3R 4R12R13
                                R21E 7E19E21E27
  24686749.581   129729745.745    24686749.331   101088113.220    24686749.349  
  24686753.227    96876171.978  
  20730121.327   108937563.802    20730118.540    84886420.599    20730118.254  
                                
  22153926.614   116419666.231    22153924.273    90716597.921    22153923.826  
  22153923.737    86936767.294  
  21812732.309   114626670.261    21812732.059    89319482.765    21812731.791  
  21812732.309    85597839.072  
  23527233.970   123636448.900                    96340077.675    23527231.451  
                                
  23906569.741   125629870.038    23906569.169    97893404.141    23906568.633  
  23906569.044    93814506.486  
  21157347.009   111182640.813    21157346.919    86635840.156    21157346.365  
  21157346.883    83026026.339  
  20895829.730   111504162.294    20895831.713    86725472.195    20895831.767  
                                
  19795348.135   105966061.206    19795347.367    82418050.527    19795347.420  
                                
  22503482.675   120505136.479    22503481.603    93726213.933    22503481.656  
                                
  21195353.741   113221824.377    21195354.939    88061470.428    21195354.939  
                                
  19869925.789   106104316.372    19869926.879    82525598.622    19869926.736  
                                
  23649642.692   126553999.329    23649642.728    98430889.410    23649642.692  
                                
  26188625.523   137622209.011                                                  
  26188629.096   102769879.122  
  24796989.499   130309068.112                                                  
  24796990.410    97308733.370  
  24823707.423   130449498.192                                                  
  24823709.871    97413611.622  
  23536559.242   123685499.960                                                  
  23536561.100    92362588.746  
 21  9  1  6 43 26.0000000  0 17G 4G 7G 8G 9G20G27G30R 2R 3R 4R12R13
                                R21E 7E19E21E27
  24687446.009   129733405.653    24687445.758   101090965.090    24687445.776  
  24687449.672    96878905.035  
  20730164.964   108937793.094    20730162.176    84886599.270    20730161.890  
                                
  22154097.942   116420566.528    22154095.619    90717299.468    22154095.155  
  22154095.047    86937439.587  
  21813269.612   114629493.823    21813269.362    89321682.940    21813269.094  
  21813269.612    85599947.578  
  23527489.479   123637791.633                    96341123.960    23527486.960  
                                
  23907047.505   125632380.682    23907046.915    97895360.489    23907046.397  
  23907046.808    93816381.315  
  21157085.799   111181268.128    21157085.710    86634770.533    21157085.156  
  21157085.674    83025001.282  
  20896526.639   111507881.072    20896528.623    86728364.578    20896528.677  
                                
  19795335.341   105965992.748    19795334.572    82417997.279    19795334.644  
                                
  22502830.223   120501642.612    22502829.151    93723496.481    22502829.205  
                                
  21195811.456   113224269.424    21195812.654    88063372.131    21195812.654  
                                
  19869899.236   106104174.584    19869900.326    82525488.343    19869900.200  
                                
  23649882.316   126555281.612    23649882.369    98431886.744    23649882.316  
                                
  26189163.702   137625037.259                                                  
  26189167.276   102771991.134  
  24796670.572   130307392.136                                                  
  24796671.501    97307481.832  
  24823423.895   130448008.237                                                  
  24823426.343    97412498.993  
  23536719.062   123686339.870                                                  
  23536720.903    92363215.951  
 21  9  1  6 43 27.0000000  0 17G 4G 7G 8G 9G20G27G30R 2R 3R 4R12R13
                                R21E 7E19E21E27
  24688142.454   129737065.509    24688142.204   101093816.923    24688142.186  
  24688146.117    96881638.049  
  20730208.618   108938022.465    20730205.830    84886778.001    20730205.544  
                                
  22154269.342   116421467.316    22154267.019    90718001.382    22154266.572  
  22154266.465    86938112.255  
  21813806.970   114632317.616    21813806.702    89323883.303    21813806.452  
  21813806.970    85602056.255  
  23527745.042   123639134.639                    96342170.459    23527742.523  
                                
  23907525.305   125634891.622    23907524.733    97897317.056    23907524.197  
  23907524.608    93818256.385  
  21156824.590   111179895.493    21156824.483    86633700.947    21156823.929  
  21156824.447    83023976.260  
  20897223.585   111511600.181    20897225.568    86731257.216    20897225.640  
                                
  19795322.689   105965925.012    19795321.921    82417944.599    19795321.993  
                                
  22502177.825   120498149.062    22502176.753    93720779.278    22502176.807  
                                
  21196269.154   113226714.410    21196270.351    88065273.787    21196270.351  
                                
  19869872.718   106104032.964    19869873.808    82525378.193    19869873.665  
                                
  23650122.064   126556564.496    23650122.118    98432884.538    23650122.064  
                                
  26189701.917   137627865.525                                                  
  26189705.491   102774103.144  
  24796351.682   130305716.323                                                  
  24796352.611    97306230.415  
  24823140.385   130446518.356                                                  
  24823142.833    97411386.422  
  23536878.900   123687179.835                                                  
  23536880.759    92363843.194  
 21  9  1  6 43 28.0000000  0 17G 4G 7G 8G 9G20G27G30R 2R 3R 4R12R13
                                R21E 7E19E21E27
  24688838.952   129740725.550    24688838.702   101096668.912    24688838.684  
  24688842.634    96884371.174  
  20730252.307   108938252.092    20730249.520    84886956.930    20730249.234  
                                
  22154440.884   116422368.787    22154438.579    90718703.830    22154438.115  
  22154438.008    86938785.430  
  21814344.398   114635141.844    21814344.130    89326083.993    21814343.880  
  21814344.398    85604165.253  
  23528000.712   123640478.132                    96343217.329    23527998.193  
                                
  23908003.265   125637403.172    23908002.693    97899274.108    23908002.175  
  23908002.568    93820131.858  
  21156563.416   111178523.078    21156563.327    86632631.531    21156562.773  
  21156563.291    83022951.409  
  20897920.656   111515319.812    20897922.639    86734150.260    20897922.693  
                                
  19795310.217   105965858.201    19795309.449    82417892.634    19795309.502  
                                
  22501525.517   120494655.988    22501524.444    93718062.447    22501524.498  
                                
  21196726.904   113229159.523    21196728.102    88067175.541    21196728.084  
                                
  19869846.272   106103891.710    19869847.362    82525268.329    19869847.219  
                                
  23650361.956   126557848.226    23650362.010    98433882.994    23650361.956  
                                
  26190240.150   137630693.984                                                  
  26190243.723   102776215.305  
  24796032.845   130304040.867                                                  
  24796033.756    97304979.261  
  24822856.929   130445028.731                                                  
  24822859.359    97410274.037  
  23537038.775   123688020.029                                                  
  23537040.633    92364470.614  
 21  9  1  6 43 29.0000000  0 17G 4G 7G 8G 9G20G27G30R 2R 3R 4R12R13
                                R21E 7E19E21E27
  24689535.416   129744385.582    24689535.147   101099520.883    24689535.130  
  24689539.097    96887104.328  
  20730296.051   108938481.906    20730293.263    84887136.006    20730292.977  
                                
  22154612.534   116423270.860    22154610.229    90719406.712    22154609.765  
  22154609.657    86939459.025  
  21814881.881   114637966.400    21814881.631    89328284.949    21814881.380  
  21814881.881    85606274.500  
  23528256.454   123641822.051                    96344264.541    23528253.916  
                                
  23908481.244   125639915.084    23908480.672    97901231.453    23908480.154  
  23908480.565    93822007.669  
  21156302.296   111177150.830    21156302.207    86631562.249    21156301.635  
  21156302.171    83021926.678  
  20898617.780   111519039.863    20898619.781    86737043.638    20898619.835  
                                
  19795297.887   105965792.256    19795297.119    82417841.349    19795297.190  
                                
  22500873.279   120491163.317    22500872.207    93715345.928    22500872.261  
                                
  21197184.619   113231604.661    21197185.817    88069077.316    21197185.817  
                                
  19869819.861   106103750.700    19869820.951    82525158.658    19869820.808  
                                
  23650601.973   126559132.603    23650602.026    98434881.955    23650601.973  
                                
  26190778.418   137633522.534                                                  
  26190781.992   102778327.541  
  24795714.079   130302365.679                                                  
  24795714.990    97303728.304  
  24822573.490   130443539.266                                                  
  24822575.920    97409161.781  
  23537198.702   123688860.385                                                  
  23537200.561    92365098.150  
 21  9  1  6 43 30.0000000  0 17G 4G 7G 8G 9G20G27G30R 2R 3R 4R12R13
                                R21E 7E19E21E27
  24690231.950   129748045.942    24690231.682   101102373.093    24690231.664  
  24690235.649    96889837.708  
  20730339.866   108938712.152    20730337.078    84887315.419    20730336.792  
                                
  22154784.345   116424173.772    22154782.058    90720110.271    22154781.575  
  22154781.468    86940133.280  
  21815419.506   114640791.555    21815419.256    89330486.366    21815418.988  
  21815419.506    85608384.191  
  23528512.302   123643166.598                    96345312.238    23528509.783  
                                
  23908959.365   125642427.693    23908958.793    97903189.333    23908958.257  
  23908958.668    93823883.993  
  21156041.248   111175778.958    21156041.158    86630493.258    21156040.586  
  21156041.122    83020902.228  
  20899315.065   111522760.623    20899317.048    86739937.560    20899317.102  
                                
  19795285.772   105965727.441    19795285.004    82417790.935    19795285.075  
                                
  22500221.185   120487671.373    22500220.113    93712629.971    22500220.167  
                                
  21197642.424   113234050.084    21197643.621    88070979.308    21197643.621  
                                
  19869793.558   106103610.273    19869794.648    82525049.438    19869794.505  
                                
  23650842.168   126560417.997    23650842.240    98435881.699    23650842.168  
                                
  26191316.740   137636351.459                                                  
  26191320.314   102780440.041  
  24795395.403   130300691.012                                                  
  24795396.332    97302477.744  
  24822290.123   130442050.248                                                  
  24822292.571    97408049.847  
  23537358.684   123689701.148                                                  
  23537360.542    92365725.988  
 21  9  1  6 43 31.0000000  0 17G 4G 7G 8G 9G20G27G30R 2R 3R 4R12R13
                                R21E 7E19E21E27
  24690928.556   129751706.555    24690928.270   101105225.519    24690928.234  
  24690932.255    96892571.282  
  20730383.752   108938942.788    20730380.964    84887495.135    20730380.678  
                                
  22154956.316   116425077.503    22154954.029    90720814.465    22154953.547  
  22154953.440    86940808.144  
  21815957.221   114643617.241    21815956.971    89332688.199    21815956.703  
  21815957.221    85610494.279  
  23528768.276   123644511.767                    96346360.416    23528765.756  
                                
  23909437.647   125644940.996    23909437.076    97905147.755    23909436.540  
  23909436.968    93825760.796  
  21155780.253   111174407.455    21155780.145    86629424.554    21155779.591  
  21155780.110    83019878.050  
  20900012.439   111526482.024    20900014.440    86742831.980    20900014.494  
                                
  19795273.871   105965663.700    19795273.103    82417741.358    19795273.174  
                                
  22499569.198   120484180.081    22499568.126    93709914.524    22499568.179  
                                
  21198100.246   113236495.753    21198101.443    88072881.498    21198101.443  
                                
  19869767.344   106103470.313    19869768.434    82524940.581    19869768.309  
                                
  23651082.560   126561704.318    23651082.614    98436882.168    23651082.560  
                                
  26191855.116   137639180.708                                                  
  26191858.690   102782552.798  
  24795076.798   130299016.822                                                  
  24795077.710    97301227.534  
  24822006.845   130440561.602                                                  
  24822009.294    97406938.201  
  23537518.754   123690542.267                                                  
  23537520.613    92366354.101  
 21  9  1  6 43 32.0000000  0 17G 4G 7G 8G 9G20G27G30R 2R 3R 4R12R13
                                R21E 7E19E21E27
  24691625.162   129755367.338    24691624.876   101108078.080    24691624.858  
  24691628.897    96895304.977  
  20730427.692   108939173.685    20730424.904    84887675.052    20730424.618  
                                
  22155128.431   116425981.956    22155126.126    90721519.231    22155125.661  
  22155125.554    86941483.549  
  21816495.007   114646443.370    21816494.757    89334890.375    21816494.489  
  21816495.007    85612604.707  
  23529024.357   123645857.434                    96347408.989    23529021.837  
                                
  23909915.983   125647454.797    23909915.394    97907106.557    23909914.858  
  23909915.286    93827638.007  
  21155519.311   111173036.196    21155519.204    86628356.043    21155518.650  
  21155519.186    83018854.064  
  20900709.921   111530203.946    20900711.922    86745726.809    20900711.976  
                                
  19795262.131   105965600.897    19795261.381    82417692.509    19795261.434  
                                
  22498917.318   120480689.324    22498916.246    93707199.493    22498916.318  
                                
  21198558.104   113238941.572    21198559.301    88074783.802    21198559.301  
                                
  19869741.220   106103330.741    19869742.310    82524832.025    19869742.167  
                                
  23651323.095   126562991.483    23651323.149    98437883.299    23651323.095  
                                
  26192393.546   137642010.170                                                  
  26192397.119   102784665.709  
  24794758.283   130297343.003                                                  
  24794759.194    97299977.609  
  24821723.639   130439073.238                                                  
  24821726.070    97405826.760  
  23537678.861   123691383.647                                                  
  23537680.719    92366982.404  
 21  9  1  6 43 33.0000000  0 17G 4G 7G 8G 9G20G27G30R 2R 3R 4R12R13
                                R21E 7E19E21E27
  24692321.786   129759028.136    24692321.482   101110930.647    24692321.446  
  24692325.503    96898038.703  
  20730471.667   108939404.781    20730468.880    84887855.130    20730468.576  
                                
  22155300.635   116426887.004    22155298.347    90722224.461    22155297.865  
  22155297.758    86942159.397  
  21817032.864   114649269.845    21817032.614    89337092.821    21817032.346  
  21817032.864    85614715.385  
  23529280.509   123647203.516                    96348457.888    23529277.990  
                                
  23910394.462   125649969.117    23910393.890    97909065.763    23910393.354  
  23910393.783    93829515.558  
  21155258.406   111171665.090    21155258.298    86627287.644    21155257.745  
  21155258.281    83017830.180  
  20901407.509   111533926.294    20901409.493    86748621.966    20901409.547  
                                
  19795250.570   105965538.946    19795249.802    82417644.327    19795249.855  
                                
  22498265.528   120477198.944    22498264.438    93704484.753    22498264.509  
                                
  21199015.980   113241387.451    21199017.177    88076686.152    21199017.177  
                                
  19869715.131   106103191.458    19869716.203    82524723.694    19869716.060  
                                
  23651563.755   126564279.361    23651563.809    98438884.981    23651563.755  
                                
  26192931.993   137644839.753                                                  
  26192935.549   102786778.714  
  24794439.821   130295669.458                                                  
  24794440.733    97298727.882  
  24821440.433   130437585.047                                                  
  24821442.881    97404715.451  
  23537839.003   123692225.185                                                  
  23537840.861    92367610.823  
 21  9  1  6 43 34.0000000  0 17G 4G 7G 8G 9G20G27G30R 2R 3R 4R12R13
                                R21E 7E19E21E27
  24693018.428   129762689.036    24693018.124   101113783.322    24693018.088  
  24693022.180    96900772.519  
  20730515.679   108939636.063    20730512.873    84888035.349    20730512.588  
                                
  22155472.964   116427792.643    22155470.676    90722930.170    22155470.194  
  22155470.087    86942835.718  
  21817570.794   114652096.661    21817570.543    89339295.535    21817570.275  
  21817570.794    85616826.312  
  23529536.733   123648550.017                    96349507.107    23529534.214  
                                
  23910872.995   125652483.828    23910872.423    97911025.296    23910871.887  
  23910872.316    93831393.446  
  21154997.500   111170294.127    21154997.411    86626219.368    21154996.857  
  21154997.375    83016806.409  
  20902105.134   111537649.068    20902107.135    86751517.462    20902107.189  
                                
  19795239.152   105965477.865    19795238.383    82417596.817    19795238.455  
                                
  22497613.809   120473708.985    22497612.737    93701770.341    22497612.790  
                                
  21199473.856   113243833.351    21199475.053    88078588.516    21199475.053  
                                
  19869689.096   106103052.491    19869690.186    82524615.606    19869690.043  
                                
  23651804.558   126565568.000    23651804.612    98439887.263    23651804.558  
                                
  26193470.476   137647669.454                                                  
  26193474.050   102788891.793  
  24794121.413   130293996.186                                                  
  24794122.324    97297478.362  
  24821157.263   130436097.041                                                  
  24821159.711    97403604.273  
  23537999.163   123693066.864                                                  
  23538001.022    92368239.350  
 21  9  1  6 43 35.0000000  0 17G 4G 7G 8G 9G20G27G30R 2R 3R 4R12R13
                                R21E 7E19E21E27
  24693715.051   129766349.843    24693714.748   101116635.892    24693714.694  
  24693718.804    96903506.229  
  20730559.690   108939867.382    20730556.903    84888215.598    20730556.617  
                                
  22155645.417   116428698.809    22155643.148    90723636.282    22155642.666  
  22155642.541    86943512.377  
  21818108.776   114654923.679    21818108.508    89341498.406    21818108.240  
  21818108.776    85618937.401  
  23529793.011   123649896.793                    96350556.550    23529790.491  
                                
  23911351.598   125654998.870    23911351.027    97912985.063    23911350.491  
  23911350.919    93833271.558  
  21154736.630   111168923.185    21154736.541    86625151.100    21154735.969  
  21154736.505    83015782.656  
  20902802.848   111541372.153    20902804.849    86754413.194    20902804.903  
                                
  19795227.876   105965417.528    19795227.126    82417549.886    19795227.180  
                                
  22496962.143   120470219.337    22496961.053    93699056.170    22496961.107  
                                
  21199931.731   113246279.146    21199932.929    88080490.806    21199932.911  
                                
  19869663.096   106102913.632    19869664.186    82524507.605    19869664.043  
                                
  23652045.486   126566857.203    23652045.558    98440889.979    23652045.504  
                                
  26194008.959   137650499.131                                                  
  26194012.515   102791004.859  
  24793803.023   130292323.063                                                  
  24793803.934    97296228.942  
  24820874.128   130434609.079                                                  
  24820876.558    97402493.133  
  23538159.341   123693908.578                                                  
  23538161.199    92368867.905  
 21  9  1  6 43 36.0000000  0 17G 4G 7G 8G 9G20G27G30R 2R 3R 4R12R13
                                R21E 7E19E21E27
  24694411.640   129770010.550    24694411.336   101119488.390    24694411.282  
  24694415.410    96906239.887  
  20730603.720   108940098.769    20730600.932    84888395.900    20730600.646  
                                
  22155817.925   116429605.389    22155815.656    90724342.720    22155815.173  
  22155815.048    86944189.386  
  21818646.777   114657750.921    21818646.509    89343701.454    21818646.259  
  21818646.777    85621048.653  
  23530049.342   123651243.831                    96351606.188    23530046.822  
                                
  23911830.238   125657514.230    23911829.666    97914945.081    23911829.130  
  23911829.559    93835149.919  
  21154475.760   111167552.264    21154475.653    86624082.851    21154475.099  
  21154475.635    83014758.918  
  20903500.597   111545095.508    20903502.599    86757309.133    20903502.652  
                                
  19795216.744   105965357.914    19795215.994    82417503.520    19795216.047  
                                
  22496310.532   120466730.010    22496309.442    93696342.251    22496309.495  
                                
  21200389.554   113248724.842    21200390.751    88082393.012    21200390.751  
                                
  19869637.133   106102774.937    19869638.223    82524399.730    19869638.080  
                                
  23652286.521   126568146.993    23652286.593    98441893.147    23652286.521  
                                
  26194547.406   137653328.802                                                  
  26194550.980   102793117.927  
  24793484.651   130290650.072                                                  
  24793485.562    97294979.641  
  24820590.993   130433121.167                                                  
  24820593.424    97401382.032  
  23538319.519   123694750.325                                                  
  23538321.377    92369496.484  
 21  9  1  6 43 37.0000000  0 17G 4G 7G 8G 9G20G27G30R 2R 3R 4R12R13
                                R21E 7E19E21E27
  24695108.335   129773671.588    24695108.013   101122341.145    24695107.960  
  24695112.105    96908973.768  
  20730647.820   108940330.570    20730645.033    84888576.524    20730644.747  
                                
  22155990.593   116430512.826    22155988.324    90725049.821    22155987.842  
  22155987.716    86944867.022  
  21819184.884   114660578.728    21819184.616    89345904.938    21819184.366  
  21819184.884    85623160.325  
  23530305.798   123652591.506                    96352656.322    23530303.279  
                                
  23912309.003   125660030.246    23912308.431    97916905.618    23912307.895  
  23912308.342    93837028.778  
  21154214.944   111166181.738    21154214.855    86623014.907    21154214.283  
  21154214.819    83013735.472  
  20904198.472   111548819.513    20904200.474    86760205.581    20904200.527  
                                
  19795205.826   105965299.383    19795205.076    82417457.995    19795205.129  
                                
  22495659.045   120463241.358    22495657.955    93693628.855    22495658.008  
                                
  21200847.465   113251170.837    21200848.663    88084295.450    21200848.645  
                                
  19869611.240   106102636.760    19869612.330    82524292.260    19869612.188  
                                
  23652527.735   126569437.765    23652527.807    98442897.079    23652527.735  
                                
  26195085.961   137656158.825                                                  
  26195089.517   102795231.245  
  24793166.403   130288977.604                                                  
  24793167.315    97293730.716  
  24820307.912   130431633.672                                                  
  24820310.343    97400271.240  
  23538479.786   123695592.473                                                  
  23538481.645    92370125.356  
 21  9  1  6 43 38.0000000  0 17G 4G 7G 8G 9G20G27G30R 2R 3R 4R12R13
                                R21E 7E19E21E27
  24695805.012   129777332.679    24695804.691   101125193.950    24695804.619  
  24695808.783    96911707.700  
  20730691.975   108940562.574    20730689.187    84888757.308    20730688.901  
                                
  22156163.387   116431420.886    22156161.135    90725757.404    22156160.653  
  22156160.510    86945545.112  
  21819723.064   114663406.891    21819722.796    89348108.696    21819722.528  
  21819723.046    85625272.272  
  23530562.326   123653939.606                    96353706.794    23530559.806  
                                
  23912787.893   125662546.744    23912787.303    97918866.523    23912786.785  
  23912787.214    93838907.981  
  21153954.164   111164811.363    21153954.074    86621947.082    21153953.520  
  21153954.038    83012712.143  
  20904896.436   111552543.935    20904898.438    86763102.354    20904898.491  
                                
  19795195.051   105965241.688    19795194.301    82417413.124    19795194.354  
                                
  22495007.647   120459753.116    22495006.557    93690915.780    22495006.611  
                                
  21201305.377   113253616.892    21201306.574    88086197.932    21201306.574  
                                
  19869585.438   106102498.879    19869586.510    82524185.021    19869586.367  
                                
  23652769.092   126570729.300    23652769.146    98443901.610    23652769.092  
                                
  26195624.497   137658988.968                                                  
  26195628.053   102797344.677  
  24792848.210   130287305.423                                                  
  24792849.121    97292482.009  
  24820024.903   130430146.370                                                  
  24820027.333    97399160.595  
  23538640.071   123696434.786                                                  
  23538641.930    92370754.356  
 21  9  1  6 43 39.0000000  0 17G 4G 7G 8G 9G20G27G30R 2R 3R 4R12R13
                                R21E 7E19E21E27
  24696501.726   129780993.923    24696501.386   101128046.868    24696501.332  
  24696505.514    96914441.724  
  20730736.200   108940794.868    20730733.395    84888938.314    20730733.109  
                                
  22156336.305   116432329.629    22156334.072    90726465.497    22156333.589  
  22156333.446    86946223.694  
  21820261.332   114666235.520    21820261.064    89350312.830    21820260.814  
  21820261.332    85627384.564  
  23530818.979   123655288.217                    96354757.655    23530816.459  
                                
  23913266.854   125665063.849    23913266.282    97920827.903    23913265.746  
  23913266.193    93840787.629  
  21153693.455   111163441.263    21153693.365    86620879.474    21153692.793  
  21153693.329    83011689.013  
  20905594.490   111556268.891    20905596.491    86765999.539    20905596.545  
                                
  19795184.455   105965184.956    19795183.686    82417368.997    19795183.758  
                                
  22494356.339   120456265.403    22494355.249    93688203.117    22494355.303  
                                
  21201763.306   113256063.099    21201764.504    88088100.545    21201764.504  
                                
  19869559.688   106102361.385    19869560.778    82524078.082    19869560.635  
                                
  23653010.592   126572021.653    23653010.664    98444906.767    23653010.592  
                                
  26196163.105   137661819.343                                                  
  26196166.661   102799458.264  
  24792530.069   130285633.606                                                  
  24792530.981    97291233.577  
  24819741.911   130428659.347                                                  
  24819744.359    97398050.151  
  23538800.410   123697277.360                                                  
  23538802.268    92371383.551  
 21  9  1  6 43 40.0000000  0 17G 4G 7G 8G 9G20G27G30R 2R 3R 4R12R13
                                R21E 7E19E21E27
  24697198.439   129784655.252    24697198.099   101130899.842    24697198.028  
  24697202.227    96917175.853  
  20730780.444   108941027.387    20730777.639    84889119.498    20730777.353  
                                
  22156509.367   116433239.038    22156507.115    90727174.125    22156506.633  
  22156506.490    86946902.805  
  21820799.672   114669064.528    21820799.422    89352517.247    21820799.154  
  21820799.672    85629497.130  
  23531075.703   123656637.271                    96355808.862    23531073.183  
                                
  23913745.940   125667581.401    23913745.369    97922789.636    23913744.832  
  23913745.279    93842667.614  
  21153432.763   111162071.351    21153432.674    86619812.010    21153432.102  
  21153432.638    83010666.024  
  20906292.632   111559994.341    20906294.634    86768897.111    20906294.687  
                                
  19795174.019   105965129.148    19795173.269    82417325.591    19795173.322  
                                
  22493705.121   120452778.204    22493704.031    93685490.852    22493704.084  
                                
  21202221.272   113258509.404    21202222.451    88090003.226    21202222.451  
                                
  19869533.993   106102224.199    19869535.083    82523971.376    19869534.922  
                                
  23653252.253   126573314.792    23653252.306    98445912.542    23653252.253  
                                
  26196701.731   137664649.871                                                  
  26196705.287   102801571.973  
  24792212.001   130283962.130                                                  
  24792212.912    97289985.392  
  24819458.991   130427172.547                                                  
  24819461.421    97396939.883  
  23538960.785   123698120.140                                                  
  23538962.643    92372012.904  
 21  9  1  6 43 41.0000000  0 17G 4G 7G 8G 9G20G27G30R 2R 3R 4R12R13
                                R21E 7E19E21E27
  24697895.223   129788316.722    24697894.866   101133752.942    24697894.795  
  24697899.012    96919910.045  
  20730824.724   108941260.142    20730821.936    84889300.866    20730821.650  
                                
  22156682.553   116434149.095    22156680.320    90727883.247    22156679.819  
  22156679.676    86947582.374  
  21821338.084   114671893.917    21821337.834    89354721.966    21821337.566  
  21821338.084    85631609.986  
  23531332.517   123657986.807                    96356860.438    23531329.997  
                                
  23914225.116   125670099.451    23914224.544    97924751.751    23914224.026  
  23914224.455    93844547.968  
  21153172.126   111160701.632    21153172.019    86618744.697    21153171.465  
  21153171.983    83009643.180  
  20906990.882   111563720.280    20906992.884    86771795.061    20906992.937  
                                
  19795163.780   105965074.287    19795163.012    82417282.921    19795163.083  
                                
  22493054.009   120449291.496    22493052.937    93682778.965    22493052.973  
                                
  21202679.219   113260955.802    21202680.416    88091905.978    21202680.416  
                                
  19869508.369   106102087.373    19869509.459    82523864.959    19869509.316  
                                
  23653494.056   126574608.694    23653494.110    98446918.907    23653494.038  
                                
  26197240.393   137667480.564                                                  
  26197243.967   102803685.799  
  24791893.968   130282290.959                                                  
  24791894.879    97288737.450  
  24819176.124   130425685.976                                                  
  24819178.554    97395829.779  
  23539121.177   123698963.124                                                  
  23539123.035    92372642.401  
 21  9  1  6 43 42.0000000  0 17G 4G 7G 8G 9G20G27G30R 2R 3R 4R12R13
                                R21E 7E19E21E27
  24698592.026   129791978.514    24698591.669   101136606.280    24698591.597  
  24698595.832    96922644.494  
  20730869.092   108941493.346    20730866.305    84889482.583    20730866.019  
                                
  22156855.883   116435060.024    22156853.649    90728593.067    22156853.167  
  22156853.024    86948262.615  
  21821876.620   114674723.935    21821876.370    89356927.174    21821876.102  
  21821876.620    85633723.300  
  23531589.455   123659337.023                    96357912.555    23531586.936  
                                
  23914704.435   125672618.205    23914703.863    97926714.410    23914703.327  
  23914703.774    93846428.851  
  21152911.560   111159332.345    21152911.470    86617677.720    21152910.899  
  21152911.435    83008620.659  
  20907689.257   111567446.943    20907691.259    86774693.577    20907691.312  
                                
  19795153.738   105965020.577    19795152.987    82417241.149    19795153.041  
                                
  22492403.023   120445805.476    22492401.933    93680067.618    22492401.987  
                                
  21203137.255   113263402.516    21203138.453    88093808.975    21203138.453  
                                
  19869482.834   106101951.093    19869483.924    82523758.963    19869483.781  
                                
  23653736.021   126575903.593    23653736.092    98447926.049    23653736.021  
                                
  26197779.126   137670311.655                                                  
  26197782.700   102805799.919  
  24791576.060   130280620.345                                                  
  24791576.972    97287489.912  
  24818893.311   130424199.854                                                  
  24818895.741    97394720.010  
  23539281.677   123699806.541                                                  
  23539283.535    92373272.227  
 21  9  1  6 43 43.0000000  0 17G 4G 7G 8G 9G20G27G30R 2R 3R 4R12R13
                                R21E 7E19E21E27
  24699288.846   129795640.398    24699288.471   101139459.691    24699288.382  
  24699292.635    96925379.046  
  20730913.515   108941726.813    20730910.727    84889664.508    20730910.441  
                                
  22157029.338   116435971.640    22157027.122    90729303.423    22157026.621  
  22157026.478    86948943.387  
  21822415.246   114677554.363    21822414.978    89359132.700    21822414.728  
  21822415.246    85635836.938  
  23531846.483   123660687.717                    96358965.039    23531843.982  
                                
  23915183.807   125675137.470    23915183.235    97928677.469    23915182.699  
  23915183.146    93848310.134  
  21152651.011   111157963.287    21152650.922    86616610.922    21152650.368  
  21152650.886    83007598.314  
  20908387.722   111571174.115    20908389.723    86777592.484    20908389.777  
                                
  19795143.874   105964967.794    19795143.124    82417200.093    19795143.177  
                                
  22491752.108   120442319.940    22491751.018    93677356.648    22491751.072  
                                
  21203595.328   113265849.358    21203596.507    88095712.077    21203596.507  
                                
  19869457.406   106101815.204    19869458.478    82523653.267    19869458.335  
                                
  23653978.164   126577199.308    23653978.218    98448933.831    23653978.146  
                                
  26198317.913   137673142.934                                                  
  26198321.469   102807914.197  
  24791258.224   130278950.086                                                  
  24791259.117    97286242.643  
  24818610.570   130422714.011                                                  
  24818613.018    97393610.448  
  23539442.230   123700650.200                                                  
  23539444.088    92373902.235  
 21  9  1  6 43 44.0000000  0 17G 4G 7G 8G 9G20G27G30R 2R 3R 4R12R13
                                R21E 7E19E21E27
  24699985.685   129799302.232    24699985.310   101142313.052    24699985.238  
  24699989.509    96928113.491  
  20730957.955   108941960.272    20730955.167    84889846.421    20730954.882  
                                
  22157202.881   116436883.678    22157200.666    90730014.103    22157200.165  
  22157200.022    86949624.472  
  21822953.890   114680384.929    21822953.622    89361338.336    21822953.354  
  21822953.890    85637950.668  
  23532103.547   123662038.605                    96360017.704    23532101.045  
                                
  23915663.286   125677657.017    23915662.715    97930640.755    23915662.179  
  23915662.625    93850191.603  
  21152390.499   111156594.185    21152390.392    86615544.091    21152389.838  
  21152390.374    83006575.935  
  20909086.240   111574901.526    20909088.241    86780491.584    20909088.295  
                                
  19795134.136   105964915.654    19795133.385    82417159.540    19795133.439  
                                
  22491101.265   120438834.616    22491100.175    93674645.836    22491100.228  
                                
  21204053.329   113268296.060    21204054.526    88097615.070    21204054.526  
                                
  19869431.978   106101679.383    19869433.051    82523547.633    19869432.908  
                                
  23654220.396   126578495.573    23654220.450    98449942.037    23654220.379  
                                
  26198856.664   137675974.143                                                  
  26198860.220   102810028.407  
  24790940.405   130277279.907                                                  
  24790941.317    97284995.427  
  24818327.810   130421228.118                                                  
  24818330.240    97392500.861  
  23539602.765   123701493.819                                                  
  23539604.623    92374532.206  
 21  9  1  6 43 45.0000000  0 17G 4G 7G 8G 9G20G27G30R 2R 3R 4R12R13
                                R21E 7E19E21E27
  24700682.577   129802964.323    24700682.184   101145166.633    24700682.094  
  24700686.383    96930848.159  
  20731002.467   108942194.165    20730999.679    84890028.676    20730999.393  
                                
  22157376.604   116437796.565    22157374.388    90730725.449    22157373.906  
  22157373.745    86950306.162  
  21823492.641   114683216.093    21823492.373    89363544.439    21823492.105  
  21823492.641    85640064.851  
  23532360.736   123663390.171                    96361070.870    23532358.234  
                                
  23916142.855   125680177.236    23916142.284    97932604.561    23916141.765  
  23916142.212    93852073.599  
  21152130.040   111155225.476    21152129.933    86614477.560    21152129.379  
  21152129.915    83005553.849  
  20909784.883   111578629.590    20909786.884    86783391.187    20909786.938  
                                
  19795124.593   105964864.598    19795123.843    82417119.830    19795123.897  
                                
  22490450.528   120435350.022    22490449.438    93671935.601    22490449.492  
                                
  21204511.419   113270743.060    21204512.616    88099518.294    21204512.616  
                                
  19869406.640   106101544.099    19869407.712    82523442.412    19869407.569  
                                
  23654462.808   126579792.779    23654462.861    98450950.971    23654462.790  
                                
  26199395.504   137678805.715                                                  
  26199399.060   102812142.893  
  24790622.676   130275610.250                                                  
  24790623.588    97283748.605  
  24818045.140   130419742.677                                                  
  24818047.570    97391391.605  
  23539763.390   123702337.846                                                  
  23539765.230    92375162.488  
 21  9  1  6 43 46.0000000  0 17G 4G 7G 8G 9G20G27G30R 2R 3R 4R12R13
                                R21E 7E19E21E27
  24701379.451   129806626.527    24701379.058   101148020.286    24701378.968  
  24701383.257    96933582.936  
  20731047.014   108942428.331    20731044.227    84890211.143    20731043.941  
                                
  22157550.452   116438710.129    22157548.254    90731437.320    22157547.754  
  22157547.593    86950988.356  
  21824031.482   114686047.681    21824031.214    89365750.866    21824030.946  
  21824031.482    85642179.346  
  23532618.014   123664742.200                    96362124.400    23532615.512  
                                
  23916622.531   125682697.992    23916621.960    97934568.780    23916621.423  
  23916621.888    93853955.978  
  21151869.617   111153857.014    21151869.528    86613411.226    21151868.956  
  21151869.492    83004531.944  
  20910483.615   111582358.157    20910485.616    86786291.186    20910485.670  
                                
  19795115.230   105964814.496    19795114.480    82417080.864    19795114.551  
                                
  22489799.917   120431865.975    22489798.827    93669225.789    22489798.881  
                                
  21204969.527   113273190.158    21204970.724    88101421.593    21204970.724  
                                
  19869381.373   106101409.190    19869382.463    82523337.483    19869382.303  
                                
  23654705.380   126581090.815    23654705.433    98451960.555    23654705.362  
                                
  26199934.363   137681637.478                                                  
  26199937.901   102814257.523  
  24790305.019   130273940.939                                                  
  24790305.912    97282502.048  
  24817762.524   130418257.491                                                  
  24817764.954    97390282.538  
  23539924.050   123703182.113                                                  
  23539925.908    92375792.949  
 21  9  1  6 43 47.0000000  0 17G 4G 7G 8G 9G20G27G30R 2R 3R 4R12R13
                                R21E 7E19E21E27
  24702076.396   129810288.918    24702076.003   101150874.088    24702075.914  
  24702080.220    96936317.806  
  20731091.615   108942662.738    20731088.828    84890393.797    20731088.542  
                                
  22157724.425   116439624.348    22157722.209    90732149.703    22157721.709  
  22157721.548    86951671.067  
  21824570.376   114688879.670    21824570.108    89367957.610    21824569.858  
  21824570.376    85644294.147  
  23532875.399   123666094.743                    96363178.323    23532872.898  
                                
  23917102.315   125685219.246    23917101.725    97936533.396    23917101.207  
  23917101.653    93855838.746  
  21151609.265   111152488.763    21151609.158    86612345.058    21151608.604  
  21151609.140    83003510.198  
  20911182.437   111586087.218    20911184.438    86789191.567    20911184.492  
                                
  19795106.045   105964765.342    19795105.295    82417042.633    19795105.366  
                                
  22489149.360   120428382.407    22489148.288    93666516.356    22489148.323  
                                
  21205427.653   113275637.367    21205428.850    88103324.978    21205428.850  
                                
  19869356.178   106101274.649    19869357.250    82523232.840    19869357.107  
                                
  23654948.094   126582389.647    23654948.166    98452970.757    23654948.094  
                                
  26200473.257   137684469.418                                                  
  26200476.813   102816372.285  
  24789987.433   130272272.000                                                  
  24789988.344    97281255.761  
  24817479.961   130416772.554                                                  
  24817482.373    97389173.654  
  23540084.746   123704026.609                                                  
  23540086.605    92376423.573  
 21  9  1  6 43 48.0000000  0 17G 4G 7G 8G 9G20G27G30R 2R 3R 4R12R13
                                R21E 7E19E21E27
  24702773.342   129813951.406    24702772.931   101153727.964    24702772.841  
  24702777.166    96939052.800  
  20731136.306   108942897.461    20731133.518    84890576.699    20731133.214  
                                
  22157898.523   116440539.314    22157896.307    90732862.657    22157895.806  
  22157895.646    86952354.332  
  21825109.377   114691712.152    21825109.109    89370164.739    21825108.859  
  21825109.377    85646409.308  
  23533132.874   123667447.791                    96364232.648    23533130.373  
                                
  23917582.223   125687741.114    23917581.651    97938498.490    23917581.115  
  23917581.562    93857721.941  
  21151348.949   111151120.799    21151348.842    86611279.117    21151348.288  
  21151348.824    83002488.666  
  20911881.366   111589816.822    20911883.367    86792092.370    20911883.421  
                                
  19795097.057   105964717.183    19795096.307    82417005.173    19795096.360  
                                
  22488498.945   120424899.403    22488497.855    93663807.356    22488497.909  
                                
  21205885.797   113278084.782    21205886.994    88105228.523    21205886.994  
                                
  19869331.054   106101140.510    19869332.144    82523128.512    19869331.983  
                                
  23655190.988   126583689.345    23655191.042    98453981.638    23655190.970  
                                
  26201012.204   137687301.624                                                  
  26201015.760   102818487.236  
  24789669.918   130270603.447                                                  
  24789670.811    97280009.761  
  24817197.434   130415287.931                                                  
  24817199.864    97388065.010  
  23540245.514   123704871.396                                                  
  23540247.372    92377054.418  
 21  9  1  6 43 49.0000000  0 16G 7G 8G 9G20G27G30R 2R 3R 4R12R13R21
                                E 7E19E21E27
  20731180.996   108943132.396    20731178.209    84890759.767    20731177.923  
                                
  22158072.763   116441454.953    22158070.566    90733576.142    22158070.065  
  22158069.886    86953038.073  
  21825648.450   114694545.001    21825648.199    89372372.152    21825647.931  
  21825648.467    85648524.743  
  23533390.438   123668801.305                    96365287.332    23533387.937  
                                
  23918062.185   125690263.408    23918061.613    97940463.932    23918061.077  
  23918061.524    93859605.498  
  21151088.651   111149753.018    21151088.562    86610213.311    21151087.990  
  21151088.544    83001467.271  
  20912580.366   111593546.882    20912582.368    86794993.525    20912582.421  
                                
  19795088.212   105964669.909    19795087.480    82416968.405    19795087.533  
                                
  22487848.602   120421416.875    22487847.494    93661098.700    22487847.548  
                                
  21206343.977   113280532.278    21206345.174    88107132.124    21206345.174  
                                
  19869305.984   106101006.699    19869307.074    82523024.432    19869306.913  
                                
  23655433.989   126584989.802    23655434.043    98454993.091    23655433.971  
                                
  26201551.188   137690133.989                                                  
  26201554.744   102820602.313  
  24789352.475   130268935.213                                                  
  24789353.368    97278764.002  
  24816914.960   130413803.520                                                  
  24816917.390    97386956.523  
  23540406.281   123705716.367                                                  
  23540408.140    92377685.412  
 21  9  1  6 43 50.0000000  0 16G 7G 8G 9G20G27G30R 2R 3R 4R12R13R21
                                E 7E19E21E27
  20731225.687   108943367.281    20731222.899    84890942.795    20731222.613  
                                
  22158247.058   116442370.906    22158244.860    90734289.874    22158244.360  
  22158244.181    86953722.077  
  21826187.558   114697377.938    21826187.290    89374579.633    21826187.022  
  21826187.558    85650640.250  
  23533648.038   123670154.978                    96366342.144    23533645.537  
                                
  23918542.218   125692785.950    23918541.647    97942429.547    23918541.110  
  23918541.557    93861489.211  
  21150828.371   111148385.151    21150828.264    86609147.439    21150827.710  
  21150828.246    83000445.812  
  20913279.438   111597277.127    20913281.440    86797894.824    20913281.493  
                                
  19795079.492   105964623.229    19795078.759    82416932.101    19795078.813  
                                
  22487198.295   120417934.518    22487197.205    93658390.200    22487197.258  
                                
  21206802.121   113282979.558    21206803.318    88109035.564    21206803.318  
                                
  19869280.949   106100872.935    19869282.022    82522920.396    19869281.879  
                                
  23655677.097   126586290.738    23655677.151    98456004.930    23655677.079  
                                
  26202090.135   137692966.207                                                  
  26202093.673   102822717.286  
  24789035.014   130267267.005                                                  
  24789035.907    97277518.262  
  24816632.469   130412319.053                                                  
  24816634.899    97385847.990  
  23540567.067   123706561.259                                                  
  23540568.925    92378316.338  
 21  9  1  6 43 51.0000000  0 16G 7G 8G 9G20G27G30R 2R 3R 4R12R13R21
                                E 7E19E21E27
  20731270.431   108943602.281    20731267.625    84891125.911    20731267.339  
                                
  22158421.460   116443287.405    22158419.262    90735004.024    22158418.761  
  22158418.583    86954406.467  
  21826726.702   114700211.160    21826726.434    89376787.338    21826726.166  
  21826726.702    85652755.970  
  23533905.692   123671509.003                    96367397.233    23533903.190  
                                
  23919022.305   125695308.851    23919021.734    97944395.449    23919021.198  
  23919021.662    93863373.195  
  21150568.091   111147017.363    21150568.002    86608081.633    21150567.430  
  21150567.966    82999424.410  
  20913978.546   111601007.738    20913980.547    86800796.411    20913980.601  
                                
  19795070.933   105964577.333    19795070.182    82416896.404    19795070.236  
                                
  22486548.059   120414452.514    22486546.969    93655681.976    22486547.022  
                                
  21207260.265   113285426.794    21207261.444    88110938.970    21207261.444  
                                
  19869255.933   106100739.378    19869257.005    82522816.520    19869256.862  
                                
  23655920.330   126587592.315    23655920.384    98457017.266    23655920.312  
                                
  26202629.101   137695798.469                                                  
  26202632.639   102824832.289  
  24788717.624   130265599.021                                                  
  24788718.518    97276272.683  
  24816349.995   130410834.692                                                  
  24816352.425    97384739.536  
  23540727.870   123707406.243                                                  
  23540729.711    92378947.329  
 21  9  1  6 43 52.0000000  0 16G 7G 8G 9G20G27G30R 2R 3R 4R12R13R21
                                E 7E19E21E27
  20731315.193   108943837.562    20731312.405    84891309.247    20731312.119  
                                
  22158595.986   116444204.605    22158593.806    90735718.718    22158593.306  
  22158593.127    86955091.389  
  21827265.918   114703044.816    21827265.650    89378995.380    21827265.382  
  21827265.918    85654872.012  
  23534163.452   123672863.518                    96368452.702    23534160.951  
                                
  23919502.482   125697832.310    23919501.910    97946361.780    23919501.374  
  23919501.839    93865257.607  
  21150307.846   111145649.834    21150307.757    86607016.025    21150307.185  
  21150307.721    82998403.205  
  20914677.761   111604738.888    20914679.762    86803698.410    20914679.816  
                                
  19795062.534   105964532.415    19795061.784    82416861.467    19795061.837  
                                
  22485897.912   120410971.029    22485896.822    93652974.158    22485896.858  
                                
  21207718.426   113287874.191    21207719.606    88112842.501    21207719.606  
                                
  19869231.006   106100606.223    19869232.078    82522712.953    19869231.935  
                                
  23656163.724   126588894.754    23656163.778    98458030.273    23656163.688  
                                
  26203168.102   137698630.966                                                  
  26203171.640   102826947.461  
  24788400.252   130263931.397                                                  
  24788401.146    97275027.379  
  24816067.593   130409350.609                                                  
  24816070.023    97383631.297  
  23540888.709   123708251.484                                                  
  23540890.568    92379578.516  
 21  9  1  6 43 53.0000000  0 16G 7G 8G 9G20G27G30R 2R 3R 4R12R13R21
                                E 7E19E21E27
  20731360.026   108944073.266    20731357.238    84891492.912    20731356.952  
                                
  22158770.674   116445122.641    22158768.512    90736434.080    22158767.993  
  22158767.815    86955776.940  
  21827805.276   114705879.062    21827805.008    89381203.885    21827804.740  
  21827805.276    85656988.485  
  23534421.320   123674218.670                    96369508.664    23534418.818  
                                
  23919982.819   125700356.452    23919982.247    97948328.644    23919981.711  
  23919982.176    93867142.510  
  21150047.691   111144282.680    21150047.602    86605950.709    21150047.030  
  21150047.584    82997382.272  
  20915377.101   111608470.712    20915379.102    86806600.942    20915379.156  
                                
  19795054.368   105964488.611    19795053.618    82416827.398    19795053.689  
                                
  22485247.909   120407490.224    22485246.801    93650266.867    22485246.854  
                                
  21208176.606   113290321.871    21208177.803    88114746.254    21208177.803  
                                
  19869206.150   106100473.568    19869207.222    82522609.780    19869207.079  
                                
  23656407.315   126590198.148    23656407.368    98459044.029    23656407.279  
                                
  26203707.175   137701463.794                                                  
  26203710.713   102829062.885  
  24788083.006   130262264.278                                                  
  24788083.917    97273782.462  
  24815785.263   130407866.934                                                  
  24815787.693    97382523.354  
  23541049.638   123709097.110                                                  
  23541051.496    92380209.990  
 21  9  1  6 43 54.0000000  0 16G 7G 8G 9G20G27G30R 2R 3R 4R12R13R21
                                E 7E19E21E27
  20731404.967   108944309.345    20731402.179    84891676.870    20731401.893  
                                
  22158945.540   116446041.526    22158943.378    90737150.099    22158942.878  
  22158942.681    86956463.100  
  21828344.706   114708713.833    21828344.438    89383412.798    21828344.170  
  21828344.706    85659105.360  
  23534679.313   123675574.432                    96370565.086    23534676.829  
                                
  23920463.281   125702881.239    23920462.709    97950295.997    23920462.173  
  23920462.638    93869027.886  
  21149787.608   111142915.864    21149787.501    86604885.659    21149786.947  
  21149787.483    82996361.609  
  20916076.566   111612203.177    20916078.567    86809503.974    20916078.621  
                                
  19795046.381   105964445.874    19795045.630    82416794.158    19795045.702  
                                
  22484597.995   120404010.097    22484596.905    93647560.095    22484596.940  
                                
  21208634.875   113292769.793    21208636.072    88116650.196    21208636.054  
                                
  19869181.419   106100341.388    19869182.491    82522506.980    19869182.330  
                                
  23656651.048   126591502.487    23656651.102    98460058.524    23656651.030  
                                
  26204246.301   137704296.952                                                  
  26204249.839   102831178.558  
  24787765.866   130260597.638                                                  
  24787766.760    97272537.882  
  24815503.004   130406383.647                                                  
  24815505.434    97381415.706  
  23541210.620   123709943.103                                                  
  23541212.478    92380841.736  
 21  9  1  6 43 55.0000000  0 16G 7G 8G 9G20G27G30R 2R 3R 4R12R13R21
                                E 7E19E21E27
  20731449.943   108944545.715    20731447.155    84891861.052    20731446.869  
                                
  22159120.514   116446961.070    22159118.351    90737866.620    22159117.851  
  22159117.655    86957149.779  
  21828884.226   114711549.062    21828883.958    89385622.062    21828883.690  
  21828884.226    85661222.578  
  23534937.413   123676930.699                    96371621.920    23534934.912  
                                
  23920943.815   125705406.564    23920943.243    97952263.776    23920942.707  
  23920943.172    93870913.684  
  21149527.560   111141549.333    21149527.453    86603820.834    21149526.899  
  21149527.435    82995341.143  
  20916776.120   111615936.169    20916778.121    86812407.413    20916778.193  
                                
  19795038.572   105964404.091    19795037.822    82416761.660    19795037.893  
                                
  22483948.223   120400530.503    22483947.115    93644853.748    22483947.169  
                                
  21209093.162   113295217.864    21209094.341    88118554.249    21209094.341  
                                
  19869156.724   106100209.617    19869157.796    82522404.491    19869157.653  
                                
  23656894.942   126592807.647    23656894.996    98461073.649    23656894.925  
                                
  26204785.463   137707130.323                                                  
  26204789.001   102833294.394  
  24787448.798   130258931.385                                                  
  24787449.692    97271293.610  
  24815220.798   130404900.647                                                  
  24815223.228    97380308.271  
  23541371.637   123710789.354                                                  
  23541373.496    92381473.678  
 21  9  1  6 43 56.0000000  0 16G 7G 8G 9G20G27G30R 2R 3R 4R12R13R21
                                E 7E19E21E27
  20731494.973   108944782.275    20731492.185    84892045.390    20731491.899  
                                
  22159295.594   116447881.202    22159293.432    90738583.613    22159292.932  
  22159292.735    86957836.908  
  21829423.835   114714384.631    21829423.567    89387831.597    21829423.299  
  21829423.835    85663340.045  
  23535195.585   123678287.391                    96372679.083    23535193.083  
                                
  23921424.474   125707932.350    23921423.902    97954231.923    23921423.366  
  23921423.831    93872799.818  
  21149267.548   111140182.960    21149267.458    86602756.123    21149266.887  
  21149267.423    82994320.797  
  20917475.764   111619669.578    20917477.765    86815311.171    20917477.819  
                                
  19795030.924   105964363.157    19795030.174    82416729.825    19795030.245  
                                
  22483298.506   120397051.339    22483297.416    93642147.732    22483297.451  
                                
  21209551.448   113297665.962    21209552.628    88120458.325    21209552.628  
                                
  19869132.118   106100078.135    19869133.191    82522302.227    19869133.030  
                                
  23657138.980   126594113.525    23657139.033    98462089.331    23657138.944  
                                
  26205324.661   137709963.818                                                  
  26205328.199   102835410.316  
  24787131.766   130257265.404                                                  
  24787132.660    97270049.534  
  24814938.628   130403417.824                                                  
  24814941.059    97379200.966  
  23541532.709   123711635.766                                                  
  23541534.567    92382105.742  
 21  9  1  6 43 57.0000000  0 16G 7G 8G 9G20G27G30R 2R 3R 4R12R13R21
                                E 7E19E21E27
  20731540.021   108945019.062    20731537.233    84892229.894    20731536.947  
                                
  22159470.836   116448802.014    22159468.691    90739301.129    22159468.173  
  22159467.977    86958524.510  
  21829963.479   114717220.582    21829963.211    89390041.426    21829962.961  
  21829963.497    85665457.800  
  23535453.828   123679644.527                    96373736.591    23535451.326  
                                
  23921905.204   125710458.622    23921904.632    97956200.442    23921904.096  
  23921904.579    93874686.316  
  21149007.571   111138816.760    21149007.464    86601691.554    21149006.910  
  21149007.446    82993300.589  
  20918175.479   111623403.437    20918177.498    86818215.281    20918177.552  
                                
  19795023.437   105964323.108    19795022.704    82416698.676    19795022.758  
                                
  22482648.895   120393572.624    22482647.787    93639442.067    22482647.841  
                                
  21210009.753   113300114.138    21210010.950    88122362.462    21210010.933  
                                
  19869107.548   106099946.984    19869108.621    82522200.221    19869108.460  
                                
  23657383.160   126595420.180    23657383.196    98463105.618    23657383.124  
                                
  26205863.894   137712797.474                                                  
  26205867.432   102837526.355  
  24786814.805   130255599.750                                                  
  24786815.699    97268805.704  
  24814656.476   130401935.217                                                  
  24814658.907    97378093.833  
  23541693.816   123712482.387                                                  
  23541695.674    92382737.959  
 21  9  1  6 43 58.0000000  0 16G 7G 8G 9G20G27G30R 2R 3R 4R12R13R21
                                E 7E19E21E27
  20731585.122   108945255.998    20731582.317    84892414.522    20731582.031  
                                
  22159646.149   116449723.378    22159644.004    90740019.072    22159643.486  
  22159643.290    86959212.546  
  21830503.213   114720056.840    21830502.945    89392251.498    21830502.677  
  21830503.213    85667575.788  
  23535712.160   123681002.029                    96374794.392    23535709.659  
                                
  23922386.006   125712985.291    23922385.416    97958169.275    23922384.880  
  23922385.363    93876573.125  
  21148747.613   111137450.689    21148747.506    86600627.086    21148746.952  
  21148747.488    82992280.471  
  20918875.301   111627137.689    20918877.303    86821119.699    20918877.374  
                                
  19795016.111   105964283.899    19795015.378    82416668.177    19795015.432  
                                
  22481999.320   120390094.330    22481998.230    93636736.730    22481998.266  
                                
  21210468.058   113302562.337    21210469.255    88124266.617    21210469.255  
                                
  19869083.032   106099816.095    19869084.104    82522098.418    19869083.943  
                                
  23657627.483   126596727.548    23657627.519    98464122.458    23657627.429  
                                
  26206403.128   137715631.209                                                  
  26206406.666   102839642.456  
  24786497.898   130253934.345                                                  
  24786498.792    97267562.052  
  24814374.396   130400452.766                                                  
  24814376.826    97376986.804  
  23541854.959   123713329.127                                                  
  23541856.817    92383370.263  
 21  9  1  6 43 59.0000000  0 16G 7G 8G 9G20G27G30R 2R 3R 4R12R13R21
                                E 7E19E21E27
  20731630.295   108945493.477    20731627.507    84892599.568    20731627.221  
                                
  22159821.640   116450645.657    22159819.514    90740737.725    22159818.996  
  22159818.781    86959901.264  
  21831043.054   114722893.801    21831042.786    89394462.121    21831042.536  
  21831043.072    85669694.306  
  23535970.636   123682360.326                    96375852.810    23535968.134  
                                
  23922866.969   125715512.760    23922866.397    97960138.743    23922865.861  
  23922866.343    93878460.530  
  21148487.761   111136085.129    21148487.654    86599563.010    21148487.100  
  21148487.636    82991260.730  
  20919575.249   111630872.725    20919577.250    86824024.730    20919577.304  
                                
  19795009.017   105964245.927    19795008.284    82416638.644    19795008.338  
                                
  22481349.924   120386616.820    22481348.834    93634031.997    22481348.870  
                                
  21210926.452   113305010.951    21210927.649    88126171.097    21210927.631  
                                
  19869058.641   106099685.832    19869059.713    82521997.100    19869059.570  
                                
  23657871.985   126598036.008    23657872.038    98465140.154    23657871.949  
                                
  26206942.468   137718465.428                                                  
  26206945.989   102841758.903  
  24786181.098   130252269.559                                                  
  24786181.974    97266318.866  
  24814092.405   130398970.849                                                  
  24814094.817    97375880.173  
  23542016.191   123714176.376                                                  
  23542018.049    92384002.949  
 21  9  1  6 44  0.0000000  0 16G 7G 8G 9G20G27G30R 2R 3R 4R12R13R21
                                E 7E19E21E27
  20731675.557   108945731.241    20731672.770    84892784.839    20731672.466  
                                
  22159997.293   116451568.706    22159995.166    90741456.981    22159994.648  
  22159994.434    86960590.549  
  21831583.002   114725731.195    21831582.734    89396673.078    21831582.466  
  21831583.002    85671813.137  
  23536229.201   123683719.111                    96376911.601    23536226.699  
                                
  23923348.038   125718040.791    23923347.467    97962108.635    23923346.931  
  23923347.413    93880348.347  
  21148227.964   111134719.832    21148227.856    86598499.141    21148227.303  
  21148227.839    82990241.189  
  20920275.286   111634608.316    20920277.305    86826930.187    20920277.359  
                                
  19795002.101   105964208.921    19795001.369    82416609.859    19795001.422  
                                
  22480700.636   120383139.875    22480699.546    93631327.709    22480699.581  
                                
  21211384.864   113307459.714    21211386.061    88128075.690    21211386.061  
                                
  19869034.321   106099555.948    19869035.393    82521896.082    19869035.233  
                                
  23658116.665   126599345.295    23658116.701    98466158.490    23658116.612  
                                
  26207481.845   137721299.865                                                  
  26207485.365   102843875.524  
  24785864.370   130250605.154                                                  
  24785865.263    97265075.973  
  24813810.450   130397489.208                                                  
  24813812.862    97374773.759  
  23542177.441   123715023.895                                                  
  23542179.299    92384635.834  
 21  9  1  6 44  1.0000000  0 16G 7G 8G 9G20G27G30R 2R 3R 4R12R13R21
                                E 7E19E21E27
  20731720.819   108945969.219    20731718.032    84892970.281    20731717.746  
                                
  22160173.053   116452492.344    22160170.926    90742176.697    22160170.408  
  22160170.194    86961280.283  
  21832123.022   114728568.959    21832122.754    89398884.323    21832122.486  
  21832123.022    85673932.238  
  23536487.855   123685078.327                    96377970.732    23536485.353  
                                
  23923829.216   125720569.288    23923828.644    97964078.901    23923828.108  
  23923828.590    93882236.504  
  21147968.166   111133354.704    21147968.077    86597435.409    21147967.505  
  21147968.059    82989221.775  
  20920975.430   111638344.362    20920977.431    86829835.998    20920977.503  
                                
  19794995.347   105964172.784    19794994.614    82416581.752    19794994.668  
                                
  22480051.436   120379663.372    22480050.328    93628623.765    22480050.364  
                                
  21211843.294   113309908.543    21211844.473    88129980.337    21211844.473  
                                
  19869010.055   106099426.386    19869011.127    82521795.312    19869010.966  
                                
  23658361.471   126600655.323    23658361.507    98467177.404    23658361.417  
                                
  26208021.239   137724134.419                                                  
  26208024.777   102845992.240  
  24785547.695   130248941.049                                                  
  24785548.589    97263833.288  
  24813528.530   130396007.769                                                  
  24813530.960    97373667.492  
  23542338.763   123715871.589                                                  
  23542340.621    92385268.857  
 21  9  1  6 44  2.0000000  0 16G 7G 8G 9G20G27G30R 2R 3R 4R12R13R21
                                E 7E19E21E27
  20731766.207   108946207.625    20731763.419    84893156.052    20731763.115  
                                
  22160348.991   116453416.877    22160346.882    90742897.112    22160346.346  
  22160346.132    86961970.663  
  21832663.131   114731407.319    21832662.863    89401096.034    21832662.613  
  21832663.149    85676051.794  
  23536746.634   123686438.200                    96379030.372    23536744.132  
                                
  23924310.482   125723098.477    23924309.910    97966049.705    23924309.374  
  23924309.857    93884125.184  
  21147708.475   111131989.971    21147708.386    86596371.978    21147707.814  
  21147708.368    82988202.656  
  20921675.681   111642081.088    20921677.700    86832742.340    20921677.754  
                                
  19794988.807   105964137.751    19794988.074    82416554.502    19794988.128  
                                
  22479402.344   120376187.525    22479401.236    93625920.333    22479401.272  
                                
  21212301.777   113312357.682    21212302.956    88131885.220    21212302.956  
                                
  19868985.896   106099297.349    19868986.968    82521694.947    19868986.807  
                                
  23658606.455   126601966.325    23658606.491    98468197.072    23658606.402  
                                
  26208560.705   137726969.348                                                  
  26208564.225   102848109.233  
  24785231.128   130247277.472                                                  
  24785232.021    97262591.013  
  24813246.718   130394526.773                                                  
  24813249.148    97372561.550  
  23542500.156   123716719.698                                                  
  23542502.014    92385902.180  
 21  9  1  6 44  3.0000000  0 16G 7G 8G 9G20G27G30R 2R 3R 4R12R13R21
                                E 7E19E21E27
  20731811.594   108946446.222    20731808.806    84893341.969    20731808.521  
                                
  22160525.019   116454341.980    22160522.910    90743617.976    22160522.374  
  22160522.160    86962661.500  
  21833203.330   114734246.019    21833203.062    89403308.004    21833202.811  
  21833203.347    85678171.603  
  23537005.467   123687798.470                    96380090.317    23537002.983  
                                
  23924791.856   125725628.101    23924791.284    97968020.838    23924790.748  
  23924791.230    93886014.200  
  21147448.785   111130625.391    21147448.696    86595308.674    21147448.124  
  21147448.678    82987183.656  
  20922376.022   111645818.204    20922378.041    86835648.984    20922378.095  
                                
  19794982.428   105964103.561    19794981.695    82416527.912    19794981.766  
                                
  22478753.323   120372712.135    22478752.215    93623217.249    22478752.251  
                                
  21212760.260   113314806.851    21212761.458    88133790.130    21212761.458  
                                
  19868961.773   106099168.586    19868962.845    82521594.800    19868962.684  
                                
  23658851.600   126603278.063    23658851.636    98469217.310    23658851.547  
                                
  26209100.189   137729804.401                                                  
  26209103.709   102850226.314  
  24784914.614   130245614.177                                                  
  24784915.507    97261348.936  
  24812964.923   130393045.948                                                  
  24812967.353    97371455.739  
  23542661.584   123717567.956                                                  
  23542663.425    92386535.622  
 21  9  1  6 44  4.0000000  0 16G 7G 8G 9G20G27G30R 2R 3R 4R12R13R21
                                E 7E19E21E27
  20731857.017   108946684.860    20731854.229    84893527.921    20731853.944  
                                
  22160701.154   116455267.593    22160699.045    90744339.242    22160698.527  
  22160698.295    86963352.702  
  21833743.546   114737084.902    21833743.278    89405520.115    21833743.028  
  21833743.564    85680291.543  
  23537264.389   123689159.024                    96381150.491    23537261.905  
                                
  23925273.301   125728158.073    23925272.729    97969992.238    23925272.193  
  23925272.675    93887903.459  
  21147189.130   111129260.837    21147189.041    86594245.383    21147188.469  
  21147189.023    82986164.664  
  20923076.398   111649555.594    20923078.417    86838555.843    20923078.471  
                                
  19794976.191   105964070.129    19794975.459    82416501.907    19794975.512  
                                
  22478104.374   120369237.089    22478103.284    93620514.438    22478103.319  
                                
  21213218.744   113317255.930    21213219.923    88135694.969    21213219.923  
                                
  19868937.686   106099039.988    19868938.758    82521494.784    19868938.597  
                                
  23659096.835   126604590.404    23659096.871    98470238.029    23659096.781  
                                
  26209639.690   137732639.424                                                  
  26209643.210   102852343.379  
  24784598.117   130243951.017                                                  
  24784599.011    97260106.970  
  24812683.129   130391565.152                                                  
  24812685.559    97370349.956  
  23542823.013   123718416.246                                                  
  23542824.871    92387169.081  
 21  9  1  6 44  5.0000000  0 16G 7G 8G 9G20G27G30R 2R 3R 4R12R13R21
                                E 7E19E21E27
  20731902.476   108946923.774    20731899.670    84893714.088    20731899.385  
                                
  22160877.414   116456193.857    22160875.305    90745061.011    22160874.787  
  22160874.555    86964044.393  
  21834283.852   114739924.233    21834283.583    89407732.579    21834283.315  
  21834283.852    85682411.819  
  23537523.383   123690520.082                    96382211.052    23537520.899  
                                
  23925754.817   125730688.545    23925754.245    97971964.035    23925753.709  
  23925754.210    93889793.099  
  21146929.511   111127896.506    21146929.422    86593182.266    21146928.850  
  21146929.404    82985145.844  
  20923776.882   111653293.484    20923778.901    86841463.091    20923778.954  
                                
  19794970.116   105964037.658    19794969.383    82416476.652    19794969.437  
                                
  22477455.549   120365762.560    22477454.442    93617812.026    22477454.477  
                                
  21213677.227   113319705.117    21213678.424    88137599.892    21213678.424  
                                
  19868913.687   106098911.741    19868914.742    82521395.036    19868914.599  
                                
  23659342.230   126605903.537    23659342.266    98471259.352    23659342.177  
                                
  26210179.192   137735474.633                                                  
  26210182.712   102854460.589  
  24784281.711   130242288.211                                                  
  24784282.586    97258865.262  
  24812401.406   130390084.632                                                  
  24812403.818    97369244.373  
  23542984.460   123719264.771                                                  
  23542986.318    92387802.722  
 21  9  1  6 44  6.0000000  0 16G 7G 8G 9G20G27G30R 2R 3R 4R12R13R21
                                E 7E19E21E27
  20731947.935   108947162.665    20731945.147    84893900.238    20731944.861  
                                
  22161053.745   116457120.509    22161051.637    90745783.073    22161051.119  
  22161050.886    86964736.378  
  21834824.193   114742763.676    21834823.925    89409945.134    21834823.657  
  21834824.193    85684532.182  
  23537782.430   123691881.317                    96383271.757    23537779.928  
                                
  23926236.405   125733219.240    23926235.833    97973936.009    23926235.297  
  23926235.780    93891682.901  
  21146669.874   111126532.126    21146669.785    86592119.108    21146669.213  
  21146669.767    82984126.984  
  20924477.419   111657031.596    20924479.420    86844370.511    20924479.492  
                                
  19794964.165   105964005.820    19794963.433    82416451.889    19794963.504  
                                
  22476806.743   120362288.237    22476805.635    93615109.778    22476805.671  
                                
  21214135.693   113322154.122    21214136.872    88139504.676    21214136.872  
                                
  19868889.671   106098783.562    19868890.744    82521295.344    19868890.583  
                                
  23659587.715   126607217.199    23659587.751    98472281.087    23659587.661  
                                
  26210718.693   137738309.750                                                  
  26210722.213   102856577.730  
  24783965.286   130240625.471                                                  
  24783966.162    97257623.608  
  24812119.665   130388604.076                                                  
  24812122.077    97368138.761  
  23543145.924   123720113.235                                                  
  23543147.783    92388436.315  
 21  9  1  6 44  7.0000000  0 16G 7G 8G 9G20G27G30R 2R 3R 4R12R13R21
                                E 7E19E21E27
  20731993.447   108947401.837    20731990.659    84894086.602    20731990.374  
                                
  22161230.220   116458047.877    22161228.129    90746505.702    22161227.593  
  22161227.361    86965428.895  
  21835364.588   114745603.579    21835364.320    89412158.043    21835364.070  
  21835364.606    85686652.891  
  23538041.548   123693243.077                    96384332.866    23538039.065  
                                
  23926718.083   125735750.504    23926717.511    97975908.423    23926716.975  
  23926717.457    93893573.129  
  21146410.291   111125167.997    21146410.202    86591056.155    21146409.630  
  21146410.184    82983108.323  
  20925178.027   111660770.279    20925180.047    86847278.376    20925180.100  
                                
  19794958.394   105963974.930    19794957.661    82416427.868    19794957.715  
                                
  22476158.026   120358814.432    22476156.936    93612407.929    22476156.972  
                                
  21214594.194   113324603.299    21214595.373    88141409.592    21214595.373  
                                
  19868865.727   106098655.772    19868866.799    82521195.952    19868866.638  
                                
  23659833.360   126608531.685    23659833.378    98473303.465    23659833.289  
                                
  26211258.248   137741145.117                                                  
  26211261.769   102858695.043  
  24783648.968   130238963.120                                                  
  24783649.844    97256382.249  
  24811837.960   130387123.814                                                  
  24811840.390    97367033.370  
  23543307.442   123720961.971                                                  
  23543309.301    92389070.114  
 21  9  1  6 44  8.0000000  0 16G 7G 8G 9G20G27G30R 2R 3R 4R12R13R21
                                E 7E19E21E27
  20732039.013   108947641.300    20732036.225    84894273.201    20732035.940  
                                
  22161406.837   116458975.961    22161404.747    90747228.884    22161404.210  
  22161403.978    86966121.943  
  21835905.108   114748443.926    21835904.840    89414371.305    21835904.572  
  21835905.108    85688773.933  
  23538300.792   123694605.360                    96385394.385    23538298.308  
                                
  23927199.885   125738282.325    23927199.313    97977881.268    23927198.777  
  23927199.260    93895463.766  
  21146150.743   111123804.136    21146150.654    86589993.404    21146150.082  
  21146150.636    82982089.853  
  20925878.761   111664509.508    20925880.763    86850186.662    20925880.834  
                                
  19794952.801   105963944.987    19794952.068    82416404.579    19794952.122  
                                
  22475509.416   120355341.162    22475508.326    93609706.495    22475508.362  
                                
  21215052.713   113327052.647    21215053.892    88143314.642    21215053.892  
                                
  19868841.872   106098528.366    19868842.944    82521096.856    19868842.783  
                                
  23660079.167   126609846.972    23660079.184    98474326.471    23660079.095  
                                
  26211797.857   137743980.683                                                  
  26211801.360   102860812.507  
  24783332.705   130237301.143                                                  
  24783333.580    97255141.164  
  24811556.344   130385643.834                                                  
  24811558.756    97365928.186  
  23543468.996   123721810.969                                                  
  23543470.855    92389704.105  
 21  9  1  6 44  9.0000000  0 16G 7G 8G 9G20G27G30R 2R 3R 4R12R13R21
                                E 7E19E21E27
  20732084.633   108947881.018    20732081.845    84894459.992    20732081.559  
                                
  22161583.562   116459904.711    22161581.471    90747952.569    22161580.935  
  22161580.703    86966815.481  
  21836445.682   114751284.686    21836445.414    89416584.886    21836445.146  
  21836445.682    85690895.276  
  23538560.107   123695968.088                    96386456.259    23538557.624  
                                
  23927681.759   125740814.608    23927681.187    97979854.473    23927680.651  
  23927681.151    93897354.773  
  21145891.267   111122440.483    21145891.160    86588930.826    21145890.606  
  21145891.160    82981071.552  
  20926579.584   111668249.252    20926581.603    86853095.352    20926581.657  
                                
  19794947.369   105963915.989    19794946.654    82416382.022    19794946.707  
                                
  22474860.914   120351868.406    22474859.806    93607005.460    22474859.859  
                                
  21215511.250   113329502.078    21215512.429    88145219.751    21215512.429  
                                
  19868818.088   106098401.306    19868819.160    82520998.031    19868818.999  
                                
  23660325.098   126611163.073    23660325.116    98475350.105    23660325.026  
                                
  26212337.466   137746816.461                                                  
  26212340.986   102862930.131  
  24783016.512   130235639.541                                                  
  24783017.388    97253900.346  
  24811274.746   130384164.118                                                  
  24811277.176    97364823.205  
  23543630.586   123722660.195                                                  
  23543632.444    92390338.270  
 21  9  1  6 44 10.0000000  0 16G 7G 8G 9G20G27G30R 2R 3R 4R12R13R21
                                E 7E19E21E27
  20732130.342   108948121.155    20732127.554    84894647.110    20732127.268  
                                
  22161760.429   116460834.277    22161758.357    90748676.906    22161757.821  
  22161757.570    86967509.657  
  21836986.380   114754126.013    21836986.112    89418798.907    21836985.844  
  21836986.380    85693017.046  
  23538819.548   123697331.460                    96387518.619    23538817.082  
                                
  23928163.758   125743347.603    23928163.186    97981828.233    23928162.650  
  23928163.151    93899246.298  
  21145631.845   111121077.227    21145631.755    86587868.546    21145631.184  
  21145631.738    82980053.533  
  20927280.532   111671989.657    20927282.552    86856004.559    20927282.605  
                                
  19794942.187   105963888.090    19794941.454    82416360.326    19794941.507  
                                
  22474212.536   120348396.350    22474211.428    93604304.970    22474211.464  
                                
  21215969.841   113331951.766    21215971.020    88147125.061    21215971.020  
                                
  19868794.394   106098274.767    19868795.466    82520899.612    19868795.305  
                                
  23660571.226   126612480.171    23660571.244    98476374.512    23660571.154  
                                
  26212877.182   137749652.567                                                  
  26212880.702   102865048.000  
  24782700.391   130233978.420                                                  
  24782701.267    97252659.905  
  24810993.255   130382684.798                                                  
  24810995.685    97363718.523  
  23543792.283   123723509.815                                                  
  23543794.123    92390972.724  
 21  9  1  6 44 11.0000000  0 16G 7G 8G 9G20G27G30R 2R 3R 4R12R13R21
                                E 7E19E21E27
  20732176.104   108948361.745    20732173.317    84894834.584    20732173.031  
                                
  22161937.511   116461764.776    22161935.439    90749401.968    22161934.903  
  22161934.652    86968204.488  
  21837527.169   114756967.955    21837526.900    89421013.406    21837526.650  
  21837527.186    85695139.272  
  23539079.113   123698695.514                    96388581.519    23539076.629  
                                
  23928645.918   125745881.317    23928645.346    97983802.558    23928644.792  
  23928645.310    93901138.355  
  21145372.512   111119714.393    21145372.404    86586806.600    21145371.851  
  21145372.404    82979035.830  
  20927981.624   111675730.748    20927983.643    86858914.294    20927983.696  
                                
  19794937.183   105963861.313    19794936.451    82416339.497    19794936.504  
                                
  22473564.284   120344924.997    22473563.176    93601605.026    22473563.212  
                                
  21216428.485   113334401.773    21216429.664    88149030.622    21216429.664  
                                
  19868770.789   106098148.775    19868771.861    82520801.616    19868771.700  
                                
  23660817.550   126613798.291    23660817.568    98477399.716    23660817.479  
                                
  26213416.934   137752489.061                                                  
  26213420.454   102867166.157  
  24782384.396   130232317.854                                                  
  24782385.253    97251419.868  
  24810711.836   130381205.924                                                  
  24810714.266    97362614.167  
  23543954.033   123724359.857                                                  
  23543955.891    92391607.494  
 21  9  1  6 44 12.0000000  0 16G 7G 8G 9G20G27G30R 2R 3R 4R12R13R21
                                E 7E19E21E27
  20732221.920   108948602.493    20732219.133    84895022.183    20732218.847  
                                
  22162114.683   116462695.832    22162112.610    90750127.474    22162112.074  
  22162111.824    86968899.760  
  21838068.028   114759810.201    21838067.760    89423228.147    21838067.492  
  21838068.028    85697261.734  
  23539338.768   123700059.948                    96389644.718    23539336.284  
                                
  23929128.149   125748415.454    23929127.577    97985777.215    23929127.041  
  23929127.542    93903030.724  
  21145113.196   111118351.685    21145113.089    86585744.749    21145112.535  
  21145113.089    82978018.226  
  20928682.768   111679472.206    20928684.787    86861824.314    20928684.841  
                                
  19794932.323   105963835.364    19794931.590    82416319.312    19794931.662  
                                
  22472916.103   120341454.041    22472915.013    93598905.396    22472915.049  
                                
  21216887.147   113336851.837    21216888.326    88150936.227    21216888.326  
                                
  19868747.255   106098023.059    19868748.310    82520703.842    19868748.149  
                                
  23661064.018   126615117.080    23661064.036    98478425.439    23661063.946  
                                
  26213956.703   137755325.630                                                  
  26213960.223   102869284.383  
  24782068.453   130230657.540                                                  
  24782069.329    97250180.025  
  24810430.453   130379727.217                                                  
  24810432.883    97361509.933  
  23544115.819   123725210.031                                                  
  23544117.677    92392242.369  
 21  9  1  6 44 13.0000000  0 16G 7G 8G 9G20G27G30R 2R 3R 4R12R13R21
                                E 7E19E21E27
  20732267.754   108948843.279    20732264.949    84895209.810    20732264.663  
                                
  22162291.926   116463627.340    22162289.853    90750853.322    22162289.317  
  22162289.067    86969595.377  
  21838608.923   114762652.642    21838608.655    89425443.037    21838608.405  
  21838608.941    85699384.334  
  23539598.441   123701424.642                    96390708.121    23539595.975  
                                
  23929610.416   125750949.873    23929609.844    97987752.089    23929609.308  
  23929609.809    93904923.320  
  21144853.863   111116988.980    21144853.774    86584682.903    21144853.202  
  21144853.756    82977000.624  
  20929383.967   111683213.926    20929385.986    86864734.541    20929386.039  
                                
  19794927.605   105963810.147    19794926.891    82416299.701    19794926.944  
                                
  22472267.976   120337983.349    22472266.886    93596205.966    22472266.921  
                                
  21217345.791   113339301.823    21217346.971    88152841.772    21217346.971  
                                
  19868723.722   106097897.451    19868724.794    82520606.149    19868724.633  
                                
  23661310.557   126616436.405    23661310.575    98479451.580    23661310.485  
                                
  26214496.491   137758162.186                                                  
  26214500.011   102871402.588  
  24781752.529   130228997.355                                                  
  24781753.405    97248940.274  
  24810149.069   130378248.534                                                  
  24810151.499    97360405.724  
  23544277.605   123726060.220                                                  
  23544279.446    92392877.248  
 21  9  1  6 44 14.0000000  0 16G 7G 8G 9G20G27G30R 2R 3R 4R12R13R21
                                E 7E19E21E27
  20732313.588   108949084.100    20732310.783    84895397.461    20732310.497  
                                
  22162469.294   116464559.327    22162467.239    90751579.559    22162466.703  
  22162466.434    86970291.331  
  21839149.854   114765495.266    21839149.586    89427658.066    21839149.336  
  21839149.872    85701507.071  
  23539858.203   123702789.604                    96391771.721    23539855.719  
                                
  23930092.773   125753484.576    23930092.183    97989727.182    23930091.647  
  23930092.165    93906816.122  
  21144594.566   111115626.275    21144594.459    86583621.055    21144593.905  
  21144594.459    82975983.019  
  20930085.219   111686955.884    20930087.238    86867644.959    20930087.291  
                                
  19794923.031   105963785.669    19794922.316    82416280.662    19794922.370  
                                
  22471619.920   120334513.000    22471618.812    93593506.816    22471618.848  
                                
  21217804.400   113341751.642    21217805.579    88154747.196    21217805.579  
                                
  19868700.242   106097771.990    19868701.314    82520508.565    19868701.153  
                                
  23661557.203   126617756.306    23661557.221    98480478.172    23661557.131  
                                
  26215036.260   137760998.697                                                  
  26215039.763   102873520.758  
  24781436.640   130227337.302                                                  
  24781437.516    97247700.623  
  24809867.686   130376769.874                                                  
  24809870.116    97359301.530  
  23544439.391   123726910.412                                                  
  23544441.250    92393512.129  
 21  9  1  6 44 15.0000000  0 16G 7G 8G 9G20G27G30R 2R 3R 4R12R13R21
                                E 7E19E21E27
  20732359.458   108949325.236    20732356.671    84895585.357    20732356.367  
                                
  22162646.751   116465492.003    22162644.696    90752306.318    22162644.160  
  22162643.892    86970987.825  
  21839690.893   114768338.371    21839690.625    89429873.470    21839690.357  
  21839690.893    85703630.171  
  23540118.036   123704155.082                    96392835.727    23540115.552  
                                
  23930575.236   125756019.889    23930574.664    97991702.749    23930574.128  
  23930574.629    93908709.360  
  21144335.304   111114263.848    21144335.215    86582559.422    21144334.643  
  21144335.197    82974965.625  
  20930786.542   111690698.381    20930788.561    86870555.784    20930788.615  
                                
  19794918.635   105963762.182    19794917.920    82416262.395    19794917.974  
                                
  22470971.971   120331043.214    22470970.881    93590808.093    22470970.917  
                                
  21218263.026   113344201.625    21218264.205    88156652.736    21218264.205  
                                
  19868676.816   106097646.921    19868677.888    82520411.295    19868677.727  
                                
  23661804.028   126619077.109    23661804.028    98481505.466    23661803.938  
                                
  26215576.083   137763835.449                                                  
  26215579.586   102875639.113  
  24781120.805   130225677.637                                                  
  24781121.681    97246461.271  
  24809586.374   130375291.526                                                  
  24809588.786    97358197.575  
  23544601.231   123727760.889                                                  
  23544603.089    92394147.223  
