     2.11           OBSERVATION DATA    M (MIXED)           RINEX VERSION / TYPE
CONVBIN 2.4.3                           20210901 005201 UTC PGM / RUN BY / DATE 
log: logs/21_08_31_22_54_17_ingy_SNIN.rtcm                  COMMENT             
format: RTCM 3, station ID: 3337                            COMMENT             
3337                                                        MARKER NAME         
                                                            MARKER NUMBER       
                                                            OBSERVER / AGENCY   
1705147             LEICA GR30          4.50                REC # / TYPE / VERS 
                    GPPNULLANTENNA                          ANT # / TYPE        
   229475.3424 -4771451.8904  4212083.7746                  APPROX POSITION XYZ 
        0.0000        0.0000        0.0000                  ANTENNA: DELTA H/E/N
     1     1                                                WAVELENGTH FACT L1/2
     7    C1    L1    C2    L2    P2    C5    L5            # / TYPES OF OBSERV 
  2021     8    31    22    54   24.0000000     GPS         TIME OF FIRST OBS   
  2021     8    31    23    25   11.0000000     GPS         TIME OF LAST OBS    
                                                            END OF HEADER       
 21  8 31 22 54 24.0000000  0 19G 1G10G12G21G23G25G31G32R 5R 7R 9R15
                                R16R21R22E 3E 5E15E25
  23831862.697   125237283.536    23831865.056    97587502.406    23831864.931  
  23831864.305    93521353.941  
  20552943.514   108006447.531    20552944.086    84160870.172    20552944.050  
  20552942.763    80654161.930  
  23466168.550   123315547.865    23466167.853    96090031.761    23466167.174  
                                
  23587150.806   123951313.742                    96585430.977    23587148.733  
                                
  22613606.015   118835301.407    22613605.890    92598935.022    22613605.747  
  22613610.250    88740663.506  
  23167907.020   121748172.403    23167909.826    94868715.306    23167909.290  
  23167910.362    90915855.959  
  22568074.886   118596033.798    22568074.315    92412488.374    22568073.689  
                                
  20547527.538   107977986.134    20547528.396    84138692.017    20547527.949  
  20547527.217    80632909.620  
  23100712.472   123486546.761    23100714.187    96045099.206    23100714.258  
                                
  21175469.093   113353943.352    21175468.950    88164177.830    21175468.896  
                                
  21878487.276   116829901.152    21878488.419    90867705.980    21878488.491  
                                
  22362831.414   119500190.575    22362832.486    92944596.641    22362832.629  
                                
  19979883.554   106728951.150    19979882.482    83011401.933    19979883.679  
                                
  23090024.723   123559385.412    23090025.956    96101749.344    23090025.974  
                                
  21813407.901   116441451.978    21813409.116    90565579.290    21813408.276  
                                
  23624893.238   124149652.011                                                  
  23624896.615    92709168.311  
  25255138.632   132716649.694                                                  
  25255142.599    99106603.754  
  24922616.396   130969233.438                                                  
  24922621.185    97801718.403  
  25998130.123   136621096.212                                                  
  25998134.912   102022265.208  
 21  8 31 22 54 25.0000000  0 19G 1G10G12G21G23G25G31G32R 5R 7R 9R15
                                R16R21R22E 3E 5E15E25
  23831379.966   125234746.761    23831382.306    97585525.700    23831382.181  
  23831381.556    93519459.585  
  20553151.116   108007538.503    20553151.688    84161720.283    20553151.670  
  20553150.366    80654976.622  
  23465929.462   123314291.513    23465928.765    96089052.784    23465928.086  
                                
  23586931.177   123950159.659                    96584531.692    23586929.122  
                                
  22614163.385   118838230.444    22614163.278    92601217.384    22614163.117  
  22614167.638    88742850.767  
  23167421.287   121745619.899    23167424.110    94866726.340    23167423.556  
  23167424.628    90913949.869  
  22567404.816   118592512.489    22567404.226    92409744.495    22567403.619  
                                
  20547464.335   107977654.063    20547465.193    84138433.258    20547464.764  
  20547464.014    80632661.647  
  23101235.730   123489343.818    23101237.428    96047274.695    23101237.499  
                                
  21175032.106   113351604.129    21175031.981    88162358.435    21175031.891  
                                
  21877728.646   116825850.158    21877729.790    90864555.211    21877729.879  
                                
  22363398.541   119503221.121    22363399.631    92946953.732    22363399.756  
                                
  19979696.734   106727953.223    19979695.662    83010625.768    19979696.877  
                                
  23090768.146   123563363.669    23090769.397    96104843.543    23090769.432  
                                
  21813718.500   116443109.982    21813719.715    90566868.846    21813718.893  
                                
  23624845.420   124149400.766                                                  
  23624848.815    92708980.696  
  25255456.808   132718321.710                                                  
  25255460.792    99107852.331  
  24922958.480   130971031.207                                                  
  24922963.287    97803060.898  
  25997674.016   136618699.372                                                  
  25997678.805   102020475.362  
 21  8 31 22 54 26.0000000  0 19G 1G10G12G21G23G25G31G32R 5R 7R 9R15
                                R16R21R22E 3E 5E15E25
  23830897.323   125232210.532    23830899.682    97583549.420    23830899.557  
  23830898.931    93517565.652  
  20553358.862   108008630.050    20553359.398    84162570.837    20553359.380  
  20553358.075    80655791.734  
  23465690.518   123313035.827    23465689.821    96088074.327    23465689.142  
                                
  23586711.692   123949006.163                    96583632.859    23586709.619  
                                
  22614720.827   118841159.845    22614720.720    92603500.039    22614720.595  
  22614725.080    88745038.305  
  23166935.660   121743067.830    23166938.448    94864737.719    23166937.912  
  23166939.002    90912044.107  
  22566734.799   118588991.577    22566734.227    92407000.929    22566733.602  
                                
  20547401.204   107977322.367    20547402.080    84138174.796    20547401.633  
  20547400.900    80632413.954  
  23101759.024   123492141.103    23101760.722    96049450.358    23101760.793  
                                
  21174595.137   113349265.128    21174595.029    88160539.212    21174594.958  
                                
  21876970.088   116821799.528    21876971.232    90861404.726    21876971.321  
                                
  22363965.793   119506252.321    22363966.865    92949311.332    22363967.008  
                                
  19979510.110   106726956.269    19979509.020    83009850.357    19979510.253  
                                
  23091511.658   123567342.263    23091512.891    96107937.998    23091512.909  
                                
  21814029.242   116444768.832    21814030.493    90568159.063    21814029.653  
                                
  23624797.656   124149149.748                                                  
  23624801.034    92708793.243  
  25255775.037   132719993.870                                                  
  25255778.986    99109101.016  
  24923300.690   130972829.449                                                  
  24923305.479    97804403.745  
  25997217.963   136616302.861                                                  
  25997222.752   102018685.766  
 21  8 31 22 54 27.0000000  0 19G 1G10G12G21G23G25G31G32R 5R 7R 9R15
                                R16R21R22E 3E 5E15E25
  23830414.752   125229674.581    23830417.111    97581573.357    23830417.004  
  23830416.343    93515671.932  
  20553566.625   108009721.891    20553567.161    84163421.622    20553567.143  
  20553565.838    80656607.069  
  23465451.627   123311780.497    23465450.930    96087096.148    23465450.251  
                                
  23586492.225   123947852.954                    96582734.257    23586490.170  
                                
  22615278.287   118844089.331    22615278.198    92605782.754    22615278.037  
  22615282.558    88747225.917  
  23166450.016   121740515.913    23166452.839    94862749.217    23166452.285  
  23166453.358    90910138.466  
  22566064.800   118585470.767    22566064.228    92404257.440    22566063.603  
                                
  20547338.109   107976990.763    20547338.966    84137916.403    20547338.538  
  20547337.787    80632166.325  
  23102282.301   123494938.363    23102283.998    96051626.005    23102284.088  
                                
  21174158.185   113346926.046    21174158.042    88158719.926    21174157.989  
                                
  21876211.548   116817749.026    21876212.710    90858254.340    21876212.781  
                                
  22364533.117   119509283.926    22364534.189    92951669.245    22364534.332  
                                
  19979323.611   106725960.025    19979322.521    83009075.502    19979323.754  
                                
  23092255.152   123571320.854    23092256.385    96111032.456    23092256.421  
                                
  21814340.128   116446428.245    21814341.343    90569449.718    21814340.521  
                                
  23624749.875   124148898.685                                                  
  23624753.270    92708605.767  
  25256093.177   132721665.901                                                  
  25256097.162    99110349.615  
  24923642.918   130974627.887                                                  
  24923647.724    97805746.730  
  25996761.945   136613906.406                                                  
  25996766.717   102016896.212  
 21  8 31 22 54 28.0000000  0 19G 1G10G12G21G23G25G31G32R 5R 7R 9R15
                                R16R21R22E 3E 5E15E25
  23829932.271   125227139.101    23829934.630    97579597.658    23829934.505  
  23829933.843    93513778.558  
  20553774.477   108010814.204    20553775.031    84164272.773    20553775.013  
  20553773.709    80657422.758  
  23465212.879   123310525.709    23465212.164    96086118.393    23465211.485  
                                
  23586272.883   123946700.203                    96581836.009    23586270.828  
                                
  22615835.819   118847019.102    22615835.694    92608065.690    22615835.568  
  22615840.089    88749413.726  
  23165964.461   121737964.334    23165967.284    94860760.976    23165966.730  
  23165967.803    90908233.068  
  22565394.873   118581950.227    22565394.301    92401514.165    22565393.675  
                                
  20547275.049   107976659.420    20547275.907    84137658.214    20547275.496  
  20547274.745    80631918.896  
  23102805.613   123497735.746    23102807.311    96053801.740    23102807.400  
                                
  21173721.252   113344587.096    21173721.109    88156900.749    21173721.055  
                                
  21875453.080   116813698.814    21875454.241    90855104.175    21875454.295  
                                
  22365100.547   119512316.128    22365101.637    92954027.622    22365101.762  
                                
  19979137.272   106724964.634    19979136.200    83008301.309    19979137.398  
                                
  23092998.664   123575299.580    23092999.915    96114127.020    23092999.951  
                                
  21814651.138   116448088.445    21814652.353    90570740.989    21814651.531  
                                
  23624702.128   124148647.740                                                  
  23624705.524    92708418.362  
  25256411.371   132723337.982                                                  
  25256415.356    99111598.244  
  24923985.217   130976426.672                                                  
  24923990.005    97807089.981  
  25996305.964   136611510.182                                                  
  25996310.735   102015106.815  
 21  8 31 22 54 29.0000000  0 19G 1G10G12G21G23G25G31G32R 5R 7R 9R15
                                R16R21R22E 3E 5E15E25
  23829449.879   125224604.174    23829452.237    97577622.389    23829452.130  
  23829451.469    93511885.578  
  20553982.437   108011907.046    20553983.009    84165124.337    20553982.991  
  20553981.668    80658238.843  
  23464974.202   123309271.549    23464973.505    96085141.135    23464972.826  
                                
  23586053.612   123945547.974                    96580938.184    23586051.539  
                                
  22616393.386   118849949.196    22616393.296    92610348.879    22616393.153  
  22616397.674    88751601.775  
  23165478.995   121735413.134    23165481.819    94858773.020    23165481.247  
  23165482.337    90906327.949  
  22564724.999   118578430.036    22564724.427    92398771.159    22564723.801  
                                
  20547212.078   107976328.414    20547212.936    84137400.289    20547212.489  
  20547211.757    80631671.714  
  23103328.943   123500533.322    23103330.659    96055977.650    23103330.748  
                                
  21173284.354   113342248.355    21173284.229    88155081.712    21173284.158  
                                
  21874694.683   116809648.950    21874695.826    90851954.279    21874695.898  
                                
  22365668.103   119515348.942    22365669.193    92956386.468    22365669.301  
                                
  19978951.095   106723970.123    19978950.023    83007527.801    19978951.220  
                                
  23093742.212   123579278.476    23093743.463    96117221.710    23093743.499  
                                
  21814962.274   116449749.453    21814963.524    90572032.873    21814962.685  
                                
  23624654.400   124148396.980                                                  
  23624657.795    92708231.113  
  25256729.600   132725010.184                                                  
  25256733.567    99112846.971  
  24924327.605   130978225.902                                                  
  24924332.394    97808433.551  
  25995850.018   136609114.246                                                  
  25995854.789   102013317.651  
 21  8 31 22 54 30.0000000  0 19G 1G10G12G21G23G25G31G32R 5R 7R 9R15
                                R16R21R22E 3E 5E15E25
  23828967.612   125222069.791    23828969.953    97575647.547    23828969.845  
  23828969.202    93509993.032  
  20554190.522   108013000.492    20554191.076    84165976.378    20554191.058  
  20554189.735    80659055.379  
  23464735.669   123308018.056    23464734.972    96084164.387    23464734.293  
                                
  23585834.466   123944396.335                    96580040.803    23585832.393  
                                
  22616951.060   118852879.695    22616950.953    92612632.385    22616950.792  
  22616955.313    88753790.136  
  23164993.619   121732862.435    23164996.425    94856785.472    23164995.871  
  23164996.943    90904423.204  
  22564055.196   118574910.256    22564054.624    92396028.478    22564053.999  
                                
  20547149.162   107975997.813    20547150.019    84137142.676    20547149.573  
  20547148.840    80631424.839  
  23103852.345   123503331.147    23103854.060    96058153.738    23103854.132  
                                
  21172847.510   113339909.877    21172847.385    88153262.898    21172847.314  
                                
  21873936.339   116805599.525    21873937.483    90848804.728    21873937.554  
                                
  22366235.784   119518382.460    22366236.874    92958745.868    22366237.017  
                                
  19978765.096   106722976.596    19978764.024    83006755.060    19978765.222  
                                
  23094485.814   123583257.683    23094487.083    96120316.646    23094487.100  
                                
  21815273.606   116451411.341    21815274.838    90573325.447    21815274.017  
                                
  23624606.744   124148146.480                                                  
  23624610.139    92708044.052  
  25257047.830   132726682.576                                                  
  25257051.815    99114095.828  
  24924670.065   130980025.611                                                  
  24924674.872    97809777.494  
  25995394.161   136606718.665                                                  
  25995398.932   102011528.745  
 21  8 31 22 54 31.0000000  0 19G 1G10G12G21G23G25G31G32R 5R 7R 9R15
                                R16R21R22E 3E 5E15E25
  23828485.452   125219536.044    23828487.811    97573673.201    23828487.685  
  23828487.024    93508100.947  
  20554398.696   108014094.571    20554399.268    84166828.903    20554399.250  
  20554397.945    80659872.383  
  23464497.278   123306765.257    23464496.581    96083188.183    23464495.902  
                                
  23585615.446   123943245.309                    96579143.900    23585613.355  
                                
  22617508.788   118855810.616    22617508.681    92614916.217    22617508.520  
  22617513.041    88755978.811  
  23164508.332   121730312.214    23164511.120    94854798.289    23164510.584  
  23164511.638    90902518.829  
  22563385.483   118571390.919    22563384.929    92393286.133    22563384.286  
                                
  20547086.316   107975667.632    20547087.174    84136885.392    20547086.763  
  20547086.012    80631178.273  
  23104375.782   123506129.237    23104377.515    96060330.025    23104377.587  
                                
  21172410.702   113337571.671    21172410.577    88151444.293    21172410.506  
                                
  21873178.103   116801550.567    21873179.247    90845655.546    21873179.318  
                                
  22366803.608   119521416.733    22366804.716    92961105.856    22366804.823  
                                
  19978579.312   106721984.135    19978578.222    83005983.145    19978579.419  
                                
  23095229.505   123587237.269    23095230.773    96123411.880    23095230.791  
                                
  21815585.116   116453074.164    21815586.349    90574618.754    21815585.527  
                                
  23624559.141   124147896.257                                                  
  23624562.518    92707857.194  
  25257366.131   132728355.164                                                  
  25257370.115    99115344.846  
  24925012.650   130981825.845                                                  
  24925017.421    97811121.829  
  25994938.358   136604323.468                                                  
  25994943.129   102009740.127  
 21  8 31 22 54 32.0000000  0 19G 1G10G12G21G23G25G31G32R 5R 7R 9R15
                                R16R21R22E 3E 5E15E25
  23828003.381   125217002.817    23828005.740    97571699.258    23828005.651  
  23828004.990    93506209.245  
  20554606.995   108015189.162    20554607.549    84167681.830    20554607.531  
  20554606.244    80660689.771  
  23464258.977   123305513.052    23464258.280    96082212.445    23464257.601  
                                
  23585396.514   123942094.809                    96578247.406    23585394.424  
                                
  22618066.587   118858741.860    22618066.480    92617200.301    22618066.337  
  22618070.858    88758167.727  
  23164023.099   121727762.375    23164025.904    94852811.413    23164025.350  
  23164026.423    90900614.733  
  22562715.859   118567871.908    22562715.270    92390544.046    22562714.662  
                                
  20547023.560   107975337.770    20547024.418    84136628.359    20547023.989  
  20547023.239    80630931.948  
  23104899.255   123508927.495    23104900.988    96062506.446    23104901.060  
                                
  21171973.947   113335233.620    21171973.822    88149625.807    21171973.733  
                                
  21872419.902   116797501.956    21872421.046    90842506.631    21872421.135  
                                
  22367371.539   119524451.621    22367372.647    92963466.324    22367372.772  
                                
  19978393.671   106720992.586    19978392.617    83005211.943    19978393.814  
                                
  23095973.231   123591217.091    23095974.482    96126507.295    23095974.536  
                                
  21815896.770   116454737.760    21815897.985    90575912.664    21815897.181  
                                
  23624511.555   124147646.213                                                  
  23624514.933    92707670.473  
  25257684.432   132730027.862                                                  
  25257688.416    99116593.940  
  24925355.288   130983626.482                                                  
  24925360.077    97812466.462  
  25994482.627   136601928.550                                                  
  25994487.398   102007951.712  
 21  8 31 22 54 33.0000000  0 19G 1G10G12G21G23G25G31G32R 5R 7R 9R15
                                R16R21R22E 3E 5E15E25
  23827521.454   125214470.259    23827523.812    97569725.838    23827523.723  
  23827523.062    93504318.051  
  20554815.437   108016284.450    20554815.991    84168535.304    20554815.973  
  20554814.669    80661507.682  
  23464020.836   123304261.621    23464020.121    96081237.309    23464019.442  
                                
  23585177.690   123940945.001                    96577351.457    23585175.617  
                                
  22618624.476   118861673.606    22618624.387    92619484.776    22618624.226  
  22618628.747    88760357.018  
  23163537.973   121725213.117    23163540.796    94850824.978    23163540.242  
  23163541.314    90898711.071  
  22562046.307   118564353.399    22562045.717    92387802.346    22562045.110  
                                
  20546960.858   107975008.402    20546961.751    84136371.709    20546961.305  
  20546960.572    80630685.995  
  23105422.817   123511726.098    23105424.533    96064683.133    23105424.622  
                                
  21171537.246   113332895.898    21171537.103    88147807.579    21171537.032  
                                
  21871661.827   116793453.873    21871662.971    90839358.128    21871663.042  
                                
  22367939.649   119527487.332    22367940.721    92965827.433    22367940.864  
                                
  19978208.280   106720002.176    19978207.190    83004441.627    19978208.387  
                                
  23096717.029   123595197.272    23096718.298    96129602.982    23096718.316  
                                
  21816208.602   116456402.404    21816209.835    90577207.386    21816209.031  
                                
  23624464.024   124147396.515                                                  
  23624467.419    92707484.012  
  25258002.786   132731700.844                                                  
  25258006.789    99117843.240  
  24925698.070   130985427.720                                                  
  24925702.841    97813811.536  
  25994026.966   136599534.093                                                  
  25994031.737   102006163.652  
 21  8 31 22 54 34.0000000  0 19G 1G10G12G21G23G25G31G32R 5R 7R 9R15
                                R16R21R22E 3E 5E15E25
  23827039.616   125211938.065    23827041.974    97567752.713    23827041.849  
  23827041.188    93502427.131  
  20555023.915   108017380.124    20555024.487    84169389.071    20555024.469  
  20555023.164    80662325.882  
  23463782.767   123303010.642    23463782.088    96080262.513    23463781.391  
                                
  23584958.955   123939795.545                    96576455.775    23584956.883  
                                
  22619182.419   118864605.530    22619182.311    92621769.398    22619182.151  
  22619186.671    88762546.440  
  23163052.918   121722664.091    23163055.724    94848838.724    23163055.188  
  23163056.242    90896807.584  
  22561376.790   118560835.083    22561376.201    92385060.806    22561375.593  
                                
  20546898.227   107974679.219    20546899.103    84136115.204    20546898.674  
  20546897.923    80630440.174  
  23105946.344   123514524.723    23105948.060    96066859.866    23105948.149  
                                
  21171100.545   113330558.182    21171100.402    88145989.372    21171100.349  
                                
  21870903.769   116789405.953    21870904.913    90836209.756    21870904.985  
                                
  22368507.831   119530523.530    22368508.903    92968188.927    22368509.046  
                                
  19978023.014   106719012.584    19978021.942    83003671.942    19978023.139  
                                
  23097460.828   123599177.480    23097462.078    96132698.699    23097462.114  
                                
  21816520.577   116458067.648    21816521.793    90578502.585    21816520.971  
                                
  23624416.528   124147146.855                                                  
  23624419.923    92707297.574  
  25258321.141   132733373.776                                                  
  25258325.125    99119092.508  
  24926040.869   130987229.227                                                  
  24926045.658    97815156.811  
  25993571.342   136597139.762                                                  
  25993576.113   102004375.676  
 21  8 31 22 54 35.0000000  0 19G 1G10G12G21G23G25G31G32R 5R 7R 9R15
                                R16R21R22E 3E 5E15E25
  23826557.867   125209406.516    23826560.225    97565780.074    23826560.136  
  23826559.475    93500536.700  
  20555232.554   108018476.445    20555233.108    84170243.348    20555233.090  
  20555231.785    80663144.557  
  23463544.859   123301760.394    23463544.162    96079288.294    23463543.483  
                                
  23584740.346   123938646.726                    96575560.589    23584738.273  
                                
  22619740.432   118867537.889    22619740.325    92624054.353    22619740.164  
  22619744.685    88764736.195  
  23162567.935   121720115.572    23162570.758    94846852.868    23162570.187  
  23162571.277    90894904.480  
  22560707.345   118557317.214    22560706.791    92382319.609    22560706.148  
                                
  20546835.667   107974350.469    20546836.543    84135859.036    20546836.114  
  20546835.364    80630194.680  
  23106469.942   123517323.649    23106471.658    96069036.809    23106471.747  
                                
  21170663.898   113328220.789    21170663.755    88144171.395    21170663.701  
                                
  21870145.819   116785358.517    21870146.963    90833061.752    21870147.034  
                                
  22369076.137   119533560.447    22369077.227    92970550.974    22369077.370  
                                
  19977837.962   106718024.080    19977836.890    83002903.108    19977838.087  
                                
  23098204.697   123603158.031    23098205.966    96135794.681    23098205.984  
                                
  21816832.696   116459733.840    21816833.929    90579798.514    21816833.107  
                                
  23624369.050   124146897.485                                                  
  23624372.463    92707111.360  
  25258639.531   132735046.945                                                  
  25258643.516    99120341.948  
  24926383.793   130989031.260                                                  
  24926388.564    97816502.490  
  25993115.789   136594745.837                                                  
  25993120.560   102002588.004  
 21  8 31 22 54 36.0000000  0 19G 1G10G12G21G23G25G31G32R 5R 7R 9R15
                                R16R21R22E 3E 5E15E25
  23826076.243   125206875.555    23826078.602    97563807.893    23826078.494  
  23826077.851    93498646.689  
  20555441.282   108019573.327    20555441.854    84171098.061    20555441.836  
  20555440.513    80663963.661  
  23463307.058   123300510.789    23463306.361    96078314.582    23463305.682  
                                
  23584521.843   123937498.488                    96574665.858    23584519.771  
                                
  22620298.518   118870470.633    22620298.411    92626339.610    22620298.250  
  22620302.771    88766926.227  
  23162083.077   121717567.535    23162085.882    94844867.389    23162085.346  
  23162086.401    90893001.710  
  22560037.990   118553799.740    22560037.418    92379578.725    22560036.792  
                                
  20546773.197   107974022.099    20546774.055    84135603.163    20546773.608  
  20546772.876    80629949.472  
  23106993.576   123520122.852    23106995.291    96071213.969    23106995.381  
                                
  21170227.304   113325883.614    21170227.161    88142353.592    21170227.090  
                                
  21869387.940   116781311.498    21869389.084    90829914.073    21869389.137  
                                
  22369644.604   119536598.041    22369645.676    92972913.547    22369645.801  
                                
  19977653.089   106717036.570    19977652.017    83002135.044    19977653.214  
                                
  23098948.620   123607138.909    23098949.889    96138890.912    23098949.907  
                                
  21817144.993   116461400.902    21817146.226    90581095.120    21817145.386  
                                
  23624321.643   124146648.359                                                  
  23624325.056    92706925.327  
  25258957.957   132736720.262                                                  
  25258961.924    99121591.505  
  24926726.789   130990833.778                                                  
  24926731.596    97817848.523  
  25992660.308   136592352.254                                                  
  25992665.061   102000800.590  
 21  8 31 22 54 37.0000000  0 19G 1G10G12G21G23G25G31G32R 5R 7R 9R15
                                R16R21R22E 3E 5E15E25
  23825594.691   125204344.963    23825597.049    97561836.003    23825596.942  
  23825596.281    93496756.964  
  20555650.081   108020670.612    20555650.635    84171953.088    20555650.617  
  20555649.331    80664783.062  
  23463069.364   123299261.626    23463068.667    96077341.209    23463067.971  
                                
  23584303.395   123936350.617                    96573771.411    23584301.340  
                                
  22620856.621   118873403.567    22620856.532    92628625.011    22620856.371  
  22620860.909    88769116.403  
  23161598.237   121715019.709    23161601.060    94842882.081    23161600.488  
  23161601.543    90891099.123  
  22559368.687   118550282.458    22559368.098    92376837.990    22559367.490  
                                
  20546710.727   107973693.913    20546711.585    84135347.434    20546711.156  
  20546710.406    80629704.396  
  23107517.228   123522922.080    23107518.961    96073391.148    23107519.033  
                                
  21169790.692   113323546.449    21169790.567    88140535.797    21169790.496  
                                
  21868630.097   116777264.714    21868631.241    90826766.575    21868631.312  
                                
  22370213.125   119539636.122    22370214.197    92975276.505    22370214.340  
                                
  19977468.377   106716049.806    19977467.287    83001367.561    19977468.484  
                                
  23099692.561   123611119.878    23099693.830    96141987.215    23099693.866  
                                
  21817457.415   116463068.623    21817458.630    90582392.239    21817457.808  
                                
  23624274.273   124146399.260                                                  
  23624277.650    92706739.309  
  25259276.365   132738393.560                                                  
  25259280.368    99122841.037  
  24927069.857   130992636.568                                                  
  24927074.646    97819194.756  
  25992204.862   136589958.815                                                  
  25992209.615   101999013.284  
 21  8 31 22 54 38.0000000  0 19G 1G10G12G21G23G25G31G32R 5R 7R 9R15
                                R16R21R22E 3E 5E15E25
  23825113.228   125201814.902    23825115.586    97559864.530    23825115.497  
  23825114.836    93494867.626  
  20555858.988   108021768.424    20555859.560    84172808.526    20555859.542  
  20555858.220    80665602.855  
  23462831.760   123298013.092    23462831.063    96076368.327    23462830.384  
                                
  23584085.089   123935203.260                    96572877.357    23584083.016  
                                
  22621414.796   118876336.824    22621414.706    92630910.666    22621414.563  
  22621419.084    88771306.822  
  23161113.486   121712472.305    23161116.273    94840897.094    23161115.737  
  23161116.792    90889196.841  
  22558699.421   118546765.512    22558698.849    92374097.518    22558698.224  
                                
  20546648.329   107973366.050    20546649.186    84135091.958    20546648.775  
  20546648.043    80629459.572  
  23108040.915   123525721.477    23108042.649    96075568.453    23108042.738  
                                
  21169354.134   113321209.468    21169353.991    88138718.145    21169353.920  
                                
  21867872.325   116773218.253    21867873.469    90823619.327    21867873.541  
                                
  22370781.771   119542674.856    22370782.861    92977639.967    22370782.986  
                                
  19977283.808   106715063.963    19977282.736    83000600.797    19977283.933  
                                
  23100436.538   123615101.027    23100437.807    96145083.660    23100437.843  
                                
  21817769.980   116464737.167    21817771.195    90583689.997    21817770.390  
                                
  23624226.884   124146150.351                                                  
  23624230.279    92706553.440  
  25259594.809   132740066.965                                                  
  25259598.811    99124090.662  
  24927412.996   130994439.786                                                  
  24927417.784    97820541.317  
  25991749.434   136587565.646                                                  
  25991754.188   101997226.184  
 21  8 31 22 54 39.0000000  0 19G 1G10G12G21G23G25G31G32R 5R 7R 9R15
                                R16R21R22E 3E 5E15E25
  23824631.854   125199285.187    23824634.195    97557893.319    23824634.088  
  23824633.427    93492978.558  
  20556067.966   108022866.588    20556068.538    84173664.239    20556068.520  
  20556067.216    80666422.908  
  23462594.263   123296764.951    23462593.548    96075395.752    23462592.869  
                                
  23583866.819   123934056.251                    96571983.593    23583864.728  
                                
  22621973.006   118879270.240    22621972.917    92633196.446    22621972.756  
  22621977.295    88773497.364  
  23160628.771   121709925.122    23160631.576    94838912.262    23160631.022  
  23160632.094    90887294.715  
  22558030.208   118543248.743    22558029.637    92371357.171    22558028.993  
                                
  20546586.001   107973038.366    20546586.859    84134836.618    20546586.412  
  20546585.680    80629214.860  
  23108564.603   123528520.896    23108566.336    96077745.779    23108566.407  
                                
  21168917.576   113318872.503    21168917.433    88136900.512    21168917.362  
                                
  21867114.607   116769172.006    21867115.751    90820472.260    21867115.805  
                                
  22371350.524   119545714.025    22371351.596    92980003.766    22371351.721  
                                
  19977099.400   106714078.863    19977098.328    82999834.608    19977099.525  
                                
  23101180.533   123619082.212    23101181.784    96148180.142    23101181.819  
                                
  21818082.687   116466406.384    21818083.902    90584988.277    21818083.081  
                                
  23624179.513   124145901.454                                                  
  23624182.908    92706367.575  
  25259913.235   132741740.305                                                  
  25259917.220    99125340.221  
  24927756.188   130996243.248                                                  
  24927760.977    97821888.052  
  25991294.060   136585172.615                                                  
  25991298.813   101995439.172  
 21  8 31 22 54 40.0000000  0 19G 1G10G12G21G23G25G31G32R 5R 7R 9R15
                                R16R21R22E 3E 5E15E25
  23824150.588   125196756.156    23824152.946    97555922.650    23824152.821  
  23824152.160    93491089.996  
  20556277.070   108023965.446    20556277.641    84174520.489    20556277.623  
  20556276.301    80667243.483  
  23462356.891   123295517.602    23462356.194    96074423.792    23462355.515  
                                
  23583648.656   123932909.933                    96571090.360    23583646.601  
                                
  22622531.324   118882204.151    22622531.216    92635482.606    22622531.056  
  22622535.612    88775688.265  
  23160144.145   121707378.479    23160146.933    94836927.862    23160146.397  
  23160147.469    90885393.016  
  22557361.067   118539732.461    22557360.495    92368617.216    22557359.870  
                                
  20546523.710   107972711.143    20546524.604    84134581.639    20546524.157  
  20546523.424    80628970.507  
  23109088.344   123531320.652    23109090.095    96079923.369    23109090.149  
                                
  21168481.072   113316535.851    21168480.929    88135083.119    21168480.857  
                                
  21866356.979   116765126.276    21866358.122    90817325.581    21866358.176  
                                
  22371919.402   119548753.977    22371920.492    92982368.173    22371920.600  
                                
  19976915.188   106713094.852    19976914.134    82999069.268    19976915.313  
                                
  23101924.581   123623063.753    23101925.850    96151276.888    23101925.868  
                                
  21818395.556   116468076.531    21818396.771    90586287.278    21818395.949  
                                
  23624132.232   124145652.898                                                  
  23624135.609    92706181.963  
  25260231.697   132743413.920                                                  
  25260235.717    99126589.997  
  24928099.488   130998047.268                                                  
  24928104.277    97823235.218  
  25990838.757   136582780.016                                                  
  25990843.529   101993652.499  
 21  8 31 22 54 41.0000000  0 19G 1G10G12G21G23G25G31G32R 5R 7R 9R15
                                R16R21R22E 3E 5E15E25
  23823669.357   125194227.351    23823671.716    97553952.155    23823671.626  
  23823670.965    93489201.600  
  20556486.226   108025064.540    20556486.780    84175376.926    20556486.763  
  20556485.458    80668064.238  
  23462119.590   123294270.584    23462118.893    96073452.090    23462118.214  
                                
  23583430.564   123931763.860                    96570197.319    23583428.509  
                                
  22623089.641   118885138.104    22623089.534    92637768.801    22623089.373  
  22623093.912    88777879.204  
  23159659.573   121704831.988    23159662.378    94834943.590    23159661.824  
  23159662.896    90883491.407  
  22556691.961   118536216.238    22556691.372    92365877.304    22556690.764  
                                
  20546461.454   107972383.978    20546462.330    84134326.705    20546461.901  
  20546461.151    80628726.198  
  23109612.085   123534120.324    23109613.818    96082100.885    23109613.907  
                                
  21168044.549   113314199.112    21168044.389    88133265.656    21168044.335  
                                
  21865599.368   116761080.628    21865600.494    90814178.964    21865600.565  
                                
  22372488.370   119551794.313    22372489.442    92984732.879    22372489.567  
                                
  19976731.119   106712111.532    19976730.029    82998304.462    19976731.209  
                                
  23102668.629   123627045.261    23102669.880    96154373.614    23102669.934  
                                
  21818708.532   116469747.242    21818709.765    90587586.724    21818708.943  
                                
  23624084.897   124145404.256                                                  
  23624088.310    92705996.282  
  25260550.158   132745087.357                                                  
  25260554.161    99127839.645  
  24928442.805   130999851.461                                                  
  24928447.576    97824582.501  
  25990383.473   136580387.440                                                  
  25990388.244   101991865.824  
 21  8 31 22 54 42.0000000  0 19G 1G10G12G21G23G25G31G32R 5R 7R 9R15
                                R16R21R22E 3E 5E15E25
  23823188.269   125191699.177    23823190.610    97551982.152    23823190.521  
  23823189.860    93487313.676  
  20556695.508   108026164.275    20556696.062    84176233.862    20556696.045  
  20556694.740    80668885.470  
  23461882.432   123293024.262    23461881.736    96072480.932    23461881.056  
                                
  23583212.598   123930618.413                    96569304.760    23583210.543  
                                
  22623648.030   118888072.482    22623647.923    92640055.324    22623647.762  
  22623652.301    88780070.462  
  23159175.054   121702285.960    23159177.860    94832959.680    23159177.324  
  23159178.378    90881590.168  
  22556022.927   118532700.454    22556022.338    92363137.735    22556021.730  
                                
  20546399.270   107972057.242    20546400.164    84134072.108    20546399.717  
  20546398.984    80628482.211  
  23110135.879   123536920.259    23110137.613    96084278.607    23110137.684  
                                
  21167608.063   113311862.649    21167607.938    88131448.409    21167607.866  
                                
  21864841.811   116757035.398    21864842.972    90811032.669    21864843.026  
                                
  22373057.462   119554835.393    22373058.535    92987098.161    22373058.660  
                                
  19976547.211   106711129.263    19976546.157    82997540.470    19976547.336  
                                
  23103412.731   123631027.118    23103414.000    96157470.607    23103414.018  
                                
  21819021.687   116471418.877    21819022.902    90588886.885    21819022.080  
                                
  23624037.633   124145155.875                                                  
  23624041.046    92705810.814  
  25260868.638   132746761.031                                                  
  25260872.658    99129089.456  
  24928786.230   131001656.164                                                  
  24928791.019    97825930.169  
  25989928.259   136577995.245                                                  
  25989933.012   101990079.449  
 21  8 31 22 54 43.0000000  0 19G 1G10G12G21G23G25G31G32R 5R 7R 9R15
                                R16R21R22E 3E 5E15E25
  23822707.235   125189171.282    23822709.594    97550012.358    23822709.469  
  23822708.808    93485425.977  
  20556904.826   108027264.308    20556905.380    84177091.029    20556905.380  
  20556904.058    80669706.924  
  23461645.328   123291778.313    23461644.631    96071510.067    23461643.952  
                                
  23582994.685   123929473.247                    96568412.421    23582992.630  
                                
  22624206.437   118891006.965    22624206.348    92642341.937    22624206.187  
  22624210.726    88782261.793  
  23158690.607   121699740.127    23158693.413    94830975.911    23158692.877  
  23158693.931    90879689.059  
  22555353.929   118529184.786    22555353.321    92360398.253    22555352.714  
                                
  20546337.122   107971730.597    20546337.997    84133817.577    20546337.551  
  20546336.818    80628238.284  
  23110659.674   123539720.125    23110661.390    96086456.283    23110661.461  
                                
  21167171.594   113309526.138    21167171.451    88129631.120    21167171.362  
                                
  21864084.289   116752990.288    21864085.433    90807886.470    21864085.504  
                                
  22373626.627   119557876.869    22373627.717    92989463.756    22373627.824  
                                
  19976363.464   106710147.668    19976362.410    82996777.012    19976363.553  
                                
  23104156.851   123635008.975    23104158.102    96160567.603    23104158.137  
                                
  21819334.949   116473091.072    21819336.164    90590187.479    21819335.342  
                                
  23623990.370   124144907.471                                                  
  23623993.765    92705625.313  
  25261187.100   132748434.553                                                  
  25261191.120    99130339.173  
  24929129.690   131003461.055                                                  
  24929134.479    97827277.973  
  25989473.028   136575603.097                                                  
  25989477.781   101988293.110  
 21  8 31 22 54 44.0000000  0 19G 1G10G12G21G23G25G31G32R 5R 7R 9R15
                                R16R21R22E 3E 5E15E25
  23822226.290   125186643.883    23822228.631    97548042.961    23822228.524  
  23822227.863    93483538.627  
  20557114.233   108028364.818    20557114.787    84177948.571    20557114.787  
  20557113.483    80670528.735  
  23461408.331   123290532.945    23461407.635    96070539.655    23461406.956  
                                
  23582776.844   123928328.528                    96567520.441    23582774.789  
                                
  22624764.916   118893941.719    22624764.826    92644628.754    22624764.666  
  22624769.204    88784453.323  
  23158206.232   121697194.634    23158209.019    94828992.408    23158208.465  
  23158209.537    90877788.201  
  22554684.966   118525669.387    22554684.377    92357658.974    22554683.751  
                                
  20546275.009   107971404.236    20546275.902    84133563.272    20546275.456  
  20546274.723    80627994.575  
  23111183.451   123542520.141    23111185.184    96088634.064    23111185.274  
                                
  21166735.125   113307189.764    21166734.982    88127813.945    21166734.929  
                                
  21863326.839   116748945.508    21863327.983    90804740.521    21863328.054  
                                
  22374195.916   119560918.918    22374196.970    92991829.789    22374197.113  
                                
  19976179.860   106709166.980    19976178.806    82996014.254    19976179.985  
                                
  23104900.988   123638991.024    23104902.239    96163664.740    23104902.275  
                                
  21819648.353   116474764.048    21819649.568    90591488.680    21819648.746  
                                
  23623943.124   124144659.182                                                  
  23623946.519    92705439.905  
  25261505.579   132750108.160                                                  
  25261509.600    99131588.944  
  24929473.222   131005266.331                                                  
  24929478.011    97828626.075  
  25989017.868   136573211.193                                                  
  25989022.621   101986506.956  
 21  8 31 22 54 45.0000000  0 19G 1G10G12G21G23G25G31G32R 5R 7R 9R15
                                R16R21R22E 3E 5E15E25
  23821745.381   125184116.768    23821747.740    97546073.781    23821747.651  
  23821746.990    93481651.500  
  20557323.730   108029465.655    20557324.301    84178806.366    20557324.266  
  20557322.979    80671350.787  
  23461171.424   123289287.932    23461170.727    96069569.515    23461170.030  
                                
  23582559.092   123927184.152                    96566628.719    23582557.019  
                                
  22625323.412   118896876.593    22625323.305    92646915.671    22625323.162  
  22625327.701    88786644.945  
  23157721.856   121694649.337    23157724.679    94827009.060    23157724.107  
  23157725.180    90875887.489  
  22554016.040   118522154.138    22554015.450    92354919.824    22554014.842  
                                
  20546212.932   107971077.996    20546213.825    84133309.059    20546213.379  
  20546212.628    80627750.952  
  23111707.246   123545320.144    23111708.997    96090811.845    23111709.068  
                                
  21166298.674   113304853.349    21166298.531    88125996.730    21166298.460  
                                
  21862569.407   116744900.833    21862570.551    90801594.672    21862570.604  
                                
  22374765.259   119563961.379    22374766.313    92994196.148    22374766.456  
                                
  19975996.416   106708187.008    19975995.344    82995252.051    19975996.524  
                                
  23105645.126   123642973.039    23105646.377    96166761.861    23105646.413  
                                
  21819961.883   116476437.632    21819963.098    90592790.354    21819962.276  
                                
  23623895.878   124144410.875                                                  
  23623899.273    92705254.476  
  25261824.041   132751781.653                                                  
  25261828.061    99132838.637  
  24929816.772   131007071.797                                                  
  24929821.561    97829974.315  
  25988562.709   136570819.354                                                  
  25988567.480   101984720.847  
 21  8 31 22 54 46.0000000  0 19G 1G10G12G21G23G25G31G32R 5R 7R 9R15
                                R16R21R22E 3E 5E15E25
  23821264.598   125181590.173    23821266.938    97544105.010    23821266.849  
  23821266.188    93479764.757  
  20557533.315   108030567.007    20557533.869    84179664.562    20557533.852  
  20557532.547    80672173.220  
  23460934.624   123288043.535    23460933.927    96068599.853    23460933.248  
                                
  23582341.430   123926040.280                    96565737.395    23582339.339  
                                
  22625881.944   118899811.778    22625881.855    92649202.826    22625881.694  
  22625886.233    88788836.813  
  23157237.570   121692104.399    23157240.375    94825025.988    23157239.821  
  23157240.893    90873987.058  
  22553347.166   118518639.211    22553346.577    92352180.922    22553345.951  
                                
  20546150.909   107970752.064    20546151.784    84133055.084    20546151.338  
  20546150.623    80627507.563  
  23112231.076   123548120.282    23112232.809    96092989.730    23112232.899  
                                
  21165862.241   113302517.112    21165862.098    88124179.660    21165862.027  
                                
  21861812.028   116740856.534    21861813.172    90798449.105    21861813.226  
                                
  22375334.744   119567004.464    22375335.799    92996562.989    22375335.942  
                                
  19975813.134   106707207.987    19975812.080    82994490.593    19975813.259  
                                
  23106389.299   123646955.264    23106390.550    96169859.145    23106390.604  
                                
  21820275.538   116478112.024    21820276.789    90594092.654    21820275.949  
                                
  23623848.650   124144162.726                                                  
  23623852.063    92705069.175  
  25262142.520   132753455.254                                                  
  25262146.541    99134088.397  
  24930160.429   131008877.680                                                  
  24930165.218    97831322.859  
  25988107.620   136568427.804                                                  
  25988112.373   101982934.950  
 21  8 31 22 54 47.0000000  0 19G 1G10G12G21G23G25G31G32R 5R 7R 9R15
                                R16R21R22E 3E 5E15E25
  23820783.921   125179064.196    23820786.280    97542136.721    23820786.154  
  23820785.493    93477878.478  
  20557743.008   108031668.974    20557743.580    84180523.238    20557743.545  
  20557742.258    80672996.120  
  23460697.948   123286799.813    23460697.269    96067630.721    23460696.590  
                                
  23582123.874   123924897.013                    96564846.529    23582121.801  
                                
  22626440.583   118902747.394    22626440.476    92651490.319    22626440.315  
  22626444.872    88791028.992  
  23156753.373   121689559.974    23156756.196    94823043.320    23156755.642  
  23156756.714    90872086.985  
  22552678.382   118515124.717    22552677.793    92349442.355    22552677.185  
                                
  20546088.975   107970426.557    20546089.832    84132801.442    20546089.403  
  20546088.671    80627264.492  
  23112754.960   123550920.689    23112756.675    96095167.828    23112756.747  
                                
  21165425.862   113300181.145    21165425.719    88122362.797    21165425.647  
                                
  21861054.739   116736812.705    21861055.883    90795303.910    21861055.954  
                                
  22375904.355   119570048.273    22375905.409    92998930.394    22375905.552  
                                
  19975630.066   106706230.019    19975629.011    82993729.949    19975630.155  
                                
  23107133.526   123650937.806    23107134.795    96172956.675    23107134.831  
                                
  21820589.390   116479787.313    21820590.623    90595395.657    21820589.783  
                                
  23623801.494   124143914.868                                                  
  23623804.889    92704884.086  
  25262461.018   132755129.051                                                  
  25262465.056    99135338.311  
  24930504.194   131010684.080                                                  
  24930508.947    97832671.798  
  25987652.603   136566036.637                                                  
  25987657.339   101981149.344  
 21  8 31 22 54 48.0000000  0 19G 1G10G12G21G23G25G31G32R 5R 7R 9R15
                                R16R21R22E 3E 5E15E25
  23820303.351   125176538.781    23820305.692    97540168.867    23820305.603  
  23820304.942    93475992.614  
  20557952.809   108032771.520    20557953.380    84181382.362    20557953.380  
  20557952.058    80673819.446  
  23460461.398   123285556.751    23460460.701    96066662.104    23460460.022  
                                
  23581906.426   123923754.313                    96563956.120    23581904.335  
                                
  22626999.276   118905683.374    22626999.187    92653778.098    22626999.026  
  22627003.565    88793221.442  
  23156269.265   121687015.980    23156272.089    94821060.991    23156271.535  
  23156272.607    90870187.256  
  22552009.670   118511610.606    22552009.080    92346704.087    22552008.473  
                                
  20546027.094   107970101.415    20546027.970    84132548.084    20546027.541  
  20546026.790    80627021.687  
  23113278.862   123553721.293    23113280.595    96097346.075    23113280.685  
                                
  21164989.518   113297845.363    21164989.375    88120546.080    21164989.304  
                                
  21860297.522   116732769.229    21860298.665    90792158.993    21860298.737  
                                
  22376474.091   119573092.761    22376475.145    93001298.329    22376475.288  
                                
  19975447.176   106705253.003    19975446.104    82992970.047    19975447.266  
                                
  23107877.807   123654920.610    23107879.093    96176054.404    23107879.111  
                                
  21820903.384   116481463.446    21820904.635    90596699.316    21820903.795  
                                
  23623754.356   124143667.230                                                  
  23623757.768    92704699.157  
  25262779.587   132756803.004                                                  
  25262783.607    99136588.341  
  24930848.029   131012490.940                                                  
  24930852.800    97834021.073  
  25987197.622   136563645.789                                                  
  25987202.376   101979363.973  
 21  8 31 22 54 49.0000000  0 19G 1G10G12G21G23G25G31G32R 5R 7R 9R15
                                R16R21R22E 3E 5E15E25
  23819822.871   125174013.814    23819825.212    97538201.365    23819825.105  
  23819824.444    93474107.091  
  20558162.698   108033874.511    20558163.270    84182241.836    20558163.252  
  20558161.948    80674643.110  
  23460224.955   123284314.244    23460224.259    96065693.919    23460223.580  
                                
  23581689.049   123922612.073                    96563066.065    23581686.977  
                                
  22627558.041   118908619.636    22627557.933    92656066.090    22627557.773  
  22627562.311    88795414.095  
  23155785.229   121684472.294    23155788.035    94819078.901    23155787.463  
  23155788.553    90868287.773  
  22551341.011   118508096.768    22551340.404    92343966.043    22551339.796  
                                
  20545965.267   107969776.518    20545966.125    84132294.914    20545965.714  
  20545964.964    80626779.071  
  23113802.782   123556522.007    23113804.533    96099524.418    23113804.604  
                                
  21164553.192   113295509.653    21164553.032    88118729.410    21164552.978  
                                
  21859540.375   116728726.056    21859541.501    90789014.306    21859541.573  
                                
  22377043.916   119576137.794    22377044.989    93003666.686    22377045.114  
                                
  19975264.412   106704276.833    19975263.358    82992210.809    19975264.537  
                                
  23108622.123   123658903.558    23108623.410    96179152.250    23108623.427  
                                
  21821217.504   116483140.258    21821218.755    90598003.499    21821217.933  
                                
  23623707.253   124143419.691                                                  
  23623710.666    92704514.309  
  25263098.120   132758476.975                                                  
  25263102.141    99137838.393  
  24931191.919   131014298.135                                                  
  24931196.690    97835370.601  
  25986742.713   136561255.179                                                  
  25986747.466   101977578.768  
 21  8 31 22 54 50.0000000  0 19G 1G10G12G21G23G25G31G32R 5R 7R 9R15
                                R16R21R22E 3E 5E15E25
  23819342.516   125171489.499    23819344.857    97536234.362    23819344.750  
  23819344.089    93472222.053  
  20558372.713   108034978.163    20558373.285    84183101.827    20558373.267  
  20558371.980    80675467.266  
  23459988.655   123283072.436    23459987.959    96064726.273    23459987.262  
                                
  23581471.816   123921470.458                    96562176.493    23581469.743  
                                
  22628116.876   118911556.312    22628116.769    92658354.411    22628116.608  
  22628121.147    88797607.073  
  23155301.300   121681929.169    23155304.106    94817097.248    23155303.570  
  23155304.624    90866388.669  
  22550672.424   118504583.383    22550671.852    92341228.340    22550671.226  
                                
  20545903.530   107969452.086    20545904.405    84132042.109    20545903.977  
  20545903.226    80626536.794  
  23114326.773   123559323.058    23114328.506    96101703.018    23114328.596  
                                
  21164116.920   113293174.248    21164116.759    88116912.981    21164116.688  
                                
  21858783.301   116724683.370    21858784.426    90785870.001    21858784.516  
                                
  22377613.885   119579183.600    22377614.975    93006035.646    22377615.082  
                                
  19975081.862   106703301.675    19975080.808    82991452.355    19975081.987  
                                
  23109366.511   123662886.861    23109367.780    96182250.368    23109367.815  
                                
  21821531.802   116484818.033    21821533.053    90599308.437    21821532.231  
                                
  23623660.204   124143172.476                                                  
  23623663.617    92704329.700  
  25263416.725   132760151.207                                                  
  25263420.745    99139088.624  
  24931535.933   131016105.878                                                  
  24931540.704    97836720.540  
  25986287.857   136558864.948                                                  
  25986292.628   101975793.864  
 21  8 31 22 54 51.0000000  0 19G 1G10G12G21G23G25G31G32R 5R 7R 9R15
                                R16R21R22E 3E 5E15E25
  23818862.286   125168965.923    23818864.627    97534267.946    23818864.520  
  23818863.859    93470337.568  
  20558582.870   108036082.575    20558583.460    84183962.403    20558583.442  
  20558582.120    80676291.989  
  23459752.498   123281831.460    23459751.802    96063759.287    23459751.105  
                                
  23581254.707   123920329.588                    96561287.499    23581252.634  
                                
  22628675.819   118914493.566    22628675.712    92660643.180    22628675.551  
  22628680.090    88799800.470  
  23154817.461   121679386.631    23154820.248    94815116.044    23154819.694  
  23154820.784    90864490.042  
  22550003.961   118501070.569    22550003.372    92338491.080    22550002.746  
                                
  20545841.918   107969128.190    20545842.775    84131789.725    20545842.328  
  20545841.596    80626294.930  
  23114850.853   123562124.548    23114852.605    96103881.948    23114852.676  
                                
  21163680.702   113290839.270    21163680.577    88115096.887    21163680.505  
                                
  21858026.333   116720641.277    21858027.477    90782726.154    21858027.548  
                                
  22378184.049   119582230.307    22378185.122    93008405.309    22378185.247  
                                
  19974899.544   106702327.720    19974898.490    82990694.834    19974899.652  
                                
  23110110.970   123666870.622    23110112.257    96185348.840    23110112.274  
                                
  21821846.315   116486496.870    21821847.548    90600614.197    21821846.726  
                                
  23623613.244   124142925.656                                                  
  23623616.639    92704145.387  
  25263735.365   132761825.762                                                  
  25263739.404    99140339.110  
  24931880.055   131017914.282                                                  
  24931884.826    97838070.969  
  25985833.126   136556475.250                                                  
  25985837.861   101974009.354  
 21  8 31 22 54 52.0000000  0 19G 1G10G12G21G23G25G31G32R 5R 7R 9R15
                                R16R21R22E 3E 5E15E25
  23818382.163   125166442.911    23818384.522    97532301.965    23818384.433  
  23818383.772    93468453.503  
  20558793.153   108037187.559    20558793.725    84184823.425    20558793.725  
  20558792.403    80677117.133  
  23459516.484   123280591.154    23459515.770    96062792.814    23459515.091  
                                
  23581037.706   123919189.297                    96560398.958    23581035.651  
                                
  22629234.834   118917431.186    22629234.727    92662932.235    22629234.566  
  22629239.105    88801994.142  
  23154333.711   121676844.551    23154336.516    94813135.203    23154335.962  
  23154337.034    90862591.735  
  22549335.553   118497558.140    22549334.981    92335754.120    22549334.356  
                                
  20545780.341   107968804.688    20545781.199    84131537.645    20545780.770  
  20545780.055    80626053.349  
  23115374.988   123564926.247    23115376.721    96106061.038    23115376.810  
                                
  21163244.572   113288504.523    21163244.412    88113280.977    21163244.340  
                                
  21857269.473   116716599.590    21857270.581    90779582.619    21857270.670  
                                
  22378754.339   119585277.680    22378755.394    93010775.483    22378755.519  
                                
  19974717.387   106701354.736    19974716.333    82989938.072    19974717.495  
                                
  23110855.501   123670854.613    23110856.769    96188447.490    23110856.787  
                                
  21822160.988   116488176.570    21822162.203    90601920.628    21822161.399  
                                
  23623566.320   124142679.075                                                  
  23623569.715    92703961.251  
  25264054.041   132763500.478                                                  
  25264058.098    99141589.712  
  24932224.284   131019723.146                                                  
  24932229.037    97839421.740  
  25985378.431   136554085.893                                                  
  25985383.184   101972225.081  
 21  8 31 22 54 53.0000000  0 19G 1G10G12G21G23G25G31G32R 5R 7R 9R15
                                R16R21R22E 3E 5E15E25
  23817902.166   125163920.485    23817904.524    97530336.436    23817904.417  
  23817903.756    93466569.867  
  20559003.543   108038293.101    20559004.097    84185684.889    20559004.079  
  20559002.775    80677942.707  
  23459280.560   123279351.467    23459279.863    96061826.826    23459279.184  
                                
  23580820.829   123918049.557                    96559510.851    23580818.756  
                                
  22629793.902   118920369.168    22629793.813    92665221.571    22629793.652  
  22629798.191    88804188.095  
  23153850.050   121674302.911    23153852.837    94811154.704    23153852.301  
  23153853.373    90860693.759  
  22548667.233   118494046.083    22548666.662    92333017.453    22548666.036  
                                
  20545718.836   107968481.543    20545719.729    84131285.845    20545719.282  
  20545718.550    80625812.040  
  23115899.158   123567728.155    23115900.891    96108240.297    23115900.962  
                                
  21162808.461   113286169.993    21162808.300    88111465.232    21162808.247  
                                
  21856512.648   116712558.302    21856513.792    90776439.395    21856513.863  
                                
  22379324.719   119588325.670    22379325.791    93013146.142    22379325.934  
                                
  19974535.445   106700382.746    19974534.373    82989182.079    19974535.534  
                                
  23111600.049   123674838.891    23111601.318    96191546.368    23111601.372  
                                
  21822475.805   116489857.133    21822477.055    90603227.728    21822476.233  
                                
  23623519.431   124142432.707                                                  
  23623522.827    92703777.282  
  25264372.771   132765175.353                                                  
  25264376.810    99142840.423  
  24932568.566   131021532.463                                                  
  24932573.355    97840772.859  
  25984923.807   136551696.850                                                  
  25984928.560   101970441.066  
 21  8 31 22 54 54.0000000  0 19G 1G10G12G21G23G25G31G32R 5R 7R 9R15
                                R16R21R22E 3E 5E15E25
  23817422.222   125161398.324    23817424.580    97528371.104    23817424.473  
  23817423.794    93464686.433  
  20559213.969   108039398.957    20559214.540    84186546.588    20559214.522  
  20559213.218    80678768.497  
  23459044.724   123278112.147    23459044.027    96060861.125    23459043.348  
                                
  23580604.007   123916910.108                    96558622.971    23580601.916  
                                
  22630353.006   118923307.234    22630352.899    92667510.971    22630352.738  
  22630357.295    88806382.106  
  23153366.425   121671761.435    23153369.212    94809174.326    23153368.676  
  23153369.766    90858795.888  
  22547998.932   118490534.139    22547998.360    92330280.874    22547997.735  
                                
  20545657.366   107968158.484    20545658.242    84131034.110    20545657.795  
  20545657.062    80625570.801  
  23116423.292   123570530.027    23116425.043    96110419.531    23116425.114  
                                
  21162372.332   113283835.419    21162372.189    88109649.445    21162372.117  
                                
  21855755.859   116708517.154    21855757.003    90773296.285    21855757.092  
                                
  22379895.169   119591374.069    22379896.259    93015517.108    22379896.384  
                                
  19974353.610   106699411.484    19974352.538    82988426.655    19974353.699  
                                
  23112344.598   123678823.171    23112345.884    96194645.255    23112345.920  
                                
  21822790.746   116491538.258    21822791.997    90604535.246    21822791.157  
                                
  23623472.543   124142186.296                                                  
  23623475.938    92703593.273  
  25264691.483   132766850.101                                                  
  25264695.504    99144091.047  
  24932912.902   131023341.979                                                  
  24932917.673    97842124.121  
  25984469.219   136549307.875                                                  
  25984473.954   101968657.080  
 21  8 31 22 54 55.0000000  0 19G 1G10G12G21G23G25G31G32R 5R 7R 9R15
                                R16R21R22E 3E 5E15E25
  23816942.367   125158876.594    23816944.708    97526406.120    23816944.600  
  23816943.939    93462803.309  
  20559424.484   108040505.220    20559425.037    84187408.611    20559425.037  
  20559423.733    80679594.605  
  23458808.996   123276873.346    23458808.299    96059895.828    23458807.602  
                                
  23580387.255   123915771.069                    96557735.411    23580385.165  
                                
  22630912.146   118926245.530    22630912.038    92669800.550    22630911.878  
  22630916.434    88808576.279  
  23152882.853   121669220.252    23152885.659    94807194.188    23152885.122  
  23152886.177    90856898.250  
  22547330.684   118487022.414    22547330.077    92327544.463    22547329.469  
                                
  20545595.933   107967835.668    20545596.826    84130782.563    20545596.379  
  20545595.647    80625329.727  
  23116947.444   123573331.920    23116949.213    96112598.770    23116949.284  
                                
  21161936.238   113281500.896    21161936.095    88107833.707    21161936.006  
                                
  21854999.124   116704476.236    21855000.268    90770153.346    21855000.339  
                                
  22380465.745   119594422.999    22380466.835    93017888.491    22380466.942  
                                
  19974171.936   106698441.051    19974170.863    82987671.874    19974172.025  
                                
  23113089.164   123682807.539    23113090.451    96197744.207    23113090.487  
                                
  21823105.813   116493220.090    21823107.046    90605843.338    21823106.224  
                                
  23623425.673   124141939.963                                                  
  23623429.086    92703409.315  
  25265010.177   132768524.855                                                  
  25265014.198    99145341.669  
  24933257.310   131025151.803                                                  
  24933262.081    97843475.609  
  25984014.631   136546919.075                                                  
  25984019.402   101966873.234  
 21  8 31 22 54 56.0000000  0 19G 1G10G12G21G23G25G31G32R 5R 7R 9R15
                                R16R21R22E 3E 5E15E25
  23816462.530   125156355.122    23816464.871    97524441.334    23816464.781  
  23816464.120    93460920.405  
  20559635.052   108041611.763    20559635.624    84188270.854    20559635.606  
  20559634.302    80680420.915  
  23458573.322   123275634.880    23458572.625    96058930.793    23458571.928  
                                
  23580170.540   123914632.292                    96556848.059    23580168.467  
                                
  22631471.303   118929183.899    22631471.214    92672090.181    22631471.053  
  22631475.592    88810770.522  
  23152399.317   121666679.205    23152402.105    94805214.156    23152401.569  
  23152402.641    90855000.715  
  22546662.418   118483510.789    22546661.847    92324808.132    22546661.221  
                                
  20545534.517   107967512.908    20545535.392    84130531.064    20545534.963  
  20545534.213    80625088.711  
  23117471.596   123576133.766    23117473.329    96114777.985    23117473.418  
                                
  21161500.109   113279166.286    21161499.966    88106017.897    21161499.877  
                                
  21854242.424   116700435.425    21854243.568    90767010.498    21854243.622  
                                
  22381036.392   119597472.341    22381037.482    93020260.199    22381037.607  
                                
  19973990.404   106697471.277    19973989.332    82986917.608    19973990.494  
                                
  23113833.731   123686791.831    23113835.017    96200843.102    23113835.071  
                                
  21823420.969   116494902.462    21823422.202    90607151.849    21823421.380  
                                
  23623378.767   124141693.543                                                  
  23623382.179    92703225.306  
  25265328.835   132770199.460                                                  
  25265332.856    99146592.183  
  24933601.717   131026961.785                                                  
  24933606.506    97844827.219  
  25983560.061   136544530.290                                                  
  25983564.814   101965089.417  
 21  8 31 22 54 57.0000000  0 19G 1G10G12G21G23G25G31G32R 5R 7R 9R15
                                R16R21R22E 3E 5E15E25
  23815982.818   125153834.164    23815985.159    97522476.953    23815985.052  
  23815984.391    93459037.876  
  20559845.728   108042718.842    20559846.300    84189133.511    20559846.300  
  20559844.977    80681247.630  
  23458337.754   123274397.032    23458337.057    96057966.233    23458336.378  
                                
  23579953.949   123913494.058                    96555961.123    23579951.859  
                                
  22632030.532   118932122.599    22632030.425    92674380.078    22632030.264  
  22632034.803    88812965.002  
  23151915.835   121664138.554    23151918.623    94803234.425    23151918.087  
  23151919.177    90853103.484  
  22545994.242   118479999.492    22545993.670    92322072.064    22545993.045  
                                
  20545473.154   107967190.477    20545474.030    84130279.819    20545473.583  
  20545472.851    80624847.937  
  23117995.766   123578935.850    23117997.535    96116957.382    23117997.606  
                                
  21161064.016   113276831.849    21161063.855    88104202.224    21161063.801  
                                
  21853485.778   116696394.976    21853486.904    90763867.928    21853486.976  
                                
  22381607.147   119600522.280    22381608.237    93022632.371    22381608.344  
                                
  19973809.034   106696502.452    19973807.961    82986164.075    19973809.123  
                                
  23114578.333   123690776.345    23114579.620    96203942.166    23114579.655  
                                
  21823736.285   116496585.665    21823737.536    90608461.007    21823736.696  
                                
  23623331.932   124141447.325                                                  
  23623335.327    92703041.440  
  25265647.529   132771874.170                                                  
  25265651.568    99147842.781  
  24933946.232   131028772.190                                                  
  24933951.021    97846179.145  
  25983105.545   136542141.814                                                  
  25983110.280   101963305.805  
 21  8 31 22 54 58.0000000  0 19G 1G10G12G21G23G25G31G32R 5R 7R 9R15
                                R16R21R22E 3E 5E15E25
  23815503.178   125151313.713    23815505.537    97520512.973    23815505.429  
  23815504.768    93457155.724  
  20560056.493   108043826.420    20560057.065    84189996.561    20560057.065  
  20560055.742    80682074.713  
  23458102.330   123273159.781    23458101.633    96057002.143    23458100.954  
                                
  23579737.430   123912356.290                    96555074.548    23579735.358  
                                
  22632589.779   118935061.605    22632589.689    92676670.207    22632589.529  
  22632594.085    88815159.712  
  23151432.442   121661598.295    23151435.248    94801255.006    23151434.712  
  23151435.766    90851206.536  
  22545326.119   118476488.524    22545325.547    92319336.247    22545324.922  
                                
  20545411.864   107966868.354    20545412.757    84130028.814    20545412.310  
  20545411.560    80624607.386  
  23118519.971   123581738.071    23118521.740    96119136.883    23118521.812  
                                
  21160627.976   113274497.571    21160627.815    88102386.672    21160627.743  
                                
  21852729.186   116692354.886    21852730.312    90760725.639    21852730.401  
                                
  22382178.026   119603572.789    22382179.081    93025004.989    22382179.223  
                                
  19973627.824   106695534.518    19973626.770    82985411.240    19973627.913  
                                
  23115322.989   123694761.077    23115324.275    96207041.397    23115324.311  
                                
  21824051.763   116498269.652    21824052.996    90609770.771    21824052.174  
                                
  23623285.097   124141201.251                                                  
  23623288.492    92702857.686  
  25265966.223   132773548.983                                                  
  25265970.262    99149093.455  
  24934290.836   131030582.985                                                  
  24934295.589    97847531.360  
  25982651.082   136539753.589                                                  
  25982655.817   101961522.402  
 21  8 31 22 54 59.0000000  0 19G 1G10G12G21G23G25G31G32R 5R 7R 9R15
                                R16R21R22E 3E 5E15E25
  23815023.680   125148793.894    23815026.021    97518549.488    23815025.914  
  23815025.253    93455274.042  
  20560267.365   108044934.612    20560267.937    84190860.090    20560267.937  
  20560266.615    80682902.265  
  23457867.013   123271923.204    23457866.316    96056038.584    23457865.637  
                                
  23579521.037   123911219.203                    96554188.513    23579518.982  
                                
  22633149.151   118938001.033    22633149.043    92678960.668    22633148.883  
  22633153.421    88817354.737  
  23150949.139   121659058.513    23150951.944    94799275.954    23150951.390  
  23150952.463    90849309.945  
  22544658.104   118472977.982    22544657.514    92316600.766    22544656.889  
                                
  20545350.644   107966546.644    20545351.520    84129778.133    20545351.091  
  20545350.341    80624367.148  
  23119044.249   123584540.567    23119046.018    96121316.576    23119046.089  
                                
  21160191.936   113272163.571    21160191.793    88100571.350    21160191.721  
                                
  21851972.683   116688315.191    21851973.809    90757583.651    21851973.880  
                                
  22382749.013   119606624.049    22382750.085    93027378.185    22382750.210  
                                
  19973446.811   106694567.635    19973445.756    82984659.220    19973446.918  
                                
  23116067.680   123698746.131    23116068.985    96210140.881    23116069.003  
                                
  21824367.401   116499954.543    21824368.634    90611081.236    21824367.812  
                                
  23623238.334   124140955.462                                                  
  23623241.729    92702674.142  
  25266284.971   132775223.990                                                  
  25266289.009    99150344.267  
  24934635.494   131032394.309                                                  
  24934640.283    97848883.967  
  25982196.708   136537365.767                                                  
  25982201.444   101959739.279  
 21  8 31 22 55  0.0000000  0 19G 1G10G12G21G23G25G31G32R 5R 7R 9R15
                                R16R21R22E 3E 5E15E25
  23814544.255   125146274.555    23814546.595    97516586.367    23814546.506  
  23814545.827    93453392.718  
  20560478.345   108046043.326    20560478.935    84191724.020    20560478.917  
  20560477.612    80683730.201  
  23457631.803   123270687.203    23457631.106    96055075.470    23457630.427  
                                
  23579304.750   123910082.544                    96553302.810    23579302.677  
                                
  22633708.576   118940940.763    22633708.469    92681251.365    22633708.308  
  22633712.847    88819549.986  
  23150465.907   121656519.126    23150468.730    94797297.205    23150468.158  
  23150469.248    90847413.645  
  22543990.124   118469467.763    22543989.552    92313865.533    22543988.927  
                                
  20545289.479   107966225.246    20545290.354    84129527.691    20545289.926  
  20545289.193    80624127.141  
  23119568.544   123587343.186    23119570.313    96123496.388    23119570.384  
                                
  21159755.985   113269829.726    21159755.824    88098756.139    21159755.735  
                                
  21851216.234   116684275.883    21851217.378    90754441.970    21851217.431  
                                
  22383320.143   119609675.913    22383321.197    93029751.857    22383321.322  
                                
  19973265.994   106693601.667    19973264.922    82983907.914    19973266.083  
                                
  23116812.425   123702731.380    23116813.712    96213240.519    23116813.748  
                                
  21824683.183   116501640.226    21824684.434    90612392.328    21824683.594  
                                
  23623191.588   124140709.819                                                  
  23623194.984    92702490.703  
  25266603.719   132776899.079                                                  
  25266607.757    99151595.149  
  24934980.277   131034206.017                                                  
  24934985.030    97850236.866  
  25981742.353   136534978.200                                                  
  25981747.088   101957956.353  
 21  8 31 22 55  1.0000000  0 19G 1G10G12G21G23G25G31G32R 5R 7R 9R15
                                R16R21R22E 3E 5E15E25
  23814064.954   125143755.777    23814067.295    97514623.686    23814067.187  
  23814066.526    93451511.821  
  20560689.432   108047152.600    20560690.021    84192588.390    20560690.003  
  20560688.699    80684558.553  
  23457396.736   123269451.859    23457396.021    96054112.867    23457395.342  
                                
  23579088.553   123908946.470                    96552417.557    23579086.480  
                                
  22634268.055   118943880.861    22634267.948    92683542.355    22634267.787  
  22634272.326    88821745.511  
  23149982.764   121653980.139    23149985.552    94795318.775    23149984.998  
  23149986.088    90845517.659  
  22543322.233   118465957.936    22543321.644    92311130.601    22543321.036  
                                
  20545228.402   107965904.200    20545229.260    84129277.527    20545228.831  
  20545228.099    80623887.407  
  23120092.874   123590146.031    23120094.643    96125676.377    23120094.697  
                                
  21159320.035   113267496.081    21159319.874    88096941.080    21159319.802  
                                
  21850459.874   116680236.945    21850461.000    90751300.576    21850461.071  
                                
  22383891.380   119612728.477    22383892.452    93032126.071    22383892.595  
                                
  19973085.338   106692636.681    19973084.266    82983157.369    19973085.428  
                                
  23117557.224   123706716.901    23117558.511    96216340.369    23117558.547  
                                
  21824999.125   116503326.747    21825000.376    90613704.062    21824999.554  
                                
  23623144.897   124140464.414                                                  
  23623148.292    92702307.448  
  25266922.520   132778574.323                                                  
  25266926.558    99152846.146  
  24935325.095   131036018.171                                                  
  24935329.866    97851590.104  
  25981288.068   136532590.944                                                  
  25981292.822   101956173.673  
 21  8 31 22 55  2.0000000  0 19G 1G10G12G21G23G25G31G32R 5R 7R 9R15
                                R16R21R22E 3E 5E15E25
  23813585.724   125141237.478    23813588.065    97512661.372    23813587.994  
  23813587.315    93449631.262  
  20560900.608   108048262.329    20560901.180    84193453.112    20560901.180  
  20560899.857    80685387.251  
  23457161.740   123268217.046    23457161.043    96053150.682    23457160.364  
                                
  23578872.462   123907810.856                    96551532.665    23578870.390  
                                
  22634827.570   118946821.207    22634827.481    92685833.534    22634827.320  
  22634831.859    88823941.235  
  23149499.657   121651441.527    23149502.481    94793340.631    23149501.927  
  23149502.999    90843621.942  
  22542654.397   118462448.365    22542653.789    92308395.872    22542653.164  
                                
  20545167.344   107965583.435    20545168.237    84129027.581    20545167.791  
  20545167.058    80623647.868  
  23120617.223   123592948.978    23120618.992    96127856.433    23120619.046  
                                
  21158884.102   113265162.523    21158883.941    88095126.093    21158883.887  
                                
  21849703.567   116676198.311    21849704.693    90748159.421    21849704.765  
                                
  22384462.742   119615781.597    22384463.796    93034500.722    22384463.939  
                                
  19972904.861   106691672.593    19972903.807    82982407.523    19972904.932  
                                
  23118302.041   123710702.562    23118303.310    96219440.323    23118303.345  
                                
  21825315.210   116505013.995    21825316.443    90615016.361    21825315.621  
                                
  23623098.205   124140219.124                                                  
  23623101.600    92702124.277  
  25267241.321   132780249.626                                                  
  25267245.360    99154097.175  
  24935670.021   131037830.706                                                  
  24935674.774    97852943.614  
  25980833.838   136530203.920                                                  
  25980838.573   101954391.164  
 21  8 31 22 55  3.0000000  0 19G 1G10G12G21G23G25G31G32R 5R 7R 9R15
                                R16R21R22E 3E 5E15E25
  23813106.567   125138719.483    23813108.907    97510699.298    23813108.836  
  23813108.157    93447750.941  
  20561111.855   108049372.411    20561112.427    84194318.110    20561112.427  
  20561111.105    80686216.199  
  23456926.852   123266982.650    23456926.137    96052188.819    23456925.458  
                                
  23578656.408   123906675.538                    96550647.997    23578654.335  
                                
  22635387.139   118949761.698    22635387.014    92688124.823    22635386.853  
  22635391.409    88826137.052  
  23149016.622   121648903.112    23149019.445    94791362.646    23149018.873  
  23149019.963    90841726.372  
  22541986.578   118458938.950    22541985.970    92305661.263    22541985.345  
                                
  20545106.321   107965262.785    20545107.215    84128777.721    20545106.768  
  20545106.053    80623408.422  
  23121141.589   123595751.934    23121143.341    96130036.500    23121143.430  
                                
  21158448.169   113262828.950    21158448.008    88093311.092    21158447.955  
                                
  21848947.279   116672159.850    21848948.423    90745018.398    21848948.494  
                                
  22385034.157   119618835.099    22385035.229    93036875.663    22385035.372  
                                
  19972724.509   106690709.253    19972723.473    82981658.259    19972724.598  
                                
  23119046.840   123714688.214    23119048.144    96222540.272    23119048.180  
                                
  21825631.403   116506701.890    21825632.671    90616329.164    21825631.849  
                                
  23623051.513   124139973.813                                                  
  23623054.926    92701941.092  
  25267560.087   132781924.832                                                  
  25267564.125    99155348.143  
  24936014.982   131039643.456                                                  
  24936019.753    97854297.289  
  25980379.625   136527817.004                                                  
  25980384.361   101952608.714  
 21  8 31 22 55  4.0000000  0 19G 1G10G12G21G23G25G31G32R 5R 7R 9R15
                                R16R21R22E 3E 5E15E25
  23812627.516   125136201.961    23812629.857    97508737.588    23812629.750  
  23812629.088    93445870.971  
  20561323.174   108050482.944    20561323.764    84195183.463    20561323.728  
  20561322.442    80687045.502  
  23456692.035   123265748.805    23456691.356    96051227.382    23456690.677  
                                
  23578440.461   123905540.728                    96549763.730    23578438.406  
                                
  22635946.743   118952702.464    22635946.636    92690416.327    22635946.475  
  22635951.013    88828333.076  
  23148533.640   121646365.034    23148536.428    94789384.934    23148535.892  
  23148536.982    90839831.068  
  22541318.794   118455429.816    22541318.205    92302926.878    22541317.597  
                                
  20545045.370   107964942.414    20545046.246    84128528.081    20545045.799  
  20545045.084    80623169.184  
  23121665.956   123598555.024    23121667.743    96132216.704    23121667.796  
                                
  21158012.254   113260495.503    21158012.094    88091496.193    21158012.040  
                                
  21848191.080   116668121.711    21848192.206    90741877.632    21848192.259  
                                
  22385605.698   119621889.170    22385606.752    93039251.059    22385606.895  
                                
  19972544.336   106689746.770    19972543.281    82980909.660    19972544.407  
                                
  23119791.692   123718674.061    23119792.996    96225640.361    23119793.032  
                                
  21825947.738   116508390.522    21825948.989    90617642.541    21825948.185  
                                
  23623004.875   124139728.637                                                  
  23623008.270    92701758.006  
  25267878.870   132783600.088                                                  
  25267882.926    99156599.141  
  24936359.997   131041456.555                                                  
  24936364.751    97855651.233  
  25979925.448   136525430.303                                                  
  25979930.184   101950826.443  
 21  8 31 22 55  5.0000000  0 19G 1G10G12G21G23G25G31G32R 5R 7R 9R15
                                R16R21R22E 3E 5E15E25
  23812148.555   125133685.058    23812150.895    97506776.370    23812150.806  
  23812150.127    93443991.477  
  20561534.619   108051594.117    20561535.208    84196049.309    20561535.208  
  20561533.886    80687875.268  
  23456457.379   123264515.665    23456456.682    96050266.493    23456456.003  
                                
  23578224.621   123904406.511                    96548879.924    23578222.566  
                                
  22636506.436   118955643.656    22636506.347    92692708.167    22636506.186  
  22636510.725    88830529.410  
  23148050.748   121643827.452    23148053.553    94787407.600    23148052.999  
  23148054.071    90837936.127  
  22540651.118   118451921.129    22540650.529    92300192.835    22540649.921  
                                
  20544984.472   107964622.459    20544985.348    84128278.766    20544984.937  
  20544984.204    80622930.256  
  23122190.394   123601358.365    23122192.181    96134397.074    23122192.234  
                                
  21157576.411   113258162.340    21157576.250    88089681.511    21157576.197  
                                
  21847434.934   116664083.986    21847436.060    90738737.182    21847436.131  
                                
  22386177.364   119624943.985    22386178.418    93041627.026    22386178.561  
                                
  19972364.341   106688785.255    19972363.287    82980161.814    19972364.430  
                                
  23120536.616   123722660.218    23120537.902    96228740.701    23120537.938  
                                
  21826264.252   116510080.104    21826265.503    90618956.659    21826264.699  
                                
  23622958.273   124139483.736                                                  
  23622961.668    92701575.119  
  25268197.725   132785275.558                                                  
  25268201.763    99157850.304  
  24936705.120   131043270.179                                                  
  24936709.891    97857005.563  
  25979471.343   136523043.983                                                  
  25979476.078   101949044.451  
 21  8 31 22 55  6.0000000  0 19G 1G10G12G21G23G25G31G32R 5R 7R 9R15
                                R16R21R22E 3E 5E15E25
  23811669.665   125131168.581    23811672.024    97504815.479    23811671.934  
  23811671.273    93442112.287  
  20561746.152   108052705.709    20561746.742    84196915.488    20561746.742  
  20561745.419    80688705.355  
  23456222.812   123263283.017    23456222.116    96049305.989    23456221.437  
                                
  23578008.870   123903272.714                    96547996.450    23578006.798  
                                
  22637066.166   118958585.062    22637066.058    92695000.165    22637065.898  
  22637070.454    88832725.919  
  23147567.909   121641290.152    23147570.714    94785430.487    23147570.160  
  23147571.250    90836041.394  
  22539983.478   118448412.667    22539982.888    92297458.969    22539982.281  
                                
  20544923.646   107964302.733    20544924.504    84128029.629    20544924.093  
  20544923.343    80622691.502  
  23122714.832   123604161.765    23122716.619    96136577.496    23122716.672  
                                
  21157140.568   113255829.251    21157140.407    88087866.886    21157140.335  
                                
  21846678.842   116660046.524    21846679.986    90735596.941    21846680.039  
                                
  22386749.101   119627999.325    22386750.191    93044003.402    22386750.316  
                                
  19972184.489   106687824.568    19972183.435    82979414.614    19972184.561  
                                
  23121281.540   123726646.483    23121282.844    96231841.124    23121282.880  
                                
  21826580.909   116511770.392    21826582.160    90620271.330    21826581.338  
                                
  23622911.670   124139238.915                                                  
  23622915.083    92701392.303  
  25268516.544   132786951.032                                                  
  25268520.600    99159101.467  
  24937050.296   131045084.120                                                  
  24937055.067    97858360.125  
  25979017.273   136520657.860                                                  
  25979022.026   101947262.615  
 21  8 31 22 55  7.0000000  0 19G 1G10G12G21G23G25G31G32R 5R 7R 9R15
                                R16R21R22E 3E 5E15E25
  23811190.918   125128652.632    23811193.259    97502855.001    23811193.169  
  23811192.490    93440233.490  
  20561957.793   108053817.833    20561958.365    84197782.075    20561958.365  
  20561957.042    80689535.842  
  23455988.353   123262050.972    23455987.656    96048345.960    23455986.977  
                                
  23577793.227   123902139.441                    96547113.377    23577791.136  
                                
  22637625.966   118961526.788    22637625.859    92697292.416    22637625.698  
  22637630.255    88834922.664  
  23147085.159   121638753.271    23147087.965    94783453.697    23147087.393  
  23147088.501    90834146.975  
  22539315.891   118444904.531    22539315.319    92294725.357    22539314.694  
                                
  20544862.856   107963983.339    20544863.749    84127780.750    20544863.303  
  20544862.570    80622452.996  
  23123239.288   123606965.342    23123241.075    96138758.058    23123241.146  
                                
  21156704.778   113253496.348    21156704.599    88086052.408    21156704.528  
                                
  21845922.822   116656009.414    21845923.947    90732456.971    21845924.037  
                                
  22387320.999   119631055.312    22387322.071    93046380.281    22387322.196  
                                
  19972004.816   106686864.831    19972003.780    82978668.153    19972004.888  
                                
  23122026.517   123730632.933    23122027.821    96234941.694    23122027.857  
                                
  21826897.727   116513461.492    21826898.960    90621586.627    21826898.138  
                                
  23622865.121   124138994.267                                                  
  23622868.534    92701209.611  
  25268835.399   132788626.605                                                  
  25268839.455    99160352.709  
  24937395.561   131046898.478                                                  
  24937400.332    97859715.002  
  25978563.275   136518272.027                                                  
  25978567.992   101945480.980  
 21  8 31 22 55  8.0000000  0 19G 1G10G12G21G23G25G31G32R 5R 7R 9R15
                                R16R21R22E 3E 5E15E25
  23810712.296   125126137.463    23810714.637    97500895.132    23810714.548  
  23810713.869    93438355.279  
  20562169.576   108054930.749    20562170.130    84198649.283    20562170.130  
  20562168.808    80690366.920  
  23455754.072   123260819.803    23455753.375    96047386.615    23455752.696  
                                
  23577577.709   123901006.956                    96546230.920    23577575.636  
                                
  22638185.874   118964469.133    22638185.767    92699585.150    22638185.624  
  22638190.181    88837119.854  
  23146602.535   121636217.051    23146605.340    94781477.424    23146604.768  
  23146605.876    90832253.039  
  22538648.430   118441397.020    22538647.858    92291992.236    22538647.232  
                                
  20544802.191   107963664.526    20544803.066    84127532.325    20544802.637  
  20544801.905    80622214.923  
  23123763.851   123609769.405    23123765.638    96140938.996    23123765.691  
                                
  21156269.042   113251163.872    21156268.863    88084238.260    21156268.810  
                                
  21845166.926   116651972.942    21845168.052    90729317.495    21845168.124  
                                
  22387893.058   119634112.203    22387894.130    93048757.858    22387894.255  
                                
  19971825.375   106685906.357    19971824.339    82977922.672    19971825.483  
                                
  23122771.566   123734619.879    23122772.870    96238042.652    23122772.906  
                                
  21827214.705   116515153.685    21827215.974    90622902.778    21827215.152  
                                
  23622818.662   124138750.080                                                  
  23622822.057    92701027.264  
  25269154.325   132790302.571                                                  
  25269158.381    99161604.242  
  24937740.951   131048713.525                                                  
  24937745.722    97861070.392  
  25978109.384   136515886.749                                                  
  25978114.101   101943699.759  
 21  8 31 22 55  9.0000000  0 19G 1G10G12G21G23G25G31G32R 5R 7R 9R15
                                R16R21R22E 3E 5E15E25
  23810233.746   125123622.750    23810236.105    97498935.603    23810236.015  
  23810235.354    93436477.411  
  20562381.449   108056044.143    20562382.021    84199516.867    20562382.003  
  20562380.699    80691198.344  
  23455519.881   123259589.175    23455519.202    96046427.674    23455518.523  
                                
  23577362.298   123899874.928                    96545348.834    23577360.225  
                                
  22638745.836   118967411.709    22638745.729    92701878.070    22638745.568  
  22638750.124    88839317.238  
  23146119.982   121633681.159    23146122.752    94779501.418    23146122.215  
  23146123.305    90830359.367  
  22537981.039   118437889.785    22537980.450    92289259.330    22537979.842  
                                
  20544741.579   107963345.991    20544742.454    84127284.116    20544742.026  
  20544741.293    80621977.050  
  23124288.432   123612573.591    23124290.218    96143120.041    23124290.272  
                                
  21155833.324   113248831.501    21155833.145    88082424.187    21155833.091  
                                
  21844411.067   116647936.750    21844412.192    90726178.237    21844412.264  
                                
  22388465.224   119637169.644    22388466.296    93051135.863    22388466.421  
                                
  19971646.131   106684948.813    19971645.095    82977177.916    19971646.221  
                                
  23123516.651   123738606.983    23123517.955    96241143.736    23123517.991  
                                
  21827531.862   116516846.633    21827533.095    90624219.501    21827532.291  
                                
  23622772.220   124138506.010                                                  
  23622775.616    92700845.004  
  25269473.269   132791978.587                                                  
  25269477.308    99162855.806  
  24938086.413   131050528.927                                                  
  24938091.166    97862426.046  
  25977655.493   136513501.691                                                  
  25977660.228   101941918.720  
 21  8 31 22 55 10.0000000  0 19G 1G10G12G21G23G25G31G32R 5R 7R 9R15
                                R16R21R22E 3E 5E15E25
  23809755.285   125121108.385    23809757.626    97496976.358    23809757.554  
  23809756.875    93434599.792  
  20562593.376   108057157.872    20562593.948    84200384.706    20562593.948  
  20562592.643    80692030.018  
  23455285.797   123258358.963    23455285.100    96045469.075    23455284.421  
                                
  23577146.940   123898743.237                    96544467.000    23577144.867  
                                
  22639305.833   118970354.442    22639305.708    92704171.106    22639305.565  
  22639310.104    88841514.728  
  23145637.447   121631145.479    23145640.234    94777525.570    23145639.680  
  23145640.788    90828465.842  
  22537313.649   118434382.690    22537313.078    92286526.529    22537312.452  
                                
  20544680.985   107963027.583    20544681.861    84127036.006    20544681.432  
  20544680.699    80621739.276  
  23124813.012   123615377.791    23124814.782    96145301.084    23124814.853  
                                
  21155397.623   113246499.112    21155397.445    88080610.111    21155397.373  
                                
  21843655.243   116643900.737    21843656.386    90723039.120    21843656.440  
                                
  22389037.462   119640227.496    22389038.534    93053514.190    22389038.659  
                                
  19971467.012   106683991.979    19971465.958    82976433.712    19971467.102  
                                
  23124261.753   123742594.115    23124263.058    96244244.836    23124263.075  
                                
  21827849.109   116518540.156    21827850.360    90625536.687    21827849.538  
                                
  23622725.761   124138261.929                                                  
  23622729.174    92700662.735  
  25269792.178   132793654.512                                                  
  25269796.234    99164107.319  
  24938431.911   131052344.561                                                  
  24938436.682    97863781.881  
  25977201.655   136511116.733                                                  
  25977206.391   101940137.747  
 21  8 31 22 55 11.0000000  0 19G 1G10G12G21G23G25G31G32R 5R 7R 9R15
                                R16R21R22E 3E 5E15E25
  23809276.931   125118594.611    23809279.272    97495017.575    23809279.201  
  23809278.539    93432722.621  
  20562805.428   108058272.182    20562806.000    84201252.999    20562805.982  
  20562804.695    80692862.139  
  23455051.802   123257129.435    23455051.105    96044511.003    23455050.444  
                                
  23576931.690   123897612.127                    96543585.616    23576929.617  
                                
  22639865.866   118973297.564    22639865.777    92706464.443    22639865.616  
  22639870.173    88843712.515  
  23145155.001   121628610.265    23145157.789    94775550.079    23145157.235  
  23145158.325    90826572.676  
  22536646.349   118430876.022    22536645.777    92283794.060    22536645.151  
                                
  20544620.480   107962709.571    20544621.356    84126788.204    20544620.909  
  20544620.177    80621501.806  
  23125337.629   123618182.228    23125339.416    96147482.316    23125339.470  
                                
  21154961.941   113244166.956    21154961.780    88078796.217    21154961.726  
                                
  21842899.508   116639865.157    21842900.634    90719900.338    21842900.723  
                                
  22389609.824   119643286.041    22389610.897    93055893.053    22389611.022  
                                
  19971288.072   106683036.135    19971287.035    82975690.280    19971288.161  
                                
  23125006.873   123746581.503    23125008.178    96247346.133    23125008.214  
                                
  21828166.534   116520234.555    21828167.767    90626854.551    21828166.945  
                                
  23622679.373   124138018.100                                                  
  23622682.768    92700480.655  
  25270111.122   132795330.622                                                  
  25270115.178    99165358.956  
  24938777.515   131054160.674                                                  
  24938782.269    97865138.066  
  25976747.889   136508732.135                                                  
  25976752.607   101938357.039  
 21  8 31 22 55 12.0000000  0 19G 1G10G12G21G23G25G31G32R 5R 7R 9R15
                                R16R21R22E 3E 5E15E25
  23808798.649   125116081.244    23808800.990    97493059.103    23808800.918  
  23808800.257    93430845.754  
  20563017.551   108059386.917    20563018.141    84202121.624    20563018.123  
  20563016.818    80693694.569  
  23454817.932   123255900.382    23454817.235    96043553.297    23454816.556  
                                
  23576716.547   123896481.443                    96542704.558    23576714.456  
                                
  22640425.989   118976240.910    22640425.881    92708757.955    22640425.721  
  22640430.277    88845910.454  
  23144672.627   121626075.351    23144675.432    94773574.819    23144674.860  
  23144675.968    90824679.707  
  22535979.101   118427369.555    22535978.512    92281061.748    22535977.886  
                                
  20544559.994   107962391.776    20544560.869    84126540.572    20544560.458  
  20544559.708    80621264.483  
  23125862.264   123620986.715    23125864.051    96149663.584    23125864.104  
                                
  21154526.294   113241834.863    21154526.115    88076982.367    21154526.062  
                                
  21842143.809   116635829.827    21842144.953    90716761.752    21842145.007  
                                
  22390182.294   119646345.107    22390183.366    93058272.328    22390183.491  
                                
  19971109.292   106682081.097    19971108.238    82974947.470    19971109.382  
                                
  23125752.047   123750569.020    23125753.352    96250447.531    23125753.388  
                                
  21828484.085   116521929.634    21828485.318    90628172.950    21828484.496  
                                
  23622632.985   124137774.332                                                  
  23622636.380    92700298.616  
  25270430.084   132797006.714                                                  
  25270434.122    99166610.585  
  24939123.174   131055977.098                                                  
  24939127.945    97866494.482  
  25976294.123   136506347.705                                                  
  25976298.876   101936576.458  
 21  8 31 22 55 13.0000000  0 19G 1G10G12G21G23G25G31G32R 5R 7R 9R15
                                R16R21R22E 3E 5E15E25
  23808320.456   125113568.294    23808322.815    97491100.960    23808322.725  
  23808322.064    93428969.200  
  20563229.746   108060502.081    20563230.353    84202990.580    20563230.335  
  20563229.013    80694527.319  
  23454584.152   123254671.831    23454583.455    96042595.985    23454582.758  
                                
  23576501.458   123895351.138                    96541823.805    23576499.367  
                                
  22640986.129   118979184.470    22640986.004    92711051.636    22640985.861  
  22640990.400    88848108.574  
  23144190.288   121623540.718    23144193.094    94771599.785    23144192.522  
  23144193.630    90822786.977  
  22535311.890   118423863.338    22535311.318    92278329.634    22535310.693  
                                
  20544499.561   107962074.190    20544500.436    84126293.099    20544500.007  
  20544499.257    80621027.330  
  23126386.916   123623791.261    23126388.703    96151844.898    23126388.757  
                                
  21154090.665   113239502.838    21154090.486    88075168.570    21154090.415  
                                
  21841388.164   116631794.720    21841389.308    90713623.343    21841389.361  
                                
  22390754.853   119649404.717    22390755.908    93060652.024    22390756.051  
                                
  19970930.638   106681126.870    19970929.601    82974205.296    19970930.745  
                                
  23126497.257   123754556.683    23126498.544    96253549.044    23126498.597  
                                
  21828801.742   116523625.407    21828803.011    90629491.883    21828802.189  
                                
  23622586.597   124137530.655                                                  
  23622589.992    92700116.661  
  25270749.028   132798682.833                                                  
  25270753.102    99167862.228  
  24939468.886   131057793.823                                                  
  24939473.639    97867851.135  
  25975840.429   136503963.472                                                  
  25975845.164   101934796.020  
 21  8 31 22 55 14.0000000  0 19G 1G10G12G21G23G25G31G32R 5R 7R 9R15
                                R16R21R22E 3E 5E15E25
  23807842.317   125111055.643    23807844.658    97489143.048    23807844.586  
  23807843.925    93427092.883  
  20563442.030   108061617.547    20563442.601    84203859.777    20563442.601  
  20563441.279    80695360.301  
  23454350.443   123253443.683    23454349.746    96041638.979    23454349.067  
                                
  23576286.422   123894221.184                    96540943.327    23576284.331  
                                
  22641546.269   118982128.136    22641546.180    92713345.392    22641546.019  
  22641550.576    88850306.763  
  23143707.985   121621006.276    23143710.791    94769624.893    23143710.237  
  23143711.327    90820894.379  
  22534644.696   118420357.248    22534644.107    92275597.617    22534643.499  
                                
  20544439.163   107961756.729    20544440.039    84126045.730    20544439.592  
  20544438.860    80620790.261  
  23126911.551   123626595.799    23126913.337    96154026.215    23126913.409  
                                
  21153655.000   113237170.805    21153654.822    88073354.768    21153654.768  
                                
  21840632.537   116627759.778    21840633.680    90710485.064    21840633.734  
                                
  22391327.502   119652464.763    22391328.556    93063032.064    22391328.699  
                                
  19970752.144   106680173.362    19970751.108    82973463.679    19970752.233  
                                
  23127242.431   123758544.334    23127243.736    96256650.548    23127243.771  
                                
  21829119.543   116525321.782    21829120.794    90630811.295    21829119.972  
                                
  23622540.227   124137286.938                                                  
  23622543.640    92699934.660  
  25271067.955   132800358.846                                                  
  25271072.029    99169113.792  
  24939814.634   131059610.760                                                  
  24939819.369    97869207.936  
  25975386.752   136501579.306                                                  
  25975391.470   101933015.645  
 21  8 31 22 55 15.0000000  0 19G 1G10G12G21G23G25G31G32R 5R 7R 9R15
                                R16R21R22E 3E 5E15E25
  23807364.302   125108543.673    23807366.661    97487185.675    23807366.554  
  23807365.893    93425217.057  
  20563654.421   108062733.691    20563654.993    84204729.497    20563654.993  
  20563653.670    80696193.783  
  23454116.877   123252216.282    23454116.180    96040682.561    23454115.519  
                                
  23576071.529   123893091.853                    96540063.333    23576069.438  
                                
  22642106.535   118985072.276    22642106.427    92715639.528    22642106.266  
  22642110.823    88852505.306  
  23143225.826   121618472.406    23143228.631    94767650.458    23143228.077  
  23143229.167    90819002.188  
  22533977.592   118416851.638    22533977.002    92272865.976    22533976.395  
                                
  20544378.820   107961439.730    20544379.713    84125798.717    20544379.266  
  20544378.552    80620553.543  
  23127436.257   123629400.642    23127438.043    96156207.756    23127438.115  
                                
  21153219.443   113234839.109    21153219.264    88071541.227    21153219.193  
                                
  21839877.034   116623725.357    21839878.142    90707347.181    21839878.232  
                                
  22391900.276   119655525.560    22391901.366    93065412.684    22391901.473  
                                
  19970573.865   106679220.964    19970572.793    82972722.927    19970573.936  
                                
  23127987.695   123762532.302    23127988.999    96259752.299    23127989.035  
                                
  21829437.504   116527019.103    21829438.773    90632131.433    21829437.951  
                                
  23622493.928   124137043.558                                                  
  23622497.323    92699752.912  
  25271386.952   132802035.094                                                  
  25271391.009    99170365.542  
  24940160.506   131061428.270                                                  
  24940165.259    97870565.159  
  25974933.129   136499195.565                                                  
  25974937.847   101931235.581  
 21  8 31 22 55 16.0000000  0 19G 1G10G12G21G23G25G31G32R 5R 7R 9R15
                                R16R21R22E 3E 5E15E25
  23806886.395   125106032.284    23806888.754    97485228.746    23806888.665  
  23806888.004    93423341.667  
  20563866.937   108063850.419    20563867.509    84205599.677    20563867.491  
  20563866.187    80697027.708  
  23453883.418   123250989.542    23453882.739    96039726.662    23453882.060  
                                
  23575856.725   123891963.126                    96539183.803    23575854.653  
                                
  22642666.871   118988016.805    22642666.746    92717933.963    22642666.585  
  22642671.160    88854704.135  
  23142743.719   121615938.965    23142746.525    94765676.350    23142745.953  
  23142747.061    90817110.339  
  22533310.577   118413346.437    22533309.988    92270134.659    22533309.362  
                                
  20544318.583   107961123.112    20544319.459    84125551.999    20544319.012  
  20544318.280    80620317.112  
  23127961.016   123632205.711    23127962.803    96158389.479    23127962.857  
                                
  21152783.903   113232507.644    21152783.725    88069727.868    21152783.653  
                                
  21839121.586   116619691.336    21839122.694    90704209.612    21839122.783  
                                
  22392473.210   119658587.026    22392474.264    93067793.827    22392474.390  
                                
  19970395.746   106678269.544    19970394.692    82971982.934    19970395.800  
                                
  23128732.994   123766520.551    23128734.298    96262854.263    23128734.334  
                                
  21829755.627   116528717.285    21829756.895    90633452.239    21829756.073  
                                
  23622447.630   124136800.392                                                  
  23622451.060    92699571.332  
  25271705.968   132803711.518                                                  
  25271710.024    99171617.415  
  24940506.433   131063246.234                                                  
  24940511.204    97871922.736  
  25974479.595   136496812.174                                                  
  25974484.313   101929455.778  
 21  8 31 22 55 17.0000000  0 19G 1G10G12G21G23G25G31G32R 5R 7R 9R15
                                R16R21R22E 3E 5E15E25
  23806408.578   125103521.338    23806410.936    97483272.165    23806410.847  
  23806410.186    93421466.608  
  20564079.507   108064967.610    20564080.114    84206470.211    20564080.079  
  20564078.792    80697861.970  
  23453650.084   123249763.306    23453649.405    96038771.153    23453648.726  
                                
  23575642.029   123890834.843                    96538304.626    23575639.938  
                                
  22643227.244   118990961.582    22643227.119    92720228.593    22643226.958  
  22643231.515    88856903.162  
  23142261.685   121613405.852    23142264.490    94763702.510    23142263.918  
  23142265.026    90815218.740  
  22532643.616   118409841.502    22532643.026    92267403.543    22532642.383  
                                
  20544258.365   107960806.758    20544259.276    84125305.490    20544258.829  
  20544258.097    80620080.865  
  23128485.794   123635010.923    23128487.563    96160571.311    23128487.634  
                                
  21152348.364   113230176.253    21152348.185    88067914.566    21152348.132  
                                
  21838366.191   116615657.590    21838367.316    90701072.251    21838367.370  
                                
  22393046.198   119661649.011    22393047.270    93070175.371    22393047.413  
                                
  19970217.789   106677319.019    19970216.752    82971243.641    19970217.878  
                                
  23129478.328   123770508.952    23129479.615    96265956.349    23129479.669  
                                
  21830073.910   116530416.233    21830075.161    90634773.645    21830074.339  
                                
  23622401.402   124136557.358                                                  
  23622404.798    92699389.843  
  25272024.966   132805387.977                                                  
  25272029.022    99172869.318  
  24940852.466   131065064.553                                                  
  24940857.202    97873280.569  
  25974026.098   136494429.015                                                  
  25974030.815   101927676.131  
 21  8 31 22 55 18.0000000  0 19G 1G10G12G21G23G25G31G32R 5R 7R 9R15
                                R16R21R22E 3E 5E15E25
  23805930.867   125101010.920    23805933.226    97481315.993    23805933.119  
  23805932.458    93419591.949  
  20564292.220   108066085.330    20564292.809    84207341.164    20564292.809  
  20564291.487    80698696.628  
  23453416.858   123248537.705    23453416.179    96037816.146    23453415.500  
                                
  23575427.422   123889707.090                    96537425.849    23575425.349  
                                
  22643787.688   118993906.695    22643787.563    92722523.485    22643787.402  
  22643791.976    88859102.423  
  23141779.703   121610873.130    23141782.509    94761728.964    23141781.955  
  23141783.045    90813327.430  
  22531976.708   118406336.914    22531976.119    92264672.698    22531975.493  
                                
  20544198.235   107960490.723    20544199.129    84125059.229    20544198.682  
  20544197.967    80619844.865  
  23129010.589   123637816.282    23129012.376    96162753.257    23129012.429  
                                
  21151912.878   113227845.003    21151912.699    88066101.371    21151912.628  
                                
  21837610.867   116611624.239    21837611.993    90697935.201    21837612.064  
                                
  22393619.329   119664711.623    22393620.419    93072557.400    22393620.527  
                                
  19970040.046   106676369.445    19970038.991    82970505.086    19970040.099  
                                
  23130223.699   123774497.578    23130225.003    96269058.606    23130225.039  
                                
  21830392.336   116532115.973    21830393.569    90636095.668    21830392.765  
                                
  23622355.175   124136314.500                                                  
  23622358.570    92699208.484  
  25272344.017   132807064.554                                                  
  25272348.073    99174121.303  
  24941198.554   131066883.292                                                  
  24941203.307    97874638.723  
  25973572.635   136492046.122                                                  
  25973577.353   101925896.715  
 21  8 31 22 55 19.0000000  0 19G 1G10G12G21G23G25G31G32R 5R 7R 9R15
                                R16R21R22E 3E 5E15E25
  23805453.228   125098500.819    23805455.569    97479360.068    23805455.462  
  23805454.801    93417717.524  
  20564504.951   108067203.375    20564505.558    84208212.366    20564505.540  
  20564504.236    80699531.532  
  23453183.703   123247312.534    23453183.006    96036861.465    23453182.345  
                                
  23575212.869   123888579.652                    96536547.323    23575210.796  
                                
  22644348.132   118996851.927    22644348.025    92724818.465    22644347.864  
  22644352.421    88861301.779  
  23141297.794   121608340.639    23141300.599    94759755.583    23141300.027  
  23141301.135    90811436.276  
  22531309.818   118402832.461    22531309.247    92261941.955    22531308.621  
                                
  20544138.106   107960174.806    20544139.000    84124813.060    20544138.553  
  20544137.838    80619608.964  
  23129535.384   123640621.614    23129537.153    96164935.179    23129537.225  
                                
  21151477.374   113225513.747    21151477.195    88064288.163    21151477.142  
                                
  21836855.579   116607591.038    21836856.705    90694798.274    21836856.759  
                                
  22394192.550   119667774.685    22394193.622    93074939.784    22394193.747  
                                
  19969862.410   106675420.629    19969861.373    82969767.116    19969862.481  
                                
  23130969.070   123778486.218    23130970.392    96272160.891    23130970.428  
                                
  21830710.851   116533816.361    21830712.120    90637418.197    21830711.298  
                                
  23622308.966   124136071.621                                                  
  23622312.361    92699027.116  
  25272663.051   132808741.037                                                  
  25272667.107    99175373.217  
  24941544.677   131068702.245                                                  
  24941549.448    97875997.023  
  25973119.209   136489663.321                                                  
  25973123.908   101924117.351  
 21  8 31 22 55 20.0000000  0 19G 1G10G12G21G23G25G31G32R 5R 7R 9R15
                                R16R21R22E 3E 5E15E25
  23804975.697   125095991.338    23804978.037    97477404.630    23804977.930  
  23804977.269    93415843.553  
  20564717.824   108068322.022    20564718.432    84209084.036    20564718.414  
  20564717.092    80700366.885  
  23452950.708   123246088.027    23452949.994    96035907.304    23452949.315  
                                
  23574998.440   123887452.809                    96535669.266    23574996.368  
                                
  22644908.665   118999797.556    22644908.576    92727113.757    22644908.415  
  22644912.972    88863501.434  
  23140815.955   121605808.600    23140818.761    94757782.571    23140818.189  
  23140819.297    90809545.470  
  22530643.018   118399328.418    22530642.446    92259211.530    22530641.821  
                                
  20544078.084   107959859.303    20544078.960    84124567.212    20544078.531  
  20544077.798    80619373.352  
  23130060.233   123643427.211    23130062.002    96167117.306    23130062.074  
                                
  21151041.924   113223182.739    21151041.745    88062475.161    21151041.674  
                                
  21836100.381   116603558.267    21836101.489    90691661.678    21836101.560  
                                
  22394765.895   119670838.478    22394766.949    93077322.732    22394767.092  
                                
  19969684.970   106674472.798    19969683.916    82969029.916    19969685.042  
                                
  23131714.512   123782475.139    23131715.834    96275263.383    23131715.852  
                                
  21831029.563   116535517.598    21831030.832    90638741.376    21831030.010  
                                
  23622262.792   124135829.001                                                  
  23622266.205    92698845.938  
  25272982.102   132810417.695                                                  
  25272986.158    99176625.272  
  24941890.907   131070521.691                                                  
  24941895.678    97877355.703  
  25972665.836   136487280.892                                                  
  25972670.553   101922338.264  
 21  8 31 22 55 21.0000000  0 19G 1G10G12G21G23G25G31G32R 5R 7R 9R15
                                R16R21R22E 3E 5E15E25
  23804498.254   125093482.390    23804500.595    97475449.606    23804500.488  
  23804499.862    93413970.004  
  20564930.805   108069441.235    20564931.413    84209956.151    20564931.413  
  20564930.090    80701202.659  
  23452717.804   123244864.148    23452717.107    96034953.632    23452716.428  
                                
  23574784.119   123886326.520                    96534791.638    23574782.029  
                                
  22645469.288   119002743.548    22645469.163    92729409.329    22645469.002  
  22645473.559    88865701.368  
  23140334.225   121603277.005    23140337.012    94755809.904    23140336.458  
  23140337.566    90807654.992  
  22529976.307   118395824.769    22529975.717    92256481.411    22529975.092  
                                
  20544018.116   107959544.161    20544018.991    84124321.646    20544018.562  
  20544017.812    80619138.023  
  23130585.118   123646233.053    23130586.923    96169299.625    23130586.976  
                                
  21150606.527   113220851.985    21150606.349    88060662.350    21150606.295  
                                
  21835345.236   116599525.874    21835346.344    90688525.373    21835346.433  
                                
  22395339.384   119673902.970    22395340.438    93079706.225    22395340.581  
                                
  19969507.710   106673525.933    19969506.673    82968293.465    19969507.799  
                                
  23132459.972   123786464.306    23132461.294    96278366.065    23132461.330  
                                
  21831348.436   116537219.667    21831349.686    90640065.201    21831348.864  
                                
  23622216.672   124135586.595                                                  
  23622220.068    92698664.925  
  25273301.189   132812094.515                                                  
  25273305.246    99177877.436  
  24942237.244   131072341.601                                                  
  24942241.997    97878714.717  
  25972212.535   136484898.783                                                  
  25972217.252   101920559.423  
 21  8 31 22 55 22.0000000  0 19G 1G10G12G21G23G25G31G32R 5R 7R 9R15
                                R16R21R22E 3E 5E15E25
  23804020.901   125090973.915    23804023.242    97473494.950    23804023.153  
  23804022.491    93412096.781  
  20565143.893   108070560.912    20565144.465    84210828.628    20565144.465  
  20565143.143    80702038.780  
  23452485.006   123243640.814    23452484.309    96034000.383    23452483.648  
                                
  23574569.888   123885200.702                    96533914.370    23574567.797  
                                
  22646029.947   119005689.808    22646029.839    92731705.118    22646029.679  
  22646034.235    88867901.477  
  23139852.529   121600745.744    23139855.335    94753837.497    23139854.763  
  23139855.871    90805764.769  
  22529309.631   118392321.366    22529309.060    92253751.487    22529308.416  
                                
  20543958.183   107959229.280    20543959.094    84124076.287    20543958.648  
  20543957.897    80618902.878  
  23131110.038   123649038.997    23131111.825    96171482.021    23131111.879  
                                
  21150171.148   113218521.341    21150170.952    88058849.628    21150170.916  
                                
  21834590.144   116595493.797    21834591.288    90685389.315    21834591.342  
                                
  22395912.961   119676967.984    22395914.016    93082090.127    22395914.159  
                                
  19969330.628   106672579.903    19969329.573    82967557.664    19969330.681  
                                
  23133205.485   123790453.624    23133206.789    96281468.862    23133206.825  
                                
  21831667.416   116538922.484    21831668.684    90641389.612    21831667.880  
                                
  23622170.553   124135344.312                                                  
  23622173.966    92698483.996  
  25273620.276   132813771.365                                                  
  25273624.333    99179129.631  
  24942583.599   131074161.842                                                  
  24942588.370    97880073.993  
  25971759.269   136482516.894                                                  
  25971763.969   101918780.738  
 21  8 31 22 55 23.0000000  0 19G 1G10G12G21G23G25G31G32R 5R 7R 9R15
                                R16R21R22E 3E 5E15E25
  23803543.637   125088465.924    23803545.978    97471540.672    23803545.907  
  23803545.245    93410223.935  
  20565357.035   108071681.082    20565357.625    84211701.488    20565357.625  
  20565356.302    80702875.275  
  23452252.333   123242418.053    23452251.619    96033047.582    23452250.958  
                                
  23574355.727   123884075.353                    96533037.479    23574353.672  
                                
  22646590.659   119008636.355    22646590.551    92734001.129    22646590.391  
  22646594.947    88870101.821  
  23139370.923   121598214.858    23139373.711    94751865.381    23139373.157  
  23139374.265    90803874.822  
  22528643.010   118388818.289    22528642.438    92251021.821    22528641.812  
                                
  20543898.340   107958914.696    20543899.215    84123831.154    20543898.768  
  20543898.054    80618667.961  
  23131634.977   123651845.084    23131636.781    96173664.529    23131636.835  
                                
  21149735.788   113216190.835    21149735.591    88057037.010    21149735.537  
                                
  21833835.125   116591462.051    21833836.250    90682253.515    21833836.322  
                                
  22396486.646   119680033.558    22396487.701    93084474.461    22396487.844  
                                
  19969153.689   106671634.768    19969152.652    82966822.562    19969153.742  
                                
  23133951.034   123794443.155    23133952.339    96284571.828    23133952.374  
                                
  21831986.556   116540626.070    21831987.825    90642714.625    21831987.003  
                                
  23622124.486   124135102.165                                                  
  23622127.881    92698303.175  
  25273939.381   132815448.305                                                  
  25273943.456    99180381.888  
  24942930.080   131075982.494                                                  
  24942934.833    97881433.562  
  25971306.075   136480135.275                                                  
  25971310.774   101917002.263  
 21  8 31 22 55 24.0000000  0 19G 1G10G12G21G23G25G31G32R 5R 7R 9R15
                                R16R21R22E 3E 5E15E25
  23803066.481   125085958.467    23803068.839    97469586.821    23803068.750  
  23803068.089    93408351.497  
  20565570.302   108072801.807    20565570.909    84212574.773    20565570.909  
  20565569.587    80703712.170  
  23452019.768   123241195.888    23452019.053    96032095.238    23452018.410  
                                
  23574141.692   123882950.561                    96532161.011    23574139.619  
                                
  22647151.442   119011583.240    22647151.317    92736297.396    22647151.156  
  22647155.713    88872302.419  
  23138889.389   121595684.395    23138892.176    94749893.591    23138891.623  
  23138892.730    90801985.191  
  22527976.477   118385315.588    22527975.888    92248292.441    22527975.280  
                                
  20543838.532   107958600.448    20543839.408    84123586.286    20543838.961  
  20543838.246    80618433.301  
  23132159.951   123654651.362    23132161.738    96175847.204    23132161.809  
                                
  21149300.462   113213860.515    21149300.284    88055224.540    21149300.212  
                                
  21833080.176   116587430.690    21833081.320    90679118.000    21833081.373  
                                
  22397060.421   119683099.763    22397061.511    93086859.300    22397061.618  
                                
  19968976.946   106670690.597    19968975.892    82966088.208    19968977.000  
                                
  23134696.601   123798432.874    23134697.906    96287674.954    23134697.942  
                                
  21832305.876   116542330.503    21832307.127    90644040.281    21832306.305  
                                
  23622078.438   124134860.240                                                  
  23622081.851    92698122.513  
  25274258.540   132817125.375                                                  
  25274262.596    99181634.247  
  24943276.596   131077803.548                                                  
  24943281.367    97882793.453  
  25970852.916   136477753.953                                                  
  25970857.616   101915224.005  
 21  8 31 22 55 25.0000000  0 19G 1G10G12G21G23G25G31G32R 5R 7R 9R15
                                R16R21R22E 3E 5E15E25
  23802589.467   125083451.680    23802591.808    97467633.484    23802591.719  
  23802591.075    93406479.543  
  20565783.694   108073923.189    20565784.301    84213448.577    20565784.283  
  20565782.979    80704549.564  
  23451787.346   123239974.497    23451786.631    96031143.510    23451785.970  
                                
  23573927.782   123881826.415                    96531285.056    23573925.709  
                                
  22647712.279   119014530.588    22647712.172    92738594.031    22647712.011  
  22647716.568    88874503.365  
  23138407.980   121593154.469    23138410.749    94747922.216    23138410.195  
  23138411.303    90800095.958  
  22527310.016   118381813.344    22527309.427    92245563.420    22527308.819  
                                
  20543778.814   107958286.659    20543779.689    84123341.779    20543779.260  
  20543778.528    80618198.982  
  23132684.978   123657457.957    23132686.765    96178030.113    23132686.837  
                                
  21148865.191   113211530.484    21148864.994    88053412.294    21148864.941  
                                
  21832325.335   116583399.812    21832326.443    90675982.878    21832326.532  
                                
  22397634.356   119686166.749    22397635.446    93089244.734    22397635.589  
                                
  19968800.382   106669747.520    19968799.346    82965354.702    19968800.454  
                                
  23135442.240   123802422.925    23135443.562    96290778.320    23135443.616  
                                
  21832625.338   116544035.841    21832626.571    90645366.654    21832625.767  
                                
  23622032.479   124134618.614                                                  
  23622035.874    92697942.078  
  25274577.717   132818802.676                                                  
  25274581.773    99182886.773  
  24943623.273   131079625.181                                                  
  24943628.026    97884153.756  
  25970399.865   136475373.070                                                  
  25970404.565   101913446.064  
 21  8 31 22 55 26.0000000  0 19G 1G10G12G21G23G25G31G32R 5R 7R 9R15
                                R16R21R22E 3E 5E15E25
  23802112.525   125080945.320    23802114.848    97465680.484    23802114.777  
  23802114.115    93404607.917  
  20565997.175   108075045.014    20565997.764    84214322.727    20565997.764  
  20565996.442    80705387.295  
  23451555.013   123238753.631    23451554.316    96030192.190    23451553.637  
                                
  23573713.944   123880702.723                    96530409.452    23573711.871  
                                
  22648273.206   119017478.189    22648273.099    92740890.865    22648272.938  
  22648277.477    88876704.486  
  23137926.570   121590624.840    23137929.376    94745951.078    23137928.822  
  23137929.947    90798206.958  
  22526643.609   118378311.359    22526643.037    92242834.600    22526642.412  
                                
  20543719.149   107957973.125    20543720.043    84123097.467    20543719.614  
  20543718.863    80617964.843  
  23133210.024   123660264.647    23133211.829    96180213.092    23133211.882  
                                
  21148429.937   113209200.531    21148429.741    88051600.113    21148429.687  
                                
  21831570.530   116579369.235    21831571.655    90672847.989    21831571.727  
                                
  22398208.416   119689234.302    22398209.488    93091630.608    22398209.631  
                                
  19968623.997   106668805.326    19968622.961    82964621.889    19968624.086  
                                
  23136187.914   123806413.110    23136189.219    96293881.793    23136189.272  
                                
  21832944.943   116545741.928    21832946.194    90646693.610    21832945.372  
                                
  23621986.502   124134377.089                                                  
  23621989.897    92697761.720  
  25274896.911   132820480.019                                                  
  25274900.967    99184139.329  
  24943969.950   131081447.133                                                  
  24943974.721    97885514.312  
  25969946.814   136472992.376                                                  
  25969951.514   101911668.275  
 21  8 31 22 55 27.0000000  0 19G 1G10G12G21G23G25G31G32R 5R 7R 9R15
                                R16R21R22E 3E 5E15E25
  23801635.690   125078439.551    23801638.013    97463727.932    23801637.942  
  23801637.281    93402736.728  
  20566210.763   108076167.417    20566211.353    84215197.324    20566211.335  
  20566210.031    80706225.451  
  23451322.805   123237533.408    23451322.108    96029241.370    23451321.429  
                                
  23573500.212   123879579.587                    96529534.281    23573498.139  
                                
  22648834.168   119020426.144    22648834.061    92743187.969    22648833.900  
  22648838.457    88878905.893  
  23137445.304   121588095.683    23137448.091    94743980.304    23137447.520  
  23137448.645    90796318.302  
  22525977.291   118374809.760    22525976.701    92240106.082    22525976.058  
                                
  20543659.556   107957659.961    20543660.431    84122853.440    20543660.020  
  20543659.270    80617730.988  
  23133735.123   123663071.558    23133736.892    96182396.247    23133736.963  
                                
  21147994.719   113206870.809    21147994.523    88049788.109    21147994.469  
                                
  21830815.796   116575339.066    21830816.939    90669713.416    21830816.993  
                                
  22398782.601   119692302.529    22398783.674    93094017.003    22398783.799  
                                
  19968447.808   106667864.131    19968446.772    82963889.847    19968447.880  
                                
  23136933.624   123810403.564    23136934.947    96296985.475    23136934.982  
                                
  21833264.692   116547448.892    21833265.960    90648021.248    21833265.139  
                                
  23621940.596   124134135.801                                                  
  23621943.991    92697581.540  
  25275216.105   132822157.514                                                  
  25275220.179    99185392.004  
  24944316.770   131083269.560                                                  
  24944321.523    97886875.213  
  25969493.834   136470612.036                                                  
  25969498.570   101909890.749  
 21  8 31 22 55 28.0000000  0 19G 1G10G12G21G23G25G31G32R 5R 7R 9R15
                                R16R21R22E 3E 5E15E25
  23801158.945   125075934.198    23801161.250    97461775.709    23801161.178  
  23801160.517    93400865.845  
  20566424.423   108077290.239    20566425.013    84216072.253    20566425.013  
  20566423.690    80707063.920  
  23451090.686   123236313.652    23451090.007    96028290.913    23451089.328  
                                
  23573286.570   123878456.858                    96528659.427    23573284.515  
                                
  22649395.202   119023374.326    22649395.095    92745485.253    22649394.934  
  22649399.490    88881107.446  
  23136964.073   121585566.790    23136966.861    94742009.741    23136966.289  
  23136967.415    90794429.847  
  22525310.991   118371308.382    22525310.401    92237377.736    22525309.776  
                                
  20543599.998   107957346.993    20543600.892    84122609.572    20543600.445  
  20543599.730    80617497.281  
  23134260.204   123665878.546    23134262.009    96184579.460    23134262.062  
                                
  21147559.519   113204541.146    21147559.323    88047976.151    21147559.269  
                                
  21830061.115   116571309.131    21830062.259    90666579.028    21830062.313  
                                
  22399356.858   119695371.213    22399357.930    93096403.757    22399358.073  
                                
  19968271.781   106666923.751    19968270.744    82963158.440    19968271.834  
                                
  23137679.370   123814394.117    23137680.675    96300089.231    23137680.728  
                                
  21833584.601   116549156.526    21833585.834    90649349.408    21833585.048  
                                
  23621894.673   124133894.566                                                  
  23621898.086    92697401.397  
  25275535.317   132823834.994                                                  
  25275539.392    99186644.664  
  24944663.607   131085092.278                                                  
  24944668.360    97888236.338  
  25969040.908   136468231.853                                                  
  25969045.626   101908113.343  
 21  8 31 22 55 29.0000000  0 19G 1G10G12G21G23G25G31G32R 5R 7R 9R15
                                R16R21R22E 3E 5E15E25
  23800682.235   125073429.262    23800684.576    97459823.813    23800684.504  
  23800683.843    93398995.276  
  20566638.172   108078413.458    20566638.762    84216947.486    20566638.762  
  20566637.440    80707902.683  
  23450858.693   123235094.424    23450857.996    96027340.862    23450857.299  
                                
  23573073.000   123877334.546                    96527784.889    23573070.945  
                                
  22649956.253   119026322.695    22649956.146    92747782.681    22649955.985  
  22649960.542    88883309.151  
  23136482.878   121583038.187    23136485.684    94740039.401    23136485.130  
  23136486.238    90792541.596  
  22524644.744   118367807.239    22524644.155    92234649.572    22524643.547  
                                
  20543540.495   107957034.245    20543541.370    84122365.872    20543540.923  
  20543540.209    80617263.733  
  23134785.339   123668685.600    23134787.126    96186762.699    23134787.179  
                                
  21147124.337   113202211.554    21147124.141    88046164.249    21147124.087  
                                
  21829306.489   116567279.427    21829307.615    90663444.819    21829307.686  
                                
  22399931.222   119698440.411    22399932.276    93098790.911    22399932.419  
                                
  19968095.878   106665984.167    19968094.842    82962427.650    19968095.950  
                                
  23138425.116   123818384.807    23138426.438    96303193.090    23138426.474  
                                
  21833904.617   116550864.875    21833905.886    90650678.117    21833905.064  
                                
  23621848.785   124133653.407                                                  
  23621852.216    92697221.309  
  25275854.530   132825512.466                                                  
  25275858.604    99187897.326  
  24945010.517   131086915.307                                                  
  24945015.270    97889597.684  
  25968588.000   136465851.842                                                  
  25968592.717   101906336.065  
 21  8 31 22 55 30.0000000  0 19G 1G10G12G21G23G25G31G32R 5R 7R 9R15
                                R16R21R22E 3E 5E15E25
  23800205.668   125070924.819    23800208.009    97457872.303    23800207.920  
  23800207.258    93397125.073  
  20566852.029   108079537.202    20566852.601    84217823.131    20566852.601  
  20566851.278    80708741.842  
  23450626.788   123233875.783    23450626.092    96026391.272    23450625.413  
                                
  23572859.518   123876212.718                    96526910.733    23572857.463  
                                
  22650517.376   119029271.385    22650517.251    92750080.359    22650517.091  
  22650521.665    88885511.096  
  23136001.791   121580509.981    23136004.578    94738069.372    23136004.006  
  23136005.132    90790653.652  
  22523978.551   118364306.413    22523977.980    92231921.656    22523977.354  
                                
  20543481.044   107956721.812    20543481.920    84122122.417    20543481.473  
  20543480.758    80617030.418  
  23135310.474   123671492.816    23135312.279    96188946.089    23135312.332  
                                
  21146689.191   113199882.128    21146688.976    88044352.475    21146688.923  
                                
  21828551.916   116563250.067    21828553.041    90660310.877    21828553.113  
                                
  22400505.711   119701510.243    22400506.766    93101178.561    22400506.909  
                                
  19967920.154   106665045.484    19967919.118    82961697.561    19967920.208  
                                
  23139170.898   123822375.668    23139172.238    96306297.090    23139172.256  
                                
  21834224.794   116552573.991    21834226.045    90652007.432    21834225.223  
                                
  23621802.933   124133412.404                                                  
  23621806.346    92697041.341  
  25276173.778   132827190.025                                                  
  25276177.834    99189150.053  
  24945357.497   131088738.726                                                  
  24945362.268    97890959.331  
  25968135.163   136463472.116                                                  
  25968139.881   101904559.001  
 21  8 31 22 55 31.0000000  0 19G 1G10G12G21G23G25G31G32R 5R 7R 9R15
                                R16R21R22E 3E 5E15E25
  23799729.173   125068420.781    23799731.496    97455921.107    23799731.406  
  23799730.745    93395255.172  
  20567065.921   108080661.345    20567066.529    84218699.087    20567066.529  
  20567065.206    80709581.302  
  23450394.956   123232657.614    23450394.277    96025442.049    23450393.598  
                                
  23572646.127   123875091.316                    96526036.910    23572644.054  
                                
  22651078.535   119032220.297    22651078.428    92752378.206    22651078.267  
  22651082.806    88887713.202  
  23135520.739   121577982.047    23135523.526    94736099.550    23135522.972  
  23135524.080    90788765.921  
  22523312.412   118360805.818    22523311.840    92229193.924    22523311.215  
                                
  20543421.630   107956409.575    20543422.505    84121879.116    20543422.077  
  20543421.326    80616797.261  
  23135835.626   123674300.055    23135837.431    96191129.497    23135837.485  
                                
  21146254.026   113197552.746    21146253.830    88042540.736    21146253.776  
                                
  21827797.378   116559220.957    21827798.504    90657177.129    21827798.576  
                                
  22401080.290   119704580.581    22401081.344    93103566.601    22401081.487  
                                
  19967744.591   106664107.610    19967743.555    82960968.103    19967744.645  
                                
  23139916.715   123826366.621    23139918.037    96309401.162    23139918.073  
                                
  21834545.114   116554283.809    21834546.347    90653337.295    21834545.543  
                                
  23621757.081   124133171.477                                                  
  23621760.494    92696861.428  
  25276493.008   132828867.600                                                  
  25276497.064    99190402.781  
  24945704.549   131090562.460                                                  
  24945709.303    97892321.205  
  25967682.362   136461092.554                                                  
  25967687.062   101902782.057  
 21  8 31 22 55 32.0000000  0 19G 1G10G12G21G23G25G31G32R 5R 7R 9R15
                                R16R21R22E 3E 5E15E25
  23799252.731   125065917.194    23799255.072    97453970.260    23799255.000  
  23799254.339    93393385.618  
  20567279.920   108081785.964    20567280.528    84219575.411    20567280.528  
  20567279.206    80710421.115  
  23450163.266   123231439.991    23450162.587    96024493.252    23450161.908  
                                
  23572432.824   123873970.353                    96525163.433    23572430.733  
                                
  22651639.748   119035169.462    22651639.623    92754676.256    22651639.462  
  22651644.018    88889915.500  
  23135039.758   121575454.460    23135042.528    94734130.006    23135041.974  
  23135043.117    90786878.437  
  22522646.326   118357305.491    22522645.737    92226466.401    22522645.111  
                                
  20543362.251   107956097.610    20543363.145    84121636.027    20543362.698  
  20543361.983    80616564.300  
  23136360.833   123677107.431    23136362.602    96193313.010    23136362.673  
                                
  21145818.898   113195223.471    21145818.701    88040729.083    21145818.648  
                                
  21827042.912   116555192.172    21827044.038    90654043.632    21827044.128  
                                
  22401654.957   119707651.482    22401656.030    93105955.084    22401656.155  
                                
  19967569.171   106663170.630    19967568.134    82960239.341    19967569.242  
                                
  23140662.550   123830357.700    23140663.872    96312505.335    23140663.908  
                                
  21834865.542   116555994.383    21834866.811    90654667.746    21834865.989  
                                
  23621711.265   124132930.658                                                  
  23621714.660    92696681.596  
  25276812.238   132830545.209                                                  
  25276816.294    99191655.543  
  24946051.655   131092386.533                                                  
  24946056.408    97893683.336  
  25967229.579   136458713.230                                                  
  25967234.278   101901005.289  
 21  8 31 22 55 33.0000000  0 19G 1G10G12G21G23G25G31G32R 5R 7R 9R15
                                R16R21R22E 3E 5E15E25
  23798776.486   125063414.386    23798778.809    97452020.022    23798778.719  
  23798778.058    93391516.641  
  20567494.081   108082911.351    20567494.688    84220452.336    20567494.688  
  20567493.366    80711261.501  
  23449931.719   123230223.243    23449931.040    96023545.134    23449930.361  
                                
  23572219.647   123872850.172                    96524290.567    23572217.592  
                                
  22652201.067   119038119.193    22652200.942    92756974.748    22652200.781  
  22652205.338    88892118.226  
  23134558.885   121572927.528    23134561.672    94732160.970    23134561.118  
  23134562.244    90784991.444  
  22521980.348   118353805.765    22521979.758    92223739.344    22521979.133  
                                
  20543302.980   107955786.210    20543303.891    84121393.379    20543303.444  
  20543302.711    80616331.765  
  23136886.093   123679915.226    23136887.862    96195496.848    23136887.915  
                                
  21145383.859   113192894.639    21145383.644    88038917.769    21145383.608  
                                
  21826288.554   116551163.972    21826289.697    90650910.592    21826289.751  
                                
  22402229.804   119710723.236    22402230.858    93108344.222    22402231.001  
                                
  19967394.001   106662234.868    19967392.964    82959511.526    19967394.072  
                                
  23141408.457   123834349.269    23141409.779    96315609.886    23141409.815  
                                
  21835186.184   116557705.990    21835187.452    90655998.996    21835186.630  
                                
  23621665.502   124132690.280                                                  
  23621668.933    92696502.095  
  25277131.557   132832223.174                                                  
  25277135.596    99192908.566  
  24946398.904   131094211.282                                                  
  24946403.657    97895045.971  
  25966776.903   136456334.431                                                  
  25966781.603   101899228.914  
 21  8 31 22 55 34.0000000  0 19G 1G10G12G21G23G25G31G32R 5R 7R 9R15
                                R16R21R22E 3E 5E15E25
  23798300.312   125060912.070    23798302.635    97450070.152    23798302.546  
  23798301.884    93389648.023  
  20567708.330   108084037.258    20567708.956    84221329.661    20567708.938  
  20567707.615    80712102.267  
  23449700.297   123229007.040    23449699.601    96022597.451    23449698.939  
                                
  23572006.576   123871730.486                    96523418.082    23572004.521  
                                
  22652762.440   119041069.235    22652762.315    92759273.480    22652762.155  
  22652766.711    88894321.172  
  23134078.119   121570400.982    23134080.888    94730192.233    23134080.335  
  23134081.478    90783104.727  
  22521314.423   118350306.341    22521313.833    92221012.525    22521313.208  
                                
  20543243.797   107955475.111    20543244.673    84121150.967    20543244.244  
  20543243.511    80616099.447  
  23137411.388   123682723.226    23137413.157    96197680.822    23137413.229  
                                
  21144948.837   113190565.978    21144948.641    88037106.595    21144948.587  
                                
  21825534.284   116547136.144    21825535.392    90647777.835    21825535.482  
                                
  22402804.740   119713795.587    22402805.812    93110733.842    22402805.955  
                                
  19967218.992   106661300.027    19967217.955    82958784.425    19967219.063  
                                
  23142154.417   123838341.055    23142155.757    96318714.593    23142155.793  
                                
  21835506.968   116559418.366    21835508.237    90657330.858    21835507.433  
                                
  23621619.793   124132450.045                                                  
  23621623.206    92696322.692  
  25277450.859   132833901.229                                                  
  25277454.915    99194161.660  
  24946746.206   131096036.409                                                  
  24946750.959    97896408.890  
  25966324.281   136453955.905                                                  
  25966328.980   101897452.737  
 21  8 31 22 55 35.0000000  0 19G 1G10G12G21G23G25G31G32R 5R 7R 9R15
                                R16R21R22E 3E 5E15E25
  23797824.210   125058410.206    23797826.551    97448120.652    23797826.443  
  23797825.800    93387779.730  
  20567922.669   108085163.561    20567923.277    84222207.302    20567923.259  
  20567921.954    80712943.344  
  23449468.965   123227791.365    23449468.286    96021650.174    23449467.607  
                                
  23571793.578   123870611.217                    96522545.924    23571791.523  
                                
  22653323.849   119044019.485    22653323.742    92761572.372    22653323.581  
  22653328.138    88896524.277  
  23133597.371   121567874.707    23133600.140    94728223.707    23133599.586  
  23133600.730    90781218.238  
  22520648.534   118346807.153    22520647.962    92218285.887    22520647.337  
                                
  20543184.633   107955164.239    20543185.526    84120908.729    20543185.080  
  20543184.365    80615867.300  
  23137936.684   123685531.284    23137938.453    96199864.862    23137938.525  
                                
  21144513.834   113188237.364    21144513.619    88035295.449    21144513.583  
                                
  21824780.033   116543108.537    21824781.159    90644645.254    21824781.230  
                                
  22403379.801   119716868.476    22403380.873    93113123.860    22403380.998  
                                
  19967044.143   106660366.042    19967043.107    82958057.997    19967044.197  
                                
  23142900.413   123842332.920    23142901.735    96321819.369    23142901.771  
                                
  21835827.896   116561131.437    21835829.147    90658663.245    21835828.325  
                                
  23621574.085   124132209.887                                                  
  23621577.515    92696143.360  
  25277770.178   132835579.267                                                  
  25277774.235    99195414.747  
  24947093.580   131097861.847                                                  
  24947098.333    97897772.042  
  25965871.694   136451577.558                                                  
  25965876.394   101895676.708  
 21  8 31 22 55 36.0000000  0 19G 1G10G12G21G23G25G31G32R 5R 7R 9R15
                                R16R21R22E 3E 5E15E25
  23797348.179   125055908.668    23797350.520    97446171.406    23797350.430  
  23797349.769    93385911.720  
  20568137.080   108086290.257    20568137.669    84223085.245    20568137.651  
  20568136.365    80713784.701  
  23449237.704   123226576.146    23449237.025    96020703.248    23449236.346  
                                
  23571580.668   123869492.329                    96521674.069    23571578.595  
                                
  22653885.294   119046969.909    22653885.169    92763871.405    22653885.008  
  22653889.565    88898727.522  
  23133116.676   121565348.704    23133119.481    94726255.391    23133118.910  
  23133120.053    90779331.935  
  22519982.716   118343308.184    22519982.127    92215559.418    22519981.483  
                                
  20543125.504   107954853.545    20543126.398    84120666.630    20543125.969  
  20543125.218    80615635.291  
  23138461.998   123688339.412    23138463.785    96202048.962    23138463.838  
                                
  21144078.830   113185908.756    21144078.616    88033484.312    21144078.562  
                                
  21824025.835   116539081.136    21824026.943    90641512.838    21824027.032  
                                
  22403954.933   119719941.836    22403956.005    93115514.248    22403956.130  
                                
  19966869.438   106659432.809    19966868.401    82957332.151    19966869.491  
                                
  23143646.391   123846324.847    23143647.731    96324924.199    23143647.767  
                                
  21836148.931   116562845.185    21836150.182    90659996.159    21836149.378  
                                
  23621528.411   124131969.782                                                  
  23621531.824    92695964.052  
  25278089.516   132837257.293                                                  
  25278093.554    99196667.816  
  24947440.990   131099687.564                                                  
  24947445.761    97899135.400  
  25965419.161   136449199.360                                                  
  25965423.843   101893900.772  
 21  8 31 22 55 37.0000000  0 19G 1G10G12G21G23G25G31G32R 5R 7R 9R15
                                R16R21R22E 3E 5E15E25
  23796872.255   125053407.696    23796874.596    97444222.597    23796874.507  
  23796873.864    93384044.107  
  20568351.561   108087417.490    20568352.187    84223963.608    20568352.169  
  20568350.865    80714626.469  
  23449006.586   123225361.531    23449005.889    96019756.796    23449005.228  
                                
  23571367.848   123868373.947                    96520802.599    23571365.775  
                                
  22654446.810   119049920.678    22654446.685    92766170.709    22654446.524  
  22654451.099    88900931.012  
  23132636.089   121562823.104    23132638.876    94724287.390    23132638.304  
  23132639.448    90777445.932  
  22519316.952   118339809.529    22519316.345    92212833.198    22519315.719  
                                
  20543066.447   107954543.169    20543067.341    84120424.780    20543066.894  
  20543066.179    80615403.520  
  23138987.329   123691147.690    23138989.134    96204233.179    23138989.187  
                                
  21143643.862   113183580.325    21143643.648    88031673.305    21143643.594  
                                
  21823271.691   116535054.134    21823272.834    90638380.725    21823272.888  
                                
  22404530.191   119723015.816    22404531.263    93117905.122    22404531.388  
                                
  19966694.911   106658500.491    19966693.875    82956607.015    19966694.965  
                                
  23144392.423   123850316.942    23144393.763    96328029.153    23144393.798  
                                
  21836470.126   116564559.705    21836471.359    90661329.675    21836470.573  
                                
  23621482.738   124131729.835                                                  
  23621486.169    92695784.873  
  25278408.853   132838935.422                                                  
  25278412.909    99197920.960  
  24947788.506   131101513.689                                                  
  24947793.259    97900499.067  
  25964966.646   136446821.448                                                  
  25964971.328   101892125.065  
 21  8 31 22 55 38.0000000  0 19G 1G10G12G21G23G25G31G32R 5R 7R 9R15
                                R16R21R22E 3E 5E15E25
  23796396.457   125050907.197    23796398.762    97442274.159    23796398.691  
  23796398.029    93382176.858  
  20568566.168   108088545.208    20568566.776    84224842.349    20568566.776  
  20568565.454    80715468.597  
  23448775.540   123224147.505    23448774.861    96018810.805    23448774.182  
                                
  23571155.135   123867256.074                    96519931.532    23571153.045  
                                
  22655008.398   119052871.724    22655008.273    92768470.223    22655008.112  
  22655012.651    88903134.713  
  23132155.537   121560297.855    23132158.325    94722319.666    23132157.771  
  23132158.896    90775560.208  
  22518651.224   118336311.209    22518650.634    92210107.234    22518650.027  
                                
  20543007.444   107954233.085    20543008.319    84120183.155    20543007.890  
  20543007.158    80615171.965  
  23139512.714   123693956.100    23139514.501    96206417.492    23139514.555  
                                
  21143208.913   113181252.052    21143208.716    88029862.430    21143208.662  
                                
  21822517.636   116531027.457    21822518.744    90635248.873    21822518.833  
                                
  22405105.537   119726090.379    22405106.627    93120296.446    22405106.752  
                                
  19966520.545   106657569.060    19966519.491    82955882.571    19966520.599  
                                
  23145138.472   123854309.210    23145139.812    96331134.248    23145139.848  
                                
  21836791.447   116566275.002    21836792.698    90662663.795    21836791.894  
                                
  23621437.118   124131490.052                                                  
  23621440.531    92695605.814  
  25278728.172   132840613.616                                                  
  25278732.247    99199174.156  
  24948136.077   131103340.204                                                  
  24948140.830    97901863.016  
  25964514.184   136444443.785                                                  
  25964518.866   101890349.539  
 21  8 31 22 55 39.0000000  0 19G 1G10G12G21G23G25G31G32R 5R 7R 9R15
                                R16R21R22E 3E 5E15E25
  23795920.730   125048407.367    23795923.053    97440326.234    23795922.981  
  23795922.320    93380310.075  
  20568780.900   108089673.538    20568781.490    84225721.572    20568781.472  
  20568780.168    80716311.182  
  23448544.672   123222934.152    23448543.975    96017865.326    23448543.314  
                                
  23570942.512   123866138.783                    96519060.934    23570940.439  
                                
  22655570.021   119055823.181    22655569.914    92770770.059    22655569.753  
  22655574.310    88905338.716  
  23131675.093   121557773.112    23131677.880    94720352.336    23131677.308  
  23131678.452    90773674.843  
  22517985.603   118332813.284    22517985.013    92207381.590    22517984.370  
                                
  20542948.530   107953923.425    20542949.405    84119941.861    20542948.958  
  20542948.244    80614940.716  
  23140038.135   123696764.736    23140039.922    96208602.010    23140039.975  
                                
  21142774.034   113178924.066    21142773.820    88028051.777    21142773.766  
                                
  21821763.635   116527001.222    21821764.760    90632117.370    21821764.832  
                                
  22405681.045   119729165.627    22405682.117    93122688.332    22405682.242  
                                
  19966346.376   106656638.681    19966345.321    82955158.943    19966346.429  
                                
  23145884.575   123858301.801    23145885.916    96334239.589    23145885.969  
                                
  21837112.947   116567991.174    21837114.198    90663998.599    21837113.376  
                                
  23621391.552   124131250.513                                                  
  23621394.948    92695426.940  
  25279047.581   132842292.023                                                  
  25279051.637    99200427.506  
  24948483.754   131105167.218                                                  
  24948488.507    97903227.345  
  25964061.812   136442066.497                                                  
  25964066.494   101888574.297  
 21  8 31 22 55 40.0000000  0 19G 1G10G12G21G23G25G31G32R 5R 7R 9R15
                                R16R21R22E 3E 5E15E25
  23795445.074   125045907.801    23795447.397    97438378.523    23795447.326  
  23795446.683    93378443.534  
  20568995.668   108090802.203    20568996.258    84226601.047    20568996.258  
  20568994.936    80717154.014  
  23448313.858   123221721.212    23448313.143    96016920.176    23448312.482  
                                
  23570729.960   123865021.823                    96518190.573    23570727.887  
                                
  22656131.680   119058774.760    22656131.573    92773069.993    22656131.430  
  22656135.969    88907542.822  
  23131194.684   121555248.567    23131197.471    94718385.163    23131196.917  
  23131198.043    90771789.634  
  22517320.000   118329315.531    22517319.410    92204656.065    22517318.767  
                                
  20542889.615   107953613.873    20542890.491    84119700.649    20542890.044  
  20542889.329    80614709.568  
  23140563.538   123699573.351    23140565.342    96210786.491    23140565.396  
                                
  21142339.156   113176596.059    21142338.923    88026241.105    21142338.870  
                                
  21821009.669   116522975.144    21821010.813    90628985.981    21821010.866  
                                
  22406256.624   119732241.321    22406257.696    93125080.538    22406257.821  
                                
  19966172.331   106655709.045    19966171.295    82954435.893    19966172.403  
                                
  23146630.714   123862294.424    23146632.037    96337344.960    23146632.072  
                                
  21837434.553   116569707.982    21837435.822    90665333.888    21837435.000  
                                
  23621345.951   124131010.986                                                  
  23621349.382    92695248.072  
  25279366.954   132843970.325                                                  
  25279371.010    99201680.783  
  24948831.468   131106994.452                                                  
  24948836.221    97904591.834  
  25963609.440   136439689.309                                                  
  25963614.122   101886799.124  
 21  8 31 22 55 41.0000000  0 19G 1G10G12G21G23G25G31G32R 5R 7R 9R15
                                R16R21R22E 3E 5E15E25
  23794969.526   125043408.807    23794971.867    97436431.250    23794971.778  
  23794971.134    93376577.393  
  20569210.543   108091931.420    20569211.151    84227480.956    20569211.151  
  20569209.829    80717997.260  
  23448083.151   123220508.904    23448082.472    96015975.520    23448081.793  
                                
  23570517.515   123863905.421                    96517320.652    23570515.460  
                                
  22656693.429   119061726.689    22656693.304    92775370.198    22656693.143  
  22656697.700    88909747.183  
  23130714.365   121552724.440    23130717.134    94716418.324    23130716.580  
  23130717.724    90769904.736  
  22516654.468   118325818.132    22516653.860    92201930.822    22516653.253  
                                
  20542830.773   107953304.690    20542831.648    84119459.728    20542831.237  
  20542830.505    80614478.676  
  23141088.994   123702382.196    23141090.781    96212971.149    23141090.835  
                                
  21141904.277   113174268.237    21141904.063    88024430.572    21141904.009  
                                
  21820255.793   116518949.473    21820256.919    90625854.903    21820256.990  
                                
  22406832.310   119735317.671    22406833.400    93127473.252    22406833.508  
                                
  19965998.484   106654780.391    19965997.447    82953713.604    19965998.555  
                                
  23147376.871   123866287.272    23147378.211    96340450.509    23147378.247  
                                
  21837756.339   116571425.623    21837757.590    90666669.831    21837756.785  
                                
  23621300.403   124130771.641                                                  
  23621303.816    92695069.338  
  25279686.345   132845648.768                                                  
  25279690.401    99202934.164  
  24949179.252   131108822.106                                                  
  24949184.006    97905956.646  
  25963157.139   136437312.429                                                  
  25963161.821   101885024.181  
 21  8 31 22 55 42.0000000  0 19G 1G10G12G21G23G25G31G32R 5R 7R 9R15
                                R16R21R22E 3E 5E15E25
  23794494.085   125040910.330    23794496.408    97434484.385    23794496.337  
  23794495.675    93374711.636  
  20569425.508   108093061.148    20569426.133    84228361.266    20569426.133  
  20569424.811    80718840.888  
  23447852.569   123219297.161    23447851.872    96015031.300    23447851.211  
                                
  23570305.159   123862789.527                    96516451.128    23570303.104  
                                
  22657255.231   119064678.929    22657255.106    92777670.640    22657254.945  
  22657259.484    88911951.780  
  23130234.117   121550200.718    23130236.904    94714451.785    23130236.332  
  23130237.494    90768020.131  
  22515988.990   118322321.064    22515988.400    92199205.836    22515987.775  
                                
  20542772.001   107952995.805    20542772.877    84119219.035    20542772.448  
  20542771.716    80614248.021  
  23141614.486   123705191.200    23141616.255    96215155.927    23141616.327  
                                
  21141469.435   113171940.544    21141469.238    88022620.149    21141469.184  
                                
  21819501.988   116514924.123    21819503.096    90622724.071    21819503.168  
                                
  22407408.122   119738394.593    22407409.194    93129866.416    22407409.337  
                                
  19965824.797   106653852.640    19965823.778    82952992.023    19965824.850  
                                
  23148123.064   123870280.293    23148124.404    96343556.192    23148124.439  
                                
  21838078.267   116573144.071    21838079.518    90668006.395    21838078.714  
                                
  23621254.890   124130532.474                                                  
  23621258.303    92694890.744  
  25280005.772   132847327.308                                                  
  25280009.828    99204187.614  
  24949527.127   131110650.179                                                  
  24949531.880    97907321.766  
  25962704.892   136434935.834                                                  
  25962709.574   101883249.449  
 21  8 31 22 55 43.0000000  0 19G 1G10G12G21G23G25G31G32R 5R 7R 9R15
                                R16R21R22E 3E 5E15E25
  23794018.787   125038412.506    23794021.092    97432538.027    23794021.021  
  23794020.377    93372846.403  
  20569640.633   108094191.565    20569641.240    84229242.108    20569641.240  
  20569639.918    80719685.035  
  23447622.130   123218086.200    23447621.451    96014087.689    23447620.772  
                                
  23570092.947   123861674.316                    96515582.135    23570090.874  
                                
  22657817.122   119067631.677    22657816.997    92779971.478    22657816.854  
  22657821.393    88914156.743  
  23129753.958   121547677.532    23129756.728    94712485.664    23129756.174  
  23129757.335    90766135.956  
  22515323.619   118318824.522    22515323.029    92196481.256    22515322.421  
                                
  20542713.302   107952687.426    20542714.195    84118978.740    20542713.766  
  20542713.034    80614017.734  
  23142140.050   123708000.570    23142141.819    96217340.988    23142141.891  
                                
  21141034.681   113169613.207    21141034.449    88020810.002    21141034.413  
                                
  21818748.255   116510899.325    21818749.381    90619593.677    21818749.470  
                                
  22407984.076   119741472.349    22407985.148    93132260.226    22407985.291  
                                
  19965651.324   106652925.985    19965650.306    82952271.290    19965651.396  
                                
  23148869.310   123874273.649    23148870.650    96346662.135    23148870.686  
                                
  21838400.374   116574863.501    21838401.625    90669343.729    21838400.839  
                                
  23621209.467   124130293.660                                                  
  23621212.862    92694712.407  
  25280325.234   132849006.118                                                  
  25280329.273    99205441.273  
  24949875.108   131112478.840                                                  
  24949879.879    97908687.318  
  25962252.717   136432559.697                                                  
  25962257.398   101881475.065  
 21  8 31 22 55 44.0000000  0 19G 1G10G12G21G23G25G31G32R 5R 7R 9R15
                                R16R21R22E 3E 5E15E25
  23793543.614   125035915.490    23793545.919    97430592.293    23793545.847  
  23793545.204    93370981.739  
  20569855.883   108095322.783    20569856.508    84230123.577    20569856.491  
  20569855.186    80720529.776  
  23447391.870   123216876.106    23447391.173    96013144.766    23447390.494  
                                
  23569880.877   123860559.886                    96514713.760    23569878.805  
                                
  22658379.103   119070584.988    22658379.014    92782272.761    22658378.853  
  22658383.392    88916362.148  
  23129273.943   121545155.054    23129276.730    94710520.099    23129276.158  
  23129277.302    90764252.285  
  22514658.373   118315328.561    22514657.765    92193757.128    22514657.158  
                                
  20542654.727   107952379.617    20542655.638    84118738.889    20542655.192  
  20542654.459    80613787.875  
  23142665.667   123710810.383    23142667.472    96219526.407    23142667.526  
                                
  21140599.982   113167286.288    21140599.767    88019000.177    21140599.714  
                                
  21817994.665   116506875.138    21817995.790    90616463.770    21817995.862  
                                
  22408560.191   119744550.972    22408561.281    93134654.711    22408561.388  
                                
  19965478.084   106652000.525    19965477.066    82951551.488    19965478.138  
                                
  23149615.663   123878267.503    23149617.003    96349768.466    23149617.039  
                                
  21838722.678   116576584.021    21838723.946    90670681.904    21838723.124  
                                
  23621164.080   124130055.277                                                  
  23621167.511    92694534.394  
  25280644.768   132850685.294                                                  
  25280648.824    99206695.215  
  24950223.214   131114308.151                                                  
  24950227.985    97910053.366  
  25961800.666   136430184.094                                                  
  25961805.312   101879701.084  
 21  8 31 22 55 45.0000000  0 19G 1G10G12G21G23G25G31G32R 5R 7R 9R15
                                R16R21R22E 3E 5E15E25
  23793068.512   125033418.803    23793070.835    97428646.825    23793070.746  
  23793070.120    93369117.327  
  20570071.223   108096454.318    20570071.830    84231005.294    20570071.812  
  20570070.526    80721374.747  
  23447161.663   123215666.409    23447160.984    96012202.143    23447160.305  
                                
  23569668.861   123859445.790                    96513845.633    23569666.789  
                                
  22658941.120   119073538.431    22658941.030    92784574.139    22658940.870  
  22658945.408    88918567.637  
  23128793.963   121542632.737    23128796.715    94708554.664    23128796.161  
  23128797.322    90762368.746  
  22513993.127   118311832.762    22513992.537    92191033.131    22513991.930  
                                
  20542596.188   107952071.935    20542597.082    84118499.139    20542596.635  
  20542595.920    80613558.116  
  23143191.303   123713620.144    23143193.089    96221711.779    23143193.161  
                                
  21140165.300   113164959.366    21140165.085    88017190.346    21140165.032  
                                
  21817241.092   116502851.130    21817242.218    90613333.986    21817242.289  
                                
  22409136.414   119747630.025    22409137.468    93137049.528    22409137.611  
                                
  19965304.969   106651075.781    19965303.950    82950832.243    19965305.040  
                                
  23150362.016   123882261.403    23150363.357    96352874.833    23150363.392  
                                
  21839045.106   116578305.089    21839046.357    90672020.515    21839045.535  
                                
  23621118.710   124129816.880                                                  
  23621122.141    92694356.369  
  25280964.266   132852364.377                                                  
  25280968.340    99207949.073  
  24950571.356   131116137.686                                                  
  24950576.128    97911419.584  
  25961348.598   136427808.593                                                  
  25961353.279   101877927.174  
 21  8 31 22 55 46.0000000  0 19G 1G10G12G21G23G25G31G32R 5R 7R 9R15
                                R16R21R22E 3E 5E15E25
  23792593.482   125030922.474    23792595.805    97426701.633    23792595.716  
  23792595.055    93367253.192  
  20570286.616   108097586.226    20570287.223    84231887.300    20570287.206  
  20570285.901    80722220.005  
  23446931.546   123214457.191    23446930.867    96011259.897    23446930.206  
                                
  23569456.935   123858332.038                    96512977.772    23569454.862  
                                
  22659503.190   119076492.041    22659503.083    92786875.656    22659502.922  
  22659507.478    88920773.244  
  23128314.037   121540110.702    23128316.788    94706589.449    23128316.234  
  23128317.396    90760485.405  
  22513327.935   118308337.147    22513327.363    92188309.275    22513326.737  
                                
  20542537.685   107951764.431    20542538.561    84118259.521    20542538.114  
  20542537.399    80613328.482  
  23143716.920   123716429.924    23143718.725    96223897.159    23143718.778  
                                
  21139730.618   113162632.480    21139730.403    88015380.551    21139730.332  
                                
  21816487.555   116498827.337    21816488.681    90610204.369    21816488.771  
                                
  22409712.690   119750709.520    22409713.762    93139444.693    22409713.905  
                                
  19965131.997   106650151.816    19965130.978    82950113.604    19965132.068  
                                
  23151108.370   123886255.353    23151109.710    96355981.245    23151109.764  
                                
  21839367.642   116580026.813    21839368.893    90673359.637    21839368.071  
                                
  23621073.359   124129578.503                                                  
  23621076.772    92694178.361  
  25281283.782   132854043.415                                                  
  25281287.856    99209202.898  
  24950919.570   131117967.494                                                  
  24950924.323    97912785.996  
  25960896.601   136425433.222                                                  
  25960901.264   101876153.360  
 21  8 31 22 55 47.0000000  0 19G 1G10G12G21G23G25G31G32R 5R 7R 9R15
                                R16R21R22E 3E 5E15E25
  23792118.506   125028426.532    23792120.829    97424756.748    23792120.739  
  23792120.114    93365389.335  
  20570502.081   108098718.515    20570502.688    84232769.606    20570502.670  
  20570501.384    80723065.548  
  23446701.536   123213248.400    23446700.857    96010317.980    23446700.178  
                                
  23569245.062   123857218.679                    96512110.224    23569242.989  
                                
  22660065.296   119079445.831    22660065.171    92789177.307    22660065.010  
  22660069.549    88922978.998  
  23127834.146   121537588.907    23127836.916    94704624.417    23127836.344  
  23127837.505    90758602.247  
  22512662.796   118304841.714    22512662.189    92185585.557    22512661.581  
                                
  20542479.182   107951457.094    20542480.093    84118020.042    20542479.646  
  20542478.914    80613098.978  
  23144242.573   123719239.760    23144244.360    96226082.580    23144244.431  
                                
  21139295.954   113160305.612    21139295.739    88013570.764    21139295.668  
                                
  21815734.072   116494803.758    21815735.198    90607074.924    21815735.270  
                                
  22410289.055   119753789.496    22410290.145    93141840.227    22410290.270  
                                
  19964959.186   106649228.665    19964958.149    82949395.595    19964959.257  
                                
  23151854.741   123890249.333    23151856.081    96359087.674    23151856.117  
                                
  21839690.303   116581749.202    21839691.554    90674699.279    21839690.750  
                                
  23621028.007   124129340.164                                                  
  23621031.420    92694000.380  
  25281603.298   132855722.433                                                  
  25281607.354    99210456.702  
  24951267.802   131119797.565                                                  
  24951272.573    97914152.604  
  25960444.604   136423057.994                                                  
  25960449.285   101874379.651  
 21  8 31 22 55 48.0000000  0 19G 1G10G12G21G23G25G31G32R 5R 7R 9R15
                                R16R21R22E 3E 5E15E25
  23791643.654   125025931.156    23791645.977    97422812.299    23791645.888  
  23791645.262    93363525.905  
  20570717.652   108099851.370    20570718.260    84233652.348    20570718.260  
  20570716.956    80723911.509  
  23446471.633   123212040.268    23446470.954    96009376.580    23446470.275  
                                
  23569033.296   123856105.866                    96511243.097    23569031.241  
                                
  22660627.437   119082399.978    22660627.330    92791479.236    22660627.169  
  22660631.708    88925185.013  
  23127354.345   121535067.559    23127357.132    94702659.729    23127356.561  
  23127357.722    90756719.413  
  22511997.693   118301346.660    22511997.103    92182862.145    22511996.496  
                                
  20542420.768   107951150.125    20542421.644    84117780.843    20542421.233  
  20542420.482    80612869.749  
  23144768.262   123722049.790    23144770.049    96228268.152    23144770.120  
                                
  21138861.308   113157978.941    21138861.093    88011761.134    21138861.022  
                                
  21814980.661   116490780.585    21814981.787    90603945.792    21814981.858  
                                
  22410865.545   119756870.115    22410866.635    93144236.264    22410866.778  
                                
  19964786.571   106648306.546    19964785.552    82948678.392    19964786.624  
                                
  23152601.148   123894243.540    23152602.488    96362194.278    23152602.542  
                                
  21840013.125   116583472.399    21840014.358    90676039.541    21840013.554  
                                
  23620982.709   124129102.039                                                  
  23620986.104    92693822.556  
  25281922.832   132857401.572                                                  
  25281926.888    99211710.608  
  24951616.158   131121628.077                                                  
  24951620.911    97915519.547  
  25959992.678   136420683.107                                                  
  25959997.342   101872606.180  
 21  8 31 22 55 49.0000000  0 19G 1G10G12G21G23G25G31G32R 5R 7R 9R15
                                R16R21R22E 3E 5E15E25
  23791168.874   125023436.194    23791171.197    97420868.175    23791171.126  
  23791170.482    93361662.797  
  20570933.314   108100984.666    20570933.921    84234535.436    20570933.921  
  20570932.599    80724757.801  
  23446241.820   123210832.669    23446241.141    96008435.594    23446240.479  
                                
  23568821.620   123854993.496                    96510376.310    23568819.547  
                                
  22661189.633   119085354.346    22661189.525    92793781.340    22661189.364  
  22661193.903    88927391.207  
  23126874.597   121532546.515    23126877.385    94700695.285    23126876.831  
  23126877.992    90754836.833  
  22511332.662   118297851.861    22511332.072    92180138.925    22511331.447  
                                
  20542362.390   107950843.381    20542363.301    84117541.826    20542362.854  
  20542362.122    80612640.692  
  23145293.951   123724859.922    23145295.737    96230453.796    23145295.809  
                                
  21138426.679   113155652.348    21138426.465    88009951.575    21138426.394  
                                
  21814227.303   116486757.654    21814228.428    90600816.847    21814228.500  
                                
  22411442.161   119759951.281    22411443.251    93146632.713    22411443.358  
                                
  19964614.099   106647385.274    19964613.080    82947961.847    19964614.153  
                                
  23153347.609   123898237.906    23153348.949    96365301.004    23153348.984  
                                
  21840336.054   116585196.306    21840337.323    90677380.348    21840336.501  
                                
  23620937.411   124128864.006                                                  
  23620940.806    92693644.805  
  25282242.366   132859080.748                                                  
  25282246.404    99212964.534  
  24951964.551   131123458.932                                                  
  24951969.322    97916886.737  
  25959540.771   136418308.390                                                  
  25959545.434   101870832.873  
 21  8 31 22 55 50.0000000  0 19G 1G10G12G21G23G25G31G32R 5R 7R 9R15
                                R16R21R22E 3E 5E15E25
  23790694.184   125020941.743    23790696.525    97418924.442    23790696.435  
  23790695.792    93359800.046  
  20571149.064   108102118.446    20571149.672    84235418.903    20571149.672  
  20571148.349    80725604.457  
  23446012.149   123209625.618    23446011.470    96007495.033    23446010.791  
                                
  23568610.032   123853881.592                    96509509.890    23568607.977  
                                
  22661751.899   119088309.007    22661751.774    92796083.673    22661751.613  
  22661756.152    88929597.604  
  23126394.939   121530025.833    23126397.709    94698731.112    23126397.137  
  23126398.299    90752954.514  
  22510667.666   118294357.370    22510667.094    92177415.947    22510666.451  
                                
  20542304.101   107950536.928    20542304.977    84117303.027    20542304.530  
  20542303.815    80612411.840  
  23145819.675   123727670.206    23145821.462    96232639.570    23145821.533  
                                
  21137992.069   113153325.911    21137991.855    88008142.126    21137991.783  
                                
  21813473.980   116482735.062    21813475.124    90597688.170    21813475.196  
                                
  22412018.884   119763033.053    22412019.956    93149029.642    22412020.081  
                                
  19964441.788   106646464.889    19964440.769    82947245.991    19964441.842  
                                
  23154094.087   123902232.460    23154095.427    96368407.880    23154095.463  
                                
  21840659.144   116586920.984    21840660.412    90678721.760    21840659.608  
                                
  23620892.131   124128626.110                                                  
  23620895.544    92693467.158  
  25282561.918   132860759.983                                                  
  25282565.956    99214218.504  
  24952313.014   131125290.148                                                  
  24952317.785    97918254.202  
  25959088.935   136415933.946                                                  
  25959093.598   101869059.738  
 21  8 31 22 55 51.0000000  0 19G 1G10G12G21G23G25G31G32R 5R 7R 9R15
                                R16R21R22E 3E 5E15E25
  23790219.636   125018447.899    23790221.959    97416981.192    23790221.888  
  23790221.244    93357937.776  
  20571364.922   108103252.851    20571365.547    84236302.855    20571365.547  
  20571364.225    80726451.576  
  23445782.586   123208419.293    23445781.889    96006555.037    23445781.245  
                                
  23568398.553   123852770.325                    96508643.970    23568396.498  
                                
  22662314.219   119091264.096    22662314.112    92798386.340    22662313.951  
  22662318.490    88931804.328  
  23125915.388   121527505.679    23125918.140    94696767.355    23125917.586  
  23125918.748    90751072.575  
  22510002.760   118290863.320    22510002.188    92174693.313    22510001.562  
                                
  20542245.848   107950230.903    20542246.742    84117064.569    20542246.295  
  20542245.562    80612183.322  
  23146345.435   123730480.755    23146347.240    96234825.553    23146347.294  
                                
  21137557.530   113150999.772    21137557.298    88006332.907    21137557.244  
                                
  21812720.765   116478712.960    21812721.909    90594559.868    21812721.963  
                                
  22412595.714   119766115.529    22412596.786    93151427.125    22412596.929  
                                
  19964269.674   106645545.517    19964268.655    82946530.927    19964269.745  
                                
  23154840.619   123906227.307    23154841.959    96371514.976    23154841.995  
                                
  21840982.412   116588646.604    21840983.681    90680063.907    21840982.877  
                                
  23620846.905   124128388.505                                                  
  23620850.318    92693289.730  
  25282881.505   132862439.427                                                  
  25282885.561    99215472.636  
  24952661.585   131127121.887                                                  
  24952666.339    97919622.067  
  25958637.170   136413559.895                                                  
  25958641.834   101867286.907  
 21  8 31 22 55 52.0000000  0 19G 1G10G12G21G23G25G31G32R 5R 7R 9R15
                                R16R21R22E 3E 5E15E25
  23789745.196   125015954.630    23789747.501    97415038.392    23789747.429  
  23789746.786    93356075.906  
  20571580.887   108104387.808    20571581.512    84237187.237    20571581.512  
  20571580.190    80727299.113  
  23445553.147   123207213.566    23445552.468    96005615.514    23445551.789  
                                
  23568187.180   123851659.581                    96507778.452    23568185.125  
                                
  22662876.629   119094219.523    22662876.504    92800689.275    22662876.343  
  22662880.882    88934011.298  
  23125435.873   121524985.930    23125438.643    94694803.917    23125438.071  
  23125439.250    90749190.948  
  22509337.943   118287369.633    22509337.353    92171970.966    22509336.745  
                                
  20542187.684   107949925.218    20542188.560    84116826.368    20542188.131  
  20542187.399    80611955.046  
  23146871.249   123733291.499    23146873.054    96237011.687    23146873.108  
                                
  21137123.009   113148673.810    21137122.795    88004523.825    21137122.741  
                                
  21811967.622   116474691.242    21811968.765    90591431.865    21811968.837  
                                
  22413172.686   119769198.628    22413173.759    93153825.089    22413173.884  
                                
  19964097.756   106644627.085    19964096.737    82945816.591    19964097.809  
                                
  23155587.205   123910222.342    23155588.527    96374622.223    23155588.563  
                                
  21841305.841   116590373.068    21841307.110    90681406.709    21841306.306  
                                
  23620801.732   124128151.099                                                  
  23620805.145    92693112.444  
  25283201.110   132864119.011                                                  
  25283205.149    99216726.869  
  24953010.246   131128954.071                                                  
  24953014.999    97920990.242  
  25958185.459   136411186.143                                                  
  25958190.123   101865514.305  
 21  8 31 22 55 53.0000000  0 19G 1G10G12G21G23G25G31G32R 5R 7R 9R15
                                R16R21R22E 3E 5E15E25
  23789270.773   125013461.572    23789273.096    97413095.747    23789273.007  
  23789272.381    93354214.203  
  20571796.924   108105522.987    20571797.549    84238071.790    20571797.531  
  20571796.227    80728146.807  
  23445323.763   123206008.171    23445323.066    96004676.250    23445322.405  
                                
  23567975.879   123850549.062                    96506913.111    23567973.788  
                                
  22663439.039   119097174.967    22663438.914    92802992.223    22663438.753  
  22663443.292    88936218.284  
  23124956.394   121522466.280    23124959.163    94692840.551    23124958.591  
  23124959.771    90747309.400  
  22508673.126   118283875.981    22508672.536    92169248.638    22508671.911  
                                
  20542129.521   107949619.563    20542130.414    84116588.198    20542129.967  
  20542129.253    80611726.798  
  23147397.045   123736102.088    23147398.832    96239197.703    23147398.886  
                                
  21136688.488   113146347.710    21136688.274    88002714.637    21136688.202  
                                
  21811214.514   116470669.566    21811215.640    90588303.897    21811215.711  
                                
  22413749.695   119772282.032    22413750.767    93156223.290    22413750.910  
                                
  19963925.945   106643709.295    19963924.926    82945102.751    19963925.999  
                                
  23156333.755   123914217.287    23156335.095    96377729.393    23156335.130  
                                
  21841629.378   116592100.009    21841630.629    90682749.883    21841629.825  
                                
  23620756.541   124127913.561                                                  
  23620759.936    92692935.058  
  25283520.698   132865798.384                                                  
  25283524.736    99217980.940  
  24953358.906   131130786.335                                                  
  24953363.659    97922358.499  
  25957733.748   136408812.380                                                  
  25957738.412   101863741.690  
 21  8 31 22 55 54.0000000  0 19G 1G10G12G21G23G25G31G32R 5R 7R 9R15
                                R16R21R22E 3E 5E15E25
  23788796.476   125010969.134    23788798.799    97411153.590    23788798.727  
  23788798.084    93352352.973  
  20572013.067   108106658.809    20572013.675    84238956.846    20572013.675  
  20572012.352    80728994.986  
  23445094.521   123204803.483    23445093.842    96003737.525    23445093.163  
                                
  23567764.667   123849439.204                    96506048.293    23567762.612  
                                
  22664001.520   119100130.858    22664001.395    92805295.512    22664001.234  
  22664005.773    88938425.611  
  23124477.039   121519947.165    23124479.791    94690877.616    23124479.237  
  23124480.398    90745428.254  
  22508008.380   118280382.805    22508007.808    92166526.682    22508007.183  
                                
  20542071.429   107949314.342    20542072.304    84116350.363    20542071.893  
  20542071.143    80611498.879  
  23147922.877   123738913.007    23147924.664    96241383.981    23147924.735  
                                
  21136254.021   113144021.921    21136253.771    88000905.678    21136253.717  
                                
  21810461.478   116466648.399    21810462.586    90585176.332    21810462.675  
                                
  22414326.864   119775366.185    22414327.937    93158622.099    22414328.062  
                                
  19963754.331   106642792.578    19963753.295    82944389.749    19963754.367  
                                
  23157080.376   123918212.612    23157081.716    96380836.861    23157081.752  
                                
  21841953.075   116593827.924    21841954.308    90684093.813    21841953.504  
                                
  23620711.386   124127676.337                                                  
  23620714.799    92692757.910  
  25283840.321   132867477.989                                                  
  25283844.360    99219235.197  
  24953707.692   131132619.156                                                  
  24953712.445    97923727.156  
  25957282.108   136406439.027                                                  
  25957286.772   101861969.390  
 21  8 31 22 55 55.0000000  0 19G 1G10G12G21G23G25G31G32R 5R 7R 9R15
                                R16R21R22E 3E 5E15E25
  23788322.285   125008477.224    23788324.608    97409211.840    23788324.519  
  23788323.894    93350492.120  
  20572229.300   108107795.145    20572229.908    84239842.301    20572229.908  
  20572228.586    80729843.542  
  23444865.387   123203599.394    23444864.708    96002799.276    23444864.029  
                                
  23567553.562   123848329.812                    96505183.837    23567551.489  
                                
  22664564.072   119103087.056    22664563.965    92807599.039    22664563.804  
  22664568.325    88940633.147  
  23123997.738   121517428.422    23124000.490    94688914.961    23123999.936  
  23124001.098    90743547.372  
  22507343.724   118276889.925    22507343.134    92163804.958    22507342.527  
                                
  20542013.408   107949009.436    20542014.283    84116112.771    20542013.872  
  20542013.122    80611271.181  
  23148448.744   123741724.103    23148450.549    96243570.386    23148450.603  
                                
  21135819.571   113141696.269    21135819.321    87999096.838    21135819.267  
                                
  21809708.495   116462627.546    21809709.621    90582049.002    21809709.692  
                                
  22414904.141   119778450.953    22414905.213    93161021.360    22414905.338  
                                
  19963582.896   106641876.747    19963581.859    82943677.439    19963582.931  
                                
  23157827.033   123922208.116    23157828.373    96383944.468    23157828.409  
                                
  21842276.898   116595556.561    21842278.166    90685438.308    21842277.362  
                                
  23620666.267   124127439.255                                                  
  23620669.698    92692580.866  
  25284159.962   132869157.688                                                  
  25284164.001    99220489.513  
  24954056.531   131134452.359                                                  
  24954061.320    97925096.106  
  25956830.522   136404065.936                                                  
  25956835.186   101860197.274  
 21  8 31 22 55 56.0000000  0 19G 1G10G12G21G23G25G31G32R 5R 7R 9R15
                                R16R21R22E 3E 5E15E25
  23787848.184   125005985.810    23787850.507    97407270.478    23787850.418  
  23787849.775    93348631.655  
  20572445.623   108108931.971    20572446.248    84240728.141    20572446.230  
  20572444.926    80730692.481  
  23444636.377   123202395.892    23444635.698    96001861.480    23444635.019  
                                
  23567342.547   123847220.937                    96504319.773    23567340.474  
                                
  22665126.679   119106043.554    22665126.571    92809902.804    22665126.411  
  22665130.931    88942840.919  
  23123518.491   121514910.067    23123521.261    94686952.609    23123520.689  
  23123521.868    90741666.782  
  22506679.104   118273397.389    22506678.532    92161083.499    22506677.906  
                                
  20541955.459   107948704.822    20541956.334    84115875.410    20541955.887  
  20541955.173    80611043.712  
  23148974.648   123744535.351    23148976.452    96245756.913    23148976.524  
                                
  21135385.139   113139370.750    21135384.925    87997288.100    21135384.854  
                                
  21808955.584   116458607.024    21808956.691    90578921.929    21808956.781  
                                
  22415481.507   119781536.320    22415482.597    93163421.090    22415482.722  
                                
  19963411.603   106640961.847    19963410.585    82942965.850    19963411.657  
                                
  23158573.726   123926203.782    23158575.066    96387052.206    23158575.102  
                                
  21842600.863   116597285.985    21842602.132    90686783.415    21842601.328  
                                
  23620621.201   124127202.348                                                  
  23620624.596    92692403.961  
  25284479.603   132870837.466                                                  
  25284483.660    99221743.893  
  24954405.459   131136285.967                                                  
  24954410.212    97926465.356  
  25956378.990   136401693.120                                                  
  25956383.654   101858425.373  
 21  8 31 22 55 57.0000000  0 19G 1G10G12G21G23G25G31G32R 5R 7R 9R15
                                R16R21R22E 3E 5E15E25
  23787374.173   125003494.850    23787376.496    97405329.471    23787376.406  
  23787375.799    93346771.530  
  20572662.034   108110069.264    20572662.660    84241614.341    20572662.660  
  20572661.338    80731541.754  
  23444407.439   123201192.915    23444406.760    96000924.095    23444406.081  
                                
  23567131.603   123846112.499                    96503456.055    23567129.548  
                                
  22665689.338   119109000.298    22665689.213    92812206.756    22665689.052  
  22665693.573    88945048.875  
  23123039.315   121512392.019    23123042.067    94684990.496    23123041.513  
  23123042.693    90739786.435  
  22506014.572   118269905.113    22506013.983    92158362.247    22506013.340  
                                
  20541897.527   107948400.458    20541898.421    84115638.244    20541897.974  
  20541897.259    80610816.423  
  23149500.569   123747346.704    23149502.373    96247943.520    23149502.427  
                                
  21134950.726   113137045.322    21134950.511    87995479.435    21134950.440  
                                
  21808202.708   116454586.791    21808203.834    90575795.082    21808203.905  
                                
  22416058.998   119784622.236    22416060.088    93165821.243    22416060.213  
                                
  19963240.489   106640047.803    19963239.471    82942254.927    19963240.543  
                                
  23159320.419   123930199.564    23159321.759    96390160.034    23159321.830  
                                
  21842925.007   116599016.142    21842926.240    90688129.086    21842925.436  
                                
  23620576.135   124126965.538                                                  
  23620579.548    92692227.114  
  25284799.262   132872517.282                                                  
  25284803.319    99222998.299  
  24954754.459   131138119.906                                                  
  24954759.212    97927834.852  
  25955927.493   136399320.516                                                  
  25955932.157   101856653.627  
 21  8 31 22 55 58.0000000  0 19G 1G10G12G21G23G25G31G32R 5R 7R 9R15
                                R16R21R22E 3E 5E15E25
  23786900.268   125001004.431    23786902.574    97403388.886    23786902.502  
  23786901.877    93344911.794  
  20572878.553   108111207.090    20572879.179    84242500.959    20572879.179  
  20572877.856    80732391.432  
  23444178.644   123199990.560    23444177.965    95999987.199    23444177.286  
                                
  23566920.784   123845004.592                    96502592.749    23566918.712  
                                
  22666252.052   119111957.377    22666251.927    92814510.964    22666251.766  
  22666256.305    88947257.077  
  23122560.247   121509874.424    23122563.017    94683028.740    23122562.463  
  23122563.642    90737906.402  
  22505350.077   118266413.190    22505349.487    92155641.268    22505348.862  
                                
  20541839.685   107948096.429    20541840.561    84115401.340    20541840.132  
  20541839.399    80610589.390  
  23150026.543   123750158.259    23150028.348    96250130.286    23150028.384  
                                
  21134516.348   113134720.128    21134516.133    87993670.953    21134516.080  
                                
  21807449.922   116450566.958    21807451.048    90572668.547    21807451.119  
                                
  22416636.597   119787708.765    22416637.704    93168221.869    22416637.829  
                                
  19963069.554   106639134.713    19963068.536    82941544.750    19963069.608  
                                
  23160067.183   123934195.549    23160068.505    96393268.020    23160068.559  
                                
  21843249.241   116600747.083    21843250.509    90689475.374    21843249.705  
                                
  23620531.123   124126728.918                                                  
  23620534.518    92692050.418  
  25285118.939   132874197.210                                                  
  25285122.977    99224252.790  
  24955103.513   131139954.262                                                  
  24955108.284    97929204.665  
  25955476.068   136396948.220                                                  
  25955480.714   101854882.109  
 21  8 31 22 55 59.0000000  0 19G 1G10G12G21G23G25G31G32R 5R 7R 9R15
                                R16R21R22E 3E 5E15E25
  23786426.471   124998514.575    23786428.776    97401448.725    23786428.687  
  23786428.062    93343052.486  
  20573095.197   108112345.474    20573095.805    84243388.016    20573095.805  
  20573094.500    80733241.526  
  23443949.957   123198788.835    23443949.278    95999050.791    23443948.598  
                                
  23566710.073   123843897.237                    96501729.873    23566708.000  
                                
  22666814.819   119114914.802    22666814.712    92816815.444    22666814.551  
  22666819.072    88949465.546  
  23122081.232   121507357.198    23122083.966    94681067.261    23122083.412  
  23122084.609    90736026.669  
  22504685.653   118262921.651    22504685.064    92152920.589    22504684.456  
                                
  20541781.897   107947792.760    20541782.772    84115164.713    20541782.344  
  20541781.611    80610362.624  
  23150552.518   123752970.015    23150554.323    96252317.207    23150554.376  
                                
  21134082.041   113132395.188    21134081.809    87991862.661    21134081.737  
                                
  21806697.207   116446547.518    21806698.333    90569542.293    21806698.404  
                                
  22417214.338   119790795.943    22417215.410    93170622.982    22417215.553  
                                
  19962898.798   106638222.578    19962897.779    82940835.310    19962898.851  
                                
  23160813.965   123938191.752    23160815.306    96396376.171    23160815.359  
                                
  21843573.671   116602478.837    21843574.921    90690822.287    21843574.117  
                                
  23620486.129   124126492.516                                                  
  23620489.524    92691873.888  
  25285438.634   132875877.284                                                  
  25285442.672    99225507.400  
  24955452.655   131141789.076                                                  
  24955457.444    97930574.825  
  25955024.697   136394576.249                                                  
  25955029.361   101853110.824  
 21  8 31 22 56  0.0000000  0 19G 1G10G12G21G23G25G31G32R 5R 7R 9R15
                                R16R21R22E 3E 5E15E25
  23785952.746   124996025.097    23785955.033    97399508.870    23785954.961  
  23785954.336    93341193.454  
  20573311.895   108113484.251    20573312.503    84244275.372    20573312.503  
  20573311.198    80734091.905  
  23443721.376   123197587.590    23443720.697    95998114.758    23443720.018  
                                
  23566499.415   123842790.263                    96500867.298    23566497.342  
                                
  22667377.639   119117872.406    22667377.514    92819120.071    22667377.354  
  22667381.874    88951674.151  
  23121602.271   121504840.284    23121605.040    94679106.034    23121604.469  
  23121605.648    90734147.148  
  22504021.265   118259430.294    22504020.675    92150200.053    22504020.068  
                                
  20541724.144   107947489.262    20541725.020    84114928.221    20541724.573  
  20541723.858    80610135.991  
  23151078.529   123755781.788    23151080.333    96254504.137    23151080.369  
                                
  21133647.734   113130070.263    21133647.502    87990054.386    21133647.431  
                                
  21805944.528   116442528.305    21805945.672    90566416.236    21805945.725  
                                
  22417792.150   119793883.572    22417793.241    93173024.465    22417793.366  
                                
  19962728.184   106637311.236    19962727.166    82940126.493    19962728.256  
                                
  23161560.765   123942188.042    23161562.106    96399484.395    23161562.159  
                                
  21843898.208   116604211.272    21843899.459    90692169.736    21843898.637  
                                
  23620441.153   124126256.147                                                  
  23620444.548    92691697.374  
  25285758.328   132877557.326                                                  
  25285762.403    99226761.972  
  24955801.888   131143624.160                                                  
  24955806.641    97931945.169  
  25954573.343   136392204.417                                                  
  25954578.007   101851339.653  
 21  8 31 22 56  1.0000000  0 19G 1G10G12G21G23G25G31G32R 5R 7R 9R15
                                R16R21R22E 3E 5E15E25
  23785479.056   124993535.858    23785481.361    97397569.203    23785481.289  
  23785480.646    93339334.600  
  20573528.646   108114623.255    20573529.272    84245162.905    20573529.254  
  20573527.949    80734942.459  
  23443492.831   123196386.661    23443492.152    95997178.971    23443491.473  
                                
  23566288.811   123841683.533                    96500004.918    23566286.738  
                                
  22667940.460   119120830.063    22667940.353    92821424.738    22667940.192  
  22667944.731    88953882.775  
  23121123.345   121502323.481    23121126.097    94677144.893    23121125.543  
  23121126.722    90732267.721  
  22503356.895   118255939.023    22503356.305    92147479.584    22503355.698  
                                
  20541666.374   107947185.817    20541667.285    84114691.770    20541666.838  
  20541666.123    80609909.389  
  23151604.503   123758593.469    23151606.308    96256690.993    23151606.362  
                                
  21133213.374   113127745.206    21133213.160    87988246.011    21133213.106  
                                
  21805191.885   116438509.190    21805193.011    90563290.260    21805193.082  
                                
  22418370.017   119796971.527    22418371.107    93175426.205    22418371.232  
                                
  19962557.696   106636400.557    19962556.695    82939418.189    19962557.768  
                                
  23162307.565   123946184.275    23162308.906    96402592.576    23162308.959  
                                
  21844222.852   116605944.240    21844224.085    90693517.605    21844223.299  
                                
  23620396.141   124126019.674                                                  
  23620399.554    92691520.787  
  25286078.023   132879237.181                                                  
  25286082.062    99228016.409  
  24956151.102   131145459.364                                                  
  24956155.855    97933315.616  
  25954122.025   136389832.593                                                  
  25954126.653   101849568.481  
 21  8 31 22 56  2.0000000  0 19G 1G10G12G21G23G25G31G32R 5R 7R 9R15
                                R16R21R22E 3E 5E15E25
  23785005.491   124991047.316    23785007.796    97395630.080    23785007.725  
  23785007.099    93337476.280  
  20573745.523   108115762.962    20573746.148    84246050.991    20573746.148  
  20573744.826    80735793.540  
  23443264.447   123195186.498    23443263.768    95996243.779    23443263.089  
                                
  23566078.331   123840577.495                    96499143.070    23566076.259  
                                
  22668503.370   119123788.196    22668503.281    92823729.777    22668503.102  
  22668507.641    88956091.775  
  23120644.527   121499807.259    23120647.296    94675184.203    23120646.725  
  23120647.922    90730388.714  
  22502692.614   118252448.241    22502692.042    92144759.494    22502691.417  
                                
  20541608.746   107946882.856    20541609.622    84114455.696    20541609.193  
  20541608.460    80609683.152  
  23152130.585   123761405.515    23152132.390    96258878.134    23152132.443  
                                
  21132779.103   113125420.464    21132778.871    87986437.880    21132778.817  
                                
  21804439.313   116434490.580    21804440.457    90560164.669    21804440.546  
                                
  22418948.044   119800060.287    22418949.134    93177828.569    22418949.259  
                                
  19962387.440   106635490.999    19962386.404    82938710.751    19962387.494  
                                
  23163054.437   123950180.903    23163055.777    96405701.057    23163055.813  
                                
  21844547.675   116607678.185    21844548.926    90694866.224    21844548.122  
                                
  23620351.200   124125783.545                                                  
  23620354.631    92691344.459  
  25286397.736   132880917.323                                                  
  25286401.774    99229271.056  
  24956500.441   131147295.160                                                  
  24956505.230    97934686.501  
  25953670.743   136387461.224                                                  
  25953675.407   101847797.660  
 21  8 31 22 56  3.0000000  0 19G 1G10G12G21G23G25G31G32R 5R 7R 9R15
                                R16R21R22E 3E 5E15E25
  23784532.015   124988559.192    23784534.320    97393691.281    23784534.249  
  23784533.624    93335618.258  
  20573962.488   108116903.098    20573963.096    84246939.409    20573963.096  
  20573961.774    80736644.942  
  23443036.188   123193986.851    23443035.474    95995308.990    23443034.812  
                                
  23565867.942   123839471.851                    96498281.520    23565865.887  
                                
  22669066.351   119126746.554    22669066.226    92826034.986    22669066.066  
  22669070.586    88958300.934  
  23120165.762   121497291.327    23120168.514    94673223.737    23120167.960  
  23120169.139    90728509.940  
  22502028.387   118248957.697    22502027.815    92142039.592    22502027.171  
                                
  20541551.118   107946580.103    20541552.012    84114219.787    20541551.583  
  20541550.832    80609457.068  
  23152656.649   123764217.631    23152658.454    96261065.332    23152658.508  
                                
  21132344.832   113123095.772    21132344.600    87984629.787    21132344.529  
                                
  21803686.831   116430472.234    21803687.939    90557039.294    21803688.028  
                                
  22419526.143   119803149.536    22419527.250    93180231.314    22419527.376  
                                
  19962217.327   106634582.271    19962216.308    82938003.964    19962217.363  
                                
  23163801.309   123954177.611    23163802.649    96408809.599    23163802.720  
                                
  21844872.641   116609412.849    21844873.892    90696215.408    21844873.088  
                                
  23620306.295   124125547.501                                                  
  23620309.708    92691168.188  
  25286717.448   132882597.459                                                  
  25286721.505    99230525.705  
  24956849.852   131149131.257                                                  
  24956854.623    97936057.614  
  25953219.532   136385090.049                                                  
  25953224.178   101846026.971  
 21  8 31 22 56  4.0000000  0 19G 1G10G12G21G23G25G31G32R 5R 7R 9R15
                                R16R21R22E 3E 5E15E25
  23784058.683   124986071.783    23784061.006    97391753.057    23784060.916  
  23784060.291    93333760.797  
  20574179.579   108118043.953    20574180.204    84247828.387    20574180.204  
  20574178.882    80737496.872  
  23442808.037   123192788.003    23442807.358    95994374.831    23442806.679  
                                
  23565657.695   123838366.946                    96497420.560    23565655.604  
                                
  22669629.386   119129705.420    22669629.279    92828340.596    22669629.118  
  22669633.657    88960510.477  
  23119687.105   121494775.991    23119689.839    94671263.733    23119689.285  
  23119690.482    90726631.611  
  22501364.266   118245467.714    22501363.677    92139320.134    22501363.069  
                                
  20541493.616   107946277.893    20541494.509    84113984.299    20541494.063  
  20541493.348    80609231.399  
  23153182.785   123767030.073    23153184.589    96263252.789    23153184.643  
                                
  21131910.615   113120771.477    21131910.401    87982822.002    21131910.347  
                                
  21802934.402   116426454.441    21802935.545    90553914.351    21802935.617  
                                
  22420104.420   119806239.606    22420105.510    93182634.711    22420105.635  
                                
  19962047.410   106633674.679    19962046.392    82937298.062    19962047.482  
                                
  23164548.269   123958174.672    23164549.610    96411918.433    23164549.663  
                                
  21845197.786   116611148.521    21845199.055    90697565.379    21845198.233  
                                
  23620261.444   124125311.818                                                  
  23620264.857    92690992.198  
  25287037.232   132884277.906                                                  
  25287041.289    99231780.589  
  24957199.352   131150967.957                                                  
  24957204.123    97937429.182  
  25952768.411   136382719.364                                                  
  25952773.057   101844256.663  
 21  8 31 22 56  5.0000000  0 19G 1G10G12G21G23G25G31G32R 5R 7R 9R15
                                R16R21R22E 3E 5E15E25
  23783585.457   124983584.958    23783587.763    97389815.271    23783587.691  
  23783587.066    93331903.768  
  20574396.795   108119185.421    20574397.420    84248717.842    20574397.420  
  20574396.098    80738349.272  
  23442580.046   123191589.853    23442579.349    95993441.210    23442578.688  
                                
  23565447.537   123837262.637                    96496560.057    23565445.482  
                                
  22670192.529   119132664.709    22670192.422    92830646.535    22670192.261  
  22670196.782    88962720.326  
  23119208.554   121492261.154    23119211.306    94669304.113    23119210.734  
  23119211.931    90724753.644  
  22500700.218   118241978.158    22500699.628    92136601.004    22500699.021  
                                
  20541436.185   107945976.085    20541437.078    84113749.124    20541436.649  
  20541435.917    80609006.014  
  23153708.938   123769842.781    23153710.761    96265440.448    23153710.796  
                                
  21131476.469   113118447.434    21131476.255    87981014.413    21131476.184  
                                
  21802182.098   116422437.103    21802183.206    90550789.757    21802183.295  
                                
  22420682.822   119809330.389    22420683.930    93185038.653    22420684.037  
                                
  19961877.708   106632768.134    19961876.690    82936592.971    19961877.762  
                                
  23165295.284   123962172.041    23165296.642    96415027.493    23165296.678  
                                
  21845523.110   116612885.054    21845524.360    90698916.016    21845523.556  
                                
  23620216.646   124125076.413                                                  
  23620220.059    92690816.406  
  25287357.052   132885958.544                                                  
  25287361.090    99233035.611  
  24957548.960   131152805.171                                                  
  24957553.749    97938801.115  
  25952317.343   136380349.037                                                  
  25952321.989   101842486.624  
 21  8 31 22 56  6.0000000  0 19G 1G10G12G21G23G25G31G32R 5R 7R 9R15
                                R16R21R22E 3E 5E15E25
  23783112.339   124981098.685    23783114.644    97387877.916    23783114.555  
  23783113.948    93330047.131  
  20574614.100   108120327.376    20574614.725    84249607.678    20574614.725  
  20574613.403    80739202.035  
  23442352.144   123190392.287    23442351.447    95992508.047    23442350.768  
                                
  23565237.487   123836158.821                    96495699.938    23565235.432  
                                
  22670755.707   119135624.294    22670755.617    92832952.705    22670755.457  
  22670759.977    88964930.408  
  23118730.058   121489746.705    23118732.809    94667344.801    23118732.255  
  23118733.453    90722875.978  
  22500036.241   118238488.911    22500035.669    92133882.113    22500035.026  
                                
  20541378.807   107945674.573    20541379.701    84113514.182    20541379.254  
  20541378.521    80608780.865  
  23154235.163   123772655.650    23154236.968    96267628.233    23154237.021  
                                
  21131042.359   113116123.567    21131042.109    87979206.963    21131042.073  
                                
  21801429.830   116418420.120    21801430.956    90547665.442    21801431.045  
                                
  22421261.332   119812421.793    22421262.422    93187443.079    22421262.565  
                                
  19961708.167   106631862.486    19961707.148    82935888.581    19961708.221  
                                
  23166042.334   123966169.613    23166043.674    96418136.709    23166043.710  
                                
  21845848.558   116614622.371    21845849.791    90700267.267    21845849.005  
                                
  23620171.884   124124841.161                                                  
  23620175.297    92690640.729  
  25287676.890   132887639.270                                                  
  25287680.928    99234290.696  
  24957898.657   131154642.761                                                  
  24957903.410    97940173.347  
  25951866.347   136377979.000                                                  
  25951870.993   101840716.783  
 21  8 31 22 56  7.0000000  0 19G 1G10G12G21G23G25G31G32R 5R 7R 9R15
                                R16R21R22E 3E 5E15E25
  23782639.293   124978612.838    23782641.616    97385940.891    23782641.526  
  23782640.919    93328190.819  
  20574831.477   108121469.795    20574832.120    84250497.876    20574832.102  
  20574830.798    80740055.147  
  23442124.350   123189195.249    23442123.671    95991575.297    23442122.992  
                                
  23565027.543   123835055.456                    96494840.176    23565025.453  
                                
  22671318.956   119138584.125    22671318.849    92835259.063    22671318.688  
  22671323.209    88967140.670  
  23118251.632   121487232.566    23118254.366    94665385.732    23118253.812  
  23118255.010    90720998.541  
  22499372.317   118234999.934    22499371.710    92131163.432    22499371.102  
                                
  20541321.484   107945373.317    20541322.377    84113279.434    20541321.948  
  20541321.198    80608555.899  
  23154761.388   123775468.615    23154763.175    96269816.096    23154763.246  
                                
  21130608.267   113113799.787    21130608.017    87977399.574    21130607.963  
                                
  21800677.651   116414403.430    21800678.759    90544541.352    21800678.849  
                                
  22421839.949   119815513.752    22421841.057    93189847.936    22421841.182  
                                
  19961538.769   106630957.665    19961537.750    82935184.834    19961538.840  
                                
  23166789.420   123970167.352    23166790.760    96421246.052    23166790.796  
                                
  21846174.150   116616360.368    21846175.383    90701619.042    21846174.578  
                                
  23620127.140   124124606.015                                                  
  23620130.536    92690465.135  
  25287996.709   132889320.025                                                  
  25288000.748    99235545.806  
  24958248.389   131156480.700                                                  
  24958253.160    97941545.830  
  25951415.386   136375609.163                                                  
  25951420.032   101838947.106  
 21  8 31 22 56  8.0000000  0 19G 1G10G12G21G23G25G31G32R 5R 7R 9R15
                                R16R21R22E 3E 5E15E25
  23782166.353   124976127.551    23782168.676    97384004.302    23782168.605  
  23782167.979    93326334.914  
  20575048.978   108122612.754    20575049.622    84251388.491    20575049.604  
  20575048.299    80740908.644  
  23441896.681   123187998.833    23441896.002    95990643.025    23441895.323  
                                
  23564817.672   123833952.617                    96493980.825    23564815.599  
                                
  22671882.259   119141544.279    22671882.152    92837565.681    22671881.991  
  22671886.512    88969351.172  
  23117773.296   121484718.871    23117776.048    94663427.013    23117775.476  
  23117776.692    90719121.415  
  22498708.447   118231511.304    22498707.840    92128445.023    22498707.232  
                                
  20541264.213   107945072.383    20541265.107    84113044.943    20541264.678  
  20541263.945    80608331.176  
  23155287.648   123778281.800    23155289.453    96272004.125    23155289.507  
                                
  21130174.193   113111476.195    21130173.943    87975592.340    21130173.889  
                                
  21799925.509   116410387.130    21799926.652    90541417.561    21799926.706  
                                
  22422418.673   119818606.335    22422419.781    93192253.277    22422419.906  
                                
  19961369.567   106630053.808    19961368.566    82934481.834    19961369.620  
                                
  23167536.506   123974165.253    23167537.882    96424355.524    23167537.918  
                                
  21846499.884   116618099.193    21846501.135    90702971.462    21846500.331  
                                
  23620082.414   124124371.051                                                  
  23620085.845    92690289.673  
  25288316.583   132891000.897                                                  
  25288320.621    99236801.000  
  24958598.211   131158319.044                                                  
  24958602.982    97942918.617  
  25950964.479   136373239.622                                                  
  25950969.108   101837177.642  
 21  8 31 22 56  9.0000000  0 19G 1G10G12G21G23G25G31G32R 5R 7R 9R15
                                R16R21R22E 3E 5E15E25
  23781693.557   124973642.856    23781695.862    97382068.202    23781695.773  
  23781695.147    93324479.487  
  20575266.605   108123756.303    20575267.213    84252279.571    20575267.213  
  20575265.891    80741762.599  
  23441669.137   123186803.066    23441668.458    95989711.256    23441667.779  
                                
  23564607.907   123832850.371                    96493121.930    23564605.852  
                                
  22672445.634   119144504.818    22672445.509    92839872.592    22672445.348  
  22672449.869    88971561.971  
  23117295.050   121482205.633    23117297.802    94661468.655    23117297.230  
  23117298.427    90717244.667  
  22498044.667   118228023.096    22498044.059    92125726.943    22498043.434  
                                
  20541207.032   107944771.854    20541207.926    84112810.762    20541207.479  
  20541206.764    80608106.755  
  23155813.963   123781095.266    23155815.767    96274192.369    23155815.821  
                                
  21129740.172   113109152.863    21129739.940    87973785.293    21129739.868  
                                
  21799173.473   116406371.233    21799174.599    90538294.094    21799174.670  
                                
  22422997.540   119821699.598    22422998.648    93194659.151    22422998.773  
                                
  19961200.562   106629150.977    19961199.543    82933779.631    19961200.615  
                                
  23168283.664   123978163.429    23168285.040    96427465.195    23168285.075  
                                
  21846825.797   116619838.868    21846827.030    90704324.540    21846826.226  
                                
  23620037.742   124124136.342                                                  
  23620041.173    92690114.407  
  25288636.456   132892681.937                                                  
  25288640.495    99238056.322  
  24958948.140   131160157.887                                                  
  24958952.911    97944291.779  
  25950513.626   136370870.440                                                  
  25950518.254   101835408.460  
 21  8 31 22 56 10.0000000  0 19G 1G10G12G21G23G25G31G32R 5R 7R 9R15
                                R16R21R22E 3E 5E15E25
  23781220.832   124971158.672    23781223.119    97380132.476    23781223.048  
  23781222.440    93322624.410  
  20575484.321   108124900.400    20575484.947    84253171.073    20575484.947  
  20575483.625    80742616.947  
  23441441.735   123185607.939    23441441.021    95988779.988    23441440.342  
                                
  23564398.268   123831748.656                    96492263.446    23564396.213  
                                
  22673009.080   119147465.711    22673008.955    92842179.784    22673008.794  
  22673013.315    88973773.015  
  23116816.839   121479692.789    23116819.591    94659510.597    23116819.019  
  23116820.234    90715368.207  
  22497380.922   118224535.239    22497380.350    92123009.133    22497379.725  
                                
  20541149.905   107944471.649    20541150.799    84112576.838    20541150.352  
  20541149.619    80607882.573  
  23156340.312   123783908.890    23156342.135    96276380.739    23156342.189  
                                
  21129306.205   113106829.729    21129305.955    87971978.413    21129305.901  
                                
  21798421.473   116402355.717    21798422.617    90535170.920    21798422.688  
                                
  22423576.514   119824793.469    22423577.604    93197065.496    22423577.747  
                                
  19961031.735   106628249.127    19961030.717    82933078.193    19961031.771  
                                
  23169030.875   123982161.798    23169032.233    96430575.036    23169032.269  
                                
  21847151.853   116621579.356    21847153.086    90705678.246    21847152.300  
                                
  23619993.141   124123901.830                                                  
  23619996.554    92689939.280  
  25288956.383   132894363.103                                                  
  25288960.422    99239311.734  
  24959298.141   131161997.143                                                  
  24959302.929    97945665.245  
  25950062.844   136368501.565                                                  
  25950067.472   101833639.487  
 21  8 31 22 56 11.0000000  0 19G 1G10G12G21G23G25G31G32R 5R 7R 9R15
                                R16R21R22E 3E 5E15E25
  23780748.214   124968675.084    23780750.519    97378197.215    23780750.430  
  23780749.840    93320769.789  
  20575702.145   108126045.082    20575702.770    84254063.030    20575702.770  
  20575701.448    80743471.741  
  23441214.424   123184413.483    23441213.727    95987849.243    23441213.065  
                                
  23564188.718   123830647.539                    96491405.437    23564186.645  
                                
  22673572.597   119150426.972    22673572.472    92844487.255    22673572.311  
  22673576.832    88975984.345  
  23116338.771   121477180.449    23116341.523    94657552.932    23116340.951  
  23116342.166    90713492.096  
  22496717.302   118221047.800    22496716.694    92120291.650    22496716.087  
                                
  20541092.849   107944171.842    20541093.743    84112343.220    20541093.296  
  20541092.581    80607658.690  
  23156866.716   123786722.762    23156868.539    96278569.301    23156868.592  
                                
  21128872.256   113104506.812    21128872.024    87970171.698    21128871.970  
                                
  21797669.580   116398340.664    21797670.724    90532048.103    21797670.795  
                                
  22424155.613   119827888.027    22424156.721    93199472.374    22424156.864  
                                
  19960863.087   106627348.288    19960862.069    82932377.538    19960863.141  
                                
  23169778.122   123986160.470    23169779.480    96433685.104    23169779.533  
                                
  21847478.070   116623320.724    21847479.321    90707032.643    21847478.517  
                                
  23619948.557   124123667.543                                                  
  23619951.952    92689764.326  
  25289276.328   132896044.437                                                  
  25289280.366    99240567.280  
  24959648.230   131163836.869                                                  
  24959653.002    97947039.078  
  25949612.134   136366133.052                                                  
  25949616.780   101831870.796  
 21  8 31 22 56 12.0000000  0 19G 1G10G12G21G23G25G31G32R 5R 7R 9R15
                                R16R21R22E 3E 5E15E25
  23780275.668   124966191.884    23780277.991    97376262.251    23780277.901  
  23780277.294    93318915.449  
  20575920.022   108127190.136    20575920.665    84254955.282    20575920.665  
  20575919.343    80744326.814  
  23440987.219   123183219.474    23440986.522    95986918.846    23440985.843  
                                
  23563979.239   123829546.757                    96490547.690    23563977.184  
                                
  22674136.133   119153388.408    22674136.026    92846794.864    22674135.865  
  22674140.386    88978195.808  
  23115860.739   121474668.332    23115863.473    94655595.443    23115862.919  
  23115864.116    90711616.167  
  22496053.682   118217560.543    22496053.110    92117574.307    22496052.467  
                                
  20541035.829   107943872.188    20541036.705    84112109.723    20541036.294  
  20541035.561    80607434.922  
  23157393.120   123789536.625    23157394.924    96280757.857    23157394.978  
                                
  21128438.325   113102183.914    21128438.092    87968364.999    21128438.021  
                                
  21796917.741   116394325.807    21796918.867    90528925.441    21796918.938  
                                
  22424734.802   119830983.042    22424735.928    93201879.610    22424736.035  
                                
  19960694.582   106626448.210    19960693.582    82931677.482    19960694.636  
                                
  23170525.386   123990159.195    23170526.744    96436795.219    23170526.780  
                                
  21847804.412   116625062.742    21847805.663    90708387.546    21847804.859  
                                
  23619903.974   124123433.295                                                  
  23619907.387    92689589.400  
  25289596.273   132897725.729                                                  
  25289600.311    99241822.790  
  24959998.374   131165676.865                                                  
  24960003.145    97948413.098  
  25949161.441   136363764.673                                                  
  25949166.087   101830102.201  
 21  8 31 22 56 13.0000000  0 19G 1G10G12G21G23G25G31G32R 5R 7R 9R15
                                R16R21R22E 3E 5E15E25
  23779803.193   124963709.068    23779805.516    97374327.589    23779805.444  
  23779804.819    93317061.400  
  20576138.006   108128335.574    20576138.632    84255847.832    20576138.632  
  20576137.309    80745182.178  
  23440760.086   123182025.946    23440759.389    95985988.824    23440758.728  
                                
  23563769.850   123828446.386                    96489690.255    23563767.795  
                                
  22674699.704   119156350.027    22674699.597    92849102.614    22674699.436  
  22674703.957    88980407.404  
  23115382.743   121472156.494    23115385.477    94653638.169    23115384.923  
  23115386.120    90709740.453  
  22495390.134   118214073.502    22495389.544    92114857.130    22495388.919  
                                
  20540978.845   107943572.727    20540979.738    84111876.382    20540979.292  
  20540978.577    80607211.299  
  23157919.523   123792350.551    23157921.328    96282946.463    23157921.382  
                                
  21128004.393   113099861.054    21128004.161    87966558.333    21128004.107  
                                
  21796165.920   116390311.162    21796167.063    90525802.942    21796167.117  
                                
  22425314.080   119834078.539    22425315.188    93204287.214    22425315.331  
                                
  19960526.238   106625548.922    19960525.238    82930978.036    19960526.292  
                                
  23171272.651   123994157.989    23171274.027    96439905.388    23171274.063  
                                
  21848130.879   116626805.421    21848132.112    90709742.959    21848131.326  
                                
  23619859.409   124123199.091                                                  
  23619862.804    92689414.508  
  25289916.200   132899407.001                                                  
  25289920.238    99243078.285  
  24960348.571   131167517.146                                                  
  24960353.342    97949787.325  
  25948710.785   136361396.441                                                  
  25948715.413   101828333.721  
 21  8 31 22 56 14.0000000  0 19G 1G10G12G21G23G25G31G32R 5R 7R 9R15
                                R16R21R22E 3E 5E15E25
  23779330.807   124961226.677    23779333.130    97372393.252    23779333.059  
  23779332.433    93315207.669  
  20576356.044   108129481.459    20576356.687    84256740.726    20576356.669  
  20576355.365    80746037.869  
  23440533.060   123180832.937    23440532.381    95985059.207    23440531.702  
                                
  23563560.532   123827346.434                    96488833.155    23563558.478  
                                
  22675263.329   119159311.895    22675263.239    92851410.572    22675263.061  
  22675267.564    88982619.190  
  23114904.818   121469644.985    23114907.552    94651681.135    23114906.998  
  23114908.195    90707864.968  
  22494726.621   118210586.715    22494726.032    92112140.155    22494725.406  
                                
  20540921.914   107943273.513    20540922.790    84111643.226    20540922.343  
  20540921.628    80606987.864  
  23158445.927   123795164.563    23158447.749    96285135.139    23158447.785  
                                
  21127570.498   113097538.294    21127570.247    87964751.755    21127570.194  
                                
  21795414.170   116386296.807    21795415.296    90522680.661    21795415.367  
                                
  22425893.465   119837174.545    22425894.573    93206695.216    22425894.716  
                                
  19960358.055   106624650.491    19960357.037    82930279.256    19960358.091  
                                
  23172019.951   123998156.888    23172021.309    96443015.645    23172021.363  
                                
  21848457.471   116628548.861    21848458.740    90711098.981    21848457.936  
                                
  23619814.861   124122964.984                                                  
  23619818.274    92689239.687  
  25290236.145   132901088.281                                                  
  25290240.183    99244333.783  
  24960698.804   131169357.743                                                  
  24960703.593    97951161.804  
  25948260.146   136359028.412                                                  
  25948264.792   101826565.389  
 21  8 31 22 56 15.0000000  0 19G 1G10G12G21G23G25G31G32R 5R 7R 9R15
                                R16R21R22E 3E 5E15E25
  23778858.565   124958744.943    23778860.870    97370459.436    23778860.781  
  23778860.191    93313354.422  
  20576574.243   108130627.980    20576574.868    84257634.117    20576574.850  
  20576573.564    80746894.038  
  23440306.177   123179640.659    23440305.480    95984130.161    23440304.819  
                                
  23563351.340   123826247.116                    96487976.541    23563349.285  
                                
  22675827.043   119162274.182    22675826.935    92853718.850    22675826.775  
  22675831.278    88984831.286  
  23114427.000   121467134.001    23114429.734    94649724.528    23114429.180  
  23114430.377    90705989.870  
  22494063.198   118207100.393    22494062.591    92109423.545    22494061.983  
                                
  20540865.037   107942974.728    20540865.949    84111410.406    20540865.502  
  20540864.769    80606764.741  
  23158972.420   123797978.847    23158974.206    96287324.025    23158974.278  
                                
  21127136.620   113095215.823    21127136.388    87962945.386    21127136.334  
                                
  21794662.492   116382282.937    21794663.617    90519558.762    21794663.689  
                                
  22426472.993   119840271.308    22426474.101    93209103.807    22426474.208  
                                
  19960190.068   106623753.115    19960189.050    82929581.299    19960190.104  
                                
  23172767.305   124002156.085    23172768.663    96446126.125    23172768.717  
                                
  21848784.242   116630293.171    21848785.493    90712455.667    21848784.707  
                                
  23619770.367   124122731.158                                                  
  23619773.780    92689065.082  
  25290556.125   132902769.785                                                  
  25290560.146    99245589.451  
  24961049.162   131171198.863                                                  
  24961053.951    97952536.660  
  25947809.632   136356660.805                                                  
  25947814.260   101824797.365  
 21  8 31 22 56 16.0000000  0 19G 1G10G12G21G23G25G31G32R 5R 7R 9R15
                                R16R21R22E 3E 5E15E25
  23778386.358   124956263.518    23778388.663    97368525.865    23778388.574  
  23778387.984    93311501.394  
  20576792.459   108131774.797    20576793.102    84258527.742    20576793.102  
  20576791.780    80747750.421  
  23440079.383   123178448.759    23440078.668    95983201.408    23440077.989  
                                
  23563142.219   123825148.110                    96487120.170    23563140.164  
                                
  22676390.757   119165236.564    22676390.667    92856027.195    22676390.507  
  22676395.027    88987043.445  
  23113949.200   121464623.166    23113951.952    94647768.039    23113951.380  
  23113952.578    90704114.900  
  22493399.793   118203614.175    22493399.203    92106707.011    22493398.560  
                                
  20540808.196   107942676.021    20540809.107    84111177.648    20540808.660  
  20540807.928    80606541.679  
  23159498.859   123800793.080    23159500.664    96289512.875    23159500.717  
                                
  21126702.760   113092893.271    21126702.510    87961138.957    21126702.456  
                                
  21793910.849   116378269.172    21793911.957    90516436.947    21793912.046  
                                
  22427052.575   119843368.441    22427053.683    93211512.691    22427053.826  
                                
  19960022.189   106622856.419    19960021.170    82928883.872    19960022.243  
                                
  23173514.641   124006155.259    23173515.999    96449236.593    23173516.071  
                                
  21849111.120   116632038.068    21849112.371    90713812.809    21849111.585  
                                
  23619725.856   124122497.277                                                  
  23619729.269    92688890.423  
  25290876.070   132904451.159                                                  
  25290880.109    99246845.023  
  24961399.538   131173040.156                                                  
  24961404.327    97953911.656  
  25947359.082   136354293.230                                                  
  25947363.711   101823029.368  
 21  8 31 22 56 17.0000000  0 19G 1G10G12G21G23G25G31G32R 5R 7R 9R15
                                R16R21R22E 3E 5E15E25
  23777914.241   124953782.580    23777916.546    97366592.668    23777916.474  
  23777915.867    93309648.759  
  20577010.783   108132922.126    20577011.426    84259421.761    20577011.426  
  20577010.104    80748607.196  
  23439852.679   123177257.440    23439851.964    95982273.108    23439851.303  
                                
  23562933.169   123824049.602                    96486264.192    23562931.132  
                                
  22676954.542   119168199.236    22676954.417    92858335.768    22676954.256  
  22676958.777    88989255.846  
  23113471.472   121462112.737    23113474.224    94645811.862    23113473.652  
  23113474.867    90702240.225  
  22492736.459   118200128.288    22492735.851    92103990.736    22492735.244  
                                
  20540751.426   107942377.644    20540752.319    84110945.148    20540751.873  
  20540751.140    80606318.869  
  23160025.352   123803607.462    23160027.157    96291701.844    23160027.210  
                                
  21126268.900   113090570.875    21126268.686    87959332.647    21126268.614  
                                
  21793159.260   116374255.782    21793160.386    90513315.420    21793160.475  
                                
  22427632.282   119846466.183    22427633.390    93213922.046    22427633.497  
                                
  19959854.488   106621960.631    19959853.487    82928187.145    19959854.542  
                                
  23174262.013   124010154.609    23174263.371    96452347.199    23174263.443  
                                
  21849438.141   116633783.734    21849439.392    90715170.549    21849438.606  
                                
  23619681.380   124122263.577                                                  
  23619684.793    92688715.910  
  25291196.051   132906132.636                                                  
  25291200.071    99248100.675  
  24961750.021   131174881.866                                                  
  24961754.810    97955286.952  
  25946908.604   136351925.952                                                  
  25946913.232   101821261.598  
 21  8 31 22 56 18.0000000  0 19G 1G10G12G21G23G25G31G32R 5R 7R 9R15
                                R16R21R22E 3E 5E15E25
  23777442.266   124951302.243    23777444.553    97364659.941    23777444.482  
  23777443.856    93307796.561  
  20577229.232   108134070.050    20577229.875    84260316.250    20577229.875  
  20577228.553    80749464.408  
  23439626.082   123176066.794    23439625.403    95981345.327    23439624.724  
                                
  23562724.262   123822951.693                    96485408.681    23562722.189  
                                
  22677518.417   119171162.318    22677518.292    92860644.661    22677518.131  
  22677522.652    88991468.520  
  23112993.833   121459602.748    23112996.585    94643856.022    23112995.995  
  23112997.210    90700365.902  
  22492073.179   118196642.805    22492072.589    92101274.776    22492071.964  
                                
  20540694.710   107942079.645    20540695.603    84110712.939    20540695.174  
  20540694.442    80606096.341  
  23160551.880   123806422.101    23160553.703    96293891.007    23160553.739  
                                
  21125835.094   113088248.721    21125834.879    87957526.529    21125834.826  
                                
  21792407.778   116370242.822    21792408.904    90510194.224    21792408.958  
                                
  22428212.096   119849564.608    22428213.204    93216331.932    22428213.329  
                                
  19959686.984   106621065.841    19959685.983    82927491.200    19959687.020  
                                
  23175009.457   124014154.231    23175010.815    96455458.015    23175010.850  
                                
  21849765.341   116635530.271    21849766.574    90716528.969    21849765.770  
                                
  23619636.957   124122030.109                                                  
  23619640.388    92688541.567  
  25291516.067   132907814.283                                                  
  25291520.088    99249356.449  
  24962100.575   131176724.036                                                  
  24962105.346    97956662.603  
  25946458.198   136349559.032                                                  
  25946462.826   101819494.090  
 21  8 31 22 56 19.0000000  0 19G 1G10G12G21G23G25G31G32R 5R 7R 9R15
                                R16R21R22E 3E 5E15E25
  23776970.381   124948822.487    23776972.668    97362727.666    23776972.597  
  23776971.971    93305944.800  
  20577447.770   108135218.549    20577448.431    84261211.182    20577448.413  
  20577447.109    80750322.051  
  23439399.646   123174876.802    23439398.967    95980418.063    23439398.288  
                                
  23562515.427   123821854.344                    96484553.604    23562513.390  
                                
  22678082.328   119174125.756    22678082.203    92862953.825    22678082.042  
  22678086.563    88993681.470  
  23112516.283   121457093.248    23112519.053    94641900.575    23112518.464  
  23112519.696    90698491.921  
  22491409.988   118193157.728    22491409.398    92098559.136    22491408.773  
                                
  20540638.101   107941782.030    20540638.976    84110481.031    20540638.529  
  20540637.815    80605874.088  
  23161078.463   123809236.955    23161080.267    96296080.331    23161080.321  
                                
  21125401.359   113085926.827    21125401.127    87955720.609    21125401.055  
                                
  21791656.350   116366230.289    21791657.458    90507073.355    21791657.547  
                                
  22428792.053   119852663.695    22428793.143    93218742.336    22428793.268  
                                
  19959519.658   106620172.045    19959518.658    82926796.027    19959519.712  
                                
  23175756.918   124018154.118    23175758.294    96458569.037    23175758.330  
                                
  21850092.683   116637277.642    21850093.916    90717888.031    21850093.112  
                                
  23619592.571   124121796.877                                                  
  23619595.984    92688367.402  
  25291836.084   132909496.080                                                  
  25291840.122    99250612.334  
  24962451.219   131178566.671                                                  
  24962456.008    97958038.591  
  25946007.863   136347192.434                                                  
  25946012.473   101817726.835  
 21  8 31 22 56 20.0000000  0 19G 1G10G12G21G23G25G31G32R 5R 7R 9R15
                                R16R21R22E 3E 5E15E25
  23776498.549   124946343.060    23776500.854    97360795.647    23776500.765  
  23776500.175    93304093.271  
  20577666.397   108136367.371    20577667.041    84262106.368    20577667.023  
  20577665.718    80751179.940  
  23439173.281   123173687.232    23439172.602    95979491.123    23439171.923  
                                
  23562306.681   123820757.309                    96483698.776    23562304.608  
                                
  22678646.256   119177089.317    22678646.167    92865263.091    22678646.006  
  22678650.509    88995894.519  
  23112038.787   121454583.949    23112041.539    94639945.276    23112040.967  
  23112042.200    90696618.089  
  22490746.815   118189672.777    22490746.243    92095843.590    22490745.600  
                                
  20540581.474   107941484.527    20540582.367    84110249.213    20540581.938  
  20540581.188    80605651.931  
  23161605.063   123812051.815    23161606.850    96298269.667    23161606.921  
                                
  21124967.606   113083604.891    21124967.356    87953914.664    21124967.303  
                                
  21790904.958   116362217.907    21790906.066    90503952.616    21790906.155  
                                
  22429372.064   119855763.186    22429373.171    93221153.053    22429373.297  
                                
  19959352.476   106619278.986    19959351.475    82926101.421    19959352.529  
                                
  23176504.397   124022153.985    23176505.755    96461680.044    23176505.791  
                                
  21850420.115   116639025.570    21850421.366    90719247.528    21850420.580  
                                
  23619548.184   124121563.614                                                  
  23619551.597    92688193.204  
  25292156.118   132911177.795                                                  
  25292160.156    99251868.155  
  24962801.899   131180409.522                                                  
  24962806.670    97959414.751  
  25945557.528   136344825.931                                                  
  25945562.156   101815959.645  
 21  8 31 22 56 21.0000000  0 19G 1G10G12G21G23G25G31G32R 5R 7R 9R15
                                R16R21R22E 3E 5E15E25
  23776026.825   124943864.082    23776029.112    97358863.971    23776029.041  
  23776028.433    93302242.106  
  20577885.096   108137516.662    20577885.757    84263001.915    20577885.722  
  20577884.417    80752038.181  
  23438947.023   123172498.211    23438946.344    95978564.615    23438945.665  
                                
  23562098.007   123819660.762                    96482844.324    23562095.934  
                                
  22679210.274   119180053.148    22679210.167    92867572.567    22679210.006  
  22679214.509    88998107.769  
  23111561.345   121452074.987    23111564.079    94637990.245    23111563.525  
  23111564.740    90694744.526  
  22490083.713   118186188.129    22490083.123    92093128.284    22490082.516  
                                
  20540524.900   107941187.302    20540525.812    84110017.605    20540525.365  
  20540524.650    80605429.973  
  23162131.663   123814866.813    23162133.468    96300459.100    23162133.521  
                                
  21124533.854   113081283.077    21124533.621    87952108.811    21124533.586  
                                
  21790153.619   116358205.862    21790154.745    90500832.144    21790154.798  
                                
  22429952.199   119858863.246    22429953.307    93223564.208    22429953.432  
                                
  19959185.472   106618386.807    19959184.453    82925407.506    19959185.508  
                                
  23177251.894   124026153.999    23177253.252    96464791.175    23177253.288  
                                
  21850747.708   116640774.277    21850748.977    90720607.629    21850748.173  
                                
  23619503.815   124121330.493                                                  
  23619507.228    92688019.128  
  25292476.134   132912859.551                                                  
  25292480.155    99253124.019  
  24963152.650   131182252.725                                                  
  24963157.421    97960791.171  
  25945107.246   136342459.679                                                  
  25945111.856   101814192.637  
 21  8 31 22 56 22.0000000  0 19G 1G10G12G21G23G25G31G32R 5R 7R 9R15
                                R16R21R22E 3E 5E15E25
  23775555.190   124941385.662    23775557.495    97356932.735    23775557.388  
  23775556.798    93300391.333  
  20578103.902   108138666.493    20578104.564    84263897.892    20578104.546  
  20578103.241    80752896.819  
  23438720.873   123171309.795    23438720.176    95977638.574    23438719.515  
                                
  23561889.439   123818564.733                    96481990.278    23561887.366  
                                
  22679774.346   119183017.308    22679774.238    92869882.307    22679774.060  
  22679778.581    89000321.261  
  23111083.992   121449566.447    23111086.744    94636035.544    23111086.154  
  23111087.369    90692871.264  
  22489420.683   118182703.844    22489420.075    92090413.261    22489419.468  
                                
  20540468.416   107940890.410    20540469.310    84109786.260    20540468.863  
  20540468.148    80605208.269  
  23162658.299   123817681.983    23162660.121    96302648.668    23162660.175  
                                
  21124100.155   113078961.423    21124099.922    87950303.075    21124099.887  
                                
  21789402.352   116354194.193    21789403.477    90497711.961    21789403.549  
                                
  22430532.460   119861963.912    22430533.550    93225975.838    22430533.693  
                                
  19959018.629   106617495.603    19959017.628    82924714.348    19959018.665  
                                
  23177999.427   124030154.230    23178000.785    96467902.469    23178000.820  
                                
  21851075.444   116642523.794    21851076.713    90721968.365    21851075.908  
                                
  23619459.500   124121097.551                                                  
  23619462.895    92687845.173  
  25292796.186   132914541.436                                                  
  25292800.225    99254379.967  
  24963503.472   131184096.354                                                  
  24963508.261    97962167.905  
  25944657.000   136340093.713                                                  
  25944661.628   101812425.855  
 21  8 31 22 56 23.0000000  0 19G 1G10G12G21G23G25G31G32R 5R 7R 9R15
                                R16R21R22E 3E 5E15E25
  23775083.680   124938907.872    23775085.967    97355001.994    23775085.896  
  23775085.288    93298541.038  
  20578322.834   108139816.967    20578323.477    84264794.361    20578323.459  
  20578322.173    80753755.931  
  23438494.848   123170122.083    23438494.169    95976713.087    23438493.490  
                                
  23561680.979   123817469.339                    96481136.719    23561678.942  
                                
  22680338.471   119185981.893    22680338.381    92872192.368    22680338.220  
  22680342.723    89002535.072  
  23110606.728   121447058.430    23110609.462    94634081.244    23110608.908  
  23110610.123    90690998.394  
  22488757.724   118179219.993    22488757.135    92087698.575    22488756.509  
                                
  20540412.004   107940593.933    20540412.897    84109555.242    20540412.451  
  20540411.718    80604986.875  
  23163185.006   123820497.449    23163186.811    96304838.467    23163186.864  
                                
  21123666.527   113076640.076    21123666.277    87948497.585    21123666.223  
                                
  21788651.174   116350182.992    21788652.299    90494592.141    21788652.371  
                                
  22431112.828   119865065.297    22431113.954    93228388.024    22431114.079  
                                
  19958851.982   106616605.440    19958850.982    82924022.001    19958852.036  
                                
  23178747.013   124034154.790    23178748.389    96471014.015    23178748.443  
                                
  21851403.358   116644274.200    21851404.609    90723329.794    21851403.805  
                                
  23619415.221   124120864.893                                                  
  23619418.634    92687671.440  
  25293116.274   132916223.535                                                  
  25293120.312    99255636.083  
  24963854.420   131185940.499                                                  
  24963859.191    97963545.024  
  25944206.862   136337728.163                                                  
  25944211.472   101810659.364  
 21  8 31 22 56 24.0000000  0 19G 1G10G12G21G23G25G31G32R 5R 7R 9R15
                                R16R21R22E 3E 5E15E25
  23774612.277   124936430.649    23774614.583    97353071.679    23774614.475  
  23774613.904    93296691.164  
  20578541.872   108140968.014    20578542.515    84265691.277    20578542.498  
  20578541.193    80754615.485  
  23438268.965   123168935.045    23438268.268    95975788.118    23438267.607  
                                
  23561472.644   123816374.526                    96480283.616    23561470.589  
                                
  22680902.703   119188946.854    22680902.596    92874502.732    22680902.435  
  22680906.938    89004749.166  
  23110129.554   121444550.850    23110132.288    94632127.288    23110131.716  
  23110132.931    90689125.861  
  22488094.855   118175736.548    22488094.248    92084984.199    22488093.640  
                                
  20540355.645   107940297.836    20540356.538    84109324.516    20540356.092  
  20540355.377    80604765.770  
  23163711.749   123823313.151    23163713.554    96307028.441    23163713.625  
                                
  21123232.899   113074318.950    21123232.685    87946692.268    21123232.614  
                                
  21787900.085   116346172.215    21787901.211    90491472.650    21787901.264  
                                
  22431693.357   119868167.345    22431694.483    93230800.732    22431694.590  
                                
  19958685.532   106615716.264    19958684.532    82923330.420    19958685.568  
                                
  23179494.671   124038155.616    23179496.047    96474125.753    23179496.082  
                                
  21851731.434   116646025.476    21851732.684    90724691.886    21851731.880  
                                
  23619370.995   124120632.476                                                  
  23619374.408    92687497.879  
  25293436.397   132917905.778                                                  
  25293440.418    99256892.303  
  24964205.421   131187785.111                                                  
  24964210.210    97964922.496  
  25943756.777   136335362.951                                                  
  25943761.369   101808893.136  
 21  8 31 22 56 25.0000000  0 19G 1G10G12G21G23G25G31G32R 5R 7R 9R15
                                R16R21R22E 3E 5E15E25
  23774141.000   124933954.001    23774143.269    97351141.823    23774143.198  
  23774142.590    93294841.708  
  20578761.000   108142119.588    20578761.643    84266588.608    20578761.643  
  20578760.321    80755475.427  
  23438043.190   123167748.622    23438042.511    95974863.634    23438041.832  
                                
  23561264.417   123815280.232                    96479430.917    23561262.362  
                                
  22681466.971   119191912.147    22681466.846    92876813.345    22681466.685  
  22681471.206    89006963.515  
  23109652.469   121442043.718    23109655.203    94630173.686    23109654.631  
  23109655.846    90687253.646  
  22487432.039   118172253.466    22487431.450    92082270.112    22487430.824  
                                
  20540299.375   107940002.090    20540300.269    84109094.068    20540299.822  
  20540299.090    80604544.921  
  23164238.510   123826129.023    23164240.333    96309218.562    23164240.404  
                                
  21122799.343   113071998.000    21122799.093    87944887.082    21122799.057  
                                
  21787149.086   116342161.822    21787150.176    90488353.460    21787150.265  
                                
  22432273.975   119871270.043    22432275.101    93233213.933    22432275.226  
                                
  19958519.261   106614828.049    19958518.243    82922639.586    19958519.297  
                                
  23180242.364   124042156.633    23180243.722    96477237.655    23180243.776  
                                
  21852059.652   116647777.584    21852060.903    90726054.636    21852060.099  
                                
  23619326.787   124120400.241                                                  
  23619330.218    92687324.457  
  25293756.557   132919588.165                                                  
  25293760.595    99258148.624  
  24964556.529   131189630.146                                                  
  24964561.300    97966300.277  
  25943306.745   136332998.041                                                  
  25943311.373   101807127.130  
 21  8 31 22 56 26.0000000  0 19G 1G10G12G21G23G25G31G32R 5R 7R 9R15
                                R16R21R22E 3E 5E15E25
  23773669.794   124931477.831    23773672.081    97349212.340    23773671.992  
  23773671.402    93292992.620  
  20578980.235   108143271.682    20578980.896    84267486.344    20578980.878  
  20578979.574    80756335.750  
  23437817.558   123166562.799    23437816.843    95973939.617    23437816.200  
                                
  23561056.260   123814186.445                    96478578.618    23561054.223  
                                
  22682031.310   119194877.738    22682031.185    92879124.191    22682031.024  
  22682035.527    89009178.073  
  23109175.437   121439536.957    23109178.171    94628220.373    23109177.617  
  23109178.832    90685381.718  
  22486769.295   118168770.698    22486768.688    92079556.269    22486768.062  
                                
  20540243.142   107939706.647    20540244.035    84108863.852    20540243.606  
  20540242.891    80604324.291  
  23164765.307   123828945.056    23164767.129    96311408.800    23164767.183  
                                
  21122365.805   113069677.203    21122365.555    87943082.020    21122365.501  
                                
  21786398.104   116338151.755    21786399.230    90485234.523    21786399.284  
                                
  22432854.736   119874373.377    22432855.862    93235627.632    22432855.987  
                                
  19958353.151   106613940.756    19958352.132    82921949.467    19958353.204  
                                
  23180990.094   124046157.818    23180991.452    96480349.683    23180991.487  
                                
  21852388.031   116649530.464    21852389.264    90727417.990    21852388.478  
                                
  23619282.633   124120168.170                                                  
  23619286.063    92687151.157  
  25294076.716   132921270.622                                                  
  25294080.737    99259405.007  
  24964907.709   131191475.573                                                  
  24964912.480    97967678.356  
  25942856.768   136330633.398                                                  
  25942861.378   101805361.327  
 21  8 31 22 56 27.0000000  0 19G 1G10G12G21G23G25G31G32R 5R 7R 9R15
                                R16R21R22E 3E 5E15E25
  23773198.677   124929002.163    23773200.982    97347283.255    23773200.911  
  23773200.303    93291143.920  
  20579199.559   108144424.274    20579200.221    84268384.470    20579200.203  
  20579198.898    80757196.454  
  23437592.015   123165377.564    23437591.318    95973016.057    23437590.657  
                                
  23560848.211   123813093.158                    96477726.703    23560846.174  
                                
  22682595.703   119197843.644    22682595.614    92881435.286    22682595.435  
  22682599.956    89011392.864  
  23108698.495   121437030.565    23108701.211    94626267.345    23108700.640  
  23108701.873    90683510.073  
  22486106.605   118165288.248    22486106.015    92076842.666    22486105.372  
                                
  20540186.979   107939411.492    20540187.873    84108633.861    20540187.444  
  20540186.693    80604103.885  
  23165292.121   123831761.226    23165293.944    96313599.162    23165293.997  
                                
  21121932.267   113067356.574    21121932.035    87941277.089    21121931.999  
                                
  21785647.212   116334142.071    21785648.338    90482115.890    21785648.392  
                                
  22433435.587   119877477.289    22433436.712    93238041.784    22433436.855  
                                
  19958187.219   106613054.387    19958186.218    82921260.069    19958187.273  
                                
  23181737.841   124050159.179    23181739.199    96483461.848    23181739.252  
                                
  21852716.571   116651284.128    21852717.804    90728781.950    21852717.000  
                                
  23619238.532   124119936.254                                                  
  23619241.927    92686977.972  
  25294396.893   132922953.167                                                  
  25294400.914    99260661.453  
  24965258.961   131193321.391                                                  
  24965263.732    97969056.723  
  25942406.844   136328269.030                                                  
  25942411.454   101803595.730  
 21  8 31 22 56 28.0000000  0 19G 1G10G12G21G23G25G31G32R 5R 7R 9R15
                                R16R21R22E 3E 5E15E25
  23772727.721   124926527.179    23772729.990    97345354.696    23772729.919  
  23772729.329    93289295.709  
  20579419.027   108145577.533    20579419.670    84269283.113    20579419.670  
  20579418.348    80758057.652  
  23437366.597   123164193.059    23437365.918    95972093.066    23437365.239  
                                
  23560640.305   123812000.510                    96476875.294    23560638.250  
                                
  22683160.186   119200809.990    22683160.079    92883746.720    22683159.918  
  22683164.439    89013607.990  
  23108221.643   121434524.734    23108224.359    94624314.752    23108223.805  
  23108225.020    90681638.840  
  22485444.003   118161806.287    22485443.414    92074129.455    22485442.788  
                                
  20540130.906   107939116.794    20540131.800    84108404.228    20540131.371  
  20540130.638    80603883.818  
  23165819.025   123834577.737    23165820.848    96315789.781    23165820.901  
                                
  21121498.818   113065036.252    21121498.568    87939472.399    21121498.532  
                                
  21784896.427   116330132.889    21784897.553    90478997.635    21784897.607  
                                
  22434016.598   119880581.927    22434017.706    93240456.500    22434017.831  
                                
  19958021.484   106612169.083    19958020.483    82920571.499    19958021.519  
                                
  23182485.659   124054160.892    23182487.017    96486574.282    23182487.071  
                                
  21853045.253   116653038.751    21853046.504    90730146.653    21853045.700  
                                
  23619194.431   124119704.647                                                  
  23619197.844    92686805.023  
  25294717.124   132924635.956                                                  
  25294721.144    99261918.085  
  24965610.301   131195167.746                                                  
  24965615.073    97970435.492  
  25941956.991   136325905.077                                                  
  25941961.601   101801830.447  
 21  8 31 22 56 29.0000000  0 19G 1G10G12G21G23G25G31G32R 5R 7R 9R15
                                R16R21R22E 3E 5E15E25
  23772256.819   124924052.615    23772259.106    97343426.469    23772259.034  
  23772258.427    93287447.841  
  20579638.566   108146731.220    20579639.227    84270182.092    20579639.209  
  20579637.904    80758919.180  
  23437141.287   123163009.112    23437140.608    95971170.507    23437139.929  
                                
  23560432.453   123810908.300                    96476024.233    23560430.398  
                                
  22683724.704   119203776.579    22683724.615    92886058.341    22683724.454  
  22683728.957    89015823.296  
  23107744.843   121432019.235    23107747.595    94622362.419    23107747.023  
  23107748.256    90679767.848  
  22484781.456   118158324.608    22484780.866    92071416.461    22484780.241  
                                
  20540074.869   107938822.345    20540075.762    84108174.788    20540075.334  
  20540074.583    80603663.940  
  23166345.929   123837394.346    23166347.752    96317980.498    23166347.823  
                                
  21121065.387   113062716.041    21121065.155    87937667.790    21121065.083  
                                
  21784145.696   116326124.002    21784146.804    90475879.619    21784146.875  
                                
  22434597.681   119883687.093    22434598.789    93242871.626    22434598.932  
                                
  19957855.927   106611284.630    19957854.927    82919883.593    19957855.963  
                                
  23183233.496   124058162.731    23183234.872    96489686.817    23183234.907  
                                
  21853374.097   116654794.069    21853375.330    90731511.900    21853374.526  
                                
  23619150.384   124119473.157                                                  
  23619153.797    92686632.155  
  25295037.355   132926318.786                                                  
  25295041.393    99263174.742  
  24965961.714   131197014.436                                                  
  24965966.485    97971814.513  
  25941507.192   136323541.355                                                  
  25941511.820   101800065.323  
 21  8 31 22 56 30.0000000  0 19G 1G10G12G21G23G25G31G32R 5R 7R 9R15
                                R16R21R22E 3E 5E15E25
  23771786.023   124921578.546    23771788.311    97341498.627    23771788.221  
  23771787.632    93285600.305  
  20579858.194   108147885.386    20579858.855    84271081.440    20579858.837  
  20579857.533    80759781.048  
  23436916.102   123161825.666    23436915.387    95970248.344    23436914.726  
                                
  23560224.707   123809816.559                    96475173.525    23560222.653  
                                
  22684289.276   119206743.412    22684289.169    92888370.159    22684289.008  
  22684293.511    89018038.789  
  23107268.151   121429514.064    23107270.885    94620410.340    23107270.314  
  23107271.529    90677897.101  
  22484118.962   118154843.184    22484118.372    92068703.661    22484117.765  
                                
  20540018.885   107938528.140    20540019.779    84107945.538    20540019.332  
  20540018.617    80603444.239  
  23166872.869   123840211.074    23166874.673    96320171.290    23166874.727  
                                
  21120631.974   113060395.913    21120631.724    87935863.246    21120631.670  
                                
  21783395.001   116322115.402    21783396.126    90472761.818    21783396.180  
                                
  22435178.871   119886792.808    22435179.996    93245287.180    22435180.104  
                                
  19957690.496   106610401.020    19957689.495    82919196.341    19957690.532  
                                
  23183981.368   124062164.690    23183982.744    96492799.446    23183982.780  
                                
  21853703.066   116656550.144    21853704.299    90732877.739    21853703.513  
                                
  23619106.355   124119241.758                                                  
  23619109.750    92686459.357  
  25295357.568   132928001.630                                                  
  25295361.624    99264431.411  
  24966313.197   131198861.460                                                  
  24966317.968    97973193.787  
  25941057.429   136321177.827                                                  
  25941062.021   101798300.358  
 21  8 31 22 56 31.0000000  0 19G 1G10G12G21G23G25G31G32R 5R 7R 9R15
                                R16R21R22E 3E 5E15E25
  23771315.282   124919104.806    23771317.569    97339571.033    23771317.480  
  23771316.908    93283753.036  
  20580077.893   108149039.871    20580078.537    84271981.039    20580078.537  
  20580077.214    80760643.171  
  23436690.970   123160642.664    23436690.291    95969326.522    23436689.612  
                                
  23560017.016   123808725.146                    96474323.076    23560014.961  
                                
  22684853.866   119209710.377    22684853.776    92890682.073    22684853.615  
  22684858.118    89020254.379  
  23106791.460   121427009.107    23106794.193    94618458.428    23106793.640  
  23106794.855    90676026.517  
  22483456.503   118151361.919    22483455.914    92065990.977    22483455.288  
                                
  20539962.937   107938234.076    20539963.813    84107716.397    20539963.366  
  20539962.652    80603224.648  
  23167399.790   123843027.803    23167401.613    96322362.076    23167401.667  
                                
  21120198.543   113058075.771    21120198.310    87934058.691    21120198.239  
                                
  21782644.359   116318106.986    21782645.484    90469644.161    21782645.538  
                                
  22435760.132   119889898.929    22435761.258    93247703.052    22435761.383  
                                
  19957525.225   106609518.186    19957524.225    82918509.693    19957525.279  
                                
  23184729.222   124066166.636    23184730.616    96495912.065    23184730.652  
                                
  21854032.142   116658306.777    21854033.393    90734244.004    21854032.571  
                                
  23619062.325   124119010.357                                                  
  23619065.720    92686286.555  
  25295677.798   132929684.405                                                  
  25295681.819    99265688.033  
  24966664.699   131200708.710                                                  
  24966669.488    97974573.235  
  25940607.683   136318814.419                                                  
  25940612.293   101796535.480  
 21  8 31 22 56 32.0000000  0 19G 1G10G12G21G23G25G31G32R 5R 7R 9R15
                                R16R21R22E 3E 5E15E25
  23770844.630   124916631.600    23770846.935    97337643.855    23770846.845  
  23770846.256    93281906.155  
  20580297.682   108150194.905    20580298.344    84272881.068    20580298.326  
  20580297.021    80761505.696  
  23436465.981   123159460.278    23436465.302    95968405.180    23436464.623  
                                
  23559809.414   123807634.268                    96473473.035    23559807.376  
                                
  22685418.527   119212677.686    22685418.437    92892994.259    22685418.276  
  22685422.779    89022470.222  
  23106314.857   121424504.570    23106317.591    94616506.836    23106317.019  
  23106318.252    90674156.263  
  22482794.117   118147881.003    22482793.509    92063278.580    22482792.902  
                                
  20539907.025   107937940.350    20539907.919    84107487.519    20539907.490  
  20539906.739    80603005.307  
  23167926.748   123845844.675    23167928.570    96324552.974    23167928.624  
                                
  21119765.165   113055755.817    21119764.915    87932254.283    21119764.862  
                                
  21781893.788   116314098.940    21781894.896    90466526.795    21781894.968  
                                
  22436341.537   119893005.679    22436342.644    93250119.406    22436342.769  
                                
  19957360.151   106608636.319    19957359.151    82917823.798    19957360.187  
                                
  23185477.148   124070168.846    23185478.524    96499024.885    23185478.578  
                                
  21854361.361   116660064.226    21854362.629    90735610.907    21854361.807  
                                
  23619018.332   124118779.146                                                  
  23619021.727    92686113.897  
  25295998.065   132931367.296                                                  
  25296002.068    99266944.733  
  24967016.308   131202556.388                                                  
  24967021.079    97975952.995  
  25940158.009   136316451.320                                                  
  25940162.601   101794770.832  
 21  8 31 22 56 33.0000000  0 19G 1G10G12G21G23G25G31G32R 5R 7R 9R15
                                R16R21R22E 3E 5E15E25
  23770374.120   124914158.893    23770376.390    97335717.070    23770376.318  
  23770375.729    93280059.657  
  20580517.579   108151350.438    20580518.222    84273781.483    20580518.222  
  20580516.900    80762368.596  
  23436241.099   123158278.473    23436240.402    95967484.293    23436239.741  
                                
  23559601.936   123806543.892                    96472623.391    23559599.899  
                                
  22685983.259   119215645.285    22685983.134    92895306.674    22685982.973  
  22685987.476    89024686.288  
  23105838.344   121422000.420    23105841.060    94614555.544    23105840.506  
  23105841.721    90672286.268  
  22482131.783   118144400.403    22482131.176    92060566.427    22482130.550  
                                
  20539851.202   107937646.920    20539852.078    84107258.870    20539851.631  
  20539850.917    80602786.194  
  23168453.723   123848661.678    23168455.546    96326743.981    23168455.617  
                                
  21119331.788   113053436.021    21119331.556    87930449.999    21119331.520  
                                
  21781143.253   116310091.231    21781144.379    90463409.688    21781144.469  
                                
  22436923.030   119896113.026    22436924.138    93252536.225    22436924.281  
                                
  19957195.220   106607755.346    19957194.219    82917138.597    19957195.256  
                                
  23186225.092   124074171.208    23186226.468    96502137.835    23186226.504  
                                
  21854690.740   116661822.433    21854691.973    90736978.401    21854691.187  
                                
  23618974.356   124118548.093                                                  
  23618977.769    92685941.364  
  25296318.313   132933050.276                                                  
  25296322.352    99268201.504  
  24967367.970   131204404.460                                                  
  24967372.759    97977333.042  
  25939708.371   136314088.484                                                  
  25939712.981   101793006.372  
