     2.11           OBSERVATION DATA    M (MIXED)           RINEX VERSION / TYPE
CONVBIN 2.4.3                           20210901 190736 UTC PGM / RUN BY / DATE 
log: logs/21_09_01_08_12_03_ohlc_SW.rtcm                    COMMENT             
format: RTCM 3, station ID: 1948                            COMMENT             
1948                                                        MARKER NAME         
                                                            MARKER NUMBER       
                                                            OBSERVER / AGENCY   
                    SWFT                                    REC # / TYPE / VERS 
                    NULL                                    ANT # / TYPE        
   544965.1059 -4802677.2300  4147584.0683                  APPROX POSITION XYZ 
        0.0000        0.0000        0.0000                  ANTENNA: DELTA H/E/N
     1     1                                                WAVELENGTH FACT L1/2
     5    C1    L1    P2    L2    C2                        # / TYPES OF OBSERV 
  2021     9     1     8    12    8.0000000     GPS         TIME OF FIRST OBS   
  2021     9     1     8    42    6.0000000     GPS         TIME OF LAST OBS    
                                                            END OF HEADER       
 21  9  1  8 12  8.0000000  0  8G 1G 7G 8G13G14G17G21G30
  21575831.986   113381720.633    21575834.934    88349381.341                  
  20445679.218   107442784.176    20445678.539    83721653.378                  
  22326869.594   117328454.574    22326871.703    91424760.608                  
  23671774.228   124396031.238    23671773.227    96931976.660                  
  22001827.796   115620400.376    22001827.778    90093824.285                  
  22757116.194   119589459.390    22757116.016    93186592.798                  
  21550818.463   113250322.051    21550817.248    88247006.445                  
  20678830.066   108667951.866    20678831.817    84676317.813                  
 21  9  1  8 12  9.0000000  0  8G 1G 7G 8G13G14G17G21G30
  21575328.615   113379075.395    21575331.564    88347320.117                  
  20445927.436   107444088.568    20445926.757    83722669.785                  
  22327426.232   117331379.782    22327428.358    91427039.991                  
  23671568.698   124394951.290    23671567.715    96931135.140                  
  22001413.091   115618221.052    22001413.056    90092126.113                  
  22756590.291   119586695.794    22756590.112    93184439.349                  
  21550797.395   113250211.434    21550796.198    88246920.255                  
  20678650.607   108667008.832    20678652.359    84675582.983                  
 21  9  1  8 12 10.0000000  0  8G 1G 7G 8G13G14G17G21G30
  21574825.334   113376430.664    21574828.301    88345259.290                  
  20446175.762   107445393.540    20446175.083    83723686.644                  
  22327982.924   117334305.184    22327985.032    91429319.527                  
  23671363.312   124393871.950    23671362.329    96930294.098                  
  22000998.423   115616041.898    22000998.387    90090428.071                  
  22756064.459   119583932.500    22756064.281    93182286.128                  
  21550776.488   113250101.442    21550775.255    88246834.542                  
  20678471.256   108666066.375    20678473.025    84674848.597                  
 21  9  1  8 12 11.0000000  0 12G 1G 7G 8G13G14G17G21G30C23C25C28C34
  21574322.160   113373786.442    21574325.127    88343198.854                  
  20446424.195   107446699.103    20446423.516    83724703.968                  
  22328539.669   117337230.797    22328541.777    91431599.225                  
  23671158.032   124392793.218    23671157.032    96929453.532                  
  22000583.754   115613862.894    22000583.736    90088730.146                  
  22755538.681   119581169.514    22755538.503    93180133.157                  
  21550755.653   113249992.098    21550754.456    88246749.340                  
  20678292.012   108665124.499    20678293.781    84674114.672                  
                 115582095.685                   115582095.685    22196316.422  
                 117859629.327                   117859629.327    22633699.266  
                 130528523.923                   130528523.923    25066631.733  
                 119699632.668                   119699632.668    22987054.978  
 21  9  1  8 12 12.0000000  0 12G 1G 7G 8G13G14G17G21G30C23C25C28C34
  21573819.076   113371142.747    21573822.042    88341138.835                  
  20446672.753   107448005.261    20446672.074    83725721.758                  
  22329096.414   117340156.621    22329098.540    91433879.091                  
  23670952.878   124391715.136    23670951.895    96928613.464                  
  22000169.139   115611684.063    22000169.121    90087032.355                  
  22755012.957   119578406.837    22755012.778    93177980.419                  
  21550734.979   113249883.383    21550733.764    88246664.629                  
  20678112.893   108664183.198    20678114.662    84673381.187                  
                 115580924.865                   115580924.865    22196091.576  
                 117861281.093                   117861281.093    22634016.477  
                 130525283.095                   130525283.095    25066009.355  
                 119701510.298                   119701510.298    22987415.540  
 21  9  1  8 12 13.0000000  0 12G 1G 7G 8G13G14G17G21G30C23C25C28C34
  21573316.099   113368499.546    21573319.065    88339079.200                  
  20446921.419   107449312.003    20446920.740    83726739.996                  
  22329653.213   117343082.656    22329655.339    91436159.118                  
  23670747.867   124390637.683    23670746.866    96927773.895                  
  21999754.560   115609505.400    21999754.542    90085334.691                  
  22754487.304   119575644.456    22754487.125    93175827.919                  
  21550714.394   113249775.290    21550713.196    88246580.398                  
  20677933.881   108663242.488    20677935.668    84672648.167                  
                 115579754.388                   115579754.388    22195866.801  
                 117862933.227                   117862933.227    22634333.742  
                 130522042.430                   130522042.430    25065387.048  
                 119703388.314                   119703388.314    22987776.208  
 21  9  1  8 12 14.0000000  0 12G 1G 7G 8G13G14G17G21G30C23C25C28C34
  21572813.229   113365856.866    21572816.159    88337019.969                  
  20447170.191   107450619.353    20447169.512    83727758.708                  
  22330210.065   117346008.894    22330212.173    91438439.301                  
  23670542.945   124389560.867    23670541.962    96926934.812                  
  21999339.999   115607326.897    21999339.981    90083637.161                  
  22753961.704   119572882.397    22753961.526    93173675.663                  
  21550693.951   113249667.839    21550692.736    88246496.672                  
  20677754.976   108662302.349    20677756.745    84671915.590                  
                 115578584.254                   115578584.254    22195642.098  
                 117864585.720                   117864585.720    22634651.096  
                 130518801.931                   130518801.931    25064764.724  
                 119705266.711                   119705266.711    22988136.912  
 21  9  1  8 12 15.0000000  0 12G 1G 7G 8G13G14G17G21G30C23C25C28C34
  21572310.412   113363214.683    21572313.378    88334961.121                  
  20447419.107   107451927.286    20447418.428    83728777.875                  
  22330766.953   117348935.328    22330769.062    91440719.640                  
  23670338.148   124388484.664    23670337.165    96926096.215                  
  21998925.473   115605148.551    21998925.437    90081939.750                  
  22753436.158   119570120.641    22753435.980    93171523.645                  
  21550673.634   113249561.010    21550672.419    88246413.429                  
  20677576.197   108661362.785    20677577.966    84671183.465                  
                 115577414.466                   115577414.466    22195417.449  
                 117866238.579                   117866238.579    22634968.503  
                 130515561.598                   130515561.598    25064142.453  
                 119707145.495                   119707145.495    22988497.741  
 21  9  1  8 12 16.0000000  0 12G 1G 7G 8G13G14G17G21G30C23C25C28C34
  21571807.721   113360573.022    21571810.687    88332902.688                  
  20447668.094   107453235.769    20447667.415    83729797.449                  
  22331323.877   117351861.953    22331326.003    91443000.118                  
  23670133.458   124387409.059    23670132.475    96925258.063                  
  21998510.983   115602970.392    21998510.965    90080242.484                  
  22752910.666   119567359.220    22752910.488    93169371.907                  
  21550653.424   113249454.824    21550652.227    88246330.687                  
  20677397.506   108660423.788    20677399.275    84670451.765                  
                 115576245.016                   115576245.016    22195192.853  
                 117867891.804                   117867891.804    22635285.982  
                 130512321.433                   130512321.433    25063520.218  
                 119709024.669                   119709024.669    22988858.606  
 21  9  1  8 12 17.0000000  0 12G 1G 7G 8G13G14G17G21G30C23C25C28C34
  21571305.119   113357931.863    21571308.085    88330844.640                  
  20447917.224   107454544.902    20447916.545    83730817.550                  
  22331880.836   117354788.802    22331882.963    91445280.776                  
  23669928.912   124386334.106    23669927.929    96924420.438                  
  21998096.511   115600792.374    21998096.493    90078545.329                  
  22752385.245   119564598.074    22752385.067    93167220.362                  
  21550633.340   113249349.269    21550632.125    88246248.439                  
  20677218.941   108659485.387    20677220.692    84669720.548                  
                 115575075.914                   115575075.914    22194968.365  
                 117869545.395                   117869545.395    22635603.532  
                 130509081.434                   130509081.434    25062898.000  
                 119710904.223                   119710904.223    22989219.560  
 21  9  1  8 12 18.0000000  0 12G 1G 7G 8G13G14G17G21G30C23C25C28C34
  21570802.642   113355291.224    21570805.572    88328787.001                  
  20448166.461   107455854.626    20448165.782    83731838.114                  
  22332437.814   117357715.835    22332439.940    91447561.581                  
  23669724.472   124385259.773    23669723.471    96923583.297                  
  21997682.075   115598614.532    21997682.057    90076848.309                  
  22751859.860   119561837.245    22751859.682    93165069.069                  
  21550613.362   113249244.336    21550612.165    88246166.673                  
  20677040.483   108658547.570    20677042.235    84668989.778                  
                 115573907.153                   115573907.153    22194743.894  
                 117871199.347                   117871199.347    22635921.154  
                 130505841.597                   130505841.597    25062275.837  
                 119712784.164                   119712784.164    22989580.586  
 21  9  1  8 12 19.0000000  0 12G 1G 7G 8G13G14G17G21G30C23C25C28C34
  21570300.219   113352651.086    21570303.185    88326729.751                  
  20448415.805   107457164.937    20448415.126    83732859.138                  
  22332994.863   117360643.067    22332996.971    91449842.542                  
  23669520.158   124384186.070    23669519.157    96922746.645                  
  21997267.675   115596436.848    21997267.657    90075151.411                  
  22751334.565   119559076.727    22751334.386    93162918.016                  
  21550593.527   113249140.043    21550592.295    88246085.403                  
  20676862.115   108657610.333    20676863.884    84668259.464                  
                 115572738.734                   115572738.734    22194519.513  
                 117872853.663                   117872853.663    22636238.866  
                 130502601.930                   130502601.930    25061653.673  
                 119714664.492                   119714664.492    22989941.683  
 21  9  1  8 12 20.0000000  0 12G 1G 7G 8G13G14G17G21G30C23C25C28C34
  21569797.920   113350011.461    21569800.887    88324672.898                  
  20448665.257   107458475.849    20448664.578    83733880.625                  
  22333551.947   117363570.511    22333554.056    91452123.667                  
  23669315.933   124383112.986    23669314.968    96921910.473                  
  21996853.328   115594259.329    21996853.292    90073454.640                  
  22750809.305   119556316.509    22750809.126    93160767.199                  
  21550573.782   113249036.375    21550572.585    88246004.620                  
  20676683.871   108656673.672    20676685.640    84667529.598                  
                 115571570.659                   115571570.659    22194295.203  
                 117874508.348                   117874508.348    22636556.613  
                 130499362.431                   130499362.431    25061031.581  
                 119716545.204                   119716545.204    22990302.834  
 21  9  1  8 12 21.0000000  0 12G 1G 7G 8G13G14G17G21G30C23C25C28C34
  21569295.712   113347372.347    21569298.678    88322616.450                  
  20448914.815   107459787.350    20448914.136    83734902.577                  
  22334109.032   117366498.164    22334111.159    91454404.957                  
  23669111.868   124382040.515    23669110.886    96921074.784                  
  21996438.981   115592081.965    21996438.963    90071757.996                  
  22750284.099   119553556.604    22750283.920    93158616.624                  
  21550554.180   113248933.341    21550552.983    88245924.336                  
  20676505.753   108655737.595    20676507.522    84666800.188                  
                 115570402.930                   115570402.930    22194070.964  
                 117876163.393                   117876163.393    22636874.467  
                 130496123.095                   130496123.095    25060409.507  
                 119718426.300                   119718426.300    22990664.092  
 21  9  1  8 12 22.0000000  0 12G 1G 7G 8G13G14G17G21G30C23C25C28C34
  21568793.592   113344733.747    21568796.558    88320560.403                  
  20449164.517   107461099.445    20449163.820    83735924.993                  
  22334666.206   117369426.012    22334668.315    91456686.397                  
  23668907.893   124380968.676    23668906.928    96920239.594                  
  21996024.687   115589904.766    21996024.634    90070061.484                  
  22749758.982   119550797.008    22749758.803    93156466.296                  
  21550534.703   113248830.923    21550533.488    88245844.534                  
  20676327.742   108654802.087    20676329.493    84666071.227                  
                 115569235.544                   115569235.544    22193846.762  
                 117877818.805                   117877818.805    22637192.357  
                 130492883.924                   130492883.924    25059787.432  
                 119720307.782                   119720307.782    22991025.404  
 21  9  1  8 12 23.0000000  0 12G 1G 7G 8G13G14G17G21G30C23C25C28C34
  21568291.597   113342095.657    21568294.546    88318504.751                  
  20449414.308   107462412.132    20449413.611    83736947.871                  
  22335223.380   117372354.067    22335225.507    91458968.005                  
  23668704.061   124379897.450    23668703.061    96919404.872                  
  21995610.394   115587727.725    21995610.358    90068365.095                  
  22749233.900   119548037.714    22749233.722    93154316.204                  
  21550515.315   113248729.141    21550514.118    88245765.231                  
  20676149.820   108653867.160    20676151.589    84665342.715                  
                 115568068.501                   115568068.501    22193622.666  
                 117879474.583                   117879474.583    22637510.336  
                 130489644.923                   130489644.923    25059165.412  
                 119722189.648                   119722189.648    22991386.805  
 21  9  1  8 12 24.0000000  0 12G 1G 7G 8G13G14G17G21G30C23C25C28C34
  21567789.675   113339458.070    21567792.641    88316449.492                  
  20449664.224   107463725.409    20449663.545    83737971.206                  
  22335780.626   117375282.309    22335782.734    91461249.754                  
  23668500.319   124378826.842    23668499.336    96918570.637                  
  21995196.154   115585550.855    21995196.119    90066668.837                  
  22748708.873   119545278.734    22748708.694    93152166.351                  
  21550496.088   113248628.000    21550494.855    88245686.426                  
  20675972.023   108652932.817    20675973.774    84664614.660                  
                 115566901.802                   115566901.802    22193398.607  
                 117881130.722                   117881130.722    22637828.387  
                 130486406.087                   130486406.087    25058543.445  
                 119724071.898                   119724071.898    22991748.259  
 21  9  1  8 12 25.0000000  0 12G 1G 7G 8G13G14G17G21G30C23C25C28C34
  21567287.859   113336821.004    21567290.825    88314394.636                  
  20449914.248   107465039.282    20449913.569    83738995.001                  
  22336337.871   117378210.750    22336339.998    91463531.659                  
  23668296.719   124377756.872    23668295.719    96917736.894                  
  21994781.933   115583374.148    21994781.915    90064972.699                  
  22748183.917   119542520.056    22748183.738    93150016.730                  
  21550476.932   113248527.477    21550475.735    88245608.095                  
  20675794.333   108651999.046    20675796.102    84663887.046                  
                 115565735.442                   115565735.442    22193174.619  
                 117882787.227                   117882787.227    22638146.509  
                 130483167.417                   130483167.417    25057921.495  
                 119725954.535                   119725954.535    22992109.803  
 21  9  1  8 12 26.0000000  0 12G 1G 7G 8G13G14G17G21G30C23C25C28C34
  21566786.132   113334184.437    21566789.099    88312340.168                  
  20450164.360   107466353.739    20450163.681    83740019.253                  
  22336895.188   117381139.394    22336897.297    91465813.719                  
  23668093.227   124376687.524    23668092.244    96916903.636                  
  21994367.764   115581197.600    21994367.729    90063276.688                  
  22747659.014   119539761.680    22747658.835    93147867.349                  
  21550457.937   113248427.597    21550456.740    88245530.268                  
  20675616.769   108651065.853    20675618.520    84663159.879                  
                 115564569.429                   115564569.429    22192950.702  
                 117884444.099                   117884444.099    22638464.685  
                 130479928.915                   130479928.915    25057299.582  
                 119727837.555                   119727837.555    22992471.419  
 21  9  1  8 12 27.0000000  0 12G 1G 7G 8G13G14G17G21G30C23C25C28C34
  21566284.513   113331548.384    21566287.461    88310286.101                  
  20450414.616   107467668.786    20450413.937    83741043.964                  
  22337452.523   117384068.238    22337454.631    91468095.938                  
  23667889.859   124375618.792    23667888.859    96916070.860                  
  21993953.596   115579021.220    21993953.578    90061580.805                  
  22747134.183   119537003.618    22747134.004    93145718.212                  
  21550439.068   113248328.337    21550437.835    88245452.923                  
  20675439.276   108650133.241    20675441.045    84662433.173                  
                 115563403.761                   115563403.761    22192726.839  
                 117886101.331                   117886101.331    22638782.932  
                 130476690.579                   130476690.579    25056677.686  
                 119729720.960                   119729720.960    22992833.124  
 21  9  1  8 12 28.0000000  0 12G 1G 7G 8G13G14G17G21G30C23C25C28C34
  21565782.983   113328912.845    21565785.932    88308232.438                  
  20450664.979   107468984.422    20450664.300    83742069.136                  
  22338009.893   117386997.284    22338012.020    91470378.309                  
  23667686.599   124374550.700    23667685.616    96915238.578                  
  21993539.482   115576844.992    21993539.464    90059885.047                  
  22746609.405   119534245.862    22746609.227    93143569.308                  
  21550420.287   113248229.716    21550419.072    88245376.075                  
  20675261.926   108649201.219    20675263.677    84661706.917                  
                 115562238.437                   115562238.437    22192503.047  
                 117887758.929                   117887758.929    22639101.269  
                 130473452.409                   130473452.409    25056055.826  
                 119731604.751                   119731604.751    22993194.882  
 21  9  1  8 12 29.0000000  0 12G 1G 7G 8G13G14G17G21G30C23C25C28C34
  21565281.561   113326277.821    21565284.527    88306179.169                  
  20450915.431   107470300.660    20450914.752    83743094.778                  
  22338567.318   117389926.544    22338569.444    91472660.847                  
  23667483.464   124373483.227    23667482.481    96914406.781                  
  21993125.403   115574668.943    21993125.367    90058189.422                  
  22746084.664   119531488.414    22746084.485    93141420.652                  
  21550401.632   113248131.734    21550400.417    88245299.724                  
  20675084.683   108648269.778    20675086.434    84660981.121                  
                 115561073.458                   115561073.458    22192279.327  
                 117889416.891                   117889416.891    22639419.659  
                 130470214.405                   130470214.405    25055434.002  
                 119733488.923                   119733488.923    22993556.694  
 21  9  1  8 12 30.0000000  0 12G 1G 7G 8G13G14G17G21G30C23C25C28C34
  21564780.227   113323643.309    21564783.176    88304126.304                  
  20451166.026   107471617.476    20451165.347    83744120.866                  
  22339124.778   117392855.995    22339126.904    91474943.539                  
  23667280.436   124372416.367    23667279.454    96913575.464                  
  21992711.342   115572493.046    21992711.306    90056493.919                  
  22745559.993   119528731.259    22745559.815    93139272.220                  
  21550383.120   113248034.367    21550381.905    88245223.853                  
  20674907.547   108647338.901    20674909.299    84660255.765                  
                 115559908.817                   115559908.817    22192055.678  
                 117891075.220                   117891075.220    22639738.121  
                 130466976.569                   130466976.569    25054812.196  
                 119735373.482                   119735373.482    22993918.613  
 21  9  1  8 12 31.0000000  0 12G 1G 7G 8G13G14G17G21G30C23C25C28C34
  21564279.001   113321009.316    21564281.932    88302073.844                  
  20451416.729   107472934.894    20451416.032    83745147.425                  
  22339682.255   117395785.640    22339684.382    91477226.379                  
  23667077.552   124371350.141    23667076.569    96912744.641                  
  21992297.299   115570317.320    21992297.281    90054798.548                  
  22745035.395   119525974.426    22745035.198    93137124.034                  
  21550364.697   113247937.641    21550363.500    88245148.485                  
  20674730.501   108646408.622    20674732.288    84659530.867                  
                 115558744.522                   115558744.522    22191832.083  
                 117892733.912                   117892733.912    22640056.654  
                 130463738.899                   130463738.899    25054190.443  
                 119737258.424                   119737258.424    22994280.604  
 21  9  1  8 12 32.0000000  0 12G 1G 7G 8G13G14G17G21G30C23C25C28C34
  21563777.864   113318375.815    21563780.813    88300021.766                  
  20451667.538   107474252.902    20451666.859    83746174.444                  
  22340239.805   117398715.476    22340241.913    91479509.367                  
  23666874.774   124370284.534    23666873.773    96911914.298                  
  21991883.291   115568141.746    21991883.273    90053103.298                  
  22744510.832   119523217.891    22744510.653    93134976.089                  
  21550346.417   113247841.538    21550345.202    88245073.597                  
  20674553.598   108645478.916    20674555.367    84658806.421                  
                 115557580.573                   115557580.573    22191608.559  
                 117894392.970                   117894392.970    22640375.258  
                 130460501.398                   130460501.398    25053568.727  
                 119739143.754                   119739143.754    22994642.666  
 21  9  1  8 12 33.0000000  0 12G 1G 7G 8G13G14G17G21G30C23C25C28C34
  21563276.817   113315742.841    21563279.783    88297970.097                  
  20451918.455   107475571.505    20451917.776    83747201.925                  
  22340797.354   117401645.517    22340799.480    91481792.511                  
  23666672.121   124369219.558    23666671.121    96911084.446                  
  21991469.337   115565966.349    21991469.320    90051408.180                  
  22743986.340   119520461.672    22743986.161    93132828.386                  
  21550328.262   113247746.066    21550327.047    88244999.207                  
  20674376.784   108644549.784    20674378.553    84658082.427                  
                 115556416.967                   115556416.967    22191385.107  
                 117896052.386                   117896052.386    22640693.935  
                 130457264.062                   130457264.062    25052947.027  
                 119741029.464                   119741029.464    22995004.800  
 21  9  1  8 12 34.0000000  0 12G 1G 7G 8G13G14G17G21G30C23C25C28C34
  21562775.877   113313110.367    21562778.825    88295918.820                  
  20452169.479   107476890.698    20452168.800    83748229.870                  
  22341354.975   117404575.780    22341357.101    91484075.836                  
  23666469.576   124368155.207    23666468.575    96910255.082                  
  21991055.419   115563791.113    21991055.384    90049713.191                  
  22743461.920   119517705.761    22743461.741    93130680.925                  
  21550310.196   113247651.233    21550308.999    88244925.312                  
  20674200.077   108643621.242    20674201.864    84657358.888                  
                 115555253.708                   115555253.708    22191161.709  
                 117897712.171                   117897712.171    22641012.682  
                 130454026.895                   130454026.895    25052325.364  
                 119742915.558                   119742915.558    22995367.005  
 21  9  1  8 12 35.0000000  0 12G 1G 7G 8G13G14G17G21G30C23C25C28C34
  21562275.044   113310478.414    21562277.974    88293867.944                  
  20452420.646   107478210.484    20452419.967    83749258.277                  
  22341912.613   117407506.238    22341914.740    91486359.312                  
  23666267.156   124367091.476    23666266.155    96909426.200                  
  21990641.501   115561616.035    21990641.483    90048018.328                  
  22742937.536   119514950.156    22742937.357    93128533.700                  
  21550292.274   113247557.032    21550291.059    88244851.906                  
  20674023.495   108642693.276    20674025.264    84656635.797                  
                 115554090.794                   115554090.794    22190938.382  
                 117899372.325                   117899372.325    22641331.501  
                 130450789.891                   130450789.891    25051703.719  
                 119744802.039                   119744802.039    22995729.281  
 21  9  1  8 12 36.0000000  0 12G 1G 7G 8G13G14G17G21G30C23C25C28C34
  21561774.282   113307846.973    21561777.249    88291817.474                  
  20452671.903   107479530.859    20452671.224    83750287.141                  
  22342470.305   117410436.878    22342472.414    91488642.925                  
  23666064.860   124366028.360    23666063.860    96908597.796                  
  21990227.637   115559441.124    21990227.601    90046323.595                  
  22742413.223   119512194.858    22742413.044    93126386.715                  
  21550274.458   113247463.446    21550273.261    88244778.984                  
  20673847.021   108641765.890    20673848.808    84655913.159                  
                 115552928.220                   115552928.220    22190715.126  
                 117901032.837                   117901032.837    22641650.374  
                 130447553.059                   130447553.059    25051082.127  
                 119746688.903                   119746688.903    22996091.611  
 21  9  1  8 12 37.0000000  0 12G 1G 7G 8G13G14G17G21G30C23C25C28C34
  21561273.646   113305216.056    21561276.576    88289767.405                  
  20452923.266   107480851.828    20452922.587    83751316.460                  
  22343028.033   117413367.731    22343030.160    91490926.707                  
  23665862.655   124364965.878    23665861.672    96907769.891                  
  21989813.808   115557266.378    21989813.755    90044628.985                  
  22741888.964   119509439.875    22741888.785    93124239.972                  
  21550256.786   113247370.512    21550255.589    88244706.566                  
  20673670.654   108640839.089    20673672.423    84655190.974                  
                 115551765.990                   115551765.990    22190491.924  
                 117902693.716                   117902693.716    22641969.336  
                 130444316.389                   130444316.389    25050460.553  
                 119748576.149                   119748576.149    22996454.067  
 21  9  1  8 12 38.0000000  0 12G 1G 7G 8G13G14G17G21G30C23C25C28C34
  21560773.081   113302585.639    21560776.047    88287717.735                  
  20453174.755   107482173.383    20453174.058    83752346.246                  
  22343585.797   117416298.779    22343587.906    91493210.640                  
  23665660.592   124363904.025    23665659.627    96906942.472                  
  21989399.979   115555091.793    21989399.962    90042934.503                  
  22741364.758   119506685.191    22741364.579    93122093.468                  
  21550239.220   113247278.191    21550238.005    88244634.630                  
  20673494.394   108639912.863    20673496.180    84654469.241                  
                 115550604.105                   115550604.105    22190268.794  
                 117904354.957                   117904354.957    22642288.352  
                 130441079.891                   130441079.891    25049839.015  
                 119750463.781                   119750463.781    22996816.558  
 21  9  1  8 12 39.0000000  0 12G 1G 7G 8G13G14G17G21G30C23C25C28C34
  21560272.641   113299955.734    21560275.572    88285668.458                  
  20453426.333   107483495.531    20453425.654    83753376.493                  
  22344143.579   117419230.028    22344145.705    91495494.731                  
  23665458.654   124362842.790    23665457.653    96906115.534                  
  21988986.204   115552917.370    21988986.187    90041240.147                  
  22740840.624   119503930.812    22740840.445    93119947.203                  
  21550221.762   113247186.511    21550220.565    88244563.188                  
  20673318.259   108638987.226    20673320.046    84653747.961                  
                 115549442.567                   115549442.567    22190045.735  
                 117906016.566                   117906016.566    22642607.457  
                 130437843.559                   130437843.559    25049217.512  
                 119752351.792                   119752351.792    22997179.120  
 21  9  1  8 12 40.0000000  0 12G 1G 7G 8G13G14G17G21G30C23C25C28C34
  21559772.273   113297326.345    21559775.221    88283619.581                  
  20453678.054   107484818.278    20453677.375    83754407.202                  
  22344701.414   117422161.466    22344703.540    91497778.966                  
  23665256.823   124361782.172    23665255.840    96905289.083                  
  21988572.465   115550743.117    21988572.447    90039545.926                  
  22740316.543   119501176.753    22740316.364    93117801.181                  
  21550204.447   113247095.458    21550203.214    88244492.237                  
  20673142.249   108638062.165    20673144.000    84653027.132                  
                 115548281.371                   115548281.371    22189822.747  
                 117907678.535                   117907678.535    22642926.615  
                 130434607.395                   130434607.395    25048596.045  
                 119754240.191                   119754240.191    22997541.772  
 21  9  1  8 12 41.0000000  0 12G 1G 7G 8G13G14G17G21G30C23C25C28C34
  21559272.012   113294697.472    21559274.960    88281571.109                  
  20453929.882   107486141.614    20453929.203    83755438.376                  
  22345259.302   117425093.083    22345261.429    91500063.345                  
  23665055.118   124360722.185    23665054.117    96904463.117                  
  21988158.744   115548569.022    21988158.726    90037851.824                  
  22739792.516   119498422.996    22739792.337    93115655.394                  
  21550187.240   113247005.038    21550186.024    88244421.786                  
  20672966.292   108637137.675    20672968.079    84652306.758                  
                 115547120.519                   115547120.519    22189599.813  
                 117909340.870                   117909340.870    22643245.863  
                 130431371.397                   130431371.397    25047974.597  
                 119756128.975                   119756128.975    22997904.495  
 21  9  1  8 12 42.0000000  0 12G 1G 7G 8G13G14G17G21G30C23C25C28C34
  21558771.858   113292069.110    21558774.806    88279523.035                  
  20454181.817   107487465.540    20454181.138    83756470.005                  
  22345817.191   117428024.925    22345819.318    91502347.895                  
  23664853.519   124359662.828    23664852.537    96903637.644                  
  21987745.058   115546395.098    21987745.040    90036157.860                  
  22739268.561   119495669.556    22739268.382    93113509.858                  
  21550170.139   113246915.241    21550168.942    88244351.812                  
  20672790.497   108636213.785    20672792.266    84651586.841                  
                 115545960.013                   115545960.013    22189376.969  
                 117911003.571                   117911003.571    22643565.165  
                 130428135.568                   130428135.568    25047353.201  
                 119758018.140                   119758018.140    22998267.272  
 21  9  1  8 12 43.0000000  0 12G 1G 7G 8G13G14G17G21G30C23C25C28C34
  21558271.793   113289441.250    21558274.741    88277475.356                  
  20454433.860   107488790.051    20454433.181    83757502.091                  
  22346375.151   117430956.965    22346377.278    91504632.601                  
  23664652.064   124358604.091    23664651.063    96902812.652                  
  21987331.408   115544221.332    21987331.372    90034464.011                  
  22738744.659   119492916.410    22738744.480    93111364.554                  
  21550153.181   113246826.081    21550151.966    88244282.336                  
  20672614.809   108635290.464    20672616.560    84650867.367                  
                 115544799.853                   115544799.853    22189154.160  
                 117912666.637                   117912666.637    22643884.520  
                 130424899.907                   130424899.907    25046731.824  
                 119759907.691                   119759907.691    22998630.156  
 21  9  1  8 12 44.0000000  0 12G 1G 7G 8G13G14G17G21G30C23C25C28C34
  21557771.818   113286813.909    21557774.784    88275428.078                  
  20454686.027   107490115.159    20454685.348    83758534.641                  
  22346933.147   117433889.204    22346935.256    91506917.465                  
  23664450.698   124357545.985    23664449.715    96901988.156                  
  21986917.776   115542047.730    21986917.758    90032770.296                  
  22738220.793   119490163.571    22738220.614    93109219.481                  
  21550136.349   113246737.555    21550135.116    88244213.354                  
  20672439.192   108634367.723    20672440.961    84650148.351                  
                 115543640.030                   115543640.030    22188931.422  
                 117914330.065                   117914330.065    22644203.983  
                 130421664.409                   130421664.409    25046110.482  
                 119761797.621                   119761797.621    22998993.094  
 21  9  1  8 12 45.0000000  0 12G 1G 7G 8G13G14G17G21G30C23C25C28C34
  21557271.968   113284187.085    21557274.898    88273381.199                  
  20454938.302   107491440.864    20454937.623    83759567.659                  
  22347491.161   117436821.659    22347493.288    91509202.493                  
  23664249.475   124356488.506    23664248.474    96901164.149                  
  21986504.197   115539874.296    21986504.161    90031076.715                  
  22737697.016   119487411.044    22737696.837    93107074.657                  
  21550119.605   113246649.653    21550118.408    88244144.860                  
  20672263.718   108633445.570    20672265.505    84649429.793                  
                 115542480.559                   115542480.559    22188708.757  
                 117915993.860                   117915993.860    22644523.481  
                 130418429.083                   130418429.083    25045489.158  
                 119763687.937                   119763687.937    22999356.121  
 21  9  1  8 12 46.0000000  0 12G 1G 7G 8G13G14G17G21G30C23C25C28C34
  21556772.189   113281560.780    21556775.137    88271334.730                  
  20455190.684   107492767.161    20455190.005    83760601.136                  
  22348049.229   117439754.306    22348051.337    91511487.672                  
  23664048.359   124355431.647    23664047.376    96900340.622                  
  21986090.636   115537701.023    21986090.601    90029383.253                  
  22737173.275   119484658.825    22737173.096    93104930.070                  
  21550103.005   113246562.386    21550101.772    88244076.859                  
  20672088.352   108632523.992    20672090.121    84648711.675                  
                 115541321.434                   115541321.434    22188486.162  
                 117917658.016                   117917658.016    22644843.086  
                 130415193.925                   130415193.925    25044867.906  
                 119765578.637                   119765578.637    22999719.202  
 21  9  1  8 12 47.0000000  0 12G 1G 7G 8G13G14G17G21G30C23C25C28C34
  21556272.517   113278934.986    21556275.466    88269288.652                  
  20455443.174   107494094.043    20455442.495    83761635.071                  
  22348607.332   117442687.173    22348609.458    91513773.023                  
  23663847.368   124354375.431    23663846.385    96899517.594                  
  21985677.094   115535527.911    21985677.076    90027689.917                  
  22736649.623   119481906.922    22736649.444    93102785.731                  
  21550086.512   113246475.749    21550085.297    88244009.348                  
  20671913.092   108631602.989    20671914.861    84647994.013                  
                 115540162.649                   115540162.649    22188263.621  
                 117919322.534                   117919322.534    22645162.727  
                 130411958.934                   130411958.934    25044246.636  
                 119767469.718                   119767469.718    23000082.354  
 21  9  1  8 12 48.0000000  0 12G 1G 7G 8G13G14G17G21G30C23C25C28C34
  21555772.935   113276309.708    21555775.902    88267242.983                  
  20455695.788   107495421.523    20455695.091    83762669.469                  
  22349165.489   117445620.239    22349167.597    91516058.531                  
  23663646.503   124353319.821    23663645.502    96898695.039                  
  21985263.604   115533354.964    21985263.587    90025996.714                  
  22736126.007   119479155.314    22736125.828    93100641.620                  
  21550070.144   113246389.743    21550068.947    88243942.333                  
  20671737.940   108630682.570    20671739.691    84647276.805                  
                 115539004.210                   115539004.210    22188041.152  
                 117920987.423                   117920987.423    22645482.458  
                 130408724.110                   130408724.110    25043625.437  
                 119769361.183                   119769361.183    23000445.595  
 21  9  1  8 12 49.0000000  0 12G 1G 7G 8G13G14G17G21G30C23C25C28C34
  21555273.460   113273684.938    21555276.427    88265197.710                  
  20455948.527   107496749.589    20455947.848    83763704.329                  
  22349723.663   117448553.520    22349725.772    91518344.200                  
  23663445.744   124352264.852    23663444.761    96897872.987                  
  21984850.133   115531182.184    21984850.097    90024303.641                  
  22735602.445   119476404.028    22735602.266    93098497.761                  
  21550053.901   113246304.371    21550052.686    88243875.809                  
  20671562.895   108629762.738    20671564.682    84646560.051                  
                 115537846.118                   115537846.118    22187818.754  
                 117922652.672                   117922652.672    22645802.242  
                 130405489.453                   130405489.453    25043004.238  
                 119771253.034                   119771253.034    23000808.908  
 21  9  1  8 12 50.0000000  0 12G 1G 7G 8G13G14G17G21G30C23C25C28C34
  21554774.075   113271060.672    21554777.041    88263152.828                  
  20456201.338   107498078.255    20456200.659    83764739.648                  
  22350281.874   117451486.988    22350284.000    91520630.024                  
  23663245.093   124351210.505    23663244.128    96897051.418                  
  21984436.698   115529009.559    21984436.680    90022610.684                  
  22735078.954   119473653.035    22735078.757    93096354.132                  
  21550037.783   113246219.624    21550036.568    88243809.772                  
  20671387.975   108628843.480    20671389.744    84645843.746                  
                 115536688.368                   115536688.368    22187596.428  
                 117924318.284                   117924318.284    22646122.097  
                 130402254.964                   130402254.964    25042383.093  
                 119773145.266                   119773145.266    23001172.293  
 21  9  1  8 12 51.0000000  0 12G 1G 7G 8G13G14G17G21G30C23C25C28C34
  21554274.796   113268436.938    21554277.763    88261108.360                  
  20456454.292   107499407.513    20456453.613    83765775.433                  
  22350840.138   117454420.644    22350842.264    91522915.987                  
  23663044.585   124350156.785    23663043.602    96896230.340                  
  21984023.298   115526837.111    21984023.262    90020917.867                  
  22734555.516   119470902.356    22734555.338    93094210.751                  
  21550021.754   113246135.514    21550020.557    88243744.234                  
  20671213.163   108627924.804    20671214.914    84645127.895                  
                 115535530.956                   115535530.956    22187374.155  
                 117925984.265                   117925984.265    22646442.042  
                 130399020.661                   130399020.661    25041761.984  
                 119775037.883                   119775037.883    23001535.767  
 21  9  1  8 12 52.0000000  0 12G 1G 7G 8G13G14G17G21G30C23C25C28C34
  21553775.625   113265813.714    21553778.556    88259064.294                  
  20456707.353   107500737.358    20456706.674    83766811.681                  
  22351398.438   117457354.491    22351400.564    91525202.102                  
  23662844.201   124349103.694    23662843.201    96895409.749                  
  21983609.916   115524664.821    21983609.898    90019225.171                  
  22734032.133   119468151.995    22734031.954    93092067.610                  
  21550005.887   113246052.035    21550004.672    88243679.183                  
  20671038.457   108627006.712    20671040.226    84644412.496                  
                 115534373.898                   115534373.898    22187151.954  
                 117927650.610                   117927650.610    22646762.040  
                 130395786.507                   130395786.507    25041140.893  
                 119776930.883                   119776930.883    23001899.276  
 21  9  1  8 12 53.0000000  0 12G 1G 7G 8G13G14G17G21G30C23C25C28C34
  21553276.543   113263191.004    21553279.474    88257020.621                  
  20456960.540   107502067.796    20456959.861    83767848.383                  
  22351956.755   117460288.543    22351958.882    91527488.374                  
  23662643.925   124348051.234    23662642.925    96894589.648                  
  21983196.587   115522492.695    21983196.552    90017532.608                  
  22733508.821   119465401.938    22733508.642    93089924.711                  
  21549990.126   113245969.187    21549988.893    88243614.624                  
  20670863.859   108626089.204    20670865.628    84643697.555                  
                 115533217.184                   115533217.184    22186929.824  
                 117929317.316                   117929317.316    22647082.128  
                 130392552.524                   130392552.524    25040519.837  
                 119778824.261                   119778824.261    23002262.875  
 21  9  1  8 12 54.0000000  0 12G 1G 7G 8G13G14G17G21G30C23C25C28C34
  21552777.533   113260568.801    21552780.499    88254977.344                  
  20457213.815   107503398.829    20457213.136    83768885.550                  
  22352515.144   117463222.798    22352517.253    91529774.809                  
  23662443.756   124346999.383    23662442.756    96893770.027                  
  21982783.277   115520320.734    21982783.241    90015840.171                  
  22732985.562   119462652.181    22732985.383    93087782.043                  
  21549974.473   113245886.972    21549973.258    88243550.565                  
  20670689.368   108625172.277    20670691.137    84642983.066                  
                 115532060.815                   115532060.815    22186707.765  
                 117930984.388                   117930984.388    22647402.252  
                 130389318.710                   130389318.710    25039898.817  
                 119780718.023                   119780718.023    23002626.563  
 21  9  1  8 12 55.0000000  0 12G 1G 7G 8G13G14G17G21G30C23C25C28C34
  21552278.666   113257947.133    21552281.596    88252934.488                  
  20457467.216   107504730.450    20457466.537    83769923.181                  
  22353073.533   117466157.246    22353075.660    91532061.390                  
  23662243.713   124345948.173    23662242.712    96892950.902                  
  21982370.002   115518148.942    21982369.966    90014147.864                  
  22732462.357   119459902.738    22732462.160    93085639.622                  
  21549958.945   113245805.392    21549957.748    88243486.991                  
  20670515.002   108624255.934    20670516.753    84642269.030                  
                 115530904.793                   115530904.793    22186485.761  
                 117932651.821                   117932651.821    22647722.483  
                 130386085.061                   130386085.061    25039277.832  
                 119782612.168                   119782612.168    23002990.323  
 21  9  1  8 12 56.0000000  0 12G 1G 7G 8G13G14G17G21G30C23C25C28C34
  21551779.852   113255325.960    21551782.818    88250892.016                  
  20457720.741   107506062.672    20457720.062    83770961.274                  
  22353631.976   117469091.897    22353634.120    91534348.133                  
  23662043.794   124344897.585    23662042.793    96892132.262                  
  21981956.745   115515977.304    21981956.727    90012455.683                  
  22731939.223   119457153.609    22731939.027    93083497.441                  
  21549943.542   113245724.430    21549942.327    88243423.909                  
  20670340.743   108623340.172    20670342.495    84641555.454                  
                 115529749.116                   115529749.116    22186263.827  
                 117934319.622                   117934319.622    22648042.767  
                 130382851.587                   130382851.587    25038656.884  
                 119784506.701                   119784506.701    23003354.136  
 21  9  1  8 12 57.0000000  0 12G 1G 7G 8G13G14G17G21G30C23C25C28C34
  21551281.163   113252705.298    21551284.112    88248849.937                  
  20457974.356   107507395.481    20457973.677    83771999.824                  
  22354190.472   117472026.757    22354192.599    91536635.036                  
  23661844.001   124343847.622    23661843.000    96891314.109                  
  21981543.524   115513805.835    21981543.506    90010763.625                  
  22731416.126   119454404.785    22731415.947    93081355.500                  
  21549928.264   113245644.109    21549927.049    88243361.321                  
  20670166.574   108622424.979    20670168.343    84640842.317                  
                 115528593.786                   115528593.786    22186041.948  
                 117935987.785                   117935987.785    22648363.123  
                 130379618.273                   130379618.273    25038035.953  
                 119786401.608                   119786401.608    23003718.039  
 21  9  1  8 12 58.0000000  0 12G 1G 7G 8G13G14G17G21G30C23C25C28C34
  21550782.582   113250085.165    21550785.512    88246808.276                  
  20458228.097   107508728.888    20458227.418    83773038.840                  
  22354749.005   117474961.824    22354751.113    91538922.102                  
  23661644.314   124342798.286    23661643.314    96890496.445                  
  21981130.339   115511634.531    21981130.321    90009071.704                  
  22730893.099   119451656.269    22730892.921    93079213.800                  
  21549913.093   113245564.421    21549911.878    88243299.226                  
  20669992.548   108621510.388    20669994.299    84640129.644                  
                 115527438.796                   115527438.796    22185820.140  
                 117937656.314                   117937656.314    22648683.532  
                 130376385.133                   130376385.133    25037415.058  
                 119788296.902                   119788296.902    23004081.995  
 21  9  1  8 12 59.0000000  0 12G 1G 7G 8G13G14G17G21G30C23C25C28C34
  21550284.072   113247465.538    21550287.020    88244767.012                  
  20458481.944   107510062.871    20458481.265    83774078.312                  
  22355307.554   117477897.071    22355309.681    91541209.305                  
  23661444.735   124341749.567    23661443.752    96889679.261                  
  21980717.171   115509463.392    21980717.153    90007379.902                  
  22730370.145   119448908.058    22730369.948    93077072.339                  
  21549898.047   113245485.364    21549896.832    88243237.626                  
  20669818.593   108620596.360    20669820.362    84639417.419                  
                 115526284.158                   115526284.158    22185598.403  
                 117939325.203                   117939325.203    22649004.049  
                 130373152.160                   130373152.160    25036794.199  
                 119790192.578                   119790192.578    23004446.059  
 21  9  1  8 13  0.0000000  0 12G 1G 7G 8G13G14G17G21G30C23C25C28C34
  21549785.687   113244846.429    21549788.617    88242726.149                  
  20458735.898   107511397.452    20458735.237    83775118.245                  
  22355866.158   117480832.511    22355868.284    91543496.661                  
  23661245.299   124340701.467    23661244.316    96888862.562                  
  21980304.057   115507292.413    21980304.039    90005688.235                  
  22729847.226   119446160.167    22729847.047    93074931.130                  
  21549883.127   113245406.929    21549881.894    88243176.508                  
  20669644.781   108619682.931    20669646.532    84638705.653                  
                 115525129.859                   115525129.859    22185376.738  
                 117940994.462                   117940994.462    22649324.601  
                 130369919.354                   130369919.354    25036173.376  
                 119792088.637                   119792088.637    23004810.158  
 21  9  1  8 13  1.0000000  0 12G 1G 7G 8G13G14G17G21G30C23C25C28C34
  21549287.373   113242227.847    21549290.322    88240685.696                  
  20458989.978   107512732.617    20458989.299    83776158.634                  
  22356424.779   117483768.145    22356426.906    91545784.168                  
  23661045.988   124339654.004    23661044.987    96888046.355                  
  21979890.979   115505121.597    21979890.943    90003996.692                  
  22729324.378   119443412.579    22729324.199    93072790.147                  
  21549868.313   113245329.134    21549867.098    88243115.886                  
  20669471.076   108618770.074    20669472.845    84637994.336                  
                 115523975.907                   115523975.907    22185155.144  
                 117942664.081                   117942664.081    22649645.225  
                 130366686.718                   130366686.718    25035552.588  
                 119793985.074                   119793985.074    23005174.364  
 21  9  1  8 13  2.0000000  0 12G 1G 7G 8G13G14G17G21G30C23C25C28C34
  21548789.185   113239609.771    21548792.116    88238645.636                  
  20459244.183   107514068.387    20459243.504    83777199.493                  
  22356983.454   117486703.984    22356985.581    91548071.832                  
  23660846.766   124338607.172    23660845.783    96887230.641                  
  21979477.919   115502950.953    21979477.883    90002305.277                  
  22728801.584   119440665.304    22728801.405    93070649.418                  
  21549853.643   113245251.975    21549852.428    88243055.762                  
  20669297.478   108617857.798    20669299.247    84637283.472                  
                 115522822.301                   115522822.301    22184933.604  
                 117944334.066                   117944334.066    22649965.938  
                 130363454.253                   130363454.253    25034931.818  
                 119795881.897                   119795881.897    23005538.624  
 21  9  1  8 13  3.0000000  0 12G 1G 7G 8G13G14G17G21G30C23C25C28C34
  21548291.068   113236992.207    21548294.017    88236605.977                  
  20459498.477   107515404.747    20459497.798    83778240.808                  
  22357542.165   117489640.020    22357544.274    91550359.653                  
  23660647.687   124337560.965    23660646.705    96886415.417                  
  21979064.876   115500780.473    21979064.858    90000613.996                  
  22728278.861   119437918.340    22728278.683    93068508.925                  
  21549839.079   113245175.445    21549837.864    88242996.128                  
  20669123.988   108616946.109    20669125.739    84636573.062                  
                 115521669.044                   115521669.044    22184712.117  
                 117946004.416                   117946004.416    22650286.705  
                 130360221.956                   130360221.956    25034311.102  
                 119797779.102                   119797779.102    23005902.956  
 21  9  1  8 13  4.0000000  0 12G 1G 7G 8G13G14G17G21G30C23C25C28C34
  21547793.058   113234375.169    21547796.007    88234566.726                  
  20459752.878   107516741.708    20459752.199    83779282.603                  
  22358100.912   117492576.265    22358103.038    91552647.640                  
  23660448.716   124336515.350    23660447.733    96885600.637                  
  21978651.887   115498610.155    21978651.852    89998922.839                  
  22727756.175   119435171.676    22727755.996    93066368.665                  
  21549824.641   113245099.540    21549823.426    88242936.977                  
  20668950.605   108616035.003    20668952.356    84635863.117                  
                 115520516.133                   115520516.133    22184490.720  
                 117947675.137                   117947675.137    22650607.543  
                 130356989.878                   130356989.878    25033690.386  
                 119799676.688                   119799676.688    23006267.377  
 21  9  1  8 13  5.0000000  0 12G 1G 7G 8G13G14G17G21G30C23C25C28C34
  21547295.138   113231758.636    21547298.104    88232527.872                  
  20460007.405   107518079.235    20460006.726    83780324.827                  
  22358659.694   117495512.703    22358661.820    91554935.773                  
  23660249.851   124335470.393    23660248.887    96884786.387                  
  21978238.916   115496439.993    21978238.881    89997231.801                  
  22727233.577   119432425.320    22727233.381    93064228.649                  
  21549810.292   113245024.259    21549809.095    88242878.317                  
  20668777.347   108615124.465    20668779.098    84635153.606                  
                 115519363.565                   115519363.565    22184269.376  
                 117949346.210                   117949346.210    22650928.453  
                 130353757.922                   130353757.922    25033069.723  
                 119801574.657                   119801574.657    23006631.851  
 21  9  1  8 13  6.0000000  0 12G 1G 7G 8G13G14G17G21G30C23C25C28C34
  21546797.343   113229142.628    21546800.273    88230489.426                  
  20460262.038   107519417.370    20460261.359    83781367.534                  
  22359218.512   117498449.352    22359220.638    91557224.074                  
  23660051.148   124334426.047    23660050.165    96883972.610                  
  21977825.981   115494269.997    21977825.963    89995540.898                  
  22726711.015   119429679.272    22726710.837    93062088.872                  
  21549796.104   113244949.630    21549794.907    88242820.164                  
  20668604.178   108614214.519    20668605.947    84634444.558                  
                 115518211.343                   115518211.343    22184048.104  
                 117951017.652                   117951017.652    22651249.435  
                 130350526.129                   130350526.129    25032449.096  
                 119803473.007                   119803473.007    23006996.415  
 21  9  1  8 13  7.0000000  0 12G 1G 7G 8G13G14G17G21G30C23C25C28C34
  21546299.619   113226527.146    21546302.585    88228451.388                  
  20460516.797   107520756.086    20460516.118    83782410.687                  
  22359777.383   117501386.195    22359779.492    91559512.523                  
  23659852.516   124333382.331    23659851.533    96883159.325                  
  21977413.082   115492100.155    21977413.046    89993850.114                  
  22726188.525   119426933.532    22726188.346    93059949.332                  
  21549782.024   113244875.624    21549780.809    88242762.499                  
  20668431.134   108613305.165    20668432.903    84633735.968                  
                 115517059.470                   115517059.470    22183826.904  
                 117952689.458                   117952689.458    22651570.505  
                 130347294.507                   130347294.507    25031828.505  
                 119805371.739                   119805371.739    23007361.032  
 21  9  1  8 13  8.0000000  0 12G 1G 7G 8G13G14G17G21G30C23C25C28C34
  21545802.003   113223912.135    21545804.969    88226413.715                  
  20460771.663   107522095.386    20460770.984    83783454.297                  
  22360336.273   117504323.225    22360338.399    91561801.118                  
  23659654.045   124332339.261    23659653.044    96882346.543                  
  21977000.200   115489930.515    21977000.182    89992159.485                  
  22725666.089   119424188.112    22725665.892    93057810.046                  
  21549768.068   113244802.242    21549766.835    88242705.321                  
  20668258.198   108612396.387    20668259.967    84633027.832                  
                 115515907.937                   115515907.937    22183605.757  
                 117954361.630                   117954361.630    22651891.611  
                 130344063.051                   130344063.051    25031207.914  
                 119807270.851                   119807270.851    23007725.757  
 21  9  1  8 13  9.0000000  0 12G 1G 7G 8G13G14G17G21G30C23C25C28C34
  21545304.493   113221297.668    21545307.442    88224376.468                  
  20461026.636   107523435.296    20461025.957    83784498.383                  
  22360895.216   117507260.465    22360897.342    91564089.876                  
  23659455.663   124331296.801    23659454.680    96881534.235                  
  21976587.354   115487761.012    21976587.336    89990468.962                  
  22725143.706   119421443.000    22725143.527    93055670.995                  
  21549754.219   113244729.500    21549753.004    88242648.636                  
  20668085.387   108611488.175    20668087.138    84632320.132                  
                 115514756.751                   115514756.751    22183384.699  
                 117956034.160                   117956034.160    22652212.807  
                 130340831.769                   130340831.769    25030587.394  
                 119809170.347                   119809170.347    23008090.535  
 21  9  1  8 13 10.0000000  0 12G 1G 7G 8G13G14G17G21G30C23C25C28C34
  21544807.073   113218683.720    21544810.022    88222339.625                  
  20461281.716   107524775.778    20461281.037    83785542.915                  
  22361454.195   117510197.921    22361456.321    91566378.800                  
  23659257.406   124330254.978    23659256.423    96880722.427                  
  21976174.544   115485591.674    21976174.526    89988778.571                  
  22724621.376   119418698.190    22724621.197    93053532.187                  
  21549740.496   113244657.392    21549739.281    88242592.448                  
  20667912.665   108610580.565    20667914.416    84631612.903                  
                 115513605.913                   115513605.913    22183163.677  
                 117957707.059                   117957707.059    22652534.074  
                 130337600.653                   130337600.653    25029966.892  
                 119811070.227                   119811070.227    23008455.385  
 21  9  1  8 13 11.0000000  0 12G 1G 7G 8G13G14G17G21G30C23C25C28C34
  21544309.760   113216070.289    21544312.709    88220303.187                  
  20461536.921   107526116.833    20461536.242    83786587.891                  
  22362013.227   117513135.582    22362015.335    91568667.887                  
  23659059.274   124329213.765    23659058.274    96879911.094                  
  21975761.787   115483422.504    21975761.734    89987088.306                  
  22724099.118   119415953.695    22724098.940    93051393.617                  
  21549726.898   113244585.917    21549725.683    88242536.754                  
  20667740.068   108609673.527    20667741.819    84630906.120                  
                 115512455.418                   115512455.418    22182942.744  
                 117959380.319                   117959380.319    22652855.395  
                 130334369.706                   130334369.706    25029346.426  
                 119812970.484                   119812970.484    23008820.306  
 21  9  1  8 13 12.0000000  0 12G 1G 7G 8G13G14G17G21G30C23C25C28C34
  21543812.537   113213457.368    21543815.485    88218267.145                  
  20461792.216   107527458.489    20461791.537    83787633.339                  
  22362572.277   117516073.449    22362574.404    91570957.132                  
  23658861.268   124328173.174    23658860.267    96879100.242                  
  21975349.013   115481253.503    21975348.995    89985398.176                  
  22723576.914   119413209.507    22723576.735    93049255.289                  
  21549713.424   113244515.083    21549712.192    88242481.558                  
  20667567.560   108608767.067    20667569.311    84630199.788                  
                 115511305.272                   115511305.272    22182721.883  
                 117961053.945                   117961053.945    22653176.805  
                 130331138.931                   130331138.931    25028725.978  
                 119814871.126                   119814871.126    23009185.299  
 21  9  1  8 13 13.0000000  0 12G 1G 7G 8G13G14G17G21G30C23C25C28C34
  21543315.403   113210844.981    21543318.351    88216231.519                  
  20462047.636   107528800.727    20462046.957    83788679.238                  
  22363131.363   117519011.484    22363133.507    91573246.512                  
  23658663.368   124327133.212    23658662.367    96878289.879                  
  21974936.292   115479084.661    21974936.274    89983708.169                  
  22723054.781   119410465.622    22723054.602    93047117.198                  
  21549700.058   113244444.876    21549698.843    88242426.851                  
  20667395.178   108607861.182    20667396.947    84629493.906                  
                 115510155.472                   115510155.472    22182501.058  
                 117962727.935                   117962727.935    22653498.287  
                 130327908.324                   130327908.324    25028105.583  
                 119816772.146                   119816772.146    23009550.381  
 21  9  1  8 13 14.0000000  0 12G 1G 7G 8G13G14G17G21G30C23C25C28C34
  21542818.376   113208233.099    21542821.342    88214196.286                  
  20462303.181   107530143.560    20462302.502    83789725.602                  
  22363690.503   117521949.712    22363692.611    91575536.040                  
  23658465.576   124326093.871    23658464.575    96877480.008                  
  21974523.625   115476915.989    21974523.607    89982018.292                  
  22722532.702   119407722.050    22722532.505    93044979.351                  
  21549686.800   113244375.277    21549685.602    88242372.621                  
  20667222.903   108606955.917    20667224.672    84628788.500                  
                 115509006.016                   115509006.016    22182280.322  
                 117964402.288                   117964402.288    22653819.822  
                 130324677.882                   130324677.882    25027485.206  
                 119818673.546                   119818673.546    23009915.516  
 21  9  1  8 13 15.0000000  0 12G 1G 7G 8G13G14G17G21G30C23C25C28C34
  21542321.456   113205621.718    21542324.405    88212161.444                  
  20462558.815   107531486.991    20462558.136    83790772.434                  
  22364249.660   117524888.133    22364251.787    91577825.719                  
  23658267.927   124325055.156    23658266.926    96876670.617                  
  21974110.958   115474747.482    21974110.940    89980328.551                  
  22722010.658   119404978.790    22722010.480    93042841.745                  
  21549673.684   113244306.335    21549672.487    88242318.897                  
  20667050.735   108606051.206    20667052.521    84628083.532                  
                 115507856.911                   115507856.911    22182059.639  
                 117966077.004                   117966077.004    22654141.447  
                 130321447.619                   130321447.619    25026864.865  
                 119820575.331                   119820575.331    23010280.741  
 21  9  1  8 13 16.0000000  0 12G 1G 7G 8G13G14G17G21G30C23C25C28C34
  21541824.644   113203010.887    21541827.574    88210127.030                  
  20462814.574   107532831.024    20462813.895    83791819.730                  
  22364808.853   117527826.760    22364810.980    91580115.559                  
  23658070.385   124324017.071    23658069.384    96875861.722                  
  21973698.344   115472579.130    21973698.326    89978638.926                  
  22721488.704   119402235.832    22721488.525    93040704.380                  
  21549660.675   113244238.024    21549659.478    88242265.668                  
  20666878.692   108605147.079    20666880.461    84627379.016                  
                 115506708.149                   115506708.149    22181839.046  
                 117967752.087                   117967752.087    22654463.125  
                 130318217.515                   130318217.515    25026244.560  
                 119822477.496                   119822477.496    23010646.020  
 21  9  1  8 13 17.0000000  0 12G 1G 7G 8G13G14G17G21G30C23C25C28C34
  21541327.903   113200400.554    21541330.851    88208093.007                  
  20463070.459   107534175.641    20463069.780    83792867.484                  
  22365368.100   117530765.587    22365370.227    91582405.551                  
  23657872.968   124322979.609    23657871.967    96875053.308                  
  21973285.766   115470410.954    21973285.712    89976949.438                  
  22720966.804   119399493.185    22720966.607    93038567.250                  
  21549647.792   113244170.335    21549646.594    88242212.930                  
  20666706.756   108604243.550    20666708.543    84626674.972                  
                 115505559.731                   115505559.731    22181618.507  
                 117969427.531                   117969427.531    22654784.856  
                 130314987.585                   130314987.585    25025624.273  
                 119824380.042                   119824380.042    23011011.406  
 21  9  1  8 13 18.0000000  0 12G 1G 7G 8G13G14G17G21G30C23C25C28C34
  21540831.251   113197790.700    21540834.218    88206059.331                  
  20463326.433   107535520.875    20463325.754    83793915.731                  
  22365927.383   117533704.604    22365929.491    91584695.706                  
  23657675.640   124321942.768    23657674.657    96874245.382                  
  21972873.206   115468242.937    21972873.152    89975260.069                  
  22720444.939   119396750.779    22720444.760    93036430.278                  
  21549635.033   113244103.271    21549633.836    88242160.661                  
  20666534.945   108603340.597    20666536.696    84625971.372                  
                 115504411.664                   115504411.664    22181398.021  
                 117971103.343                   117971103.343    22655106.678  
                 130311757.827                   130311757.827    25025004.039  
                 119826282.970                   119826282.970    23011376.845  
 21  9  1  8 13 19.0000000  0 12G 1G 7G 8G13G14G17G21G30C23C25C28C34
  21540334.743   113195181.412    21540337.673    88204026.122                  
  20463582.531   107536866.680    20463581.852    83794964.411                  
  22366486.683   117536643.827    22366488.828    91586986.012                  
  23657478.455   124320906.570    23657477.473    96873437.953                  
  21972460.664   115466075.086    21972460.646    89973570.835                  
  22719923.163   119394008.751    22719922.967    93034293.638                  
  21549622.400   113244036.853    21549621.202    88242108.907                  
  20666363.224   108602438.228    20666364.975    84625268.223                  
                 115503263.940                   115503263.940    22181177.625  
                 117972779.517                   117972779.517    22655428.588  
                 130308528.238                   130308528.238    25024383.841  
                 119828186.278                   119828186.278    23011742.338  
 21  9  1  8 13 20.0000000  0 12G 1G 7G 8G13G14G17G21G30C23C25C28C34
  21539838.306   113192572.628    21539841.254    88201993.304                  
  20463838.737   107538213.078    20463838.058    83796013.550                  
  22367046.037   117539583.235    22367048.164    91589276.457                  
  23657281.396   124319870.989    23657280.413    96872631.007                  
  21972048.158   115463907.403    21972048.140    89971881.730                  
  22719401.424   119391267.034    22719401.227    93032157.230                  
  21549609.874   113243971.062    21549608.676    88242057.644                  
  20666191.628   108601536.431    20666193.379    84624565.528                  
                 115502116.563                   115502116.563    22180957.282  
                 117974456.054                   117974456.054    22655750.534  
                 130305298.817                   130305298.817    25023763.661  
                 119830089.970                   119830089.970    23012107.920  
 21  9  1  8 13 21.0000000  0 12G 1G 7G 8G13G14G17G21G30C23C25C28C34
  21539341.958   113189964.367    21539344.924    88199960.895                  
  20464095.086   107539560.064    20464094.407    83797063.149                  
  22367605.427   117542522.827    22367607.536    91591567.051                  
  23657084.461   124318836.035    23657083.461    96871824.552                  
  21971635.705   115461739.879    21971635.687    89970192.754                  
  22718879.737   119388525.622    22718879.559    93030021.065                  
  21549597.472   113243905.912    21549596.275    88242006.875                  
  20666020.121   108600635.226    20666021.872    84623863.289                  
                 115500969.531                   115500969.531    22180736.992  
                 117976132.954                   117976132.954    22656072.588  
                 130302069.566                   130302069.566    25023143.516  
                 119831994.039                   119831994.039    23012473.574  
 21  9  1  8 13 22.0000000  0 12G 1G 7G 8G13G14G17G21G30C23C25C28C34
  21538845.717   113187356.617    21538848.683    88197928.879                  
  20464351.507   107540907.647    20464350.828    83798113.214                  
  22368164.853   117545462.634    22368166.979    91593857.805                  
  23656887.616   124317801.707    23656886.633    96871018.579                  
  21971223.252   115459572.516    21971223.234    89968503.897                  
  22718358.141   119385784.525    22718357.944    93027885.147                  
  21549585.196   113243841.380    21549583.999    88241956.593                  
  20665848.739   108599734.588    20665850.508    84623161.495                  
                 115499822.851                   115499822.851    22180516.792  
                 117977810.218                   117977810.218    22656394.677  
                 130298840.485                   130298840.485    25022523.408  
                 119833898.487                   119833898.487    23012839.317  
 21  9  1  8 13 23.0000000  0 12G 1G 7G 8G13G14G17G21G30C23C25C28C34
  21538349.584   113184749.386    21538352.532    88195897.269                  
  20464608.053   107542255.821    20464607.374    83799163.739                  
  22368724.314   117548402.632    22368726.440    91596148.714                  
  23656690.914   124316768.003    23656689.931    96870213.098                  
  21970810.853   115457405.329    21970810.835    89966815.180                  
  22717836.580   119383043.729    22717836.383    93025749.465                  
  21549573.063   113243777.488    21549571.848    88241906.809                  
  20665677.464   108598834.540    20665679.216    84622460.157                  
                 115498676.512                   115498676.512    22180296.664  
                 117979487.848                   117979487.848    22656716.837  
                 130295611.573                   130295611.573    25021903.317  
                 119835803.319                   119835803.319    23013205.114  
 21  9  1  8 13 24.0000000  0 12G 1G 7G 8G13G14G17G21G30C23C25C28C34
  21537853.540   113182142.668    21537856.506    88193866.062                  
  20464864.723   107543604.570    20464864.044    83800214.714                  
  22369283.829   117551342.829    22369285.937    91598439.777                  
  23656494.337   124315734.922    23656493.336    96869408.102                  
  21970398.507   115455238.300    21970398.454    89965126.587                  
  22717315.072   119380303.242    22717314.876    93023614.020                  
  21549561.020   113243714.222    21549559.804    88241857.508                  
  20665506.297   108597935.079    20665508.066    84621759.278                  
                 115497530.524                   115497530.524    22180076.589  
                 117981165.841                   117981165.841    22657039.087  
                 130292382.836                   130292382.836    25021283.280  
                 119837708.532                   119837708.532    23013570.982  
 21  9  1  8 13 25.0000000  0 12G 1G 7G 8G13G14G17G21G30C23C25C28C34
  21537357.603   113179536.485    21537360.569    88191835.270                  
  20465121.483   107544953.923    20465120.804    83801266.156                  
  22369843.361   117554283.210    22369845.488    91600730.983                  
  23656297.867   124314702.471    23656296.884    96868603.593                  
  21969986.162   115453071.433    21969986.126    89963438.121                  
  22716793.636   119377563.075    22716793.440    93021478.825                  
  21549549.101   113243651.589    21549547.886    88241808.708                  
  20665335.255   108597036.219    20665337.024    84621058.868                  
                 115496384.880                   115496384.880    22179856.568  
                 117982844.198                   117982844.198    22657361.409  
                 130289154.265                   130289154.265    25020663.260  
                 119839614.125                   119839614.125    23013936.940  
 21  9  1  8 13 26.0000000  0 12G 1G 7G 8G13G14G17G21G30C23C25C28C34
  21536861.755   113176930.812    21536864.721    88189804.876                  
  20465378.386   107546303.872    20465377.707    83802318.062                  
  22370402.912   117557223.792    22370405.038    91603022.348                  
  23656101.522   124313670.655    23656100.521    96867799.582                  
  21969573.834   115450904.733    21969573.816    89961749.786                  
  22716272.254   119374823.207    22716272.075    93019343.863                  
  21549537.307   113243589.578    21549536.074    88241760.383                  
  20665164.320   108596137.926    20665166.089    84620358.899                  
                 115495239.587                   115495239.587    22179636.618  
                 117984522.919                   117984522.919    22657683.784  
                 130285925.865                   130285925.865    25020043.277  
                 119841520.097                   119841520.097    23014302.951  
 21  9  1  8 13 27.0000000  0 12G 1G 7G 8G13G14G17G21G30C23C25C28C34
  21536366.015   113174325.653    21536368.963    88187774.884                  
  20465635.378   107547654.390    20465634.699    83803370.414                  
  22370962.534   117560164.590    22370964.660    91605313.875                  
  23655905.284   124312639.466    23655904.302    96866996.054                  
  21969161.560   115448738.207    21969161.542    89960061.579                  
  22715750.943   119372083.661    22715750.764    93017209.152                  
  21549525.621   113243528.222    21549524.406    88241712.573                  
  20664993.474   108595240.214    20664995.261    84619659.383                  
                 115494094.637                   115494094.637    22179416.757  
                 117986202.003                   117986202.003    22658006.212  
                 130282697.633                   130282697.633    25019423.347  
                 119843426.452                   119843426.452    23014669.052  
 21  9  1  8 13 28.0000000  0 12G 1G 7G 8G13G14G17G21G30C23C25C28C34
  21535870.382   113171721.019    21535873.312    88185745.297                  
  20465892.478   107549005.516    20465891.799    83804423.239                  
  22371522.192   117563105.565    22371524.318    91607605.548                  
  23655709.172   124311608.894    23655708.171    96866193.015                  
  21968749.321   115446571.835    21968749.304    89958373.499                  
  22715229.686   119369344.415    22715229.471    93015074.675                  
  21549514.060   113243467.484    21549512.845    88241665.246                  
  20664822.753   108594343.085    20664824.540    84618960.324                  
                 115492950.031                   115492950.031    22179196.933  
                 117987881.453                   117987881.453    22658328.748  
                 130279469.574                   130279469.574    25018803.417  
                 119845333.189                   119845333.189    23015035.224  
 21  9  1  8 13 29.0000000  0 12G 1G 7G 8G13G14G17G21G30C23C25C28C34
  21535374.820   113169116.901    21535377.786    88183716.114                  
  20466149.702   107550357.226    20466149.023    83805476.524                  
  22372081.885   117566046.754    22372083.994    91609897.379                  
  23655513.184   124310578.949    23655512.202    96865390.461                  
  21968337.101   115444405.629    21968337.083    89956685.546                  
  22714708.482   119366605.478    22714708.285    93012940.442                  
  21549502.624   113243407.378    21549501.409    88241618.409                  
  20664652.158   108593446.526    20664653.927    84618261.704                  
                 115491805.776                   115491805.776    22178977.197  
                 117989561.267                   117989561.267    22658651.338  
                 130276241.682                   130276241.682    25018183.540  
                 119847240.300                   119847240.300    23015401.467  
 21  9  1  8 13 30.0000000  0 12G 1G 7G 8G13G14G17G21G30C23C25C28C34
  21534879.384   113166513.309    21534882.314    88181687.341                  
  20466407.034   107551709.540    20466406.355    83806530.269                  
  22372641.597   117568988.128    22372643.723    91612189.360                  
  23655317.304   124309549.630    23655316.321    96864588.392                  
  21967924.916   115442239.589    21967924.898    89954997.723                  
  22714187.332   119363866.851    22714187.135    93010806.445                  
  21549491.295   113243347.882    21549490.080    88241572.051                  
  20664481.652   108592550.575    20664483.438    84617563.558                  
                 115490661.867                   115490661.867    22178757.516  
                 117991241.441                   117991241.441    22658973.999  
                 130273013.966                   130273013.966    25017563.682  
                 119849147.795                   119849147.795    23015767.782  
 21  9  1  8 13 31.0000000  0 12G 1G 7G 8G13G14G17G21G30C23C25C28C34
  21534384.019   113163910.233    21534386.985    88179658.972                  
  20466664.491   107553062.444    20466663.812    83807584.484                  
  22373201.362   117571929.686    22373203.488    91614481.479                  
  23655121.567   124308520.944    23655120.584    96863786.821                  
  21967512.785   115440073.719    21967512.731    89953310.032                  
  22713666.236   119361128.532    22713666.057    93008672.692                  
  21549480.109   113243289.026    21549478.876    88241526.192                  
  20664311.288   108591655.195    20664313.039    84616865.864                  
                 115489518.308                   115489518.308    22178537.923  
                 117992921.985                   117992921.985    22659296.731  
                 130269786.415                   130269786.415    25016943.877  
                 119851055.669                   119851055.669    23016134.169  
 21  9  1  8 13 32.0000000  0 12G 1G 7G 8G13G14G17G21G30C23C25C28C34
  21533888.779   113161307.668    21533891.727    88177630.999                  
  20466922.055   107554415.938    20466921.376    83808639.152                  
  22373761.162   117574871.441    22373763.289    91616773.758                  
  23654925.919   124307492.887    23654924.936    96862985.735                  
  21967100.636   115437908.011    21967100.618    89951622.468                  
  22713145.228   119358390.527    22713145.032    93006539.185                  
  21549469.012   113243230.812    21549467.797    88241480.828                  
  20664140.996   108590760.405    20664142.783    84616168.621                  
                 115488375.094                   115488375.094    22178318.384  
                 117994602.887                   117994602.887    22659619.535  
                 130266559.039                   130266559.039    25016324.072  
                 119852963.926                   119852963.926    23016500.627  
 21  9  1  8 13 33.0000000  0 12G 1G 7G 8G13G14G17G21G30C23C25C28C34
  21533393.628   113158705.616    21533396.576    88175603.429                  
  20467179.727   107555770.015    20467179.048    83809694.278                  
  22374320.999   117577813.399    22374323.125    91619066.191                  
  23654730.396   124306465.445    23654729.413    96862185.133                  
  21966688.559   115435742.462    21966688.541    89949935.026                  
  22712624.257   119355652.819    22712624.061    93004405.905                  
  21549458.058   113243173.230    21549456.843    88241435.961                  
  20663970.848   108589866.200    20663972.617    84615471.835                  
                 115487232.226                   115487232.226    22178098.899  
                 117996284.157                   117996284.157    22659942.393  
                 130263331.828                   130263331.828    25015704.338  
                 119854872.558                   119854872.558    23016867.156  
 21  9  1  8 13 34.0000000  0 12G 1G 7G 8G13G14G17G21G30C23C25C28C34
  21532898.585   113156104.101    21532901.515    88173576.272                  
  20467437.523   107557124.695    20467436.844    83810749.872                  
  22374880.871   117580755.542    22374882.998    91621358.769                  
  23654535.016   124305438.632    23654534.016    96861385.019                  
  21966276.499   115433577.082    21966276.481    89948247.718                  
  22712103.339   119352915.434    22712103.161    93002272.875                  
  21549447.212   113243116.284    21549446.015    88241391.585                  
  20663800.806   108588972.569    20663802.557    84614775.504                  
                 115486089.708                   115486089.708    22177879.485  
                 117997965.785                   117997965.785    22660265.339  
                 130260104.792                   130260104.792    25015084.623  
                 119856781.574                   119856781.574    23017233.757  
 21  9  1  8 13 35.0000000  0 12G 1G 7G 8G13G14G17G21G30C23C25C28C34
  21532403.613   113153503.100    21532406.561    88171549.520                  
  20467695.427   107558479.964    20467694.748    83811805.926                  
  22375440.779   117583697.878    22375442.906    91623651.501                  
  23654339.744   124304412.450    23654338.743    96860585.394                  
  21965864.475   115431411.870    21965864.439    89946560.540                  
  22711582.493   119350178.350    22711582.296    93000140.086                  
  21549436.508   113243059.957    21549435.293    88241347.696                  
  20663630.854   108588079.529    20663632.623    84614079.626                  
                 115484947.535                   115484947.535    22177660.143  
                 117999647.780                   117999647.780    22660588.358  
                 130256877.927                   130256877.927    25014464.943  
                 119858690.968                   119858690.968    23017600.447  
 21  9  1  8 13 36.0000000  0 12G 1G 7G 8G13G14G17G21G30C23C25C28C34
  21531908.766   113150902.613    21531911.696    88169523.169                  
  20467953.420   107559835.820    20467952.741    83812862.437                  
  22376000.723   117586640.414    22376002.831    91625944.386                  
  23654144.578   124303386.886    23654143.577    96859786.254                  
  21965452.487   115429246.826    21965452.469    89944873.492                  
  22711061.700   119347441.587    22711061.522    92998007.543                  
  21549425.912   113243004.273    21549424.697    88241304.304                  
  20663461.027   108587187.066    20663462.796    84613384.203                  
                 115483805.708                   115483805.708    22177440.872  
                 118001330.141                   118001330.141    22660911.448  
                 130253651.231                   130253651.231    25013845.281  
                 119860600.743                   119860600.743    23017967.209  
 21  9  1  8 13 37.0000000  0 12G 1G 7G 8G13G14G17G21G30C23C25C28C34
  21531414.008   113148302.644    21531416.939    88167497.219                  
  20468211.538   107561192.254    20468210.859    83813919.399                  
  22376560.720   117589583.152    22376562.847    91628237.427                  
  23653949.538   124302361.957    23653948.555    96858987.610                  
  21965040.516   115427081.933    21965040.481    89943186.563                  
  22710540.979   119344705.120    22710540.783    92995875.231                  
  21549415.441   113242949.208    21549414.226    88241261.398                  
  20663291.307   108586295.184    20663293.076    84612689.230                  
                 115482664.231                   115482664.231    22177221.655  
                 118003012.863                   118003012.863    22661234.573  
                 130250424.704                   130250424.704    25013225.655  
                 119862510.899                   119862510.899    23018334.024  
 21  9  1  8 13 38.0000000  0 12G 1G 7G 8G13G14G17G21G30C23C25C28C34
  21530919.340   113145703.207    21530922.306    88165471.684                  
  20468469.781   107562549.296    20468469.102    83814976.831                  
  22377120.717   117592526.069    22377122.862    91630530.609                  
  23653754.622   124301337.655    23653753.640    96858189.453                  
  21964628.582   115424917.223    21964628.564    89941499.773                  
  22710020.294   119341968.973    22710020.097    92993743.172                  
  21549405.077   113242894.780    21549403.862    88241218.989                  
  20663121.694   108585403.899    20663123.463    84611994.719                  
                 115481523.102                   115481523.102    22177002.527  
                 118004695.954                   118004695.954    22661557.806  
                 130247198.351                   130247198.351    25012606.064  
                 119864421.430                   119864421.430    23018700.929  
 21  9  1  8 13 39.0000000  0 12G 1G 7G 8G13G14G17G21G30C23C25C28C34
  21530424.779   113143104.269    21530427.745    88163446.535                  
  20468728.113   107563906.927    20468727.452    83816034.726                  
  22377680.786   117595469.183    22377682.895    91632823.944                  
  23653559.814   124300313.982    23653558.832    96857391.780                  
  21964216.683   115422752.665    21964216.665    89939813.105                  
  22709499.680   119339233.139    22709499.501    92991611.352                  
  21549394.838   113242840.986    21549393.623    88241177.071                  
  20662952.206   108584513.188    20662953.957    84611300.661                  
                 115480382.316                   115480382.316    22176783.435  
                 118006379.402                   118006379.402    22661881.074  
                 130243972.169                   130243972.169    25011986.527  
                 119866332.345                   119866332.345    23019067.905  
 21  9  1  8 13 40.0000000  0 18G 1G 7G 8G13G14G17G21G30C23C25C28C34
                                E13E15E19E21E27E30
  21529930.325   113140505.868    21529933.274    88161421.804                  
  20468986.589   107565265.145    20468985.927    83817093.078                  
  22378240.873   117598412.482    22378242.999    91635117.422                  
  23653365.131   124299290.933    23653364.166    96856594.604                  
  21963804.820   115420588.278    21963804.784    89938126.571                  
  22708979.137   119336497.617    22708978.941    92989479.776                  
  21549384.724   113242787.819    21549383.509    88241135.641                  
  20662782.826   108583623.064    20662784.577    84610607.054                  
                 115479241.882                   115479241.882    22176564.432  
                 118008063.214                   118008063.214    22662204.432  
                 130240746.154                   130240746.154    25011367.008  
                 119868243.638                   119868243.638    23019434.935  
  25609497.761   134578774.401                                                  
  23859775.809   125383940.630                                                  
  26831826.186   141002189.020                                                  
  25537066.695   134198172.858                                                  
  23494576.419   123464823.676                                                  
  25447990.777   133730065.347                                                  
 21  9  1  8 13 41.0000000  0 18G 1G 7G 8G13G14G17G21G30C23C25C28C34
                                E13E15E19E21E27E30
  21529435.961   113137907.980    21529438.892    88159397.481                  
  20469245.153   107566623.956    20469244.474    83818151.894                  
  22378800.995   117601355.974    22378803.122    91637411.054                  
  23653170.573   124298268.513    23653169.608    96855797.913                  
  21963392.975   115418424.054    21963392.939    89936440.164                  
  22708458.648   119333762.406    22708458.434    92987348.441                  
  21549374.717   113242735.284    21549373.502    88241094.704                  
  20662613.535   108582733.524    20662615.304    84609913.910                  
                 115478101.792                   115478101.792    22176345.501  
                 118009747.396                   118009747.396    22662527.879  
                 130237520.313                   130237520.313    25010747.507  
                 119870155.308                   119870155.308    23019802.054  
  25608936.888   134575826.921                                                  
  23859648.617   125383272.315                                                  
  26832059.449   141003414.730                                                  
  25536710.494   134196300.976                                                  
  23494583.602   123464861.465                                                  
  25448357.968   133731994.806                                                  
 21  9  1  8 13 42.0000000  0 18G 1G 7G 8G13G14G17G21G30C23C25C28C34
                                E13E15E19E21E27E30
  21528941.704   113135310.620    21528944.634    88157373.562                  
  20469503.843   107567983.351    20469503.164    83819211.160                  
  22379361.153   117604299.657    22379363.298    91639704.831                  
  23652976.141   124297246.714    23652975.158    96855001.706                  
  21962981.165   115416259.990    21962981.147    89934753.879                  
  22707938.195   119331027.497    22707938.016    92985217.347                  
  21549364.836   113242683.376    21549363.638    88241054.254                  
  20662444.386   108581844.562    20662446.138    84609221.210                  
                 115476962.056                   115476962.056    22176126.624  
                 118011431.937                   118011431.937    22662851.380  
                 130234294.640                   130234294.640    25010128.042  
                 119872067.360                   119872067.360    23020169.244  
  25608376.015   134572879.643                                                  
  23859521.532   125382604.496                                                  
  26832292.764   141004640.825                                                  
  25536354.293   134194429.142                                                  
  23494590.821   123464899.437                                                  
  25448725.140   133733924.390                                                  
 21  9  1  8 13 43.0000000  0 18G 1G 7G 8G13G14G17G21G30C23C25C28C34
                                E13E15E19E21E27E30
  21528447.536   113132713.774    21528450.484    88155350.046                  
  20469762.640   107569343.336    20469761.961    83820270.891                  
  22379921.383   117607243.566    22379923.492    91641998.789                  
  23652781.815   124296225.550    23652780.832    96854205.996                  
  21962569.391   115414096.098    21962569.356    89933067.730                  
  22707417.813   119328292.902    22707417.635    92983086.492                  
  21549355.079   113242632.109    21549353.882    88241014.308                  
  20662275.328   108580956.190    20662277.097    84608528.973                  
                 115475822.660                   115475822.660    22175907.817  
                 118013116.843                   118013116.843    22663174.935  
                 130231069.139                   130231069.139    25009508.612  
                 119873979.793                   119873979.793    23020536.506  
  25607815.214   134569932.568                                                  
  23859394.537   125381937.168                                                  
  26832526.134   141005867.313                                                  
  25535998.092   134192557.363                                                  
  23494598.094   123464937.594                                                  
  25449092.367   133735854.101                                                  
 21  9  1  8 13 44.0000000  0 18G 1G 7G 8G13G14G17G21G30C23C25C28C34
                                E13E15E19E21E27E30
  21527953.475   113130117.445    21527956.424    88153326.934                  
  20470021.562   107570703.919    20470020.883    83821331.081                  
  22380481.613   117610187.675    22380483.739    91644292.899                  
  23652587.614   124295205.013    23652586.632    96853410.773                  
  21962157.635   115411932.371    21962157.618    89931381.711                  
  22706897.503   119325558.613    22706897.325    92980955.879                  
  21549345.466   113242581.460    21549344.233    88240974.839                  
  20662106.376   108580068.402    20662108.163    84607837.192                  
                 115474683.616                   115474683.616    22175689.065  
                 118014802.115                   118014802.115    22663498.578  
                 130227843.813                   130227843.813    25008889.236  
                 119875892.601                   119875892.601    23020903.840  
  25607254.448   134566985.683                                                  
  23859267.631   125381270.329                                                  
  26832759.628   141007094.185                                                  
  25535641.944   134190685.645                                                  
  23494605.384   123464975.941                                                  
  25449459.575   133737783.929                                                  
 21  9  1  8 13 45.0000000  0 18G 1G 7G 8G13G14G17G21G30C23C25C28C34
                                E13E15E19E21E27E30
  21527459.504   113127521.641    21527462.452    88151304.230                  
  20470280.574   107572065.090    20470279.895    83822391.738                  
  22381041.896   117613131.977    22381044.022    91646587.161                  
  23652393.539   124294185.104    23652392.538    96852616.039                  
  21961745.933   115409768.814    21961745.897    89929695.816                  
  22706377.265   119322824.634    22706377.068    92978825.508                  
  21549335.941   113242531.442    21549334.726    88240935.867                  
  20661937.567   108579181.198    20661939.318    84607145.864                  
                 115473544.918                   115473544.918    22175470.402  
                 118016487.747                   118016487.747    22663822.294  
                 130224618.655                   130224618.655    25008269.878  
                 119877805.792                   119877805.792    23021271.245  
  25606693.700   134564038.995                                                  
  23859140.833   125380603.977                                                  
  26832993.159   141008321.442                                                  
  25535285.761   134188813.981                                                  
  23494612.729   123465014.473                                                  
  25449826.837   133739713.878                                                  
 21  9  1  8 13 46.0000000  0 18G 1G 7G 8G13G14G17G21G30C23C25C28C34
                                E13E15E19E21E27E30
  21526965.640   113124926.365    21526968.588    88149281.937                  
  20470539.728   107573426.847    20470539.031    83823452.848                  
  22381602.215   117616076.458    22381604.341    91648881.562                  
  23652199.553   124293165.812    23652198.588    96851821.785                  
  21961334.267   115407605.415    21961334.213    89928010.055                  
  22705857.062   119320090.969    22705856.865    92976695.380                  
  21549326.542   113242482.059    21549325.327    88240897.386                  
  20661768.848   108578294.578    20661770.599    84606454.991                  
                 115472406.569                   115472406.569    22175251.774  
                 118018173.743                   118018173.743    22664146.062  
                 130221393.672                   130221393.672    25007650.555  
                 119879719.359                   119879719.359    23021638.721  
  25606133.006   134561092.513                                                  
  23859014.142   125379938.110                                                  
  26833226.760   141009549.083                                                  
  25534929.596   134186942.366                                                  
  23494620.073   123465053.191                                                  
  25450194.117   133741643.929                                                  
 21  9  1  8 13 47.0000000  0 18G 1G 7G 8G13G14G17G21G30C23C25C28C34
                                E13E15E19E21E27E30
  21526471.883   113122331.599    21526474.814    88147260.044                  
  20470798.954   107574789.206    20470798.275    83824514.421                  
  22382162.587   117619021.125    22382164.696    91651176.104                  
  23652005.728   124292147.148    23652004.745    96851028.020                  
  21960922.600   115405442.181    21960922.582    89926324.418                  
  22705336.912   119317357.625    22705336.716    92974565.501                  
  21549317.268   113242433.311    21549316.035    88240859.403                  
  20661600.236   108577408.548    20661602.005    84605764.573                  
                 115471268.569                   115471268.569    22175033.236  
                 118019860.102                   118019860.102    22664469.921  
                 130218168.854                   130218168.854    25007031.269  
                 119881633.309                   119881633.309    23022006.287  
  25605572.348   134558146.218                                                  
  23858887.522   125379272.747                                                  
  26833460.434   141010777.109                                                  
  25534573.466   134185070.822                                                  
  23494627.506   123465092.093                                                  
  25450561.415   133743574.130                                                  
 21  9  1  8 13 48.0000000  0 18G 1G 7G 8G13G14G17G21G30C23C25C28C34
                                E13E15E19E21E27E30
  21525978.198   113119737.359    21525981.164    88145238.555                  
  20471058.323   107576152.148    20471057.644    83825576.457                  
  22382722.960   117621965.999    22382725.086    91653470.812                  
  23651811.992   124291129.120    23651811.027    96850234.750                  
  21960511.005   115403279.120    21960510.951    89924638.918                  
  22704816.834   119314624.585    22704816.638    92972435.864                  
  21549308.101   113242385.207    21549306.904    88240821.917                  
  20661431.749   108576523.098    20661433.500    84605074.618                  
                 115470130.915                   115470130.915    22174814.787  
                 118021546.828                   118021546.828    22664793.832  
                 130214944.214                   130214944.214    25006412.000  
                 119883547.632                   119883547.632    23022373.906  
  25605011.725   134555200.125                                                  
  23858761.009   125378607.866                                                  
  26833694.214   141012005.536                                                  
  25534217.336   134183199.324                                                  
  23494634.940   123465131.188                                                  
  25450928.766   133745504.460                                                  
 21  9  1  8 13 49.0000000  0 18G 1G 7G 8G13G14G17G21G30C23C25C28C34
                                E13E15E19E21E27E30
  21525484.638   113117143.638    21525487.586    88143217.472                  
  20471317.799   107577515.681    20471317.120    83826638.950                  
  22383283.404   117624911.070    22383285.513    91655765.675                  
  23651618.399   124290111.714    23651617.398    96849441.969                  
  21960099.392   115401116.223    21960099.374    89922953.544                  
  22704296.792   119311891.848    22704296.613    92970306.456                  
  21549299.078   113242337.728    21549297.862    88240784.922                  
  20661263.351   108575638.230    20661265.120    84604385.110                  
                 115468993.610                   115468993.610    22174596.356  
                 118023233.914                   118023233.914    22665117.816  
                 130211719.742                   130211719.742    25005792.784  
                 119885462.339                   119885462.339    23022741.597  
  25604451.138   134552254.224                                                  
  23858634.568   125377943.477                                                  
  26833928.048   141013234.339                                                  
  25533861.207   134181327.886                                                  
  23494642.391   123465170.466                                                  
  25451296.099   133747434.902                                                  
 21  9  1  8 13 50.0000000  0 18G 1G 7G 8G13G14G17G21G30C23C25C28C34
                                E13E15E19E21E27E30
  21524991.167   113114550.425    21524994.115    88141196.789                  
  20471577.382   107578879.803    20471576.703    83827701.902                  
  22383843.866   117627856.353    22383845.974    91658060.700                  
  23651424.895   124289094.937    23651423.912    96848649.672                  
  21959687.833   115398953.484    21959687.815    89921268.289                  
  22703776.839   119309159.421    22703776.661    92968177.293                  
  21549290.161   113242290.868    21549288.946    88240748.406                  
  20661095.079   108574753.949    20661096.848    84603696.059                  
                 115467856.654                   115467856.654    22174378.015  
                 118024921.366                   118024921.366    22665441.888  
                 130208495.442                   130208495.442    25005173.587  
                 119887377.426                   119887377.426    23023109.378  
  25603890.587   134549308.525                                                  
  23858508.234   125377279.582                                                  
  26834161.954   141014463.518                                                  
  25533505.095   134179456.500                                                  
  23494649.914   123465209.925                                                  
  25451663.487   133749365.461                                                  
 21  9  1  8 13 51.0000000  0 18G 1G 7G 8G13G14G17G21G30C23C25C28C34
                                E13E15E19E21E27E30
  21524497.803   113111957.758    21524500.733    88139176.531                  
  20471837.073   107580244.527    20471836.394    83828765.324                  
  22384404.364   117630801.835    22384406.472    91660355.878                  
  23651231.534   124288078.793    23651230.551    96847857.874                  
  21959276.327   115396790.910    21959276.291    89919583.168                  
  22703256.940   119306427.309    22703256.743    92966048.374                  
  21549281.352   113242244.641    21549280.136    88240712.387                  
  20660926.913   108573870.246    20660928.682    84603007.457                  
                 115466720.049                   115466720.049    22174159.762  
                 118026609.179                   118026609.179    22665765.996  
                 130205271.299                   130205271.299    25004554.425  
                 119889292.892                   119889292.892    23023477.211  
  25603330.071   134546363.022                                                  
  23858382.007   125376616.179                                                  
  26834395.948   141015693.090                                                  
  25533149.001   134177585.173                                                  
  23494657.455   123465249.579                                                  
  25452030.874   133751296.158                                                  
 21  9  1  8 13 52.0000000  0 18G 1G 7G 8G13G14G17G21G30C23C25C28C34
                                E13E15E19E21E27E30
  21524004.529   113109365.595    21524007.477    88137156.664                  
  20472096.889   107581609.832    20472096.192    83829829.195                  
  22384964.897   117633747.493    22384967.023    91662651.196                  
  23651038.299   124287063.269    23651037.298    96847066.554                  
  21958864.839   115394628.501    21958864.803    89917898.171                  
  22702737.094   119303695.499    22702736.898    92963919.696                  
  21549272.685   113242199.057    21549271.452    88240676.868                  
  20660758.855   108572987.129    20660760.642    84602319.317                  
                 115465583.788                   115465583.788    22173941.546  
                 118028297.359                   118028297.359    22666090.194  
                 130202047.342                   130202047.342    25003935.282  
                 119891208.729                   119891208.729    23023845.135  
  25602769.591   134543417.713                                                  
  23858255.834   125375953.255                                                  
  26834629.979   141016923.044                                                  
  25532792.907   134175713.890                                                  
  23494665.031   123465289.411                                                  
  25452398.297   133753226.978                                                  
 21  9  1  8 13 53.0000000  0 18G 1G 7G 8G13G14G17G21G30C23C25C28C34
                                E13E15E19E21E27E30
  21523511.361   113106773.958    21523514.292    88135137.204                  
  20472356.794   107582975.739    20472356.114    83830893.536                  
  22385525.484   117636693.350    22385527.592    91664946.672                  
  23650845.152   124286048.384    23650844.187    96846275.739                  
  21958453.387   115392466.270    21958453.333    89916213.321                  
  22702217.320   119300964.020    22702217.124    92961791.268                  
  21549264.126   113242154.105    21549262.929    88240641.839                  
  20660590.940   108572104.620    20660592.709    84601631.645                  
                 115464447.879                   115464447.879    22173723.401  
                 118029985.902                   118029985.902    22666414.481  
                 130198823.560                   130198823.560    25003316.191  
                 119893124.954                   119893124.954    23024213.147  
  25602209.165   134540472.590                                                  
  23858129.786   125375290.836                                                  
  26834864.099   141018153.388                                                  
  25532436.813   134173842.683                                                  
  23494672.661   123465329.443                                                  
  25452765.737   133755157.921                                                  
 21  9  1  8 13 54.0000000  0 18G 1G 7G 8G13G14G17G21G30C23C25C28C34
                                E13E15E19E21E27E30
  21523018.284   113104182.837    21523021.214    88133118.149                  
  20472616.841   107584342.226    20472616.162    83831958.331                  
  22386086.107   117639639.413    22386088.215    91667242.306                  
  23650652.167   124285034.112    23650651.184    96845485.398                  
  21958041.935   115390304.195    21958041.917    89914528.587                  
  22701697.582   119298232.829    22701697.385    92959663.065                  
  21549255.692   113242109.783    21549254.477    88240607.301                  
  20660423.096   108571222.672    20660424.865    84600944.410                  
                 115463312.313                   115463312.313    22173505.345  
                 118031674.808                   118031674.808    22666738.804  
                 130195599.946                   130195599.946    25002697.137  
                 119895041.550                   119895041.550    23024581.195  
  25601648.757   134537527.659                                                  
  23858003.827   125374628.895                                                  
  26835098.308   141019384.113                                                  
  25532080.755   134171971.514                                                  
  23494680.291   123465369.656                                                  
  25453133.214   133757088.985                                                  
 21  9  1  8 13 55.0000000  0 18G 1G 7G 8G13G14G17G21G30C23C25C28C34
                                E13E15E19E21E27E30
  21522525.295   113101592.250    21522528.261    88131099.512                  
  20472876.979   107585709.309    20472876.300    83833023.591                  
  22386646.765   117642585.676    22386648.874    91669538.090                  
  23650459.253   124284020.477    23650458.288    96844695.550                  
  21957630.536   115388142.290    21957630.518    89912843.983                  
  22701177.915   119295501.961    22701177.718    92957535.116                  
  21549247.383   113242066.086    21549246.167    88240573.253                  
  20660255.377   108570341.316    20660257.164    84600257.640                  
                 115462177.098                   115462177.098    22173287.325  
                 118033364.078                   118033364.078    22667063.216  
                 130192376.504                   130192376.504    25002078.100  
                 119896958.528                   119896958.528    23024949.315  
  25601088.402   134534582.946                                                  
  23857877.958   125373967.461                                                  
  26835332.571   141020615.231                                                  
  25531724.697   134170100.413                                                  
  23494687.993   123465410.052                                                  
  25453500.726   133759020.175                                                  
 21  9  1  8 13 56.0000000  0 18G 1G 7G 8G13G14G17G21G30C23C25C28C34
                                E13E15E19E21E27E30
  21522032.414   113099002.171    21522035.380    88129081.271                  
  20473137.241   107587076.974    20473136.562    83834089.306                  
  22387207.441   117645532.120    22387209.586    91671834.023                  
  23650266.500   124283007.468    23650265.517    96843906.194                  
  21957219.174   115385980.546    21957219.156    89911159.508                  
  22700658.302   119292771.395    22700658.123    92955407.407                  
  21549239.181   113242023.020    21549237.966    88240539.696                  
  20660087.784   108569460.544    20660089.535    84599571.324                  
                 115461042.230                   115461042.230    22173069.377  
                 118035053.712                   118035053.712    22667387.700  
                 130189153.233                   130189153.233    25001459.117  
                 119898875.883                   119898875.883    23025317.542  
  25600528.083   134531638.427                                                  
  23857752.177   125373306.509                                                  
  26835566.941   141021846.737                                                  
  25531368.639   134168229.362                                                  
  23494695.712   123465450.632                                                  
  25453868.220   133760951.488                                                  
 21  9  1  8 13 57.0000000  0 18G 1G 7G 8G13G14G17G21G30C23C25C28C34
                                E13E15E19E21E27E30
  21521539.658   113096412.620    21521542.606    88127063.439                  
  20473397.628   107588445.231    20473396.931    83835155.480                  
  22387768.171   117648478.770    22387770.298    91674130.114                  
  23650073.854   124281995.089    23650072.853    96843117.325                  
  21956807.847   115383818.970    21956807.829    89909475.165                  
  22700138.760   119290041.149    22700138.563    92953279.940                  
  21549231.104   113241980.579    21549229.907    88240506.625                  
  20659920.280   108568580.357    20659922.067    84598885.466                  
                 115459907.710                   115459907.710    22172851.518  
                 118036743.706                   118036743.706    22667712.237  
                 130185930.137                   130185930.137    25000840.135  
                 119900793.617                   119900793.617    23025685.823  
  25599967.782   134528694.107                                                  
  23857626.505   125372646.058                                                  
  26835801.365   141023078.619                                                  
  25531012.599   134166358.364                                                  
  23494703.485   123465491.406                                                  
  25454235.768   133762882.921                                                  
 21  9  1  8 13 58.0000000  0 18G 1G 7G 8G13G14G17G21G30C23C25C28C34
                                E13E15E19E21E27E30
  21521046.973   113093823.606    21521049.921    88125046.023                  
  20473658.105   107589814.077    20473657.426    83836222.114                  
  22388328.937   117651425.614    22388331.063    91676426.356                  
  23649881.315   124280983.341    23649880.332    96842328.950                  
  21956396.537   115381657.552    21956396.519    89907790.941                  
  22699619.254   119287311.200    22699619.057    92951152.711                  
  21549223.152   113241938.778    21549221.937    88240474.050                  
  20659752.901   108567700.750    20659754.687    84598200.056                  
                 115458773.540                   115458773.540    22172633.694  
                 118038434.066                   118038434.066    22668036.863  
                 130182707.210                   130182707.210    25000221.223  
                 119902711.731                   119902711.731    23026054.175  
  25599407.535   134525749.983                                                  
  23857500.921   125371986.077                                                  
  26836035.842   141024310.899                                                  
  25530656.576   134164487.418                                                  
  23494711.276   123465532.363                                                  
  25454603.334   133764814.492                                                  
 21  9  1  8 13 59.0000000  0 18G 1G 7G 8G13G14G17G21G30C23C25C28C34
                                E13E15E19E21E27E30
  21520554.395   113091235.094    21520557.344    88123029.005                  
  20473918.707   107591183.517    20473918.028    83837289.207                  
  22388889.738   117654372.654    22388891.865    91678722.750                  
  23649688.919   124279972.218    23649687.919    96841541.062                  
  21955985.282   115379496.313    21955985.246    89906106.859                  
  22699099.819   119284581.561    22699099.640    92949025.723                  
  21549215.325   113241897.604    21549214.093    88240441.969                  
  20659585.646   108566821.730    20659587.398    84597515.110                  
                 115457639.715                   115457639.715    22172415.960  
                 118040124.793                   118040124.793    22668361.544  
                 130179484.457                   130179484.457    24999602.312  
                 119904630.224                   119904630.224    23026422.598  
  25598847.323   134522806.054                                                  
  23857375.427   125371326.592                                                  
  26836270.427   141025543.538                                                  
  25530300.554   134162616.540                                                  
  23494719.103   123465573.504                                                  
  25454970.918   133766746.164                                                  
 21  9  1  8 14  0.0000000  0 18G 1G 7G 8G13G14G17G21G30C23C25C28C34
                                E13E15E19E21E27E30
  21520061.872   113088647.074    21520064.820    88121012.406                  
  20474179.398   107592553.376    20474178.737    83838356.582                  
  22389450.522   117657319.923    22389452.648    91681019.401                  
  23649496.577   124278961.474    23649495.594    96840753.458                  
  21955574.008   115377335.118    21955573.973    89904422.813                  
  22698580.420   119281852.140    22698580.224    92946898.926                  
  21549207.552   113241857.003    21549206.337    88240410.360                  
  20659418.464   108565943.168    20659420.233    84596830.481                  
                 115456506.167                   115456506.167    22172198.280  
                 118041815.761                   118041815.761    22668686.277  
                 130176261.730                   130176261.730    24998983.400  
                 119906549.013                   119906549.013    23026791.075  
  25598287.111   134519862.247                                                  
  23857249.986   125370667.642                                                  
  26836505.011   141026776.261                                                  
  25529944.513   134160745.585                                                  
  23494726.947   123465614.794                                                  
  25455338.519   133768677.685                                                  
 21  9  1  8 14  1.0000000  0 18G 1G 7G 8G13G14G17G21G30C23C25C28C34
                                E13E15E19E21E27E30
  21519569.508   113086059.610    21519572.439    88118996.199                  
  20474440.214   107593923.984    20474439.553    83839424.590                  
  22390011.395   117660267.350    22390013.503    91683316.100                  
  23649304.396   124277951.607    23649303.413    96839966.555                  
  21955162.806   115375174.202    21955162.753    89902738.985                  
  22698061.093   119279123.126    22698060.896    92944772.422                  
  21549199.976   113241817.107    21549198.761    88240379.273                  
  20659251.424   108565065.313    20659253.175    84596146.441                  
                 115455373.046                   115455373.046    22171980.689  
                 118043507.220                   118043507.220    22669011.100  
                 130173039.328                   130173039.328    24998364.578  
                 119908468.264                   119908468.264    23027159.642  
  25597726.989   134516918.714                                                  
  23857124.653   125370009.151                                                  
  26836739.739   141028009.686                                                  
  25529588.527   134158874.825                                                  
  23494734.846   123465656.314                                                  
  25455706.156   133770609.626                                                  
 21  9  1  8 14  2.0000000  0 18G 1G 7G 8G13G14G17G21G30C23C25C28C34
                                E13E15E19E21E27E30
  21519077.217   113083472.676    21519080.165    88116980.407                  
  20474701.156   107595295.196    20474700.477    83840493.067                  
  22390572.321   117663214.971    22390574.412    91685612.953                  
  23649112.357   124276942.362    23649111.357    96839180.129                  
  21954751.622   115373013.453    21954751.604    89901055.284                  
  22697541.837   119276394.427    22697541.640    92942646.165                  
  21549192.507   113241777.817    21549191.274    88240348.656                  
  20659084.474   108564188.051    20659086.261    84595462.862                  
                 115454240.278                   115454240.278    22171763.133  
                 118045199.040                   118045199.040    22669335.995  
                 130169817.099                   130169817.099    24997745.774  
                 119910387.894                   119910387.894    23027528.280  
  25597166.884   134513975.383                                                  
  23856999.463   125369351.145                                                  
  26836974.520   141029243.499                                                  
  25529232.540   134157004.111                                                  
  23494742.779   123465698.027                                                  
  25456073.794   133772541.679                                                  
 21  9  1  8 14  3.0000000  0 18G 1G 7G 8G13G14G17G21G30C23C25C28C34
                                E13E15E19E21E27E30
  21518585.033   113080886.251    21518587.981    88114965.013                  
  20474962.204   107596667.003    20474961.543    83841562.008                  
  22391133.284   117666162.801    22391135.374    91687909.960                  
  23648920.426   124275933.745    23648919.443    96838394.200                  
  21954340.474   115370852.866    21954340.438    89899371.712                  
  22697022.634   119273666.035    22697022.438    92940520.148                  
  21549185.145   113241739.168    21549183.912    88240318.544                  
  20658917.667   108563311.372    20658919.418    84594779.739                  
                 115453107.852                   115453107.852    22171545.667  
                 118046891.224                   118046891.224    22669660.961  
                 130166595.035                   130166595.035    24997127.005  
                 119912307.901                   119912307.901    23027897.007  
  25596606.816   134511032.254                                                  
  23856874.326   125368693.638                                                  
  26837209.372   141030477.698                                                  
  25528876.553   134155133.441                                                  
  23494750.731   123465739.922                                                  
  25456441.485   133774473.866                                                  
 21  9  1  8 14  4.0000000  0 18G 1G 7G 8G13G14G17G21G30C23C25C28C34
                                E13E15E19E21E27E30
  21518092.955   113078300.350    21518095.904    88112950.028                  
  20475223.360   107598039.401    20475222.699    83842631.411                  
  22391694.264   117669110.812    22391696.354    91690207.112                  
  23648728.602   124274925.759    23648727.620    96837608.750                  
  21953929.361   115368692.458    21953929.343    89897688.274                  
  22696503.521   119270937.961    22696503.325    92938394.375                  
  21549177.908   113241701.152    21549176.675    88240288.921                  
  20658750.949   108562435.281    20658752.718    84594097.066                  
                 115451975.781                   115451975.781    22171328.255  
                 118048583.771                   118048583.771    22669985.999  
                 130163373.148                   130163373.148    24996508.272  
                 119914228.289                   119914228.289    23028265.788  
  25596046.800   134508089.328                                                  
  23856749.296   125368036.618                                                  
  26837444.314   141031712.300                                                  
  25528520.602   134153262.848                                                  
  23494758.754   123465782.008                                                  
  25456809.193   133776406.177                                                  
 21  9  1  8 14  5.0000000  0 18G 1G 7G 8G13G14G17G21G30C23C25C28C34
                                E13E15E19E21E27E30
  21517600.985   113075714.978    21517603.916    88110935.449                  
  20475484.623   107599412.374    20475483.962    83843701.258                  
  22392255.280   117672059.014    22392257.388    91692504.415                  
  23648536.903   124273918.395    23648535.921    96836823.793                  
  21953518.284   115366532.208    21953518.267    89896004.960                  
  22695984.444   119268210.191    22695984.248    92936268.841                  
  21549170.796   113241663.761    21549169.581    88240259.786                  
  20658584.338   108561559.771    20658586.107    84593414.852                  
                 115450844.055                   115450844.055    22171110.914  
                 118050276.678                   118050276.678    22670311.108  
                 130160151.433                   130160151.433    24995889.575  
                 119916149.050                   119916149.050    23028634.640  
  25595486.803   134505146.590                                                  
  23856624.356   125367380.091                                                  
  26837679.328   141032947.263                                                  
  25528164.634   134151392.310                                                  
  23494766.795   123465824.273                                                  
  25457176.920   133778338.605                                                  
 21  9  1  8 14  6.0000000  0 18G 1G 7G 8G13G14G17G21G30C23C25C28C34
                                E13E15E19E21E27E30
  21517109.105   113073130.140    21517112.035    88108921.292                  
  20475746.011   107600785.954    20475745.332    83844771.582                  
  22392816.331   117675007.419    22392818.440    91694801.871                  
  23648345.348   124272911.659    23648344.347    96836039.324                  
  21953107.225   115364372.104    21953107.208    89894321.770                  
  22695465.421   119265482.751    22695465.224    92934143.562                  
  21549163.791   113241627.004    21549162.576    88240231.142                  
  20658417.834   108560684.847    20658419.621    84592733.094                  
                 115449712.679                   115449712.679    22170893.662  
                 118051969.952                   118051969.952    22670636.288  
                 130156929.896                   130156929.896    24995270.914  
                 119918070.191                   119918070.191    23029003.582  
  25594926.859   134502204.101                                                  
  23856499.523   125366724.072                                                  
  26837914.395   141034182.659                                                  
  25527808.701   134149521.801                                                  
  23494774.872   123465866.737                                                  
  25457544.682   133780271.165                                                  
 21  9  1  8 14  7.0000000  0 18G 1G 7G 8G13G14G17G21G30C23C25C28C34
                                E13E15E19E21E27E30
  21516617.331   113070545.847    21516620.262    88106907.555                  
  20476007.506   107602160.124    20476006.845    83845842.364                  
  22393377.436   117677956.026    22393379.563    91697099.489                  
  23648153.881   124271905.551    23648152.898    96835255.343                  
  21952696.202   115362212.192    21952696.184    89892638.719                  
  22694946.468   119262755.618    22694946.254    92932018.524                  
  21549156.912   113241590.896    21549155.697    88240203.003                  
  20658251.456   108559810.517    20658253.243    84592051.797                  
                 115448581.649                   115448581.649    22170676.446  
                 118053663.587                   118053663.587    22670961.522  
                 130153708.521                   130153708.521    24994652.288  
                 119919991.708                   119919991.708    23029372.577  
  25594366.987   134499261.824                                                  
  23856374.780   125366068.566                                                  
  26838149.551   141035418.441                                                  
  25527452.767   134147651.340                                                  
  23494783.003   123465909.398                                                  
  25457912.463   133782203.861                                                  
 21  9  1  8 14  8.0000000  0 18G 1G 7G 8G13G14G17G21G30C23C25C28C34
                                E13E15E19E21E27E30
  21516125.647   113067961.989    21516128.578    88104894.159                  
  20476269.127   107603534.863    20476268.448    83846913.589                  
  22393938.577   117680904.774    22393940.686    91699397.215                  
  23647962.539   124270900.066    23647961.557    96834471.853                  
  21952285.215   115360052.450    21952285.197    89890955.801                  
  22694427.552   119260028.764    22694427.355    92929893.707                  
  21549150.175   113241555.404    21549148.960    88240175.347                  
  20658085.202   108558936.758    20658086.954    84591370.946                  
                 115447450.965                   115447450.965    22170459.320  
                 118055357.582                   118055357.582    22671286.846  
                 130150487.318                   130150487.318    24994033.681  
                 119921913.597                   119921913.597    23029741.662  
  25593807.079   134496319.558                                                  
  23856250.125   125365413.429                                                  
  26838384.779   141036654.472                                                  
  25527096.834   134145781.016                                                  
  23494791.133   123465952.194                                                  
  25458280.243   133784136.638                                                  
 21  9  1  8 14  9.0000000  0 18G 1G 7G 8G13G14G17G21G30C23C25C28C34
                                E13E15E19E21E27E30
  21515634.053   113065378.712    21515637.001    88102881.219                  
  20476530.836   107604910.204    20476530.157    83847985.281                  
  22394499.754   117683853.757    22394501.863    91701695.121                  
  23647771.323   124269895.214    23647770.340    96833688.851                  
  21951874.263   115357892.854    21951874.245    89889272.999                  
  22693908.725   119257302.245    22693908.528    92927769.149                  
  21549143.546   113241520.528    21549142.313    88240148.175                  
  20657919.038   108558063.590    20657920.807    84590690.555                  
                 115446320.630                   115446320.630    22170242.247  
                 118057051.940                   118057051.940    22671612.223  
                 130147266.289                   130147266.289    24993415.127  
                 119923835.866                   119923835.866    23030110.818  
  25593247.243   134493377.630                                                  
  23856125.560   125364758.874                                                  
  26838620.078   141037890.992                                                  
  25526740.937   134143910.678                                                  
  23494799.317   123465995.207                                                  
  25458648.059   133786069.562                                                  
 21  9  1  8 14 10.0000000  0 18G 1G 7G 8G13G14G17G21G30C23C25C28C34
                                E13E15E19E21E27E30
  21515142.583   113062795.960    21515145.514    88100868.685                  
  20476792.653   107606286.140    20476791.992    83849057.441                  
  22395060.966   117686802.933    22395063.057    91703993.183                  
  23647580.214   124268890.990    23647579.249    96832906.337                  
  21951463.347   115355733.435    21951463.311    89887590.337                  
  22693389.934   119254576.043    22693389.737    92925644.831                  
  21549137.023   113241486.300    21549135.808    88240121.505                  
  20657752.982   108557191.011    20657754.768    84590010.626                  
                 115445190.644                   115445190.644    22170025.246  
                 118058746.659                   118058746.659    22671937.671  
                 130144045.429                   130144045.429    24992796.573  
                 119925758.511                   119925758.511    23030480.046  
  25592687.442   134490435.889                                                  
  23856001.103   125364104.792                                                  
  26838855.467   141039127.883                                                  
  25526385.040   134142040.408                                                  
  23494807.537   123466038.399                                                  
  25459015.928   133788002.610                                                  
 21  9  1  8 14 11.0000000  0 18G 1G 7G 8G13G14G17G21G30C23C25C28C34
                                E13E15E19E21E27E30
  21514651.203   113060213.728    21514654.133    88098856.555                  
  20477054.595   107607662.663    20477053.934    83850130.055                  
  22395622.197   117689752.292    22395624.305    91706291.382                  
  23647389.248   124267887.394    23647388.265    96832124.311                  
  21951052.467   115353574.179    21951052.413    89885907.800                  
  22692871.214   119251850.145    22692871.017    92923520.758                  
  21549130.644   113241452.704    21549129.393    88240095.328                  
  20657587.068   108556319.019    20657588.819    84589331.149                  
                 115444061.007                   115444061.007    22169808.298  
                 118060441.745                   118060441.745    22672263.191  
                 130140824.746                   130140824.746    24992178.072  
                 119927681.534                   119927681.534    23030849.345  
  25592127.677   134487494.331                                                  
  23855876.716   125363451.214                                                  
  26839090.891   141040365.155                                                  
  25526029.142   134140170.196                                                  
  23494815.792   123466081.785                                                  
  25459383.780   133789935.777                                                  
 21  9  1  8 14 12.0000000  0 18G 1G 7G 8G13G14G17G21G30C23C25C28C34
                                E13E15E19E21E27E30
  21514159.912   113057632.003    21514162.842    88096844.824                  
  20477316.662   107609039.774    20477316.001    83851203.125                  
  22396183.481   117692701.835    22396185.571    91708589.727                  
  23647198.389   124266884.417    23647197.406    96831342.773                  
  21950641.586   115351415.088    21950641.568    89884225.392                  
  22692352.565   119249124.562    22692352.369    92921396.927                  
  21549124.354   113241419.738    21549123.139    88240069.636                  
  20657421.225   108555447.608    20657422.994    84588652.126                  
                 115442931.718                   115442931.718    22169591.439  
                 118062137.197                   118062137.197    22672588.783  
                 130137604.238                   130137604.238    24991559.625  
                 119929604.938                   119929604.938    23031218.698  
  25591567.966   134484552.977                                                  
  23855752.437   125362798.108                                                  
  26839326.423   141041602.817                                                  
  25525673.263   134138300.036                                                  
  23494824.083   123466125.356                                                  
  25459751.685   133791869.065                                                  
 21  9  1  8 14 13.0000000  0 18G 1G 7G 8G13G14G17G21G30C23C25C28C34
                                E13E15E19E21E27E30
  21513668.728   113055050.824    21513671.659    88094833.516                  
  20477578.837   107610417.474    20477578.158    83852276.660                  
  22396744.800   117695651.569    22396746.909    91710888.224                  
  23647007.637   124265882.074    23647006.654    96830561.727                  
  21950230.760   115349256.171    21950230.724    89882543.120                  
  22691833.953   119246399.290    22691833.756    92919273.336                  
  21549118.207   113241387.398    21549116.974    88240044.442                  
  20657255.526   108554576.784    20657257.295    84587973.561                  
                 115441802.782                   115441802.782    22169374.635  
                 118063833.009                   118063833.009    22672914.463  
                 130134383.898                   130134383.898    24990941.178  
                 119931528.713                   119931528.713    23031588.140  
  25591008.272   134481611.827                                                  
  23855628.265   125362145.510                                                  
  26839562.008   141042840.864                                                  
  25525317.401   134136429.933                                                  
  23494832.428   123466169.114                                                  
  25460119.609   133793802.485                                                  
 21  9  1  8 14 14.0000000  0 18G 1G 7G 8G13G14G17G21G30C23C25C28C34
                                E13E15E19E21E27E30
  21513177.634   113052470.164    21513180.582    88092822.610                  
  20477841.118   107611795.766    20477840.439    83853350.652                  
  22397306.156   117698601.497    22397308.264    91713186.864                  
  23646817.028   124264880.367    23646816.045    96829781.176                  
  21949819.969   115347097.411    21949819.933    89880860.968                  
  22691315.411   119243674.320    22691315.197    92917149.989                  
  21549112.168   113241355.691    21549110.935    88240019.733                  
  20657089.916   108553706.547    20657091.685    84587295.452                  
                 115440674.194                   115440674.194    22169157.901  
                 118065529.188                   118065529.188    22673240.180  
                 130131163.733                   130131163.733    24990322.785  
                 119933452.870                   119933452.870    23031957.653  
  25590448.632   134478670.876                                                  
  23855504.165   125361493.394                                                  
  26839797.683   141044079.292                                                  
  25524961.540   134134559.891                                                  
  23494840.773   123466213.058                                                  
  25460487.532   133795736.031                                                  
 21  9  1  8 14 15.0000000  0 18G 1G 7G 8G13G14G17G21G30C23C25C28C34
                                E13E15E19E21E27E30
  21512686.665   113049890.012    21512689.595    88090812.107                  
  20478103.507   107613174.652    20478102.846    83854425.109                  
  22397867.547   117701551.630    22397869.637    91715485.669                  
  23646626.526   124263879.280    23646625.543    96829001.109                  
  21949409.195   115344938.820    21949409.160    89879178.948                  
  22690796.924   119240949.667    22690796.727    92915026.883                  
  21549106.253   113241324.624    21549105.038    88239995.528                  
  20656924.413   108552836.900    20656926.200    84586617.805                  
                 115439545.952                   115439545.952    22168941.239  
                 118067225.727                   118067225.727    22673565.986  
                 130127943.742                   130127943.742    24989704.427  
                 119935377.402                   119935377.402    23032327.238  
  25589889.046   134475730.112                                                  
  23855380.154   125360841.770                                                  
  26840033.429   141045318.105                                                  
  25524605.678   134132689.893                                                  
  23494849.172   123466257.189                                                  
  25460855.509   133797669.698                                                  
 21  9  1  8 14 16.0000000  0 18G 1G 7G 8G13G14G17G21G30C23C25C28C34
                                E13E15E19E21E27E30
  21512195.785   113047310.395    21512198.697    88088802.012                  
  20478366.003   107614554.125    20478365.342    83855500.025                  
  22398428.973   117704501.962    22398431.082    91717784.629                  
  23646436.132   124262878.821    23646435.167    96828221.528                  
  21948998.458   115342780.395    21948998.422    89877497.059                  
  22690278.508   119238225.328    22690278.293    92912904.019                  
  21549100.463   113241294.179    21549099.248    88239971.800                  
  20656759.035   108551967.828    20656760.822    84585940.608                  
                 115438418.066                   115438418.066    22168724.649  
                 118068922.630                   118068922.630    22673891.863  
                 130124723.923                   130124723.923    24989086.106  
                 119937302.312                   119937302.312    23032696.895  
  25589329.459   134472789.563                                                  
  23855256.232   125360190.628                                                  
  26840269.228   141046557.314                                                  
  25524249.852   134130819.960                                                  
  23494857.606   123466301.508                                                  
  25461223.503   133799603.485                                                  
 21  9  1  8 14 17.0000000  0 18G 1G 7G 8G13G14G17G21G30C23C25C28C34
                                E13E15E19E21E27E30
  21511704.976   113044731.305    21511707.925    88086792.332                  
  20478628.624   107615934.187    20478627.963    83856575.398                  
  22398990.436   117707452.477    22398992.545    91720083.734                  
  23646245.880   124261878.987    23646244.897    96827442.441                  
  21948587.756   115340622.128    21948587.721    89875815.293                  
  22689760.145   119235501.300    22689759.949    92910781.402                  
  21549094.799   113241264.374    21549093.566    88239948.577                  
  20656593.782   108551099.348    20656595.551    84585263.871                  
                 115437290.522                   115437290.522    22168508.094  
                 118070619.893                   118070619.893    22674217.794  
                 130121504.279                   130121504.279    24988467.802  
                 119939227.597                   119939227.597    23033066.640  
  25588769.945   134469849.208                                                  
  23855132.436   125359539.984                                                  
  26840505.117   141047796.886                                                  
  25523894.026   134128950.083                                                  
  23494866.076   123466346.003                                                  
  25461591.498   133801537.395                                                  
 21  9  1  8 14 18.0000000  0 18G 1G 7G 8G13G14G17G21G30C23C25C28C34
                                E13E15E19E21E27E30
  21511214.293   113042152.699    21511217.241    88084783.009                  
  20478891.352   107617314.833    20478890.691    83857651.215                  
  22399551.934   117710403.232    22399554.043    91722383.035                  
  23646055.736   124260879.825    23646054.753    96826663.882                  
  21948177.073   115338463.991    21948177.055    89874133.603                  
  22689241.819   119232777.519    22689241.622    92908658.941                  
  21549089.242   113241235.191    21549088.027    88239925.839                  
  20656428.619   108550231.465    20656430.406    84584587.601                  
                 115436163.336                   115436163.336    22168291.647  
                 118072317.523                   118072317.523    22674543.815  
                 130118284.800                   130118284.800    24987849.516  
                 119941153.263                   119941153.263    23033436.440  
  25588210.448   134466909.116                                                  
  23855008.729   125358889.737                                                  
  26840741.060   141049036.837                                                  
  25523538.219   134127080.249                                                  
  23494874.581   123466390.753                                                  
  25461959.546   133803471.422                                                  
 21  9  1  8 14 19.0000000  0 18G 1G 7G 8G13G14G17G21G30C23C25C28C34
                                E13E15E19E21E27E30
  21510723.717   113039574.663    21510726.665    88082774.152                  
  20479154.206   107618696.081    20479153.544    83858727.512                  
  22400113.486   117713354.140    22400115.577    91724682.446                  
  23645865.717   124259881.259    23645864.734    96825885.778                  
  21947766.443   115336306.065    21947766.425    89872452.102                  
  22688723.581   119230054.122    22688723.385    92906536.813                  
  21549083.792   113241206.648    21549082.577    88239903.598                  
  20656263.581   108549364.156    20656265.368    84583911.773                  
                 115435036.493                   115435036.493    22168075.235  
                 118074015.516                   118074015.516    22674869.906  
                 130115065.504                   130115065.504    24987231.301  
                 119943079.301                   119943079.301    23033806.329  
  25587650.986   134463969.160                                                  
  23854885.093   125358240.071                                                  
  26840977.092   141050277.179                                                  
  25523182.393   134125210.483                                                  
  23494883.123   123466435.633                                                  
  25462327.594   133805405.582                                                  
 21  9  1  8 14 20.0000000  0 18G 1G 7G 8G13G14G17G21G30C23C25C28C34
                                E13E15E19E21E27E30
  21510233.248   113036997.152    21510236.160    88080765.704                  
  20479417.166   107620077.918    20479416.487    83859804.270                  
  22400675.056   117716305.238    22400677.165    91726982.001                  
  23645675.823   124258883.320    23645674.840    96825108.164                  
  21947355.848   115334148.310    21947355.795    89870770.731                  
  22688205.397   119227331.027    22688205.183    92904414.921                  
  21549078.502   113241178.738    21549077.252    88239881.848                  
  20656098.667   108548497.441    20656100.419    84583236.411                  
                 115433909.999                   115433909.999    22167858.913  
                 118075713.870                   118075713.870    22675196.034  
                 130111846.374                   130111846.374    24986613.104  
                 119945005.717                   119945005.717    23034176.253  
  25587091.561   134461029.391                                                  
  23854761.564   125357590.906                                                  
  26841213.195   141051517.931                                                  
  25522826.620   134123340.767                                                  
  23494891.700   123466480.703                                                  
  25462695.678   133807339.865                                                  
 21  9  1  8 14 21.0000000  0 18G 1G 7G 8G13G14G17G21G30C23C25C28C34
                                E13E15E19E21E27E30
  21509742.832   113034420.155    21509745.781    88078757.652                  
  20479680.216   107621460.343    20479679.555    83860881.480                  
  22401236.662   117719256.527    22401238.752    91729281.707                  
  23645486.036   124257886.007    23645485.035    96824331.039                  
  21946945.254   115331990.718    21946945.218    89869089.491                  
  22687687.267   119224608.243    22687687.053    92902293.274                  
  21549073.302   113241151.456    21549072.087    88239860.589                  
  20655933.844   108547631.318    20655935.595    84582561.507                  
                 115432783.860                   115432783.860    22167642.644  
                 118077412.593                   118077412.593    22675522.269  
                 130108627.421                   130108627.421    24985994.925  
                 119946932.512                   119946932.512    23034546.285  
  25586532.171   134458089.825                                                  
  23854638.125   125356942.226                                                  
  26841449.388   141052759.047                                                  
  25522470.848   134121471.113                                                  
  23494900.295   123466525.946                                                  
  25463063.780   133809274.274                                                  
 21  9  1  8 14 22.0000000  0 18G 1G 7G 8G13G14G17G21G30C23C25C28C34
                                E13E15E19E21E27E30
  21509252.560   113031843.695    21509255.508    88076750.020                  
  20479943.409   107622843.351    20479942.748    83861959.153                  
  22401798.321   117722208.013    22401800.411    91731581.566                  
  23645296.374   124256889.316    23645295.373    96823554.399                  
  21946534.713   115329833.294    21946534.677    89867408.380                  
  22687169.208   119221885.774    22687168.976    92900171.867                  
  21549068.228   113241124.812    21549066.995    88239839.827                  
  20655769.127   108546765.761    20655770.896    84581887.050                  
                 115431658.067                   115431658.067    22167426.464  
                 118079111.677                   118079111.677    22675848.557  
                 130105408.643                   130105408.643    24985376.800  
                 119948859.681                   119948859.681    23034916.388  
  25585972.835   134455150.456                                                  
  23854514.775   125356294.038                                                  
  26841685.634   141054000.560                                                  
  25522115.058   134119601.511                                                  
  23494908.961   123466571.395                                                  
  25463431.918   133811208.800                                                  
 21  9  1  8 14 23.0000000  0 18G 1G 7G 8G13G14G17G21G30C23C25C28C34
                                E13E15E19E21E27E30
  21508762.377   113029267.765    21508765.308    88074742.800                  
  20480206.673   107624226.962    20480206.012    83863037.289                  
  22402359.998   117725159.687    22402362.106    91733881.571                  
  23645106.819   124255893.258    23645105.837    96822778.246                  
  21946124.208   115327676.035    21946124.172    89865727.402                  
  22686651.185   119219163.621    22686650.989    92898050.711                  
  21549063.278   113241098.801    21549062.063    88239819.559                  
  20655604.517   108545900.809    20655606.304    84581213.063                  
                 115430532.625                   115430532.625    22167210.321  
                 118080811.121                   118080811.121    22676174.917  
                 130102190.039                   130102190.039    24984758.693  
                 119950787.225                   119950787.225    23035286.545  
  25585413.534   134452211.300                                                  
  23854391.515   125355646.344                                                  
  26841921.952   141055242.439                                                  
  25521759.304   134117731.977                                                  
  23494917.646   123466617.020                                                  
  25463800.056   133813143.458                                                  
 21  9  1  8 14 24.0000000  0 18G 1G 7G 8G13G14G17G21G30C23C25C28C34
                                E13E15E19E21E27E30
  21508272.283   113026692.347    21508275.214    88072735.985                  
  20480470.080   107625611.150    20480469.419    83864115.879                  
  22402921.728   117728111.525    22402923.819    91736181.703                  
  23644917.408   124254897.811    23644916.425    96822002.577                  
  21945713.721   115325518.942    21945713.685    89864046.551                  
  22686133.234   119216441.782    22686133.020    92895929.798                  
  21549058.435   113241073.409    21549057.220    88239799.773                  
  20655440.033   108545036.441    20655441.820    84580539.527                  
                 115429407.530                   115429407.530    22166994.266  
                 118082510.929                   118082510.929    22676501.366  
                 130098971.604                   130098971.604    24984140.621  
                 119952715.147                   119952715.147    23035656.773  
  25584854.288   134449272.339                                                  
  23854268.361   125354999.140                                                  
  26842158.359   141056484.714                                                  
  25521403.531   134115862.495                                                  
  23494926.366   123466662.835                                                  
  25464168.247   133815078.246                                                  
 21  9  1  8 14 25.0000000  0 18G 1G 7G 8G13G14G17G21G30C23C25C28C34
                                E13E15E19E21E27E30
  21507782.297   113024117.453    21507785.245    88070729.579                  
  20480733.595   107626995.931    20480732.934    83865194.929                  
  22403483.459   117731063.559    22403485.585    91738481.996                  
  23644728.103   124253903.004    23644727.103    96821227.407                  
  21945303.287   115323362.023    21945303.233    89862365.837                  
  22685615.336   119213720.240    22685615.140    92893809.122                  
  21549053.736   113241048.651    21549052.503    88239780.488                  
  20655275.656   108544172.645    20655277.443    84579866.442                  
                 115428282.789                   115428282.789    22166778.265  
                 118084211.103                   118084211.103    22676827.869  
                 130095753.347                   130095753.347    24983522.603  
                 119954643.448                   119954643.448    23036027.109  
  25584295.041   134446333.574                                                  
  23854145.297   125354352.431                                                  
  26842394.820   141057727.379                                                  
  25521047.795   134113993.061                                                  
  23494935.122   123466708.839                                                  
  25464536.438   133817013.148                                                  
 21  9  1  8 14 26.0000000  0 18G 1G 7G 8G13G14G17G21G30C23C25C28C34
                                E13E15E19E21E27E30
  21507292.418   113021543.079    21507295.348    88068723.574                  
  20480997.234   107628381.298    20480996.555    83866274.441                  
  22404045.261   117734015.761    22404047.352    91740782.418                  
  23644538.906   124252908.821    23644537.923    96820452.722                  
  21944892.853   115321205.259    21944892.818    89860685.246                  
  22685097.492   119210999.008    22685097.295    92891688.687                  
  21549049.144   113241024.533    21549047.928    88239761.695                  
  20655111.404   108543309.441    20655113.173    84579193.825                  
                 115427158.395                   115427158.395    22166562.336  
                 118085911.640                   118085911.640    22677154.425  
                 130092535.261                   130092535.261    24982904.603  
                 119956572.126                   119956572.126    23036397.480  
  25583735.866   134443395.008                                                  
  23854022.323   125353706.216                                                  
  26842631.352   141058970.415                                                  
  25520692.076   134112123.694                                                  
  23494943.895   123466755.036                                                  
  25464904.665   133818948.179                                                  
 21  9  1  8 14 27.0000000  0 18G 1G 7G 8G13G14G17G21G30C23C25C28C34
                                E13E15E19E21E27E30
  21506802.628   113018969.239    21506805.558    88066717.993                  
  20481260.963   107629767.250    20481260.302    83867354.406                  
  22404607.081   117736968.177    22404609.172    91743083.004                  
  23644349.834   124251915.261    23644348.851    96819678.524                  
  21944482.456   115319048.656    21944482.438    89859004.777                  
  22684579.737   119208278.091    22684579.522    92889568.496                  
  21549044.676   113241001.037    21549043.443    88239743.395                  
  20654947.259   108542446.825    20654949.046    84578521.657                  
                 115426034.352                   115426034.352    22166346.478  
                 118087612.539                   118087612.539    22677481.053  
                 130089317.349                   130089317.349    24982286.621  
                 119958501.177                   119958501.177    23036767.923  
  25583176.708   134440456.651                                                  
  23853899.437   125353060.473                                                  
  26842867.974   141060213.829                                                  
  25520336.358   134110254.380                                                  
  23494952.723   123466801.409                                                  
  25465272.928   133820883.324                                                  
 21  9  1  8 14 28.0000000  0 18G 1G 7G 8G13G14G17G21G30C23C25C28C34
                                E13E15E19E21E27E30
  21506312.945   113016395.910    21506315.875    88064712.804                  
  20481524.817   107631153.792    20481524.156    83868434.837                  
  22405168.937   117739920.796    22405171.045    91745383.755                  
  23644160.905   124250922.341    23644159.904    96818904.819                  
  21944072.111   115316892.230    21944072.076    89857324.454                  
  22684062.018   119205557.481    22684061.821    92887448.547                  
  21549040.316   113240978.180    21549039.101    88239725.585                  
  20654783.221   108541584.793    20654785.008    84577849.950                  
                 115424910.661                   115424910.661    22166130.674  
                 118089313.800                   118089313.800    22677807.788  
                 130086099.609                   130086099.609    24981668.692  
                 119960430.603                   119960430.603    23037138.455  
  25582617.586   134437518.479                                                  
  23853776.659   125352415.234                                                  
  26843104.685   141061457.644                                                  
  25519980.639   134108385.122                                                  
  23494961.586   123466847.976                                                  
  25465641.172   133822818.605                                                  
 21  9  1  8 14 29.0000000  0 18G 1G 7G 8G13G14G17G21G30C23C25C28C34
                                E13E15E19E21E27E30
  21505823.352   113013823.118    21505826.282    88062708.030                  
  20481788.779   107632540.935    20481788.117    83869515.728                  
  22405730.846   117742873.614    22405732.937    91747684.647                  
  23643972.065   124249930.048    23643971.082    96818131.609                  
  21943661.785   115314735.968    21943661.767    89855644.250                  
  22683544.352   119202837.186    22683544.155    92885328.837                  
  21549036.099   113240955.952    21549034.866    88239708.266                  
  20654619.273   108540723.344    20654621.060    84577178.691                  
                 115423787.316                   115423787.316    22165914.959  
                 118091015.425                   118091015.425    22678134.559  
                 130082882.046                   130082882.046    24981050.799  
                 119962360.406                   119962360.406    23037509.058  
  25582058.518   134434580.518                                                  
  23853653.953   125351770.492                                                  
  26843341.431   141062701.845                                                  
  25519624.956   134106515.913                                                  
  23494970.484   123466894.730                                                  
  25466009.489   133824754.000                                                  
 21  9  1  8 14 30.0000000  0 18G 1G 7G 8G13G14G17G21G30C23C25C28C34
                                E13E15E19E21E27E30
  21505333.865   113011250.857    21505336.796    88060703.671                  
  20482052.865   107633928.665    20482052.204    83870597.073                  
  22406292.773   117745826.631    22406294.899    91749985.702                  
  23643783.368   124248938.375    23643782.367    96817358.879                  
  21943251.494   115312579.867    21943251.459    89853964.171                  
  22683026.758   119200117.208    22683026.561    92883209.371                  
  21549031.971   113240934.348    21549030.756    88239691.433                  
  20654455.486   108539862.489    20654457.237    84576507.895                  
                 115422664.323                   115422664.323    22165699.298  
                 118092717.414                   118092717.414    22678461.401  
                 130079664.655                   130079664.655    24980432.924  
                 119964290.585                   119964290.585    23037879.715  
  25581499.486   134431642.754                                                  
  23853531.371   125351126.231                                                  
  26843578.267   141063946.409                                                  
  25519269.255   134104646.772                                                  
  23494979.419   123466941.672                                                  
  25466377.805   133826689.538                                                  
 21  9  1  8 14 31.0000000  0 18G 1G 7G 8G13G14G17G21G30C23C25C28C34
                                E13E15E19E21E27E30
  21504844.487   113008679.097    21504847.417    88058699.703                  
  20482317.041   107635316.976    20482316.379    83871678.874                  
  22406854.754   117748779.852    22406856.862    91752286.910                  
  23643594.761   124247947.347    23643593.778    96816586.649                  
  21942841.239   115310423.937    21942841.204    89852284.225                  
  22682509.217   119197397.532    22682509.021    92881090.145                  
  21549028.005   113240913.390    21549026.754    88239675.102                  
  20654291.788   108539002.220    20654293.539    84575837.556                  
                 115421541.685                   115421541.685    22165483.708  
                 118094419.769                   118094419.769    22678788.315  
                 130076447.441                   130076447.441    24979815.103  
                 119966221.145                   119966221.145    23038250.462  
  25580940.471   134428705.189                                                  
  23853408.861   125350482.469                                                  
  26843815.175   141065191.372                                                  
  25518913.572   134102777.678                                                  
  23494988.371   123466988.794                                                  
  25466746.139   133828625.188                                                  
 21  9  1  8 14 32.0000000  0 18G 1G 7G 8G13G14G17G21G30C23C25C28C34
                                E13E15E19E21E27E30
  21504355.197   113006107.872    21504358.127    88056696.153                  
  20482581.341   107636705.879    20482580.680    83872761.137                  
  22407416.788   117751733.233    22407418.879    91754588.249                  
  23643406.296   124246956.932    23643405.313    96815814.898                  
  21942431.002   115308268.159    21942430.985    89850604.403                  
  22681991.766   119194678.169    22681991.534    92878971.159                  
  21549024.127   113240893.055    21549022.894    88239659.258                  
  20654128.179   108538142.523    20654129.948    84575167.660                  
                 115420419.390                   115420419.390    22165268.172  
                 118096122.484                   118096122.484    22679115.300  
                 130073230.399                   130073230.399    24979197.299  
                 119968152.074                   119968152.074    23038621.280  
  25580381.493   134425767.818                                                  
  23853286.458   125349839.188                                                  
  26844052.154   141066436.714                                                  
  25518557.925   134100908.649                                                  
  23494997.377   123467036.109                                                  
  25467114.491   133830560.953                                                  
 21  9  1  8 14 33.0000000  0 18G 1G 7G 8G13G14G17G21G30C23C25C28C34
                                E13E15E19E21E27E30
  21503865.997   113003537.183    21503868.945    88054693.019                  
  20482845.767   107638095.376    20482845.106    83873843.859                  
  22407978.823   117754686.805    22407980.913    91756889.732                  
  23643217.956   124245967.161    23643216.956    96815043.645                  
  21942020.801   115306112.563    21942020.783    89848924.716                  
  22681474.333   119191959.118    22681474.119    92876852.423                  
  21549020.374   113240873.347    21549019.141    88239643.899                  
  20653964.695   108537283.425    20653966.464    84574498.231                  
                 115419297.449                   115419297.449    22165052.725  
                 118097825.563                   118097825.563    22679442.357  
                 130070013.531                   130070013.531    24978579.531  
                 119970083.384                   119970083.384    23038992.151  
  25579822.585   134422830.649                                                  
  23853164.145   125349196.403                                                  
  26844289.222   141067682.434                                                  
  25518202.260   134099039.672                                                  
  23495006.419   123467083.606                                                  
  25467482.897   133832496.841                                                  
 21  9  1  8 14 34.0000000  0 18G 1G 7G 8G13G14G17G21G30C23C25C28C34
                                E13E15E19E21E27E30
  21503376.922   113000967.020    21503379.852    88052690.292                  
  20483110.282   107639485.462    20483109.621    83874927.043                  
  22408540.893   117757640.565    22408543.001    91759191.363                  
  23643029.724   124244978.020    23643028.741    96814272.888                  
  21941610.636   115303957.137    21941610.618    89847245.161                  
  22680956.971   119189240.390    22680956.757    92874733.933                  
  21549016.747   113240854.273    21549015.514    88239629.039                  
  20653801.319   108536424.914    20653803.106    84573829.266                  
                 115418175.855                   115418175.855    22164837.332  
                 118099529.005                   118099529.005    22679769.503  
                 130066796.835                   130066796.835    24977961.799  
                 119972015.066                   119972015.066    23039363.112  
  25579263.696   134419893.680                                                  
  23853041.921   125348554.111                                                  
  26844526.344   141068928.551                                                  
  25517846.613   134097170.754                                                  
  23495015.496   123467131.297                                                  
  25467851.303   133834432.855                                                  
 21  9  1  8 14 35.0000000  0 18G 1G 7G 8G13G14G17G21G30C23C25C28C34
                                E13E15E19E21E27E30
  21502887.918   112998397.371    21502890.866    88050687.968                  
  20483374.922   107640876.136    20483374.261    83876010.683                  
  22409103.016   117760594.528    22409105.125    91761493.149                  
  23642841.617   124243989.495    23642840.616    96813502.609                  
  21941200.506   115301801.864    21941200.488    89845565.727                  
  22680439.681   119186521.970    22680439.466    92872615.683                  
  21549013.245   113240835.833    21549011.994    88239614.667                  
  20653638.067   108535566.993    20653639.836    84573160.753                  
                 115417054.618                   115417054.618    22164622.028  
                 118101232.808                   118101232.808    22680096.703  
                 130063580.316                   130063580.316    24977344.103  
                 119973947.126                   119973947.126    23039734.163  
  25578704.842   134416956.910                                                  
  23852919.786   125347912.309                                                  
  26844763.538   141070175.034                                                  
  25517491.002   134095301.878                                                  
  23495024.627   123467179.169                                                  
  25468219.744   133836369.007                                                  
 21  9  1  8 14 36.0000000  0 18G 1G 7G 8G13G14G17G21G30C23C25C28C34
                                E13E15E19E21E27E30
  21502399.039   112995828.261    21502401.988    88048686.071                  
  20483639.688   107642267.408    20483639.009    83877094.793                  
  22409665.176   117763548.652    22409667.284    91763795.066                  
  23642653.617   124243001.592    23642652.634    96812732.817                  
  21940790.394   115299646.761    21940790.376    89843886.429                  
  22679922.444   119183803.861    22679922.212    92870497.676                  
  21549009.832   113240818.015    21549008.617    88239600.786                  
  20653474.923   108534709.659    20653476.692    84572492.698                  
                 115415933.722                   115415933.722    22164406.760  
                 118102936.978                   118102936.978    22680423.956  
                 130060363.969                   130060363.969    24976726.442  
                 119975879.558                   119975879.558    23040105.266  
  25578146.042   134414020.346                                                  
  23852797.741   125347271.003                                                  
  26845000.820   141071421.907                                                  
  25517135.354   134093433.071                                                  
  23495033.759   123467227.235                                                  
  25468588.203   133838305.274                                                  
 21  9  1  8 14 37.0000000  0 18G 1G 7G 8G13G14G17G21G30C23C25C28C34
                                E13E15E19E21E27E30
  21501910.268   112993259.668    21501913.198    88046684.566                  
  20483904.542   107643659.255    20483903.863    83878179.351                  
  22410227.371   117766503.004    22410229.480    91766097.157                  
  23642465.760   124242014.335    23642464.759    96811963.523                  
  21940380.336   115297491.834    21940380.300    89842207.263                  
  22679405.261   119181086.065    22679405.064    92868379.918                  
  21549006.580   113240800.843    21549005.364    88239587.407                  
  20653311.886   108533852.905    20653313.655    84571825.101                  
                 115414813.183                   115414813.183    22164191.581  
                 118104641.508                   118104641.508    22680751.299  
                 130057147.799                   130057147.799    24976108.799  
                 119977812.371                   119977812.371    23040476.442  
  25577587.260   134411083.982                                                  
  23852675.802   125346630.187                                                  
  26845238.157   141072669.168                                                  
  25516779.761   134091564.321                                                  
  23495042.943   123467275.489                                                  
  25468956.680   133840241.669                                                  
 21  9  1  8 14 38.0000000  0 18G 1G 7G 8G13G14G17G21G30C23C25C28C34
                                E13E15E19E21E27E30
  21501421.586   112990691.609    21501424.498    88044683.485                  
  20484169.504   107645051.694    20484168.843    83879264.367                  
  22410789.602   117769457.542    22410791.693    91768399.394                  
  23642277.992   124241027.692    23642277.027    96811194.708                  
  21939970.295   115295337.066    21939970.259    89840528.222                  
  22678888.131   119178368.590    22678887.935    92866262.403                  
  21549003.417   113240784.301    21549002.202    88239574.515                  
  20653148.956   108532996.739    20653150.743    84571157.958                  
                 115413692.996                   115413692.996    22163976.456  
                 118106346.401                   118106346.401    22681078.695  
                 130053931.801                   130053931.801    24975491.192  
                 119979745.554                   119979745.554    23040847.689  
  25577028.531   134408147.808                                                  
  23852553.954   125345989.861                                                  
  26845475.582   141073916.817                                                  
  25516424.167   134089695.620                                                  
  23495052.164   123467323.914                                                  
  25469325.193   133842178.179                                                  
 21  9  1  8 14 39.0000000  0 18G 1G 7G 8G13G14G17G21G30C23C25C28C34
                                E13E15E19E21E27E30
  21500932.975   112988124.069    21500935.924    88042682.805                  
  20484434.573   107646444.724    20484433.912    83880349.845                  
  22411351.869   117772412.270    22411353.977    91770701.782                  
  23642090.385   124240041.685    23642089.385    96810426.391                  
  21939560.308   115293182.468    21939560.255    89838849.317                  
  22678371.073   119175651.417    22678370.859    92864145.125                  
  21549000.397   113240768.379    21548999.182    88239562.110                  
  20652986.152   108532141.171    20652987.939    84570491.282                  
                 115412573.158                   115412573.158    22163761.403  
                 118108051.661                   118108051.661    22681406.180  
                 130050715.980                   130050715.980    24974873.639  
                 119981679.117                   119981679.117    23041219.007  
  25576469.838   134405211.842                                                  
  23852432.194   125345350.028                                                  
  26845713.062   141075164.840                                                  
  25516068.556   134087826.984                                                  
  23495061.420   123467372.543                                                  
  25469693.724   133844114.821                                                  
 21  9  1  8 14 40.0000000  0 18G 1G 7G 8G13G14G17G21G30C23C25C28C34
                                E13E15E19E21E27E30
  21500444.508   112985557.064    21500447.438    88040682.539                  
  20484699.785   107647838.329    20484699.124    83881435.770                  
  22411914.153   117775367.184    22411916.280    91773004.312                  
  23641902.868   124239056.297    23641901.867    96809658.558                  
  21939150.321   115291028.040    21939150.286    89837170.539                  
  22677854.087   119172934.564    22677853.854    92862028.097                  
  21548997.484   113240753.093    21548996.251    88239550.199                  
  20652823.454   108531286.179    20652825.241    84569825.051                  
                 115411453.668                   115411453.668    22163546.420  
                 118109757.281                   118109757.281    22681733.738  
                 130047500.331                   130047500.331    24974256.103  
                 119983613.050                   119983613.050    23041590.397  
  25575911.181   134402276.085                                                  
  23852310.542   125344710.679                                                  
  26845950.648   141076413.246                                                  
  25515712.980   134085958.403                                                  
  23495070.694   123467421.346                                                  
  25470062.273   133846051.586                                                  
 21  9  1  8 14 41.0000000  0 18G 1G 7G 8G13G14G17G21G30C23C25C28C34
                                E13E15E19E21E27E30
  21499956.112   112982990.589    21499959.042    88038682.688                  
  20484965.105   107649232.535    20484964.426    83882522.167                  
  22412476.491   117778322.288    22412478.618    91775306.988                  
  23641715.458   124238071.546    23641714.475    96808891.222                  
  21938740.388   115288873.764    21938740.334    89835491.888                  
  22677337.136   119170218.016    22677336.921    92859911.308                  
  21548994.697   113240738.442    21548993.482    88239538.780                  
  20652660.882   108530431.782    20652662.633    84569159.285                  
                 115410334.528                   115410334.528    22163331.492  
                 118111463.265                   118111463.265    22682061.348  
                 130044284.859                   130044284.859    24973638.603  
                 119985547.364                   119985547.364    23041961.858  
  25575352.560   134399340.516                                                  
  23852188.961   125344071.829                                                  
  26846188.253   141077662.035                                                  
  25515357.422   134084089.873                                                  
  23495080.021   123467470.349                                                  
  25470430.857   133847988.472                                                  
 21  9  1  8 14 42.0000000  0 18G 1G 7G 8G13G14G17G21G30C23C25C28C34
                                E13E15E19E21E27E30
  21499467.840   112980424.631    21499470.753    88036683.243                  
  20485230.513   107650627.331    20485229.852    83883609.019                  
  22413038.883   117781277.591    22413040.974    91777609.820                  
  23641528.208   124237087.414    23641527.207    96808124.364                  
  21938330.455   115286719.665    21938330.437    89833813.364                  
  22676820.257   119167501.785    22676820.042    92857794.762                  
  21548992.034   113240724.409    21548990.801    88239527.848                  
  20652498.399   108529577.966    20652500.186    84568493.976                  
                 115409215.743                   115409215.743    22163116.635  
                 118113169.612                   118113169.612    22682389.048  
                 130041069.558                   130041069.558    24973021.139  
                 119987482.050                   119987482.050    23042333.409  
  25574793.974   134396405.149                                                  
  23852067.487   125343433.466                                                  
  26846425.982   141078911.227                                                  
  25515001.865   134082221.398                                                  
  23495089.385   123467519.536                                                  
  25470799.459   133849925.481                                                  
 21  9  1  8 14 43.0000000  0 18G 1G 7G 8G13G14G17G21G30C23C25C28C34
                                E13E15E19E21E27E30
  21498979.641   112977859.207    21498982.571    88034684.211                  
  20485496.047   107652022.703    20485495.386    83884696.324                  
  22413601.275   117784233.059    22413603.401    91779912.784                  
  23641341.048   124236103.922    23641340.065    96807358.009                  
  21937920.575   115284565.730    21937920.557    89832134.973                  
  22676303.413   119164785.862    22676303.216    92855678.461                  
  21548989.479   113240711.010    21548988.264    88239517.405                  
  20652336.041   108528724.743    20652337.792    84567829.129                  
                 115408097.303                   115408097.303    22162901.867  
                 118114876.323                   118114876.323    22682716.784  
                 130037854.432                   130037854.432    24972403.729  
                 119989417.114                   119989417.114    23042704.995  
  25574235.442   134393469.981                                                  
  23851946.103   125342795.593                                                  
  26846663.765   141080160.777                                                  
  25514646.325   134080352.987                                                  
  23495098.784   123467568.914                                                  
  25471168.079   133851862.622                                                  
 21  9  1  8 14 44.0000000  0 18G 1G 7G 8G13G14G17G21G30C23C25C28C34
                                E13E15E19E21E27E30
  21498491.566   112975294.309    21498494.497    88032685.587                  
  20485761.706   107653418.678    20485761.027    83885784.097                  
  22414163.738   117787188.735    22414165.847    91782215.906                  
  23641153.995   124235121.058    23641153.012    96806592.141                  
  21937510.731   115282411.965    21937510.696    89830456.715                  
  22675786.659   119162070.250    22675786.462    92853562.402                  
  21548987.067   113240698.251    21548985.816    88239507.466                  
  20652173.772   108527872.106    20652175.559    84567164.735                  
                 115406979.219                   115406979.219    22162687.135  
                 118116583.394                   118116583.394    22683044.627  
                 130034639.484                   130034639.484    24971786.318  
                 119991352.550                   119991352.550    23043076.688  
  25573676.928   134390535.020                                                  
  23851824.826   125342158.219                                                  
  26846901.620   141081410.720                                                  
  25514290.785   134078484.633                                                  
  23495108.219   123467618.477                                                  
  25471536.735   133853799.883                                                  
 21  9  1  8 14 45.0000000  0 18G 1G 7G 8G13G14G17G21G30C23C25C28C34
                                E13E15E19E21E27E30
  21498003.581   112972729.932    21498006.494    88030687.376                  
  20486027.436   107654815.247    20486026.775    83886872.328                  
  22414726.219   117790144.596    22414728.328    91784519.175                  
  23640967.103   124234138.825    23640966.102    96805826.762                  
  21937100.923   115280258.368    21937100.887    89828778.585                  
  22675269.958   119159354.949    22675269.761    92851446.581                  
  21548984.744   113240686.120    21548983.529    88239498.013                  
  20652011.647   108527020.054    20652013.416    84566500.796                  
                 115405861.486                   115405861.486    22162472.492  
                 118118290.832                   118118290.832    22683372.524  
                 130031424.710                   130031424.710    24971168.944  
                 119993288.364                   119993288.364    23043448.436  
  25573118.467   134387600.254                                                  
  23851703.620   125341521.332                                                  
  26847139.564   141082661.047                                                  
  25513935.245   134076616.337                                                  
  23495117.671   123467668.227                                                  
  25471905.409   133855737.265                                                  
 21  9  1  8 14 46.0000000  0 18G 1G 7G 8G13G14G17G21G30C23C25C28C34
                                E13E15E19E21E27E30
  21497515.703   112970166.087    21497518.616    88028689.570                  
  20486293.327   107656212.391    20486292.666    83887961.011                  
  22415288.718   117793100.601    22415290.845    91786822.555                  
  23640780.300   124233157.219    23640779.317    96805061.875                  
  21936691.133   115278104.934    21936691.097    89827100.585                  
  22674753.329   119156639.974    22674753.097    92849331.016                  
  21548982.564   113240674.629    21548981.348    88239489.054                  
  20651849.628   108526168.589    20651851.379    84565837.321                  
                 115404744.102                   115404744.102    22162257.903  
                 118119998.633                   118119998.633    22683700.474  
                 130028210.110                   130028210.110    24970551.622  
                 119995224.550                   119995224.550    23043820.254  
  25572560.025   134384665.688                                                  
  23851582.522   125340884.930                                                  
  26847377.561   141083911.759                                                  
  25513579.741   134074748.091                                                  
  23495127.178   123467718.172                                                  
  25472274.100   133857674.761                                                  
 21  9  1  8 14 47.0000000  0 18G 1G 7G 8G13G14G17G21G30C23C25C28C34
                                E13E15E19E21E27E30
  21497027.897   112967602.770    21497030.845    88026692.180                  
  20486559.307   107657610.130    20486558.646    83889050.156                  
  22415851.289   117796056.835    22415853.379    91789126.116                  
  23640593.622   124232176.242    23640592.640    96804297.477                  
  21936281.378   115275951.671    21936281.342    89825422.720                  
  22674236.735   119153925.304    22674236.521    92847215.691                  
  21548980.473   113240663.754    21548979.258    88239480.587                  
  20651687.699   108525317.719    20651689.486    84565174.301                  
                 115403627.067                   115403627.067    22162043.403  
                 118121706.792                   118121706.792    22684028.513  
                 130024995.685                   130024995.685    24969934.319  
                 119997161.108                   119997161.108    23044192.162  
  25572001.636   134381731.319                                                  
  23851461.495   125340249.026                                                  
  26847615.612   141085162.829                                                  
  25513224.236   134072879.907                                                  
  23495136.720   123467768.298                                                  
  25472642.827   133859612.392                                                  
 21  9  1  8 14 48.0000000  0 18G 1G 7G 8G13G14G17G21G30C23C25C28C34
                                E13E15E19E21E27E30
  21496540.215   112965039.973    21496543.164    88024695.199                  
  20486825.395   107659008.474    20486824.716    83890139.773                  
  22416413.877   117799013.266    22416415.986    91791429.828                  
  23640407.088   124231195.890    23640406.087    96803533.566                  
  21935871.659   115273798.576    21935871.624    89823744.985                  
  22673720.196   119151210.945    22673719.999    92845100.606                  
  21548978.543   113240653.519    21548977.328    88239472.609                  
  20651525.895   108524467.418    20651527.664    84564511.729                  
                 115402510.387                   115402510.387    22161828.939  
                 118123415.320                   118123415.320    22684356.624  
                 130021781.434                   130021781.434    24969317.052  
                 119999098.048                   119999098.048    23044564.142  
  25571443.282   134378797.164                                                  
  23851340.593   125339613.621                                                  
  26847853.789   141086414.304                                                  
  25512868.732   134071011.784                                                  
  23495146.298   123467818.606                                                  
  25473011.555   133861550.149                                                  
 21  9  1  8 14 49.0000000  0 18G 1G 7G 8G13G14G17G21G30C23C25C28C34
                                E13E15E19E21E27E30
  21496052.641   112962477.712    21496055.572    88022698.628                  
  20487091.608   107660407.399    20487090.947    83891229.849                  
  22416976.501   117801969.872    22416978.592    91793733.675                  
  23640220.642   124230216.171    23640219.642    96802770.153                  
  21935461.976   115271645.644    21935461.941    89822067.374                  
  22673203.745   119148496.894    22673203.513    92842985.761                  
  21548976.720   113240643.923    21548975.487    88239465.129                  
  20651364.198   108523617.723    20651365.985    84563849.633                  
                 115401394.055                   115401394.055    22161614.565  
                 118125124.208                   118125124.208    22684684.789  
                 130018567.361                   130018567.361    24968699.820  
                 120001035.359                   120001035.359    23044936.175  
  25570884.982   134375863.200                                                  
  23851219.781   125338978.700                                                  
  26848092.001   141087666.160                                                  
  25512513.264   134069143.703                                                  
  23495155.893   123467869.105                                                  
  25473380.318   133863488.047                                                  
 21  9  1  8 14 50.0000000  0 18G 1G 7G 8G13G14G17G21G30C23C25C28C34
                                E13E15E19E21E27E30
  21495565.156   112959915.977    21495568.105    88020702.478                  
  20487357.928   107661806.902    20487357.266    83892320.370                  
  22417539.161   117804926.649    22417541.252    91796037.659                  
  23640034.322   124229237.078    23640033.339    96802007.219                  
  21935052.311   115269492.880    21935052.275    89820389.895                  
  22672687.348   119145783.163    22672687.116    92840871.168                  
  21548975.005   113240634.947    21548973.772    88239458.137                  
  20651202.627   108522768.613    20651204.396    84563187.988                  
                 115400278.079                   115400278.079    22161400.261  
                 118126833.458                   118126833.458    22685013.043  
                 130015353.462                   130015353.462    24968082.642  
                 120002973.043                   120002973.043    23045308.279  
  25570326.701   134372929.441                                                  
  23851099.040   125338344.270                                                  
  26848330.284   141088918.398                                                  
  25512157.777   134067275.694                                                  
  23495165.560   123467919.800                                                  
  25473749.117   133865426.042                                                  
 21  9  1  8 14 51.0000000  0 18G 1G 7G 8G13G14G17G21G30C23C25C28C34
                                E13E15E19E21E27E30
  21495077.779   112957354.770    21495080.727    88018706.727                  
  20487624.337   107663207.003    20487623.676    83893411.359                  
  22418101.839   117807883.645    22418103.965    91798341.812                  
  23639848.127   124228258.618    23639847.144    96801244.785                  
  21934642.682   115267340.277    21934642.664    89818712.543                  
  22672170.987   119143069.737    22672170.773    92838756.808                  
  21548973.415   113240626.610    21548972.200    88239451.641                  
  20651041.144   108521920.080    20651042.913    84562526.792                  
                 115399162.448                   115399162.448    22161186.012  
                 118128543.073                   118128543.073    22685341.332  
                 130012139.734                   130012139.734    24967465.481  
                 120004911.105                   120004911.105    23045680.455  
  25569768.454   134369995.879                                                  
  23850978.406   125337710.329                                                  
  26848568.657   141090171.011                                                  
  25511802.327   134065407.733                                                  
  23495175.245   123467970.672                                                  
  25474117.933   133867364.171                                                  
 21  9  1  8 14 52.0000000  0 18G 1G 7G 8G13G14G17G21G30C23C25C28C34
                                E13E15E19E21E27E30
  21494590.509   112954794.082    21494593.421    88016711.386                  
  20487890.907   107664607.698    20487890.228    83894502.809                  
  22418664.588   117810840.824    22418666.678    91800646.105                  
  23639662.057   124227280.784    23639661.056    96800482.836                  
  21934233.106   115265187.850    21934233.052    89817035.329                  
  22671654.697   119140356.629    22671654.483    92836642.700                  
  21548971.932   113240618.895    21548970.716    88239445.629                  
  20650879.805   108521072.144    20650881.556    84561866.064                  
                 115398047.161                   115398047.161    22160971.834  
                 118130253.035                   118130253.035    22685669.712  
                 130008926.173                   130008926.173    24966848.339  
                 120006849.539                   120006849.539    23046052.721  
  25569210.262   134367062.540                                                  
  23850857.862   125337076.884                                                  
  26848807.101   141091424.020                                                  
  25511446.876   134063539.836                                                  
  23495184.966   123468021.737                                                  
  25474486.768   133869302.430                                                  
 21  9  1  8 14 53.0000000  0 18G 1G 7G 8G13G14G17G21G30C23C25C28C34
                                E13E15E19E21E27E30
  21494103.327   112952233.937    21494106.240    88014716.473                  
  20488157.549   107666008.967    20488156.887    83895594.707                  
  22419227.337   117813798.196    22419229.463    91802950.551                  
  23639476.094   124226303.583    23639475.093    96799721.383                  
  21933823.548   115263035.585    21933823.494    89815358.239                  
  22671138.461   119137643.831    22671138.265    92834528.831                  
  21548970.591   113240611.817    21548969.376    88239440.114                  
  20650718.537   108520224.796    20650720.324    84561205.792                  
                 115396932.234                   115396932.234    22160757.727  
                 118131963.375                   118131963.375    22685998.180  
                 130005712.797                   130005712.797    24966231.232  
                 120008788.348                   120008788.348    23046425.057  
  25568652.105   134364129.391                                                  
  23850737.424   125336443.930                                                  
  26849045.599   141092677.411                                                  
  25511091.443   134061671.981                                                  
  23495194.705   123468072.985                                                  
  25474855.620   133871240.804                                                  
 21  9  1  8 14 54.0000000  0 18G 1G 7G 8G13G14G17G21G30C23C25C28C34
                                E13E15E19E21E27E30
  21493616.236   112949674.317    21493619.166    88012721.962                  
  20488424.315   107667410.847    20488423.654    83896687.081                  
  22419790.157   117816755.762    22419792.266    91805255.148                  
  23639290.256   124225327.010    23639289.273    96798960.413                  
  21933414.008   115260883.487    21933413.954    89813681.278                  
  22670622.297   119134931.344    22670622.082    92832415.207                  
  21548969.376   113240605.364    21548968.143    88239435.086                  
  20650557.412   108519378.031    20650559.181    84560545.976                  
                 115395817.659                   115395817.659    22160543.674  
                 118133674.078                   118133674.078    22686326.702  
                 130002499.599                   130002499.599    24965614.179  
                 120010727.532                   120010727.532    23046797.466  
  25568093.984   134361196.431                                                  
  23850617.059   125335811.465                                                  
  26849284.186   141093931.181                                                  
  25510735.993   134059804.204                                                  
  23495204.497   123468124.434                                                  
  25475224.526   133873179.294                                                  
 21  9  1  8 14 55.0000000  0 18G 1G 7G 8G13G14G17G21G30C23C25C28C34
                                E13E15E19E21E27E30
  21493129.251   112947115.223    21493132.182    88010727.864                  
  20488691.207   107668813.311    20488690.546    83897779.910                  
  22420352.996   117819713.543    22420355.104    91807559.914                  
  23639104.543   124224351.066    23639103.560    96798199.941                  
  21933004.503   115258731.565    21933004.485    89812004.458                  
  22670106.186   119132219.177    22670105.971    92830301.828                  
  21548968.268   113240599.548    21548967.035    88239430.554                  
  20650396.394   108518531.863    20650398.163    84559886.626                  
                 115394703.438                   115394703.438    22160329.692  
                 118135385.144                   118135385.144    22686655.295  
                 129999286.575                   129999286.575    24964997.162  
                 120012667.091                   120012667.091    23047169.928  
  25567535.899   134358263.684                                                  
  23850496.800   125335179.496                                                  
  26849522.845   141095185.335                                                  
  25510380.578   134057936.472                                                  
  23495214.325   123468176.060                                                  
  25475593.414   133875117.923                                                  
 21  9  1  8 14 56.0000000  0 18G 1G 7G 8G13G14G17G21G30C23C25C28C34
                                E13E15E19E21E27E30
  21492642.374   112944556.651    21492645.305    88008734.172                  
  20488958.188   107670216.362    20488957.527    83898873.199                  
  22420915.888   117822671.508    22420917.979    91809864.824                  
  23638918.955   124223375.720    23638917.955    96797439.911                  
  21932595.035   115256579.796    21932594.999    89810327.754                  
  22669590.146   119129507.313    22669589.932    92828188.687                  
  21548967.286   113240594.360    21548966.053    88239426.507                  
  20650235.484   108517686.284    20650237.253    84559227.738                  
                 115393589.573                   115393589.573    22160115.800  
                 118137096.583                   118137096.583    22686983.960  
                 129996073.778                   129996073.778    24964380.162  
                 120014607.023                   120014607.023    23047542.461  
  25566977.831   134355331.137                                                  
  23850376.649   125334548.009                                                  
  26849761.575   141096439.882                                                  
  25510025.181   134056068.792                                                  
  23495224.189   123468227.879                                                  
  25475962.356   133877056.669                                                  
 21  9  1  8 14 57.0000000  0 18G 1G 7G 8G13G14G17G21G30C23C25C28C34
                                E13E15E19E21E27E30
  21492155.604   112941998.625    21492158.534    88006740.907                  
  20489225.276   107671619.997    20489224.615    83899966.942                  
  22421478.798   117825629.652    22421480.907    91812169.872                  
  23638733.475   124222401.031    23638732.492    96796680.413                  
  21932185.602   115254428.202    21932185.566    89808651.188                  
  22669074.160   119126795.774    22669073.946    92826075.802                  
  21548966.428   113240589.809    21548965.195    88239422.960                  
  20650074.680   108516841.286    20650076.467    84558569.293                  
                 115392476.051                   115392476.051    22159901.962  
                 118138808.374                   118138808.374    22687312.679  
                 129992861.107                   129992861.107    24963763.198  
                 120016547.329                   120016547.329    23047915.084  
  25566419.835   134352398.796                                                  
  23850256.551   125333917.026                                                  
  26850000.376   141097694.790                                                  
  25509669.784   134054201.183                                                  
  23495234.088   123468279.884                                                  
  25476331.315   133878995.538                                                  
 21  9  1  8 14 58.0000000  0 18G 1G 7G 8G13G14G17G21G30C23C25C28C34
                                E13E15E19E21E27E30
  21491668.923   112939441.121    21491671.854    88004748.042                  
  20489492.508   107673024.221    20489491.846    83901061.141                  
  22422041.744   117828587.981    22422043.852    91814475.063                  
  23638548.120   124221426.973    23638547.137    96795921.409                  
  21931776.204   115252276.776    21931776.169    89806974.754                  
  22668558.228   119124084.540    22668558.013    92823963.148                  
  21548965.659   113240585.883    21548964.444    88239419.903                  
  20649914.002   108515996.884    20649915.771    84557911.317                  
                 115391362.883                   115391362.883    22159688.177  
                 118140520.528                   118140520.528    22687641.487  
                 129989648.606                   129989648.606    24963146.253  
                 120018488.008                   120018488.008    23048287.760  
  25565861.857   134349466.648                                                  
  23850136.579   125333286.525                                                  
  26850239.267   141098950.103                                                  
  25509314.405   134052333.618                                                  
  23495244.005   123468332.079                                                  
  25476700.293   133880934.546                                                  
 21  9  1  8 14 59.0000000  0 18G 1G 7G 8G13G14G17G21G30C23C25C28C34
                                E13E15E19E21E27E30
  21491182.332   112936884.140    21491185.280    88002755.594                  
  20489759.828   107674429.036    20489759.167    83902155.802                  
  22422604.743   117831546.503    22422606.834    91816780.405                  
  23638362.871   124220453.543    23638361.907    96795162.895                  
  21931366.825   115250125.515    21931366.807    89805298.446                  
  22668042.331   119121373.614    22668042.135    92821850.743                  
  21548965.034   113240582.602    21548963.819    88239417.347                  
  20649753.413   108515153.062    20649755.200    84557253.797                  
                 115390250.067                   115390250.067    22159474.481  
                 118142233.048                   118142233.048    22687970.366  
                 129986436.286                   129986436.286    24962529.378  
                 120020429.062                   120020429.062    23048660.526  
  25565303.933   134346534.700                                                  
  23850016.695   125332656.522                                                  
  26850478.194   141100205.777                                                  
  25508959.026   134050466.106                                                  
  23495253.976   123468384.456                                                  
  25477069.306   133882873.667                                                  
 21  9  1  8 15  0.0000000  0 18G 1G 7G 8G13G14G17G21G30C23C25C28C34
                                E13E15E19E21E27E30
  21490695.866   112934327.686    21490698.796    88000763.550                  
  20490027.256   107675834.443    20490026.595    83903250.922                  
  22423167.760   117834505.199    22423169.869    91819085.883                  
  23638177.766   124219480.747    23638176.783    96794404.872                  
  21930957.482   115247974.429    21930957.464    89803622.273                  
  22667526.542   119118663.011    22667526.328    92819738.582                  
  21548964.534   113240579.946    21548963.319    88239415.277                  
  20649592.967   108514309.831    20649594.736    84556596.735                  
                 115389137.600                   115389137.600    22159260.839  
                 118143945.929                   118143945.929    22688299.299  
                 129983224.141                   129983224.141    24961912.522  
                 120022370.491                   120022370.491    23049033.363  
  25564746.044   134343602.966                                                  
  23849896.901   125332027.013                                                  
  26850717.228   141101461.847                                                  
  25508603.664   134048598.664                                                  
  23495263.983   123468437.026                                                  
  25477438.319   133884812.906                                                  
 21  9  1  8 15  1.0000000  0 18G 1G 7G 8G13G14G17G21G30C23C25C28C34
                                E13E15E19E21E27E30
  21490209.507   112931771.767    21490212.419    87998771.922                  
  20490294.827   107677240.425    20490294.165    83904346.497                  
  22423730.813   117837464.106    22423732.922    91821391.524                  
  23637992.768   124218508.579    23637991.785    96793647.336                  
  21930548.174   115245823.496    21930548.138    89801946.222                  
  22667010.788   119115952.702    22667010.574    92817626.655                  
  21548964.158   113240577.918    21548962.926    88239413.700                  
  20649432.628   108513467.193    20649434.397    84555940.129                  
                 115388025.488                   115388025.488    22159047.286  
                 118145659.171                   118145659.171    22688628.321  
                 129980012.167                   129980012.167    24961295.683  
                 120024312.292                   120024312.292    23049406.254  
  25564188.173   134340671.411                                                  
  23849777.197   125331397.987                                                  
  26850956.316   141102718.281                                                  
  25508248.321   134046731.278                                                  
  23495274.025   123468489.782                                                  
  25477807.386   133886752.280                                                  
 21  9  1  8 15  2.0000000  0 18G 1G 7G 8G13G14G17G21G30C23C25C28C34
                                E13E15E19E21E27E30
  21489723.219   112929216.379    21489726.132    87996780.715                  
  20490562.487   107678647.015    20490561.826    83905442.539                  
  22424293.920   117840423.204    22424296.028    91823697.313                  
  23637807.877   124217537.039    23637806.895    96792890.294                  
  21930138.902   115243672.739    21930138.884    89800270.309                  
  22666495.106   119113242.730    22666494.874    92815514.989                  
  21548963.873   113240576.525    21548962.657    88239412.609                  
  20649272.379   108512625.132    20649274.166    84555283.976                  
                 115386913.728                   115386913.728    22158833.787  
                 118147372.779                   118147372.779    22688957.397  
                 129976800.376                   129976800.376    24960678.898  
                 120026254.468                   120026254.468    23049779.234  
  25563630.374   134337740.079                                                  
  23849657.599   125330769.458                                                  
  26851195.475   141103975.108                                                  
  25507892.960   134044863.944                                                  
  23495284.086   123468542.719                                                  
  25478176.435   133888691.778                                                  
 21  9  1  8 15  3.0000000  0 18G 1G 7G 8G13G14G17G21G30C23C25C28C34
                                E13E15E19E21E27E30
  21489237.039   112926661.507    21489239.987    87994789.906                  
  20490830.254   107680054.182    20490829.593    83906539.031                  
  22424857.062   117843382.495    22424859.153    91826003.259                  
  23637623.148   124216566.133    23637622.147    96792133.741                  
  21929729.665   115241522.149    21929729.612    89798594.523                  
  22665979.460   119110533.055    22665979.245    92813403.556                  
  21548963.747   113240575.762    21548962.515    88239412.019                  
  20649112.255   108511783.664    20649114.024    84554628.289                  
                 115385802.319                   115385802.319    22158620.342  
                 118149086.747                   118149086.747    22689286.545  
                 129973588.754                   129973588.754    24960062.149  
                 120028197.020                   120028197.020    23050152.285  
  25563072.592   134334808.934                                                  
  23849538.091   125330141.421                                                  
  26851434.723   141105232.329                                                  
  25507537.634   134042996.676                                                  
  23495294.200   123468595.847                                                  
  25478545.538   133890631.395                                                  
 21  9  1  8 15  4.0000000  0 18G 1G 7G 8G13G14G17G21G30C23C25C28C34
                                E13E15E19E21E27E30
  21488750.965   112924107.179    21488753.896    87992799.520                  
  20491098.146   107681461.934    20491097.485    83907635.980                  
  22425420.222   117846341.969    22425422.313    91828309.339                  
  23637438.507   124215595.848    23637437.506    96791377.680                  
  21929320.447   115239371.715    21929320.429    89796918.862                  
  22665463.885   119107823.708    22665463.688    92811292.376                  
  21548963.712   113240575.630    21548962.497    88239411.914                  
  20648952.238   108510942.778    20648954.025    84553973.055                  
                 115384691.263                   115384691.263    22158406.986  
                 118150801.082                   118150801.082    22689615.764  
                 129970377.312                   129970377.312    24959445.417  
                 120030139.940                   120030139.940    23050525.409  
  25562514.864   134331877.993                                                  
  23849418.673   125329513.872                                                  
  26851674.043   141106489.901                                                  
  25507182.327   134041129.442                                                  
  23495304.331   123468649.163                                                  
  25478914.658   133892571.142                                                  
 21  9  1  8 15  5.0000000  0 18G 1G 7G 8G13G14G17G21G30C23C25C28C34
                                E13E15E19E21E27E30
  21488264.999   112921553.375    21488267.912    87990809.543                  
  20491366.146   107682870.279    20491365.485    83908733.391                  
  22425983.418   117849301.633    22425985.544    91830615.571                  
  23637253.973   124214626.198    23637252.973    96790622.106                  
  21928911.264   115237221.457    21928911.246    89795243.336                  
  22664948.381   119105114.669    22664948.167    92809181.435                  
  21548963.819   113240576.128    21548962.586    88239412.305                  
  20648792.346   108510102.495    20648794.115    84553318.290                  
                 115383580.555                   115383580.555    22158193.683  
                 118152515.778                   118152515.778    22689945.054  
                 129967166.042                   129967166.042    24958828.721  
                 120032083.239                   120032083.239    23050898.585  
  25561957.154   134328947.253                                                  
  23849299.343   125328886.815                                                  
  26851913.416   141107747.887                                                  
  25506827.001   134039262.282                                                  
  23495314.517   123468702.667                                                  
  25479283.796   133894511.000                                                  
 21  9  1  8 15  6.0000000  0 18G 1G 7G 8G13G14G17G21G30C23C25C28C34
                                E13E15E19E21E27E30
  21487779.123   112919000.106    21487782.053    87988819.985                  
  20491634.253   107684279.207    20491633.592    83909831.258                  
  22426546.667   117852261.482    22426548.776    91832921.945                  
  23637069.565   124213657.152    23637068.582    96789867.008                  
  21928502.117   115235071.363    21928502.081    89793567.939                  
  22664432.914   119102405.950    22664432.699    92807070.747                  
  21548964.016   113240577.267    21548962.800    88239413.192                  
  20648632.543   108509262.797    20648634.312    84552663.977                  
                 115382470.199                   115382470.199    22157980.434  
                 118154230.831                   118154230.831    22690274.416  
                 129963954.952                   129963954.952    24958212.061  
                 120034026.910                   120034026.910    23051271.851  
  25561399.497   134326016.734                                                  
  23849180.121   125328260.261                                                  
  26852152.879   141109006.258                                                  
  25506471.693   134037395.160                                                  
  23495324.738   123468756.365                                                  
  25479652.988   133896450.988                                                  
 21  9  1  8 15  7.0000000  0 18G 1G 7G 8G13G14G17G21G30C23C25C28C34
                                E13E15E19E21E27E30
  21487293.353   112916447.367    21487296.284    87986830.836                  
  20491902.485   107685688.723    20491901.824    83910929.581                  
  22427109.935   117855221.525    22427112.043    91835228.472                  
  23636885.282   124212688.758    23636884.299    96789112.410                  
  21928093.006   115232921.442    21928092.952    89791892.671                  
  22663917.518   119099697.563    22663917.321    92804960.317                  
  21548964.355   113240579.039    21548963.140    88239414.571                  
  20648472.883   108508423.691    20648474.634    84552010.129                  
                 115381360.198                   115381360.198    22157767.275  
                 118155946.253                   118155946.253    22690603.831  
                 129960744.039                   129960744.039    24957595.437  
                 120035970.953                   120035970.953    23051645.189  
  25560841.877   134323086.429                                                  
  23849060.988   125327634.211                                                  
  26852392.413   141110265.040                                                  
  25506116.421   134035528.105                                                  
  23495334.995   123468810.253                                                  
  25480022.162   133898391.113                                                  
 21  9  1  8 15  8.0000000  0 18G 1G 7G 8G13G14G17G21G30C23C25C28C34
                                E13E15E19E21E27E30
  21486807.673   112913895.134    21486810.622    87984842.083                  
  20492170.824   107687098.831    20492170.145    83912028.367                  
  22427673.256   117858181.735    22427675.364    91837535.129                  
  23636701.142   124211721.015    23636700.141    96788358.327                  
  21927683.912   115230771.692    21927683.876    89790217.543                  
  22663402.175   119096989.419    22663401.978    92802850.073                  
  21548964.820   113240581.419    21548963.605    88239416.425                  
  20648313.295   108507585.167    20648315.082    84551356.731                  
                 115380250.552                   115380250.552    22157554.186  
                 118157662.039                   118157662.039    22690933.336  
                 129957533.298                   129957533.298    24956978.866  
                 120037915.371                   120037915.371    23052018.580  
  25560284.274   134320156.271                                                  
  23848941.945   125327008.601                                                  
  26852632.001   141111524.071                                                  
  25505761.132   134033661.145                                                  
  23495345.287   123468864.311                                                  
  25480391.372   133900331.355                                                  
 21  9  1  8 15  9.0000000  0 18G 1G 7G 8G13G14G17G21G30C23C25C28C34
                                E13E15E19E21E27E30
  21486322.118   112911343.446    21486325.031    87982853.757                  
  20492439.252   107688509.532    20492438.591    83913127.614                  
  22428236.594   117861142.138    22428238.703    91839841.937                  
  23636517.109   124210753.879    23636516.108    96787604.715                  
  21927274.855   115228622.102    21927274.819    89788542.539                  
  22662886.922   119094281.636    22662886.707    92800740.117                  
  21548965.391   113240584.445    21548964.158    88239418.785                  
  20648153.868   108506747.235    20648155.619    84550703.801                  
                 115379141.251                   115379141.251    22157341.152  
                 118159378.183                   118159378.183    22691262.894  
                 129954322.735                   129954322.735    24956362.296  
                 120039860.161                   120039860.161    23052392.060  
  25559726.743   134317226.350                                                  
  23848822.973   125326383.522                                                  
  26852871.678   141112783.595                                                  
  25505405.878   134031794.199                                                  
  23495355.615   123468918.569                                                  
  25480760.617   133902271.707                                                  
 21  9  1  8 15 10.0000000  0 18G 1G 7G 8G13G14G17G21G30C23C25C28C34
                                E13E15E19E21E27E30
  21485836.635   112908792.301    21485839.583    87980865.852                  
  20492707.824   107689920.813    20492707.163    83914227.312                  
  22428799.987   117864102.715    22428802.078    91842148.880                  
  23636333.183   124209787.378    23636332.200    96786851.597                  
  21926865.833   115226472.675    21926865.797    89786867.664                  
  22662371.704   119091574.164    22662371.472    92798630.399                  
  21548966.106   113240588.107    21548964.855    88239421.636                  
  20647994.494   108505909.879    20647996.281    84550051.313                  
                 115378032.306                   115378032.306    22157128.171  
                 118161094.695                   118161094.695    22691592.542  
                 129951112.348                   129951112.348    24955745.779  
                 120041805.324                   120041805.324    23052765.612  
  25559169.247   134314296.629                                                  
  23848704.126   125325758.919                                                  
  26853111.427   141114043.474                                                  
  25505050.624   134029927.323                                                  
  23495365.979   123468973.012                                                  
  25481129.881   133904212.205                                                  
 21  9  1  8 15 11.0000000  0 18G 1G 7G 8G13G14G17G21G30C23C25C28C34
                                E13E15E19E21E27E30
  21485351.277   112906241.673    21485354.207    87978878.347                  
  20492976.485   107691332.688    20492975.823    83915327.477                  
  22429363.397   117867063.485    22429365.506    91844455.973                  
  23636149.382   124208821.504    23636148.381    96786098.968                  
  21926456.846   115224323.426    21926456.829    89785192.923                  
  22661856.540   119088867.004    22661856.326    92796520.923                  
  21548966.892   113240592.394    21548965.677    88239424.979                  
  20647835.281   108505073.124    20647837.068    84549399.296                  
                 115376923.715                   115376923.715    22156915.297  
                 118162811.566                   118162811.566    22691922.261  
                 129947902.136                   129947902.136    24955129.280  
                 120043750.865                   120043750.865    23053139.236  
  25558611.751   134311367.105                                                  
  23848585.369   125325134.818                                                  
  26853351.265   141115303.743                                                  
  25504695.387   134028060.503                                                  
  23495376.361   123469027.646                                                  
  25481499.180   133906152.808                                                  
 21  9  1  8 15 12.0000000  0 18G 1G 7G 8G13G14G17G21G30C23C25C28C34
                                E13E15E19E21E27E30
  21484866.008   112903691.578    21484868.938    87976891.262                  
  20493245.288   107692745.161    20493244.627    83916428.101                  
  22429926.861   117870024.458    22429928.952    91846763.223                  
  23635965.706   124207856.255    23635964.706    96785346.824                  
  21926047.896   115222174.339    21926047.860    89783518.309                  
  22661341.448   119086160.160    22661341.233    92794411.696                  
  21548967.840   113240597.312    21548966.624    88239428.812                  
  20647676.157   108504236.961    20647677.944    84548747.739                  
                 115375815.473                   115375815.473    22156702.477  
                 118164528.800                   118164528.800    22692252.016  
                 129944692.105                   129944692.105    24954512.834  
                 120045696.774                   120045696.774    23053512.913  
  25558054.345   134308437.789                                                  
  23848466.701   125324511.203                                                  
  26853591.139   141116564.379                                                  
  25504340.133   134026193.751                                                  
  23495386.797   123469082.470                                                  
  25481868.479   133908093.555                                                  
 21  9  1  8 15 13.0000000  0 18G 1G 7G 8G13G14G17G21G30C23C25C28C34
                                E13E15E19E21E27E30
  21484380.846   112901142.021    21484383.776    87974904.594                  
  20493514.163   107694158.216    20493513.502    83917529.184                  
  22430490.343   117872985.604    22430492.433    91849070.609                  
  23635782.138   124206891.643    23635781.137    96784595.183                  
  21925638.963   115220025.422    21925638.946    89781843.828                  
  22660826.409   119083453.618    22660826.194    92792302.698                  
  21548968.894   113240602.867    21548967.679    88239433.140                  
  20647517.159   108503401.380    20647518.945    84548096.637                  
                 115374707.586                   115374707.586    22156489.729  
                 118166246.397                   118166246.397    22692581.878  
                 129941482.245                   129941482.245    24953896.424  
                 120047643.054                   120047643.054    23053886.679  
  25557496.939   134305508.684                                                  
  23848348.122   125323888.082                                                  
  26853831.102   141117825.394                                                  
  25503984.915   134024327.046                                                  
  23495397.268   123469137.485                                                  
  25482237.814   133910034.403                                                  
 21  9  1  8 15 14.0000000  0 18G 1G 7G 8G13G14G17G21G30C23C25C28C34
                                E13E15E19E21E27E30
  21483895.773   112898592.977    21483898.704    87972918.324                  
  20493783.182   107695571.857    20493782.520    83918630.723                  
  22431053.860   117875946.953    22431055.969    91851378.156                  
  23635598.694   124205927.660    23635597.694    96783844.024                  
  21925230.084   115217876.669    21925230.049    89780169.476                  
  22660311.424   119080747.400    22660311.227    92790193.961                  
  21548970.073   113240609.050    21548968.858    88239437.960                  
  20647358.267   108502566.383    20647360.036    84547445.992                  
                 115373600.048                   115373600.048    22156277.016  
                 118167964.358                   118167964.358    22692911.794  
                 129938272.565                   129938272.565    24953280.014  
                 120049589.711                   120049589.711    23054260.517  
  25556939.586   134302579.761                                                  
  23848229.632   125323265.454                                                  
  26854071.136   141119086.805                                                  
  25503629.715   134022460.399                                                  
  23495407.775   123469192.688                                                  
  25482607.184   133911975.391                                                  
 21  9  1  8 15 15.0000000  0 18G 1G 7G 8G13G14G17G21G30C23C25C28C34
                                E13E15E19E21E27E30
  21483410.826   112896044.476    21483413.738    87970932.484                  
  20494052.307   107696986.097    20494051.646    83919732.725                  
  22431617.414   117878908.495    22431619.540    91853685.851                  
  23635415.376   124204964.304    23635414.375    96783093.360                  
  21924821.223   115215728.083    21924821.188    89778495.253                  
  22659796.528   119078041.489    22659796.295    92788085.462                  
  21548971.378   113240615.864    21548970.145    88239443.265                  
  20647199.483   108501731.972    20647201.252    84546795.800                  
                 115372492.864                   115372492.864    22156064.392  
                 118169682.683                   118169682.683    22693241.781  
                 129935063.060                   129935063.060    24952663.676  
                 120051536.743                   120051536.743    23054634.426  
  25556382.287   134299651.055                                                  
  23848111.232   125322643.310                                                  
  26854311.260   141120348.603                                                  
  25503274.514   134020593.808                                                  
  23495418.318   123469248.081                                                  
  25482976.555   133913916.505                                                  
 21  9  1  8 15 16.0000000  0 18G 1G 7G 8G13G14G17G21G30C23C25C28C34
                                E13E15E19E21E27E30
  21482925.932   112893496.500    21482928.880    87968947.046                  
  20494321.522   107698400.923    20494320.860    83920835.188                  
  22432181.020   117881870.240    22432183.147    91855993.704                  
  23635232.183   124204001.570    23635231.182    96782343.180                  
  21924412.380   115213579.665    21924412.344    89776821.161                  
  22659281.668   119075335.886    22659281.435    92785977.200                  
  21548972.771   113240623.311    21548971.556    88239449.075                  
  20647040.824   108500898.158    20647042.575    84546146.074                  
                 115371386.032                   115371386.032    22155851.840  
                 118171401.368                   118171401.368    22693571.840  
                 129931853.732                   129931853.732    24952047.356  
                 120053484.142                   120053484.142    23055008.407  
  25555825.006   134296722.546                                                  
  23847992.957   125322021.673                                                  
  26854551.438   141121610.771                                                  
  25502919.314   134018727.270                                                  
  23495428.896   123469303.657                                                  
  25483345.961   133915857.739                                                  
 21  9  1  8 15 17.0000000  0 18G 1G 7G 8G13G14G17G21G30C23C25C28C34
                                E13E15E19E21E27E30
  21482441.181   112890949.056    21482444.112    87966962.024                  
  20494590.879   107699816.328    20494590.200    83921938.101                  
  22432744.663   117884832.175    22432746.772    91858301.703                  
  23635049.097   124203039.484    23635048.096    96781593.501                  
  21924003.573   115211431.417    21924003.555    89775147.204                  
  22658766.861   119072630.598    22658766.647    92783869.180                  
  21548974.326   113240631.390    21548973.093    88239455.368                  
  20646882.254   108500064.939    20646884.023    84545496.812                  
                 115370279.556                   115370279.556    22155639.360  
                 118173120.419                   118173120.419    22693901.953  
                 129928644.581                   129928644.581    24951431.089  
                 120055431.918                   120055431.918    23055382.459  
  25555267.760   134293794.240                                                  
  23847874.753   125321400.521                                                  
  26854791.705   141122873.311                                                  
  25502564.131   134016860.796                                                  
  23495439.493   123469359.414                                                  
  25483715.385   133917799.094                                                  
 21  9  1  8 15 18.0000000  0 18G 1G 7G 8G13G14G17G21G30C23C25C28C34
                                E13E15E19E21E27E30
  21481956.520   112888402.163    21481959.468    87964977.435                  
  20494860.326   107701232.305    20494859.665    83923041.441                  
  22433308.341   117887794.254    22433310.432    91860609.806                  
  23634866.136   124202078.042    23634865.135    96780844.340                  
  21923594.819   115209283.345    21923594.783    89773473.379                  
  22658252.126   119069925.653    22658251.894    92781761.445                  
  21548975.988   113240640.102    21548974.755    88239462.148                  
  20646723.792   108499232.371    20646725.579    84544848.090                  
                 115369173.430                   115369173.430    22155426.933  
                 118174839.828                   118174839.828    22694232.154  
                 129925435.605                   129925435.605    24950814.822  
                 120057380.061                   120057380.061    23055756.583  
  25554710.568   134290866.159                                                  
  23847756.639   125320779.938                                                  
  26855032.025   141124136.263                                                  
  25502208.984   134014994.335                                                  
  23495450.143   123469415.368                                                  
  25484084.845   133919740.475                                                  
 21  9  1  8 15 19.0000000  0 18G 1G 7G 8G13G14G17G21G30C23C25C28C34
                                E13E15E19E21E27E30
  21481471.965   112885855.789    21481474.896    87962993.250                  
  20495129.898   107702648.890    20495129.237    83924145.278                  
  22433872.038   117890756.548    22433874.146    91862918.086                  
  23634683.282   124201117.204    23634682.299    96780095.638                  
  21923186.083   115207135.434    21923186.065    89771799.687                  
  22657737.444   119067220.992    22657737.212    92779653.922                  
  21548977.757   113240649.437    21548976.542    88239469.426                  
  20646565.472   108498400.335    20646567.259    84544199.755                  
                 115368067.657                   115368067.657    22155214.577  
                 118176559.600                   118176559.600    22694562.427  
                 129922226.810                   129922226.810    24950198.609  
                 120059328.582                   120059328.582    23056130.778  
  25554153.394   134287938.246                                                  
  23847638.614   125320159.751                                                  
  26855272.417   141125399.581                                                  
  25501853.820   134013127.984                                                  
  23495460.846   123469471.516                                                  
  25484454.323   133921682.068                                                  
 21  9  1  8 15 20.0000000  0 18G 1G 7G 8G13G14G17G21G30C23C25C28C34
                                E13E15E19E21E27E30
  21480987.500   112883309.938    21480990.449    87961009.470                  
  20495399.578   107704066.070    20495398.917    83925249.574                  
  22434435.787   117893719.032    22434437.878    91865226.515                  
  23634500.554   124200157.005    23634499.589    96779347.429                  
  21922777.382   115204987.688    21922777.347    89770126.116                  
  22657222.817   119064516.645    22657222.602    92777546.634                  
  21548979.669   113240659.411    21548978.436    88239477.200                  
  20646407.260   108497568.876    20646409.047    84543551.858                  
                 115366962.233                   115366962.233    22155002.293  
                 118178279.739                   118178279.739    22694892.754  
                 129919018.188                   129919018.188    24949582.413  
                 120061277.475                   120061277.475    23056505.045  
  25553596.274   134285010.555                                                  
  23847520.697   125319540.075                                                  
  26855512.899   141126663.277                                                  
  25501498.673   134011261.687                                                  
  23495471.567   123469527.852                                                  
  25484823.819   133923623.798                                                  
 21  9  1  8 15 21.0000000  0 18G 1G 7G 8G13G14G17G21G30C23C25C28C34
                                E13E15E19E21E27E30
  21480503.143   112880764.612    21480506.073    87959026.101                  
  20495669.382   107705483.843    20495668.703    83926354.337                  
  22434999.555   117896681.707    22435001.664    91867535.093                  
  23634317.968   124199197.438    23634316.985    96778599.714                  
  21922368.718   115202840.112    21922368.682    89768452.683                  
  22656708.260   119061812.613    22656708.046    92775439.598                  
  21548981.688   113240670.007    21548980.455    88239485.453                  
  20646249.137   108496738.011    20646250.924    84542904.433                  
                 115365857.169                   115365857.169    22154790.081  
                 118180000.239                   118180000.239    22695223.152  
                 129915809.741                   129915809.741    24948966.272  
                 120063226.741                   120063226.741    23056879.383  
  25553039.171   134282083.070                                                  
  23847402.886   125318920.894                                                  
  26855753.433   141127927.367                                                  
  25501143.544   134009395.448                                                  
  23495482.307   123469584.366                                                  
  25485193.332   133925565.660                                                  
 21  9  1  8 15 22.0000000  0 18G 1G 7G 8G13G14G17G21G30C23C25C28C34
                                E13E15E19E21E27E30
  21480018.892   112878219.832    21480021.823    87957043.153                  
  20495939.276   107706902.188    20495938.615    83927459.536                  
  22435563.376   117899644.563    22435565.485    91869843.813                  
  23634135.472   124198238.483    23634134.507    96777852.481                  
  21921960.089   115200692.700    21921960.035    89766779.370                  
  22656193.757   119059108.891    22656193.543    92773332.804                  
  21548983.814   113240681.246    21548982.581    88239494.215                  
  20646091.157   108495907.726    20646092.926    84542257.460                  
                 115364752.455                   115364752.455    22154577.940  
                 118181721.098                   118181721.098    22695553.640  
                 129912601.478                   129912601.478    24948350.165  
                 120065176.378                   120065176.378    23057253.775  
  25552482.140   134279155.782                                                  
  23847285.147   125318302.207                                                  
  26855994.058   141129191.815                                                  
  25500788.415   134007529.253                                                  
  23495493.100   123469641.077                                                  
  25485562.882   133927507.637                                                  
 21  9  1  8 15 23.0000000  0 18G 1G 7G 8G13G14G17G21G30C23C25C28C34
                                E13E15E19E21E27E30
  21479534.749   112875675.586    21479537.661    87955060.624                  
  20496209.295   107708321.140    20496208.616    83928565.211                  
  22436127.215   117902607.626    22436129.342    91872152.692                  
  23633953.118   124197280.180    23633952.135    96777105.750                  
  21921551.460   115198545.453    21921551.442    89765106.195                  
  22655679.326   119056405.496    22655679.094    92771226.262                  
  21548986.084   113240693.110    21548984.833    88239503.457                  
  20645933.266   108495078.046    20645935.035    84541610.956                  
                 115363648.089                   115363648.089    22154365.852  
                 118183442.325                   118183442.325    22695884.181  
                 129909393.386                   129909393.386    24947734.077  
                 120067126.385                   120067126.385    23057628.256  
  25551925.145   134276228.702                                                  
  23847167.497   125317684.007                                                  
  26856234.753   141130456.665                                                  
  25500433.304   134005663.129                                                  
  23495503.928   123469697.985                                                  
  25485932.449   133929449.743                                                  
 21  9  1  8 15 24.0000000  0 18G 1G 7G 8G13G14G17G21G30C23C25C28C34
                                E13E15E19E21E27E30
  21479050.677   112873131.848    21479053.607    87953078.493                  
  20496479.421   107709740.668    20496478.759    83929671.336                  
  22436691.126   117905570.867    22436693.217    91874461.714                  
  23633770.872   124196322.488    23633769.907    96776359.496                  
  21921142.885   115196398.379    21921142.867    89763433.152                  
  22655164.913   119053702.402    22655164.716    92769119.958                  
  21548988.442   113240705.605    21548987.227    88239513.196                  
  20645775.501   108494248.944    20645777.287    84540964.903                  
                 115362544.078                   115362544.078    22154153.836  
                 118185163.909                   118185163.909    22696214.776  
                 129906185.474                   129906185.474    24947118.043  
                 120069076.770                   120069076.770    23058002.808  
  25551368.185   134273301.824                                                  
  23847049.955   125317066.305                                                  
  26856475.521   141131721.891                                                  
  25500078.193   134003797.055                                                  
  23495514.775   123469755.066                                                  
  25486302.034   133931391.975                                                  
 21  9  1  8 15 25.0000000  0 18G 1G 7G 8G13G14G17G21G30C23C25C28C34
                                E13E15E19E21E27E30
  21478566.712   112870588.655    21478569.661    87951096.784                  
  20496749.654   107711160.788    20496748.993    83930777.926                  
  22437255.037   117908534.281    22437257.145    91876770.868                  
  23633588.769   124195365.438    23633587.786    96775613.743                  
  21920734.345   115194251.477    21920734.328    89761760.238                  
  22654650.607   119050999.628    22654650.392    92767013.898                  
  21548990.944   113240718.734    21548989.711    88239523.426                  
  20645617.842   108493420.449    20645619.611    84540319.320                  
                 115361440.421                   115361440.421    22153941.892  
                 118186885.859                   118186885.859    22696545.460  
                 129902977.734                   129902977.734    24946502.026  
                 120071027.524                   120071027.524    23058377.415  
  25550811.244   134270375.149                                                  
  23846932.502   125316449.091                                                  
  26856716.359   141132987.492                                                  
  25499723.117   134001931.051                                                  
  23495525.675   123469812.355                                                  
  25486671.654   133933334.328                                                  
 21  9  1  8 15 26.0000000  0 18G 1G 7G 8G13G14G17G21G30C23C25C28C34
                                E13E15E19E21E27E30
  21478082.873   112868045.997    21478085.803    87949115.492                  
  20497019.994   107712581.493    20497019.333    83931884.964                  
  22437818.983   117911497.886    22437821.092    91879080.168                  
  23633406.755   124194409.016    23633405.772    96774868.476                  
  21920325.842   115192104.735    21920325.806    89760087.454                  
  22654136.336   119048297.163    22654136.139    92764908.083                  
  21548993.553   113240732.488    21548992.338    88239534.141                  
  20645460.309   108492592.530    20645462.060    84539674.188                  
                 115360337.123                   115360337.123    22153730.019  
                 118188608.173                   118188608.173    22696876.216  
                 129899770.177                   129899770.177    24945886.045  
                 120072978.648                   120072978.648    23058752.128  
  25550254.356   134267448.680                                                  
  23846815.138   125315832.370                                                  
  26856957.252   141134253.481                                                  
  25499368.042   134000065.091                                                  
  23495536.629   123469869.818                                                  
  25487041.293   133935276.812                                                  
 21  9  1  8 15 27.0000000  0 18G 1G 7G 8G13G14G17G21G30C23C25C28C34
                                E13E15E19E21E27E30
  21477599.123   112865503.867    21477602.053    87947134.613                  
  20497290.478   107714002.781    20497289.799    83932992.466                  
  22438382.983   117914461.691    22438385.074    91881389.629                  
  23633224.884   124193453.225    23633223.901    96774123.707                  
  21919917.356   115189958.165    21919917.320    89758414.800                  
  22653622.137   119045595.011    22653621.923    92762802.512                  
  21548996.305   113240746.884    21548995.072    88239545.359                  
  20645302.865   108491765.195    20645304.616    84539029.516                  
                 115359234.167                   115359234.167    22153518.200  
                 118190330.847                   118190330.847    22697207.043  
                 129896562.794                   129896562.794    24945270.100  
                 120074930.149                   120074930.149    23059126.877  
  25549697.503   134264522.398                                                  
  23846697.882   125315216.133                                                  
  26857198.233   141135519.851                                                  
  25499012.967   133998199.192                                                  
  23495547.582   123469927.462                                                  
  25487410.967   133937219.417                                                  
 21  9  1  8 15 28.0000000  0 18G 1G 7G 8G13G14G17G21G30C23C25C28C34
                                E13E15E19E21E27E30
  21477115.480   112862962.276    21477118.392    87945154.153                  
  20497561.033   107715424.671    20497560.371    83934100.430                  
  22438947.001   117917425.672    22438949.127    91883699.222                  
  23633043.120   124192498.062    23633042.138    96773379.422                  
  21919508.906   115187811.763    21919508.888    89756742.276                  
  22653107.992   119042893.179    22653107.777    92760697.187                  
  21548999.164   113240761.914    21548997.949    88239557.071                  
  20645145.546   108490938.458    20645147.297    84538385.301                  
                 115358131.575                   115358131.575    22153306.452  
                 118192053.885                   118192053.885    22697537.941  
                 129893355.589                   129893355.589    24944654.208  
                 120076882.014                   120076882.014    23059501.716  
  25549140.687   134261596.333                                                  
  23846580.715   125314600.394                                                  
  26857439.304   141136786.593                                                  
  25498657.891   133996333.347                                                  
  23495558.608   123469985.300                                                  
  25487780.660   133939162.137                                                  
 21  9  1  8 15 29.0000000  0 18G 1G 7G 8G13G14G17G21G30C23C25C28C34
                                E13E15E19E21E27E30
  21476631.926   112860421.211    21476634.857    87943174.103                  
  20497831.748   107716847.145    20497831.087    83935208.851                  
  22439511.072   117920389.849    22439513.181    91886008.968                  
  23632861.482   124191543.536    23632860.499    96772635.637                  
  21919100.491   115185665.531    21919100.456    89755069.890                  
  22652593.918   119040191.656    22652593.703    92758592.106                  
  21549002.148   113240777.567    21549000.915    88239569.270                  
  20644988.317   108490112.305    20644990.103    84537741.548                  
                 115357029.329                   115357029.329    22153094.775  
                 118193777.284                   118193777.284    22697868.893  
                 129890148.564                   129890148.564    24944038.317  
                 120078834.257                   120078834.257    23059876.643  
  25548583.924   134258670.468                                                  
  23846463.637   125313985.132                                                  
  26857680.429   141138053.706                                                  
  25498302.852   133994467.554                                                  
  23495569.633   123470043.323                                                  
  25488150.352   133941104.988                                                  
 21  9  1  8 15 30.0000000  0 18G 1G 7G 8G13G14G17G21G30C23C25C28C34
                                E13E15E19E21E27E30
  21476148.480   112857880.683    21476151.392    87941194.468                  
  20498102.535   107718270.211    20498101.874    83936317.734                  
  22440075.180   117923354.208    22440077.288    91888318.858                  
  23632679.968   124190589.620    23632678.968    96771892.328                  
  21918692.113   115183519.460    21918692.077    89753397.629                  
  22652079.897   119037490.449    22652079.683    92756487.269                  
  21549005.239   113240793.865    21549004.024    88239581.965                  
  20644831.212   108489286.745    20644832.999    84537098.254                  
                 115355927.437                   115355927.437    22152883.188  
                 118195501.046                   118195501.046    22698199.917  
                 129886941.711                   129886941.711    24943422.479  
                 120080786.873                   120080786.873    23060251.625  
  25548027.178   134255744.820                                                  
  23846346.648   125313370.391                                                  
  26857921.625   141139321.211                                                  
  25497947.812   133992601.820                                                  
  23495580.711   123470101.539                                                  
  25488520.098   133943047.977                                                  
 21  9  1  8 15 31.0000000  0 18G 1G 7G 8G13G14G17G21G30C23C25C28C34
                                E13E15E19E21E27E30
  21475665.140   112855340.680    21475668.053    87939215.245                  
  20498373.448   107719693.850    20498372.787    83937427.063                  
  22440639.305   117926318.747    22440641.395    91890628.891                  
  23632498.562   124189636.344    23632497.561    96771149.516                  
  21918283.752   115181373.562    21918283.716    89751725.499                  
  22651565.913   119034789.550    22651565.716    92754382.675                  
  21549008.456   113240810.773    21549007.241    88239595.145                  
  20644674.233   108488461.777    20644676.002    84536455.422                  
                 115354825.898                   115354825.898    22152671.637  
                 118197225.177                   118197225.177    22698531.012  
                 129883735.040                   129883735.040    24942806.658  
                 120082739.860                   120082739.860    23060626.660  
  25547470.487   134252819.357                                                  
  23846229.767   125312756.120                                                  
  26858162.893   141140589.099                                                  
  25497592.808   133990736.156                                                  
  23495591.826   123470159.938                                                  
  25488889.861   133944991.063                                                  
 21  9  1  8 15 32.0000000  0 18G 1G 7G 8G13G14G17G21G30C23C25C28C34
                                E13E15E19E21E27E30
  21475181.873   112852801.218    21475184.821    87937236.445                  
  20498644.467   107721118.085    20498643.806    83938536.856                  
  22441203.483   117929283.481    22441205.574    91892939.071                  
  23632317.263   124188683.696    23632316.280    96770407.190                  
  21917875.445   115179227.832    21917875.391    89750053.504                  
  22651052.018   119032088.966    22651051.803    92752278.321                  
  21549011.797   113240828.327    21549010.582    88239608.825                  
  20644517.361   108487637.400    20644519.147    84535813.048                  
                 115353724.716                   115353724.716    22152460.175  
                 118198949.660                   118198949.660    22698862.197  
                 129880528.548                   129880528.548    24942190.892  
                 120084693.214                   120084693.214    23061001.784  
  25546913.813   134249894.111                                                  
  23846112.957   125312142.345                                                  
  26858404.232   141141857.355                                                  
  25497237.786   133988870.531                                                  
  23495602.976   123470218.524                                                  
  25489259.643   133946934.284                                                  
 21  9  1  8 15 33.0000000  0 18G 1G 7G 8G13G14G17G21G30C23C25C28C34
                                E13E15E19E21E27E30
  21474698.748   112850262.274    21474701.678    87935258.048                  
  20498915.594   107722542.915    20498914.933    83939647.109                  
  22441767.680   117932248.386    22441769.788    91895249.392                  
  23632136.107   124187731.673    23632135.124    96769665.356                  
  21917467.155   115177082.260    21917467.120    89748381.629                  
  22650538.176   119029388.698    22650537.962    92750174.219                  
  21549015.264   113240846.509    21549014.049    88239622.988                  
  20644360.596   108486813.609    20644362.383    84535171.133                  
                 115352623.886                   115352623.886    22152248.784  
                 118200674.512                   118200674.512    22699193.435  
                 129877322.226                   129877322.226    24941575.161  
                 120086646.945                   120086646.945    23061376.980  
  25546357.193   134246969.056                                                  
  23845996.254   125311529.060                                                  
  26858645.642   141143126.008                                                  
  25496882.783   133987004.973                                                  
  23495614.162   123470277.310                                                  
  25489629.460   133948877.617                                                  
 21  9  1  8 15 34.0000000  0 18G 1G 7G 8G13G14G17G21G30C23C25C28C34
                                E13E15E19E21E27E30
  21474215.695   112847723.871    21474218.625    87933280.071                  
  20499186.863   107723968.329    20499186.202    83940757.824                  
  22442331.912   117935213.491    22442334.021    91897559.860                  
  23631955.058   124186780.278    23631954.075    96768924.012                  
  21917058.902   115174936.867    21917058.866    89746709.895                  
  22650024.406   119026688.747    22650024.174    92748070.359                  
  21549018.838   113240865.327    21549017.623    88239637.652                  
  20644203.956   108485990.417    20644205.725    84534529.683                  
                 115351523.405                   115351523.405    22152037.447  
                 118202399.728                   118202399.728    22699524.744  
                 129874116.091                   129874116.091    24940959.448  
                 120088601.043                   120088601.043    23061752.248  
  25545800.627   134244044.206                                                  
  23845879.641   125310916.271                                                  
  26858887.142   141144395.034                                                  
  25496527.779   133985139.477                                                  
  23495625.384   123470336.275                                                  
  25489999.277   133950821.082                                                  
 21  9  1  8 15 35.0000000  0 18G 1G 7G 8G13G14G17G21G30C23C25C28C34
                                E13E15E19E21E27E30
  21473732.766   112845186.004    21473735.679    87931302.515                  
  20499458.222   107725394.324    20499457.543    83941868.989                  
  22442896.198   117938178.769    22442898.306    91899870.464                  
  23631774.134   124185829.523    23631773.169    96768183.161                  
  21916650.684   115172791.645    21916650.648    89745038.288                  
  22649510.671   119023989.113    22649510.457    92745966.750                  
  21549022.537   113240884.759    21549021.321    88239652.796                  
  20644047.423   108485167.815    20644049.192    84533888.696                  
                 115350423.285                   115350423.285    22151826.164  
                 118204125.301                   118204125.301    22699856.125  
                 129870910.125                   129870910.125    24940343.789  
                 120090555.517                   120090555.517    23062127.586  
  25545244.078   134241119.567                                                  
  23845763.117   125310303.960                                                  
  26859128.695   141145664.427                                                  
  25496172.793   133983274.027                                                  
  23495636.642   123470395.442                                                  
  25490369.148   133952764.687                                                  
 21  9  1  8 15 36.0000000  0 18G 1G 7G 8G13G14G17G21G30C23C25C28C34
                                E13E15E19E21E27E30
  21473249.927   112842648.669    21473252.858    87929325.370                  
  20499729.689   107726820.915    20499729.027    83942980.620                  
  22443460.502   117941144.234    22443462.592    91902181.219                  
  23631593.335   124184879.389    23631592.334    96767442.798                  
  21916242.484   115170646.586    21916242.466    89743366.816                  
  22648997.008   119021289.791    22648996.794    92743863.382                  
  21549026.361   113240904.842    21549025.145    88239668.446                  
  20643890.998   108484345.806    20643892.767    84533248.167                  
                 115349323.513                   115349323.513    22151614.952  
                 118205851.238                   118205851.238    22700187.578  
                 129867704.344                   129867704.344    24939728.147  
                 120092510.359                   120092510.359    23062502.979  
  25544687.583   134238195.116                                                  
  23845646.701   125309692.163                                                  
  26859370.320   141146934.221                                                  
  25495817.824   133981408.639                                                  
  23495647.935   123470454.794                                                  
  25490739.019   133954708.395                                                  
 21  9  1  8 15 37.0000000  0 18G 1G 7G 8G13G14G17G21G30C23C25C28C34
                                E13E15E19E21E27E30
  21472767.178   112840111.870    21472770.126    87927348.640                  
  20500001.262   107728248.102    20500000.601    83944092.711                  
  22444024.841   117944109.879    22444026.968    91904492.108                  
  23631412.643   124183929.887    23631411.661    96766702.926                  
  21915834.320   115168501.687    21915834.302    89741695.468                  
  22648483.399   119018590.782    22648483.185    92741760.258                  
  21549030.292   113240925.554    21549029.077    88239684.587                  
  20643734.679   108483524.357    20643736.448    84532608.079                  
                 115348224.099                   115348224.099    22151403.847  
                 118207577.539                   118207577.539    22700519.084  
                 129864498.735                   129864498.735    24939112.542  
                 120094465.574                   120094465.574    23062878.461  
  25544131.124   134235270.903                                                  
  23845530.373   125309080.844                                                  
  26859612.035   141148204.380                                                  
  25495462.856   133979543.304                                                  
  23495659.264   123470514.302                                                  
  25491108.926   133956652.239                                                  
 21  9  1  8 15 38.0000000  0 18G 1G 7G 8G13G14G17G21G30C23C25C28C34
                                E13E15E19E21E27E30
  21472284.536   112837575.603    21472287.484    87925372.328                  
  20500272.961   107729675.861    20500272.299    83945205.251                  
  22444589.216   117947075.723    22444591.343    91906803.156                  
  23631232.077   124182981.012    23631231.094    96765963.543                  
  21915426.191   115166356.966    21915426.156    89740024.255                  
  22647969.861   119015892.090    22647969.647    92739657.383                  
  21549034.366   113240946.890    21549033.133    88239701.210                  
  20643578.486   108482703.509    20643580.238    84531968.458                  
                 115347125.031                   115347125.031    22151192.779  
                 118209304.203                   118209304.203    22700850.679  
                 129861293.310                   129861293.310    24938496.954  
                 120096421.161                   120096421.161    23063254.014  
  25543574.700   134232346.887                                                  
  23845414.135   125308470.012                                                  
  26859853.802   141149474.914                                                  
  25495107.924   133977678.034                                                  
  23495670.628   123470574.015                                                  
  25491478.833   133958596.202                                                  
 21  9  1  8 15 39.0000000  0 18G 1G 7G 8G13G14G17G21G30C23C25C28C34
                                E13E15E19E21E27E30
  21471802.018   112835039.870    21471804.931    87923396.439                  
  20500544.766   107731104.215    20500544.105    83946318.254                  
  22445153.645   117950041.734    22445155.736    91909114.336                  
  23631051.636   124182032.769    23631050.653    96765224.652                  
  21915018.099   115164212.403    21915018.063    89738353.167                  
  22647456.377   119013193.712    22647456.163    92737554.754                  
  21549038.547   113240968.872    21549037.314    88239718.339                  
  20643422.383   108481883.266    20643424.152    84531329.308                  
                 115346026.324                   115346026.324    22150981.781  
                 118211031.227                   118211031.227    22701182.346  
                 129858088.056                   129858088.056    24937881.438  
                 120098377.117                   120098377.117    23063629.639  
  25543018.295   134229423.038                                                  
  23845298.005   125307859.688                                                  
  26860095.660   141150745.855                                                  
  25494752.974   133975812.813                                                  
  23495682.029   123470633.930                                                  
  25491848.775   133960540.289                                                  
 21  9  1  8 15 40.0000000  0 18G 1G 7G 8G13G14G17G21G30C23C25C28C34
                                E13E15E19E21E27E30
  21471319.573   112832504.659    21471322.503    87921420.950                  
  20500816.679   107732533.154    20500816.018    83947431.710                  
  22445718.074   117953007.931    22445720.200    91911425.657                  
  23630871.319   124181085.168    23630870.319    96764486.262                  
  21914610.042   115162068.017    21914610.006    89736682.215                  
  22646942.946   119010495.645    22646942.732    92735452.364                  
  21549042.836   113240991.479    21549041.621    88239735.957                  
  20643266.422   108481063.613    20643268.173    84530690.612                  
                 115344927.968                   115344927.968    22150770.855  
                 118212758.612                   118212758.612    22701514.067  
                 129854882.985                   129854882.985    24937265.921  
                 120100333.445                   120100333.445    23064005.317  
  25542461.961   134226499.417                                                  
  23845181.945   125307249.836                                                  
  26860337.588   141152017.176                                                  
  25494398.041   133973947.660                                                  
  23495693.465   123470694.028                                                  
  25492218.753   133962484.508                                                  
 21  9  1  8 15 41.0000000  0 18G 1G 7G 8G13G14G17G21G30C23C25C28C34
                                E13E15E19E21E27E30
  21470837.234   112829969.988    21470840.183    87919445.879                  
  20501088.717   107733962.685    20501088.056    83948545.633                  
  22446282.574   117955974.329    22446284.683    91913737.132                  
  23630691.092   124180138.180    23630690.127    96763748.347                  
  21914202.002   115159923.792    21914201.985    89735011.399                  
  22646429.587   119007797.898    22646429.355    92733350.223                  
  21549047.267   113241014.711    21549046.034    88239754.058                  
  20643110.532   108480244.535    20643112.319    84530052.372                  
                 115343829.965                   115343829.965    22150560.001  
                 118214486.363                   118214486.363    22701845.859  
                 129851678.091                   129851678.091    24936650.458  
                 120102290.143                   120102290.143    23064381.085  
  25541905.662   134223576.008                                                  
  23845065.993   125306640.492                                                  
  26860579.589   141153288.840                                                  
  25494043.145   133972082.566                                                  
  23495704.937   123470754.313                                                  
  25492588.767   133964428.844                                                  
 21  9  1  8 15 42.0000000  0 18G 1G 7G 8G13G14G17G21G30C23C25C28C34
                                E13E15E19E21E27E30
  21470355.021   112827435.848    21470357.933    87917471.222                  
  20501360.862   107735392.797    20501360.201    83949660.004                  
  22446847.092   117958940.919    22446849.201    91916048.763                  
  23630511.026   124179191.821    23630510.043    96763010.926                  
  21913793.999   115157779.746    21913793.981    89733340.707                  
  22645916.282   119005100.465    22645916.067    92731248.327                  
  21549051.824   113241038.595    21549050.573    88239772.668                  
  20642954.804   108479426.059    20642956.573    84529414.598                  
                 115342732.316                   115342732.316    22150349.200  
                 118216214.475                   118216214.475    22702177.722  
                 129848473.372                   129848473.372    24936035.031  
                 120104247.216                   120104247.216    23064756.924  
  25541349.382   134220652.790                                                  
  23844950.148   125306031.641                                                  
  26860821.642   141154560.903                                                  
  25493688.212   133970217.519                                                  
  23495716.445   123470814.789                                                  
  25492958.781   133966373.309                                                  
 21  9  1  8 15 43.0000000  0 18G 1G 7G 8G13G14G17G21G30C23C25C28C34
                                E13E15E19E21E27E30
  21469872.879   112824902.246    21469875.827    87915496.989                  
  20501633.115   107736823.496    20501632.454    83950774.837                  
  22447411.664   117961907.672    22447413.755    91918360.519                  
  23630331.067   124178246.098    23630330.084    96762273.999                  
  21913386.031   115155635.859    21913385.996    89731670.148                  
  22645403.048   119002403.343    22645402.815    92729146.676                  
  21549056.488   113241063.094    21549055.237    88239791.759                  
  20642799.165   108478608.161    20642800.916    84528777.273                  
                 115341635.025                   115341635.025    22150138.488  
                 118217942.954                   118217942.954    22702509.657  
                 129845268.836                   129845268.836    24935419.640  
                 120106204.655                   120106204.655    23065132.817  
  25540793.155   134217729.809                                                  
  23844834.357   125305423.277                                                  
  26861063.785   141155833.353                                                  
  25493333.333   133968352.536                                                  
  23495727.988   123470875.453                                                  
  25493328.813   133968317.895                                                  
 21  9  1  8 15 44.0000000  0 18G 1G 7G 8G13G14G17G21G30C23C25C28C34
                                E13E15E19E21E27E30
  21469390.862   112822369.177    21469393.774    87913523.169                  
  20501905.474   107738254.782    20501904.813    83951890.125                  
  22447976.236   117964874.629    22447978.362    91920672.431                  
  23630151.216   124177301.009    23630150.215    96761537.566                  
  21912978.099   115153492.144    21912978.082    89729999.723                  
  22644889.831   118999706.538    22644889.635    92727045.270                  
  21549061.259   113241088.222    21549060.044    88239811.339                  
  20642643.615   108477790.864    20642645.402    84528140.423                  
                 115340538.082                   115340538.082    22149927.813  
                 118219671.790                   118219671.790    22702841.664  
                 129842064.472                   129842064.472    24934804.267  
                 120108162.463                   120108162.463    23065508.799  
  25540236.963   134214807.005                                                  
  23844718.673   125304815.406                                                  
  26861306.000   141157106.176                                                  
  25492978.437   133966487.609                                                  
  23495739.567   123470936.308                                                  
  25493698.880   133970262.607                                                  
 21  9  1  8 15 45.0000000  0 18G 1G 7G 8G13G14G17G21G30C23C25C28C34
                                E13E15E19E21E27E30
  21468908.934   112819836.639    21468911.865    87911549.765                  
  20502177.959   107739686.652    20502177.298    83953005.868                  
  22448540.879   117967841.767    22448542.988    91922984.489                  
  23629971.489   124176356.551    23629970.506    96760801.625                  
  21912570.203   115151348.600    21912570.168    89728329.427                  
  22644376.722   118997010.047    22644376.508    92724944.110                  
  21549066.155   113241113.983    21549064.940    88239831.415                  
  20642488.226   108476974.157    20642489.977    84527504.028                  
                 115339441.495                   115339441.495    22149717.244  
                 118221400.989                   118221400.989    22703173.742  
                 129838860.294                   129838860.294    24934188.947  
                 120110120.647                   120110120.647    23065884.852  
  25539680.826   134211884.406                                                  
  23844603.096   125304208.028                                                  
  26861548.286   141158379.383                                                  
  25492623.576   133964622.743                                                  
  23495751.182   123470997.350                                                  
  25494068.983   133972207.442                                                  
 21  9  1  8 15 46.0000000  0 18G 1G 7G 8G13G14G17G21G30C23C25C28C34
                                E13E15E19E21E27E30
  21468427.114   112817304.636    21468430.044    87909576.778                  
  20502450.533   107741119.133    20502449.872    83954122.081                  
  22449105.540   117970809.069    22449107.631    91925296.672                  
  23629791.887   124175412.703    23629790.905    96760066.159                  
  21912162.325   115149205.223    21912162.307    89726659.261                  
  22643863.667   118994313.890    22643863.435    92722843.207                  
  21549071.176   113241140.394    21549069.961    88239851.996                  
  20642332.926   108476158.046    20642334.677    84526868.097                  
                 115338345.265                   115338345.265    22149506.711  
                 118223130.552                   118223130.552    22703505.873  
                 129835656.290                   129835656.290    24933573.645  
                 120112079.203                   120112079.203    23066260.977  
  25539124.706   134208961.997                                                  
  23844487.626   125303601.140                                                  
  26861790.626   141159652.960                                                  
  25492268.715   133962757.934                                                  
  23495762.833   123471058.586                                                  
  25494439.086   133974152.400                                                  
 21  9  1  8 15 47.0000000  0 18G 1G 7G 8G13G14G17G21G30C23C25C28C34
                                E13E15E19E21E27E30
  21467945.383   112814773.175    21467948.313    87907604.207                  
  20502723.232   107742552.188    20502722.571    83955238.750                  
  22449670.219   117973776.554    22449672.346    91927608.996                  
  23629612.393   124174469.495    23629611.392    96759331.196                  
  21911754.482   115147062.008    21911754.464    89724989.227                  
  22643350.665   118991618.036    22643350.433    92720742.543                  
  21549076.322   113241167.426    21549075.107    88239873.058                  
  20642177.716   108475342.525    20642179.503    84526232.621                  
                 115337249.387                   115337249.387    22149296.268  
                 118224860.475                   118224860.475    22703838.094  
                 129832452.463                   129832452.463    24932958.379  
                 120114038.125                   120114038.125    23066637.156  
  25538568.622   134206039.803                                                  
  23844372.228   125302994.739                                                  
  26862033.055   141160926.933                                                  
  25491913.854   133960893.183                                                  
  23495774.519   123471120.013                                                  
  25494809.225   133976097.481                                                  
 21  9  1  8 15 48.0000000  0 18G 1G 7G 8G13G14G17G21G30C23C25C28C34
                                E13E15E19E21E27E30
  21467463.759   112812242.243    21467466.708    87905632.054                  
  20502996.057   107743985.822    20502995.396    83956355.867                  
  22450234.952   117976744.252    22450237.061    91929921.488                  
  23629433.024   124173526.918    23629432.041    96758596.718                  
  21911346.676   115144918.965    21911346.640    89723319.324                  
  22642837.699   118988922.487    22642837.503    92718642.118                  
  21549081.594   113241195.089    21549080.361    88239894.614                  
  20642022.648   108474527.590    20642024.417    84525597.610                  
                 115336153.863                   115336153.863    22149085.878  
                 118226590.762                   118226590.762    22704170.387  
                 129829248.817                   129829248.817    24932343.166  
                 120115997.422                   120115997.422    23067013.424  
  25538012.592   134203117.820                                                  
  23844256.920   125302388.849                                                  
  26862275.555   141162201.276                                                  
  25491559.029   133959028.482                                                  
  23495786.241   123471181.622                                                  
  25495179.382   133978042.695                                                  
