     2.11           OBSERVATION DATA    M (MIXED)           RINEX VERSION / TYPE
CONVBIN 2.4.3                           20210831 165357 UTC PGM / RUN BY / DATE 
log: logs/21_08_31_08_48_18_nvbm_SW.rtcm                    COMMENT             
format: RTCM 3, station ID: 662                             COMMENT             
0662                                                        MARKER NAME         
                                                            MARKER NUMBER       
                                                            OBSERVER / AGENCY   
                    SWFT                                    REC # / TYPE / VERS 
                    NULL                                    ANT # / TYPE        
 -2221570.6064 -4730182.0172  3644377.9959                  APPROX POSITION XYZ 
        0.0000        0.0000        0.0000                  ANTENNA: DELTA H/E/N
     1     1                                                WAVELENGTH FACT L1/2
     5    C1    L1    P2    L2    C2                        # / TYPES OF OBSERV 
  2021     8    31     8    48   23.0000000     GPS         TIME OF FIRST OBS   
  2021     8    31     9    18   21.0000000     GPS         TIME OF LAST OBS    
                                                            END OF HEADER       
 21  8 31  8 48 23.0000000  0 22G 1G 7G13G14G15G17G19G21G30C19C23C27
                                C28E 1E 4E 5E 9E12E24E26E31E33
  22828530.602   119964690.405    22828533.926    93478966.716                  
  21971802.566   115462606.372    21971802.494    89970862.977                  
  21549695.413   113244421.902    21549695.002    88242408.504                  
  20618450.834   108350700.704    20618451.084    84429122.101                  
  23571562.978   123869409.992    23571563.067    96521620.464                  
  20584780.842   108173760.577    20584780.627    84291243.223                  
  22361841.827   117512280.836    22361840.237    91568013.746                  
  24052408.683   126396262.145    24052407.772    98490594.828                  
  20505833.264   107758841.529    20505835.373    83967918.593                  
                 131664732.234                   131664732.234    25284828.085  
                 135726143.691                   135726143.691    26064772.305  
                 116977740.738                   116977740.738    22464345.208  
                 119165845.562                   119165845.562    22884546.594  
  27145547.744   142650781.445                                                  
  27704296.421   145587059.692                                                  
  26072233.944   137010504.956                                                  
  23445904.560   123209045.120                                                  
  25095919.919   131879953.934                                                  
  25292701.659   132914087.456                                                  
  26585127.831   139705764.030                                                  
  24004045.761   126142093.472                                                  
  25457872.793   133782048.285                                                  
 21  8 31  8 48 24.0000000  0 22G 1G 7G13G14G15G17G19G21G30C19C23C27
                                C28E 1E 4E 5E 9E12E24E26E31E33
  22828308.347   119963522.483    22828311.653    93478056.649                  
  21972228.956   115464847.169    21972228.903    89972609.051                  
  21549544.777   113243630.299    21549544.366    88241791.673                  
  20618467.041   108350785.920    20618467.291    84429188.508                  
  23571275.519   123867899.411    23571275.608    96520443.386                  
  20584520.401   108172391.951    20584520.186    84290176.758                  
  22361213.874   117508980.946    22361212.302    91565442.399                  
  24052593.967   126397235.815    24052593.056    98491353.535                  
  20505945.107   107759429.290    20505947.233    83968376.591                  
                 131666171.316                   131666171.316    25285104.447  
                 135728421.645                   135728421.645    26065209.756  
                 116975542.489                   116975542.489    22463923.052  
                 119166728.228                   119166728.228    22884716.100  
  27145876.284   142652507.878                                                  
  27704863.977   145590042.321                                                  
  26072139.274   137010007.547                                                  
  23446270.339   123210967.360                                                  
  25095360.440   131877013.925                                                  
  25292473.615   132912889.124                                                  
  26585319.905   139706773.349                                                  
  24004120.525   126142486.321                                                  
  25457621.305   133780726.665                                                  
 21  8 31  8 48 25.0000000  0 22G 1G 7G13G14G15G17G19G21G30C19C23C27
                                C28E 1E 4E 5E 9E12E24E26E31E33
  22828086.218   119962355.145    22828089.541    93477147.035                  
  21972655.436   115467088.360    21972655.401    89974355.433                  
  21549394.266   113242839.360    21549393.855    88241175.356                  
  20618483.320   108350871.395    20618483.552    84429255.109                  
  23570988.185   123866389.405    23570988.256    96519266.765                  
  20584260.067   108171023.893    20584259.834    84289110.739                  
  22360585.974   117505681.376    22360584.402    91562871.308                  
  24052779.340   126398210.017    24052778.447    98492112.653                  
  20506057.038   107760017.532    20506059.182    83968834.961                  
                 131667610.753                   131667610.753    25285380.863  
                 135730699.719                   135730699.719    26065647.243  
                 116973344.656                   116973344.656    22463500.986  
                 119167611.429                   119167611.429    22884885.695  
  27146204.806   142654234.332                                                  
  27705431.569   145593024.894                                                  
  26072044.729   137009510.589                                                  
  23446636.207   123212889.934                                                  
  25094800.997   131874073.971                                                  
  25292245.606   132911690.860                                                  
  26585512.069   139707783.116                                                  
  24004195.307   126142879.244                                                  
  25457369.888   133779405.450                                                  
 21  8 31  8 48 26.0000000  0 22G 1G 7G13G14G15G17G19G21G30C19C23C27
                                C28E 1E 4E 5E 9E12E24E26E31E33
  22827864.177   119961188.394    22827867.501    93476237.880                  
  21973082.006   115469329.938    21973081.952    89976102.117                  
  21549243.880   113242049.075    21549243.451    88240559.548                  
  20618499.616   108350957.116    20618499.884    84429321.907                  
  23570700.940   123864879.990    23570701.012    96518090.595                  
  20583999.840   108169656.399    20583999.626    84288045.159                  
  22359958.164   117502382.126    22359956.574    91560300.461                  
  24052964.821   126399184.747    24052963.945    98492872.183                  
  20506169.077   107760606.238    20506171.203    83969293.691                  
                 131669050.548                   131669050.548    25285657.368  
                 135732977.923                   135732977.923    26066084.749  
                 116971147.247                   116971147.247    22463078.991  
                 119168495.167                   119168495.167    22885055.415  
  27146533.346   142655960.788                                                  
  27705999.107   145596007.418                                                  
  26071950.238   137009014.083                                                  
  23447002.129   123214812.825                                                  
  25094241.535   131871134.074                                                  
  25292017.579   132910492.637                                                  
  26585704.304   139708793.329                                                  
  24004270.071   126143272.231                                                  
  25457118.542   133778084.667                                                  
 21  8 31  8 48 27.0000000  0 22G 1G 7G13G14G15G17G19G21G30C19C23C27
                                C28E 1E 4E 5E 9E12E24E26E31E33
  22827642.262   119960022.217    22827645.585    93475329.169                  
  21973508.646   115471571.901    21973508.575    89977849.101                  
  21549093.620   113241259.453    21549093.209    88239944.258                  
  20618515.984   108351043.090    20618516.235    84429388.895                  
  23570413.821   123863371.149    23570413.892    96516914.875                  
  20583739.721   108168289.477    20583739.506    84286980.028                  
  22359330.408   117499083.207    22359328.817    91557729.880                  
  24053150.408   126400159.999    24053149.515    98493632.122                  
  20506281.205   107761195.414    20506283.314    83969752.789                  
                 131670490.692                   131670490.692    25285933.927  
                 135735256.249                   135735256.249    26066522.254  
                 116968950.254                   116968950.254    22462657.086  
                 119169379.444                   119169379.444    22885225.242  
  27146861.886   142657687.247                                                  
  27706566.663   145598989.894                                                  
  26071855.835   137008518.044                                                  
  23447368.086   123216736.042                                                  
  25093682.128   131868194.226                                                  
  25291789.606   132909294.507                                                  
  26585896.628   139709803.988                                                  
  24004344.889   126143665.306                                                  
  25456867.286   133776764.294                                                  
 21  8 31  8 48 28.0000000  0 22G 1G 7G13G14G15G17G19G21G30C19C23C27
                                C28E 1E 4E 5E 9E12E24E26E31E33
  22827420.454   119958856.640    22827423.777    93474420.927                  
  21973935.341   115473814.254    21973935.305    89979596.391                  
  21548943.484   113240470.485    21548943.055    88239329.476                  
  20618532.406   108351129.313    20618532.638    84429456.086                  
  23570126.809   123861862.878    23570126.880    96515739.599                  
  20583479.726   108166923.125    20583479.476    84285915.335                  
  22358702.687   117495784.585    22358701.096    91555159.525                  
  24053336.103   126401135.782    24053335.192    98494392.472                  
  20506393.405   107761785.068    20506395.513    83970212.257                  
                 131671931.190                   131671931.190    25286210.558  
                 135737534.703                   135737534.703    26066959.813  
                 116966753.677                   116966753.677    22462235.252  
                 119170264.258                   119170264.258    22885395.158  
  27147190.426   142659413.718                                                  
  27707134.201   145601972.312                                                  
  26071761.541   137008022.466                                                  
  23447734.115   123218659.579                                                  
  25093122.702   131865254.434                                                  
  25291561.597   132908096.436                                                  
  26586089.024   139710815.105                                                  
  24004419.688   126144058.449                                                  
  25456616.101   133775444.324                                                  
 21  8 31  8 48 29.0000000  0 22G 1G 7G13G14G15G17G19G21G30C19C23C27
                                C28E 1E 4E 5E 9E12E24E26E31E33
  22827198.788   119957691.643    22827202.094    93473513.142                  
  21974362.125   115476056.991    21974362.053    89981343.977                  
  21548793.474   113239682.181    21548793.063    88238715.215                  
  20618548.846   108351215.794    20618549.096    84429523.472                  
  23569839.904   123860355.199    23569839.975    96514564.784                  
  20583219.822   108165557.347    20583219.571    84284851.093                  
  22358075.037   117492486.312    22358073.465    91552589.442                  
  24053521.887   126402112.106    24053520.994    98495153.241                  
  20506505.694   107762375.194    20506507.820    83970672.098                  
                 131673372.043                   131673372.043    25286487.260  
                 135739813.280                   135739813.280    26067397.407  
                 116964557.518                   116964557.518    22461813.507  
                 119171149.614                   119171149.614    22885565.182  
  27147518.948   142661140.198                                                  
  27707701.721   145604954.689                                                  
  26071667.317   137007527.339                                                  
  23448100.216   123220583.445                                                  
  25092563.277   131862314.694                                                  
  25291333.642   132906898.430                                                  
  26586281.527   139711826.668                                                  
  24004494.524   126144451.677                                                  
  25456365.005   133774124.790                                                  
 21  8 31  8 48 30.0000000  0 22G 1G 7G13G14G15G17G19G21G30C19C23C27
                                C28E 1E 4E 5E 9E12E24E26E31E33
  22826977.195   119956527.242    22826980.518    93472605.812                  
  21974788.980   115478300.110    21974788.926    89983091.859                  
  21548643.588   113238894.510    21548643.177    88238101.450                  
  20618565.357   108351302.518    20618565.607    84429591.052                  
  23569553.124   123858848.081    23569553.195    96513390.411                  
  20582960.024   108164192.125    20582959.792    84283787.285                  
  22357447.459   117489188.341    22357445.887    91550019.594                  
  24053707.761   126403088.943    24053706.885    98495914.413                  
  20506618.072   107762965.784    20506620.216    83971132.296                  
                 131674813.251                   131674813.251    25286764.015  
                 135742091.984                   135742091.984    26067835.002  
                 116962361.781                   116962361.781    22461391.834  
                 119172035.501                   119172035.501    22885735.295  
  27147847.488   142662866.687                                                  
  27708269.241   145607937.013                                                  
  26071573.183   137007032.676                                                  
  23448466.388   123222507.636                                                  
  25092003.887   131859375.011                                                  
  25291105.687   132905700.489                                                  
  26586474.101   139712838.683                                                  
  24004569.359   126144844.981                                                  
  25456113.981   133772805.670                                                  
 21  8 31  8 48 31.0000000  0 22G 1G 7G13G14G15G17G19G21G30C19C23C27
                                C28E 1E 4E 5E 9E12E24E26E31E33
  22826755.726   119955363.425    22826759.032    93471698.941                  
  21975215.906   115480543.622    21975215.835    89984840.050                  
  21548493.828   113238107.527    21548493.417    88237488.211                  
  20618581.903   108351389.495    20618582.153    84429658.824                  
  23569266.415   123857341.556    23569266.505    96512216.488                  
  20582700.333   108162827.474    20582700.119    84282723.919                  
  22356819.935   117485890.696    22356818.362    91547450.001                  
  24053893.760   126404066.313    24053892.866    98496676.003                  
  20506730.557   107763556.844    20506732.684    83971592.864                  
                 131676254.808                   131676254.808    25287040.860  
                 135744370.813                   135744370.813    26068272.614  
                 116960166.460                   116960166.460    22460970.232  
                 119172921.930                   119172921.930    22885905.533  
  27148176.045   142664593.184                                                  
  27708836.743   145610919.290                                                  
  26071479.139   137006538.465                                                  
  23448832.613   123224432.162                                                  
  25091444.479   131856435.392                                                  
  25290877.714   132904502.609                                                  
  26586666.765   139713851.135                                                  
  24004644.213   126145238.352                                                  
  25455863.047   133771486.973                                                  
 21  8 31  8 48 32.0000000  0 22G 1G 7G13G14G15G17G19G21G30C19C23C27
                                C28E 1E 4E 5E 9E12E24E26E31E33
  22826534.382   119954200.187    22826537.706    93470792.524                  
  21975642.905   115482787.513    21975642.833    89986588.534                  
  21548344.175   113237321.182    21548343.782    88236875.476                  
  20618598.504   108351476.719    20618598.754    84429726.790                  
  23568979.868   123855835.603    23568979.939    96511043.018                  
  20582440.768   108161463.384    20582440.536    84281660.992                  
  22356192.482   117482593.380    22356190.892    91544880.661                  
  24054079.848   126405044.215    24054078.954    98497438.004                  
  20506843.114   107764148.379    20506845.259    83972053.801                  
                 131677696.722                   131677696.722    25287317.758  
                 135746649.765                   135746649.765    26068710.280  
                 116957971.558                   116957971.558    22460548.738  
                 119173808.890                   119173808.890    22886075.861  
  27148504.585   142666319.687                                                  
  27709404.246   145613901.505                                                  
  26071385.183   137006044.712                                                  
  23449198.893   123226356.995                                                  
  25090885.108   131853495.811                                                  
  25290649.777   132903304.802                                                  
  26586859.518   139714864.045                                                  
  24004719.084   126145631.809                                                  
  25455612.183   133770168.696                                                  
 21  8 31  8 48 33.0000000  0 22G 1G 7G13G14G15G17G19G21G30C19C23C27
                                C28E 1E 4E 5E 9E12E24E26E31E33
  22826313.128   119953037.552    22826316.434    93469886.575                  
  21976069.974   115485031.802    21976069.921    89988337.331                  
  21548194.683   113236535.499    21548194.254    88236263.257                  
  20618615.140   108351564.195    20618615.408    84429794.953                  
  23568693.391   123854330.225    23568693.481    96509870.004                  
  20582181.274   108160099.860    20582181.059    84280598.508                  
  22355565.083   117479296.368    22355563.492    91542311.563                  
  24054266.043   126406022.651    24054265.131    98498200.422                  
  20506955.779   107764740.383    20506957.905    83972515.100                  
                 131679138.989                   131679138.989    25287594.746  
                 135748928.844                   135748928.844    26069147.946  
                 116955777.074                   116955777.074    22460127.315  
                 119174696.394                   119174696.394    22886246.296  
  27148833.125   142668046.199                                                  
  27709971.712   145616883.665                                                  
  26071291.317   137005551.425                                                  
  23449565.243   123228282.161                                                  
  25090325.718   131850556.292                                                  
  25290421.858   132902107.039                                                  
  26587052.361   139715877.410                                                  
  24004793.973   126146025.345                                                  
  25455361.392   133768850.829                                                  
 21  8 31  8 48 34.0000000  0 22G 1G 7G13G14G15G17G19G21G30C19C23C27
                                C28E 1E 4E 5E 9E12E24E26E31E33
  22826091.999   119951875.484    22826095.323    93468981.068                  
  21976497.115   115487276.467    21976497.062    89990086.421                  
  21548045.298   113235750.478    21548044.887    88235651.548                  
  20618631.847   108351651.929    20618632.097    84429863.317                  
  23568407.040   123852825.434    23568407.112    96508697.437                  
  20581921.923   108158736.906    20581921.708    84279536.465                  
  22354937.737   117475999.689    22354936.165    91539742.720                  
  24054452.327   126407001.616    24054451.434    98498963.254                  
  20507068.514   107765332.863    20507070.659    83972976.778                  
                 131680581.610                   131680581.610    25287871.787  
                 135751208.046                   135751208.046    26069585.648  
                 116953583.012                   116953583.012    22459705.963  
                 119175584.434                   119175584.434    22886416.838  
  27149161.665   142669772.714                                                  
  27710539.197   145619865.798                                                  
  26071197.541   137005058.585                                                  
  23449931.666   123230207.649                                                  
  25089766.364   131847616.823                                                  
  25290193.956   132900909.368                                                  
  26587245.275   139716891.227                                                  
  24004868.880   126146418.948                                                  
  25455110.707   133767533.388                                                  
 21  8 31  8 48 35.0000000  0 22G 1G 7G13G14G15G17G19G21G30C19C23C27
                                C28E 1E 4E 5E 9E12E24E26E31E33
  22825870.977   119950714.003    22825874.301    93468076.020                  
  21976924.346   115489521.532    21976924.274    89991835.820                  
  21547896.038   113234966.115    21547895.627    88235040.355                  
  20618648.573   108351739.915    20618648.841    84429931.876                  
  23568120.796   123851321.206    23568120.886    96507525.311                  
  20581662.661   108157374.512    20581662.447    84278474.864                  
  22354310.463   117472703.311    22354308.873    91537174.116                  
  24054638.719   126407981.102    24054637.826    98499726.488                  
  20507181.357   107765925.803    20507183.484    83973438.805                  
                 131682024.586                   131682024.586    25288148.882  
                 135753487.375                   135753487.375    26070023.367  
                 116951389.366                   116951389.366    22459284.701  
                 119176473.008                   119176473.008    22886587.487  
  27149490.223   142671499.238                                                  
  27711106.681   145622847.855                                                  
  26071103.836   137004566.211                                                  
  23450298.123   123232133.466                                                  
  25089206.992   131844677.403                                                  
  25289966.055   132899711.755                                                  
  26587438.278   139717905.490                                                  
  24004943.805   126146812.634                                                  
  25454860.076   133766216.361                                                  
 21  8 31  8 48 36.0000000  0 22G 1G 7G13G14G15G17G19G21G30C19C23C27
                                C28E 1E 4E 5E 9E12E24E26E31E33
  22825650.062   119949553.121    22825653.386    93467171.438                  
  21977351.648   115491766.978    21977351.576    89993585.520                  
  21547746.903   113234182.394    21547746.474    88234429.669                  
  20618665.387   108351828.146    20618665.620    84430000.629                  
  23567834.660   123849817.575    23567834.731    96506353.648                  
  20581403.525   108156012.690    20581403.292    84277413.702                  
  22353683.242   117469407.254    22353681.652    91534605.762                  
  24054825.200   126408961.126    24054824.325    98500490.145                  
  20507294.271   107766519.225    20507296.398    83973901.211                  
                 131683467.913                   131683467.913    25288426.066  
                 135755766.827                   135755766.827    26070461.122  
                 116949196.142                   116949196.142    22458863.528  
                 119177362.120                   119177362.120    22886758.225  
  27149818.762   142673225.777                                                  
  27711674.148   145625829.871                                                  
  26071010.220   137004074.292                                                  
  23450664.635   123234059.579                                                  
  25088647.656   131841738.031                                                  
  25289738.153   132898514.200                                                  
  26587631.388   139718920.207                                                  
  24005018.712   126147206.396                                                  
  25454609.535   133764899.750                                                  
 21  8 31  8 48 37.0000000  0 22G 1G 7G13G14G15G17G19G21G30C19C23C27
                                C28E 1E 4E 5E 9E12E24E26E31E33
  22825429.255   119948392.828    22825432.578    93466267.309                  
  21977779.003   115494012.802    21977778.932    89995335.513                  
  21547597.875   113233399.351    21547597.482    88233819.503                  
  20618682.220   108351916.628    20618682.452    84430069.579                  
  23567548.648   123848314.515    23567548.720    96505182.433                  
  20581144.477   108154651.438    20581144.263    84276352.984                  
  22353056.093   117466111.528    22353054.503    91532037.659                  
  24055011.806   126409941.663    24055010.895    98501254.200                  
  20507407.293   107767113.125    20507409.419    83974363.993                  
                 131684911.593                   131684911.593    25288703.304  
                 135758046.406                   135758046.406    26070898.878  
                 116947003.333                   116947003.333    22458442.409  
                 119178251.770                   119178251.770    22886929.071  
  27150147.320   142674952.327                                                  
  27712241.579   145628811.831                                                  
  26070916.693   137003582.836                                                  
  23451031.236   123235986.050                                                  
  25088088.337   131838798.726                                                  
  25289510.305   132897316.714                                                  
  26587824.553   139719935.362                                                  
  24005093.654   126147600.234                                                  
  25454359.082   133763583.562                                                  
 21  8 31  8 48 38.0000000  0 22G 1G 7G13G14G15G17G19G21G30C19C23C27
                                C28E 1E 4E 5E 9E12E24E26E31E33
  22825208.572   119947233.122    22825211.896    93465363.640                  
  21978206.448   115496259.011    21978206.395    89997085.805                  
  21547449.008   113232616.962    21547448.597    88233209.847                  
  20618699.106   108352005.363    20618699.356    84430138.723                  
  23567262.726   123846812.036    23567262.797    96504011.672                  
  20580885.555   108153290.746    20580885.323    84275292.706                  
  22352428.998   117462816.107    22352427.425    91529469.804                  
  24055198.484   126410922.737    24055197.609    98502018.671                  
  20507520.404   107767707.492    20507522.513    83974827.133                  
                 131686355.624                   131686355.624    25288980.614  
                 135760326.108                   135760326.108    26071336.687  
                 116944810.946                   116944810.946    22458021.379  
                 119179141.956                   119179141.956    22887100.024  
  27150475.860   142676678.886                                                  
  27712809.027   145631793.750                                                  
  26070823.274   137003091.835                                                  
  23451397.908   123237912.833                                                  
  25087529.019   131835859.492                                                  
  25289282.439   132896119.306                                                  
  26588017.824   139720950.969                                                  
  24005168.615   126147994.152                                                  
  25454108.684   133762267.781                                                  
 21  8 31  8 48 39.0000000  0 22G 1G 7G13G14G15G17G19G21G30C19C23C27
                                C28E 1E 4E 5E 9E12E24E26E31E33
  22824987.997   119946074.000    22824991.321    93464460.433                  
  21978633.965   115498505.601    21978633.893    89998836.395                  
  21547300.249   113231835.225    21547299.838    88232600.706                  
  20618716.046   108352094.353    20618716.278    84430208.063                  
  23566976.929   123845310.141    23566977.000    96502841.362                  
  20580626.723   108151930.617    20580626.508    84274232.868                  
  22351801.956   117459521.015    22351800.383    91526902.199                  
  24055385.287   126411904.342    24055384.376    98502783.563                  
  20507633.604   107768302.325    20507635.713    83975290.637                  
                 131687800.010                   131687800.010    25289257.994  
                 135762605.941                   135762605.941    26071774.496  
                 116942618.977                   116942618.977    22457600.438  
                 119180032.685                   119180032.685    22887271.084  
  27150804.418   142678405.445                                                  
  27713376.458   145634775.613                                                  
  26070729.926   137002601.298                                                  
  23451764.616   123239839.938                                                  
  25086969.701   131832920.298                                                  
  25289054.574   132894921.937                                                  
  26588211.167   139721967.030                                                  
  24005243.593   126148388.145                                                  
  25453858.374   133760952.438                                                  
 21  8 31  8 48 40.0000000  0 22G 1G 7G13G14G15G17G19G21G30C19C23C27
                                C28E 1E 4E 5E 9E12E24E26E31E33
  22824767.547   119944915.468    22824770.853    93463557.683                  
  21979061.535   115500752.587    21979061.481    90000587.289                  
  21547151.614   113231054.157    21547151.203    88231992.077                  
  20618733.022   108352183.589    20618733.254    84430277.601                  
  23566691.239   123843808.828    23566691.328    96501671.512                  
  20580368.015   108150571.055    20580367.783    84273173.469                  
  22351174.985   117456226.240    22351173.395    91524334.840                  
  24055572.179   126412886.473    24055571.286    98503548.855                  
  20507746.876   107768897.622    20507749.002    83975754.507                  
                 131689244.754                   131689244.754    25289535.447  
                 135764885.895                   135764885.895    26072212.340  
                 116940427.425                   116940427.425    22457179.587  
                 119180923.946                   119180923.946    22887442.234  
  27151132.975   142680132.007                                                  
  27713943.889   145637757.426                                                  
  26070636.668   137002111.210                                                  
  23452131.396   123241767.372                                                  
  25086410.400   131829981.152                                                  
  25288826.743   132893724.655                                                  
  26588404.599   139722983.550                                                  
  24005318.608   126148782.218                                                  
  25453608.155   133759637.503                                                  
 21  8 31  8 48 41.0000000  0 22G 1G 7G13G14G15G17G19G21G30C19C23C27
                                C28E 1E 4E 5E 9E12E24E26E31E33
  22824547.204   119943757.523    22824550.528    93462655.386                  
  21979489.194   115502999.952    21979489.158    90002338.485                  
  21547003.105   113230273.738    21547002.694    88231383.960                  
  20618750.033   108352273.081    20618750.301    84430347.332                  
  23566405.656   123842308.119    23566405.745    96500502.126                  
  20580109.396   108149212.062    20580109.182    84272114.511                  
  22350548.069   117452931.772    22350546.478    91521767.727                  
  24055759.160   126413869.132    24055758.285    98504314.567                  
  20507860.237   107769493.406    20507862.381    83976218.755                  
                 131690689.847                   131690689.847    25289812.953  
                 135767165.972                   135767165.972    26072650.203  
                 116938236.294                   116938236.294    22456758.771  
                 119181815.742                   119181815.742    22887613.508  
  27151461.533   142681858.592                                                  
  27714511.284   145640739.175                                                  
  26070543.499   137001621.586                                                  
  23452498.247   123243695.122                                                  
  25085851.118   131827042.070                                                  
  25288598.913   132892527.433                                                  
  26588598.121   139724000.503                                                  
  24005393.604   126149176.367                                                  
  25453358.024   133758322.988                                                  
 21  8 31  8 48 42.0000000  0 22G 1G 7G13G14G15G17G19G21G30C19C23C27
                                C28E 1E 4E 5E 9E12E24E26E31E33
  22824326.968   119942600.171    22824330.274    93461753.555                  
  21979916.943   115505247.707    21979916.871    90004089.980                  
  21546854.720   113229493.970    21546854.291    88230776.347                  
  20618767.116   108352362.820    20618767.384    84430417.263                  
  23566120.199   123840807.976    23566120.288    96499333.184                  
  20579850.903   108147853.609    20579850.689    84271055.981                  
  22349921.223   117449637.625    22349919.615    91519200.855                  
  24055946.267   126414852.316    24055945.356    98505080.680                  
  20507973.705   107770089.645    20507975.832    83976683.359                  
                 131692135.294                   131692135.294    25290090.548  
                 135769446.180                   135769446.180    26073088.083  
                 116936045.582                   116936045.582    22456338.081  
                 119182708.079                   119182708.079    22887784.854  
  27151790.109   142683585.181                                                  
  27715078.679   145643720.895                                                  
  26070450.401   137001132.419                                                  
  23452865.134   123245623.193                                                  
  25085291.835   131824103.044                                                  
  25288371.101   132891330.266                                                  
  26588791.731   139725017.906                                                  
  24005468.618   126149570.587                                                  
  25453107.965   133757008.886                                                  
 21  8 31  8 48 43.0000000  0 22G 1G 7G13G14G15G17G19G21G30C19C23C27
                                C28E 1E 4E 5E 9E12E24E26E31E33
  22824106.840   119941443.403    22824110.163    93460852.175                  
  21980344.745   115507495.847    21980344.691    90005841.782                  
  21546706.461   113228714.862    21546706.032    88230169.250                  
  20618784.234   108352452.813    20618784.502    84430487.383                  
  23565834.848   123839308.423    23565834.920    96498164.698                  
  20579592.499   108146495.722    20579592.285    84269997.883                  
  22349294.414   117446343.801    22349292.841    91516634.243                  
  24056133.463   126415836.031    24056132.552    98505847.216                  
  20508087.263   107770686.362    20508089.407    83977148.333                  
                 131693581.091                   131693581.091    25290368.197  
                 135771726.507                   135771726.507    26073525.999  
                 116933855.288                   116933855.288    22455917.462  
                 119183600.951                   119183600.951    22887956.325  
  27152118.666   142685311.778                                                  
  27715646.074   145646702.550                                                  
  26070357.393   137000643.716                                                  
  23453232.092   123247551.598                                                  
  25084732.553   131821164.067                                                  
  25288143.307   132890133.172                                                  
  26588985.414   139726035.772                                                  
  24005543.632   126149964.883                                                  
  25452857.959   133755695.210                                                  
 21  8 31  8 48 44.0000000  0 22G 1G 7G13G14G15G17G19G21G30C19C23C27
                                C28E 1E 4E 5E 9E12E24E26E31E33
  22823886.819   119940287.218    22823890.142    93459951.254                  
  21980772.619   115509744.380    21980772.583    90007593.883                  
  21546558.327   113227936.417    21546557.916    88229562.672                  
  20618801.424   108352543.053    20618801.674    84430557.702                  
  23565549.587   123837809.418    23565549.658    96496996.645                  
  20579334.220   108145138.422    20579334.006    84268940.247                  
  22348667.676   117443050.302    22348666.103    91514067.880                  
  24056320.766   126416820.277    24056319.855    98506614.161                  
  20508200.892   107771283.555    20508203.036    83977613.676                  
                 131695027.242                   131695027.242    25290645.917  
                 135774006.961                   135774006.961    26073963.933  
                 116931665.419                   116931665.419    22455496.915  
                 119184494.361                   119184494.361    22888127.904  
  27152447.224   142687038.384                                                  
  27716213.451   145649684.152                                                  
  26070264.492   137000155.468                                                  
  23453599.122   123249480.320                                                  
  25084173.324   131818225.150                                                  
  25287915.513   132888936.143                                                  
  26589179.203   139727054.082                                                  
  24005618.700   126150359.258                                                  
  25452608.061   133754381.953                                                  
 21  8 31  8 48 45.0000000  0 22G 1G 7G13G14G15G17G19G21G30C19C23C27
                                C28E 1E 4E 5E 9E12E24E26E31E33
  22823666.922   119939131.632    22823670.246    93459050.798                  
  21981200.582   115511993.309    21981200.546    90009346.293                  
  21546410.318   113227158.630    21546409.907    88228956.601                  
  20618818.632   108352633.546    20618818.900    84430628.214                  
  23565264.469   123836311.051    23565264.540    96495829.086                  
  20579076.049   108143781.660    20579075.799    84267883.031                  
  22348041.027   117439757.117    22348039.419    91511501.762                  
  24056508.141   126417805.043    24056507.265    98507381.509                  
  20508314.646   107771881.220    20508316.755    83978079.391                  
                 131696473.745                   131696473.745    25290923.691  
                 135776287.544                   135776287.544    26074401.903  
                 116929475.966                   116929475.966    22455076.457  
                 119185388.306                   119185388.306    22888299.554  
  27152775.782   142688764.993                                                  
  27716780.829   145652665.704                                                  
  26070171.680   136999667.669                                                  
  23453966.205   123251409.370                                                  
  25083614.059   131815286.288                                                  
  25287687.736   132887739.188                                                  
  26589373.064   139728072.843                                                  
  24005693.768   126150753.710                                                  
  25452358.234   133753069.125                                                  
 21  8 31  8 48 46.0000000  0 22G 1G 7G13G14G15G17G19G21G30C19C23C27
                                C28E 1E 4E 5E 9E12E24E26E31E33
  22823447.116   119937976.637    22823450.439    93458150.801                  
  21981628.616   115514242.613    21981628.563    90011099.000                  
  21546262.434   113226381.497    21546262.023    88228351.043                  
  20618835.894   108352724.288    20618836.162    84430698.922                  
  23564979.422   123834813.226    23564979.494    96494661.953                  
  20578817.966   108142425.481    20578817.734    84266826.269                  
  22347414.396   117436464.249    22347412.824    91508935.891                  
  24056695.640   126418790.343    24056694.765    98508149.277                  
  20508428.454   107772479.360    20508430.581    83978545.472                  
                 131697920.603                   131697920.603    25291201.554  
                 135778568.246                   135778568.246    26074839.873  
                 116927286.929                   116927286.929    22454656.088  
                 119186282.788                   119186282.788    22888471.346  
  27153104.340   142690491.613                                                  
  27717348.188   145655647.203                                                  
  26070078.940   136999180.345                                                  
  23454333.360   123253338.741                                                  
  25083054.812   131812347.473                                                  
  25287459.978   132886542.282                                                  
  26589567.015   139729092.047                                                  
  24005768.818   126151148.246                                                  
  25452108.497   133751756.696                                                  
 21  8 31  8 48 47.0000000  0 22G 1G 7G13G14G15G17G19G21G30C19C23C27
                                C28E 1E 4E 5E 9E12E24E26E31E33
  22823227.434   119936822.216    22823230.757    93457251.255                  
  21982056.722   115516492.305    21982056.669    90012852.005                  
  21546114.675   113225605.030    21546114.264    88227746.009                  
  20618853.226   108352815.285    20618853.477    84430769.829                  
  23564694.519   123833315.986    23564694.608    96493495.269                  
  20578559.991   108141069.880    20578559.777    84265769.956                  
  22346787.854   117433171.707    22346786.264    91506370.274                  
  24056883.247   126419776.176    24056882.336    98508917.457                  
  20508542.351   107773077.964    20508544.496    83979011.919                  
                 131699367.809                   131699367.809    25291479.471  
                 135780849.079                   135780849.079    26075277.896  
                 116925098.316                   116925098.316    22454235.773  
                 119187177.809                   119187177.809    22888643.229  
  27153432.897   142692218.231                                                  
  27717915.547   145658628.650                                                  
  26069986.271   136998693.464                                                  
  23454700.568   123255268.446                                                  
  25082495.601   131809408.720                                                  
  25287232.237   132885345.446                                                  
  26589761.037   139730111.706                                                  
  24005843.921   126151542.848                                                  
  25451858.813   133750444.692                                                  
 21  8 31  8 48 48.0000000  0 22G 1G 7G13G14G15G17G19G21G30C19C23C27
                                C28E 1E 4E 5E 9E12E24E26E31E33
  22823007.877   119935668.391    22823011.201    93456352.168                  
  21982484.882   115518742.379    21982484.846    90014605.309                  
  21545967.041   113224829.218    21545966.648    88227141.477                  
  20618870.577   108352906.532    20618870.845    84430840.930                  
  23564409.704   123831819.317    23564409.776    96492329.032                  
  20578302.141   108139714.837    20578301.927    84264714.079                  
  22346161.366   117429879.479    22346159.776    91503804.901                  
  24057070.943   126420762.536    24057070.032    98509686.046                  
  20508656.356   107773677.040    20508658.500    83979478.727                  
                 131700815.371                   131700815.371    25291757.460  
                 135783130.034                   135783130.034    26075715.938  
                 116922910.122                   116922910.122    22453815.565  
                 119188073.362                   119188073.362    22888815.200  
  27153761.473   142693944.878                                                  
  27718482.889   145661610.055                                                  
  26069893.727   136998207.056                                                  
  23455067.848   123257198.441                                                  
  25081936.372   131806470.022                                                  
  25287004.496   132884148.685                                                  
  26589955.166   139731131.812                                                  
  24005919.025   126151937.531                                                  
  25451609.236   133749133.105                                                  
 21  8 31  8 48 49.0000000  0 22G 1G 7G13G14G15G17G19G21G30C19C23C27
                                C28E 1E 4E 5E 9E12E24E26E31E33
  22822788.428   119934515.141    22822791.733    93455453.536                  
  21982913.149   115520992.837    21982913.077    90016358.910                  
  21545819.532   113224054.066    21545819.121    88226537.465                  
  20618888.000   108352998.028    20618888.232    84430912.226                  
  23564124.997   123830323.224    23564125.086    96491163.247                  
  20578044.399   108138360.372    20578044.184    84263658.651                  
  22345534.932   117426587.586    22345533.342    91501239.794                  
  24057258.747   126421749.423    24057257.835    98510455.051                  
  20508770.467   107774276.586    20508772.576    83979945.906                  
                 131702263.284                   131702263.284    25292035.520  
                 135785411.114                   135785411.114    26076153.979  
                 116920722.346                   116920722.346    22453395.428  
                 119188969.456                   119188969.456    22888987.297  
  27154090.049   142695671.519                                                  
  27719050.195   145664591.381                                                  
  26069801.255   136997721.096                                                  
  23455435.164   123259128.792                                                  
  25081377.179   131803531.378                                                  
  25286776.773   132882951.972                                                  
  26590149.384   139732152.372                                                  
  24005994.146   126152332.293                                                  
  25451359.731   133747821.938                                                  
 21  8 31  8 48 50.0000000  0 22G 1G 7G13G14G15G17G19G21G30C19C23C27
                                C28E 1E 4E 5E 9E12E24E26E31E33
  22822569.085   119933362.495    22822572.391    93454555.371                  
  21983341.452   115523243.676    21983341.398    90018112.813                  
  21545672.166   113223279.577    21545671.737    88225933.965                  
  20618905.458   108353089.776    20618905.708    84430983.718                  
  23563840.415   123828827.717    23563840.504    96489997.917                  
  20577786.763   108137006.461    20577786.513    84262603.656                  
  22344908.551   117423296.000    22344906.979    91498674.918                  
  24057446.640   126422736.829    24057445.746    98511224.462                  
  20508884.632   107774876.605    20508886.759    83980413.457                  
                 131703711.552                   131703711.552    25292313.633  
                 135787692.322                   135787692.322    26076592.074  
                 116918534.993                   116918534.993    22452975.363  
                 119189866.085                   119189866.085    22889159.483  
  27154418.624   142697398.175                                                  
  27719617.536   145667572.684                                                  
  26069708.854   136997235.601                                                  
  23455802.569   123261059.445                                                  
  25080817.986   131800592.800                                                  
  25286549.068   132881755.331                                                  
  26590343.656   139733173.375                                                  
  24006069.285   126152727.120                                                  
  25451110.297   133746511.190                                                  
 21  8 31  8 48 51.0000000  0 22G 1G 7G13G14G15G17G19G21G30C19C23C27
                                C28E 1E 4E 5E 9E12E24E26E31E33
  22822349.868   119932210.431    22822353.174    93453657.656                  
  21983769.861   115525494.911    21983769.808    90019867.020                  
  21545524.908   113222505.739    21545524.497    88225330.972                  
  20618922.951   108353181.768    20618923.219    84431055.402                  
  23563555.940   123827332.786    23563556.012    96488833.036                  
  20577529.217   108135653.129    20577529.002    84261549.114                  
  22344282.260   117420004.735    22344280.688    91496110.297                  
  24057634.640   126423724.782    24057633.746    98511994.292                  
  20508998.905   107775477.101    20509001.031    83980881.372                  
                 131705160.157                   131705160.157    25292591.836  
                 135789973.652                   135789973.652    26077030.186  
                 116916348.063                   116916348.063    22452555.388  
                 119190763.275                   119190763.275    22889331.776  
  27154747.200   142699124.837                                                  
  27720184.842   145670553.919                                                  
  26069616.561   136996750.572                                                  
  23456170.027   123262990.432                                                  
  25080258.793   131797654.264                                                  
  25286321.364   132880558.762                                                  
  26590538.035   139734194.833                                                  
  24006144.424   126153122.036                                                  
  25450860.953   133745200.871                                                  
 21  8 31  8 48 52.0000000  0 22G 1G 7G13G14G15G17G19G21G30C19C23C27
                                C28E 1E 4E 5E 9E12E24E26E31E33
  22822130.740   119931058.953    22822134.064    93452760.399                  
  21984198.325   115527746.528    21984198.271    90021621.527                  
  21545377.774   113221732.562    21545377.363    88224728.496                  
  20618940.517   108353274.016    20618940.767    84431127.281                  
  23563271.572   123825838.421    23563271.662    96487668.598                  
  20577271.796   108134300.351    20577271.581    84260495.001                  
  22343656.022   117416713.789    22343654.414    91493545.926                  
  24057822.747   126424713.245    24057821.835    98512764.528                  
  20509113.267   107776078.062    20509115.393    83981349.655                  
                 131706609.126                   131706609.126    25292870.092  
                 135792255.110                   135792255.110    26077468.299  
                 116914161.550                   116914161.550    22452135.483  
                 119191660.977                   119191660.977    22889504.158  
  27155075.757   142700851.499                                                  
  27720752.147   145673535.099                                                  
  26069524.357   136996265.977                                                  
  23456537.522   123264921.731                                                  
  25079699.617   131794715.790                                                  
  25286093.659   132879362.259                                                  
  26590732.504   139735216.746                                                  
  24006219.599   126153517.018                                                  
  25450611.698   133743890.966                                                  
 21  8 31  8 48 53.0000000  0 22G 1G 7G13G14G15G17G19G21G30C19C23C27
                                C28E 1E 4E 5E 9E12E24E26E31E33
  22821911.738   119929908.074    22821915.043    93451863.614                  
  21984626.860   115529998.533    21984626.824    90023376.333                  
  21545230.766   113220960.051    21545230.355    88224126.542                  
  20618958.118   108353366.513    20618958.368    84431199.359                  
  23562987.312   123824344.637    23562987.401    96486504.610                  
  20577014.482   108132948.151    20577014.267    84259441.339                  
  22343029.820   117413423.175    22343028.248    91490981.814                  
  24058010.943   126425702.254    24058010.032    98513535.184                  
  20509227.718   107776679.492    20509229.844    83981818.302                  
                 131708058.447                   131708058.447    25293148.420  
                 135794536.693                   135794536.693    26077906.465  
                 116911975.452                   116911975.452    22451715.669  
                 119192559.213                   119192559.213    22889676.666  
  27155404.333   142702578.187                                                  
  27721319.435   145676516.237                                                  
  26069432.224   136995781.851                                                  
  23456905.105   123266853.372                                                  
  25079140.460   131791777.368                                                  
  25285866.007   132878165.808                                                  
  26590927.062   139736239.093                                                  
  24006294.774   126153912.083                                                  
  25450362.497   133742581.474                                                  
 21  8 31  8 48 54.0000000  0 22G 1G 7G13G14G15G17G19G21G30C19C23C27
                                C28E 1E 4E 5E 9E12E24E26E31E33
  22821692.842   119928757.776    22821696.166    93450967.278                  
  21985055.484   115532250.930    21985055.448    90025131.450                  
  21545083.882   113220188.188    21545083.471    88223525.091                  
  20618975.754   108353459.265    20618976.022    84431271.633                  
  23562703.177   123822851.437    23562703.266    96485341.078                  
  20576757.275   108131596.515    20576757.043    84258388.118                  
  22342403.708   117410132.872    22342402.117    91488417.937                  
  24058199.247   126426691.785    24058198.336    98514306.243                  
  20509342.258   107777281.394    20509344.384    83982287.317                  
                 131709508.122                   131709508.122    25293426.820  
                 135796818.398                   135796818.398    26078344.632  
                 116909789.776                   116909789.776    22451295.925  
                 119193457.991                   119193457.991    22889849.263  
  27155732.927   142704304.863                                                  
  27721886.723   145679497.320                                                  
  26069340.181   136995298.187                                                  
  23457272.743   123268785.328                                                  
  25078581.320   131788839.005                                                  
  25285638.320   132876969.421                                                  
  26591121.673   139737261.886                                                  
  24006369.967   126154307.230                                                  
  25450113.402   133741272.402                                                  
 21  8 31  8 48 55.0000000  0 22G 1G 7G13G14G15G17G19G21G30C19C23C27
                                C28E 1E 4E 5E 9E12E24E26E31E33
  22821474.054   119927608.071    22821477.377    93450071.402                  
  21985484.180   115534503.703    21985484.126    90026886.855                  
  21544937.142   113219416.980    21544936.713    88222924.149                  
  20618993.463   108353552.266    20618993.713    84431344.102                  
  23562419.149   123821358.815    23562419.220    96484177.996                  
  20576500.175   108130245.448    20576499.961    84257335.336                  
  22341777.648   117406842.894    22341776.058    91485854.315                  
  24058387.640   126427681.848    24058386.747    98515077.722                  
  20509456.888   107777883.769    20509459.014    83982756.700                  
                 131710958.143                   131710958.143    25293705.273  
                 135799100.228                   135799100.228    26078782.834  
                 116907604.522                   116907604.522    22450876.271  
                 119194357.304                   119194357.304    22890021.985  
  27156061.502   142706031.557                                                  
  27722453.975   145682478.335                                                  
  26069248.245   136994814.977                                                  
  23457640.434   123270717.589                                                  
  25078022.163   131785900.695                                                  
  25285410.687   132875773.108                                                  
  26591316.392   139738285.149                                                  
  24006445.178   126154702.441                                                  
  25449864.362   133739963.749                                                  
 21  8 31  8 48 56.0000000  0 22G 1G 7G13G14G15G17G19G21G30C19C23C27
                                C28E 1E 4E 5E 9E12E24E26E31E33
  22821255.373   119926458.950    22821258.696    93449175.985                  
  21985912.947   115536756.867    21985912.875    90028642.570                  
  21544790.509   113218646.441    21544790.098    88222323.727                  
  20619011.207   108353645.511    20619011.457    84431416.763                  
  23562135.228   123819866.769    23562135.299    96483015.362                  
  20576243.183   108128894.953    20576242.969    84256283.003                  
  22341151.643   117403553.234    22341150.053    91483290.948                  
  24058576.140   126428672.429    24058575.247    98515849.607                  
  20509571.607   107778486.613    20509573.733    83983226.446                  
                 131712408.522                   131712408.522    25293983.815  
                 135801382.183                   135801382.183    26079221.054  
                 116905419.692                   116905419.692    22450456.707  
                 119195257.152                   119195257.152    22890194.778  
  27156390.078   142707758.257                                                  
  27723021.245   145685459.315                                                  
  26069156.380   136994332.225                                                  
  23458008.196   123272650.190                                                  
  25077463.041   131782962.458                                                  
  25285183.035   132874576.854                                                  
  26591511.200   139739308.843                                                  
  24006520.407   126155097.729                                                  
  25449615.429   133738655.528                                                  
 21  8 31  8 48 57.0000000  0 22G 1G 7G13G14G15G17G19G21G30C19C23C27
                                C28E 1E 4E 5E 9E12E24E26E31E33
  22821036.817   119925310.430    22821040.140    93448281.032                  
  21986341.786   115539010.423    21986341.714    90030398.583                  
  21544644.001   113217876.559    21544643.572    88221723.821                  
  20619029.004   108353739.011    20619029.254    84431489.618                  
  23561851.396   123818375.309    23561851.485    96481853.184                  
  20575986.298   108127545.025    20575986.084    84255231.113                  
  22340525.691   117400263.905    22340524.119    91480727.833                  
  24058764.748   126429663.548    24058763.837    98516621.902                  
  20509686.398   107779089.930    20509688.542    83983696.563                  
                 131713859.250                   131713859.250    25294262.393  
                 135803664.266                   135803664.266    26079659.327  
                 116903235.278                   116903235.278    22450037.196  
                 119196157.540                   119196157.540    22890367.679  
  27156718.653   142709484.969                                                  
  27723588.497   145688440.239                                                  
  26069064.605   136993849.943                                                  
  23458376.012   123274583.126                                                  
  25076903.919   131780024.263                                                  
  25284955.420   132873380.676                                                  
  26591706.098   139740332.992                                                  
  24006595.617   126155493.105                                                  
  25449366.567   133737347.715                                                  
 21  8 31  8 48 58.0000000  0 22G 1G 7G13G14G15G17G19G21G30C19C23C27
                                C28E 1E 4E 5E 9E12E24E26E31E33
  22820818.386   119924162.489    22820821.691    93447386.535                  
  21986770.678   115541264.344    21986770.624    90032154.887                  
  21544497.618   113217107.326    21544497.207    88221124.414                  
  20619046.837   108353832.761    20619047.105    84431562.672                  
  23561567.672   123816884.418    23561567.761    96480691.453                  
  20575729.520   108126195.663    20575729.306    84254179.660                  
  22339899.829   117396974.884    22339898.238    91478164.962                  
  24058953.445   126430655.186    24058952.551    98517394.610                  
  20509801.295   107779693.722    20509803.440    83984167.050                  
                 131715310.333                   131715310.333    25294541.078  
                 135805946.471                   135805946.471    26080097.601  
                 116901051.280                   116901051.280    22449617.792  
                 119197058.461                   119197058.461    22890540.704  
  27157047.247   142711211.683                                                  
  27724155.732   145691421.102                                                  
  26068972.901   136993368.109                                                  
  23458743.917   123276516.356                                                  
  25076344.798   131777086.105                                                  
  25284727.804   132872184.548                                                  
  26591901.066   139741357.590                                                  
  24006670.882   126155888.551                                                  
  25449117.758   133736040.324                                                  
 21  8 31  8 48 59.0000000  0 22G 1G 7G13G14G15G17G19G21G30C19C23C27
                                C28E 1E 4E 5E 9E12E24E26E31E33
  22820600.044   119923015.137    22820603.368    93446492.497                  
  21987199.659   115543518.660    21987199.624    90033911.495                  
  21544351.360   113216338.755    21544350.966    88220525.530                  
  20619064.724   108353926.760    20619064.974    84431635.913                  
  23561284.108   123815394.112    23561284.180    96479530.175                  
  20575472.867   108124846.867    20575472.635    84253128.652                  
  22339274.002   117393686.192    22339272.411    91475602.344                  
  24059142.231   126431647.364    24059141.356    98518167.735                  
  20509916.300   107780297.984    20509918.427    83984637.901                  
                 131716761.762                   131716761.762    25294819.799  
                 135808228.805                   135808228.805    26080535.874  
                 116898867.706                   116898867.706    22449198.459  
                 119197959.917                   119197959.917    22890713.820  
  27157375.822   142712938.410                                                  
  27724722.966   145694401.918                                                  
  26068881.304   136992886.730                                                  
  23459111.858   123278449.911                                                  
  25075785.694   131774148.015                                                  
  25284500.206   132870988.487                                                  
  26592096.125   139742382.628                                                  
  24006746.146   126156284.065                                                  
  25448869.057   133734733.344                                                  
 21  8 31  8 49  0.0000000  0 22G 1G 7G13G14G15G17G19G21G30C19C23C27
                                C28E 1E 4E 5E 9E12E24E26E31E33
  22820381.828   119921868.375    22820385.133    93445598.914                  
  21987628.713   115545773.364    21987628.659    90035668.407                  
  21544205.245   113215570.837    21544204.816    88219927.152                  
  20619082.665   108354021.015    20619082.915    84431709.358                  
  23561000.598   123813904.395    23561000.688    96478369.355                  
  20575216.304   108123498.649    20575216.072    84252078.091                  
  22338648.246   117390397.820    22338646.656    91473039.976                  
  24059331.160   126432640.059    24059330.267    98518941.266                  
  20510031.359   107780902.706    20510033.503    83985109.118                  
                 131718213.548                   131718213.548    25295098.592  
                 135810511.266                   135810511.266    26080974.219  
                 116896684.554                   116896684.554    22448779.198  
                 119198861.913                   119198861.913    22890887.042  
  27157704.416   142714665.145                                                  
  27725290.182   145697382.686                                                  
  26068789.779   136992405.815                                                  
  23459479.853   123280383.806                                                  
  25075226.626   131771209.995                                                  
  25284272.609   132869792.500                                                  
  26592291.272   139743408.124                                                  
  24006821.428   126156679.667                                                  
  25448620.428   133733426.793                                                  
 21  8 31  8 49  1.0000000  0 22G 1G 7G13G14G15G17G19G21G30C19C23C27
                                C28E 1E 4E 5E 9E12E24E26E31E33
  22820163.718   119920722.194    22820167.042    93444705.788                  
  21988057.837   115548028.444    21988057.801    90037425.612                  
  21544059.237   113214803.587    21544058.826    88219329.293                  
  20619100.641   108354115.516    20619100.891    84431782.996                  
  23560717.231   123812415.242    23560717.321    96477208.980                  
  20574959.848   108122150.989    20574959.616    84251027.966                  
  22338022.563   117387109.773    22338020.954    91470477.862                  
  24059520.161   126433633.293    24059519.268    98519715.215                  
  20510146.543   107781507.918    20510148.651    83985580.710                  
                 131719665.684                   131719665.684    25295377.474  
                 135812793.849                   135812793.849    26081412.564  
                 116894501.824                   116894501.824    22448360.045  
                 119199764.445                   119199764.445    22891060.353  
  27158032.991   142716391.883                                                  
  27725857.399   145700363.399                                                  
  26068698.361   136991925.358                                                  
  23459847.937   123282318.015                                                  
  25074667.540   131768272.034                                                  
  25284045.029   132868596.572                                                  
  26592486.491   139744434.071                                                  
  24006896.728   126157075.339                                                  
  25448371.887   133732120.673                                                  
 21  8 31  8 49  2.0000000  0 22G 1G 7G13G14G15G17G19G21G30C19C23C27
                                C28E 1E 4E 5E 9E12E24E26E31E33
  22819945.716   119919576.618    22819949.040    93443813.129                  
  21988487.051   115550283.926    21988486.998    90039183.128                  
  21543913.354   113214036.989    21543912.943    88218731.950                  
  20619118.689   108354210.266    20619118.921    84431856.832                  
  23560433.954   123810926.675    23560434.043    96476049.056                  
  20574703.499   108120803.901    20574703.284    84249978.289                  
  22337396.915   117383822.049    22337395.342    91467915.999                  
  24059709.269   126434627.056    24059708.375    98520489.573                  
  20510261.798   107782113.588    20510263.924    83986052.661                  
                 131721118.168                   131721118.168    25295656.391  
                 135815076.554                   135815076.554    26081850.927  
                 116892319.512                   116892319.512    22447940.945  
                 119200667.511                   119200667.511    22891233.772  
  27158361.603   142718118.635                                                  
  27726424.597   145703344.053                                                  
  26068607.015   136991445.368                                                  
  23460216.057   123284252.536                                                  
  25074108.472   131765334.120                                                  
  25283817.467   132867400.719                                                  
  26592681.818   139745460.462                                                  
  24006972.028   126157471.097                                                  
  25448123.401   133730814.952                                                  
 21  8 31  8 49  3.0000000  0 22G 1G 7G13G14G15G17G19G21G30C19C23C27
                                C28E 1E 4E 5E 9E12E24E26E31E33
  22819727.839   119918431.625    22819731.145    93442920.929                  
  21988916.319   115552539.798    21988916.283    90040940.950                  
  21543767.596   113213271.051    21543767.185    88218135.113                  
  20619136.754   108354305.275    20619137.004    84431930.860                  
  23560150.819   123809438.687    23560150.908    96474889.587                  
  20574447.275   108119457.386    20574447.043    84248929.059                  
  22336771.338   117380534.646    22336769.765    91465354.386                  
  24059898.466   126435621.332    24059897.573    98521264.336                  
  20510377.143   107782719.746    20510379.287    83986524.989                  
                 131722571.004                   131722571.004    25295935.416  
                 135817359.388                   135817359.388    26082289.326  
                 116890137.622                   116890137.622    22447521.934  
                 119201571.113                   119201571.113    22891407.298  
  27158690.178   142719845.403                                                  
  27726991.778   145706324.661                                                  
  26068515.758   136990965.829                                                  
  23460584.266   123286187.394                                                  
  25073549.421   131762396.265                                                  
  25283589.923   132866204.926                                                  
  26592877.215   139746487.305                                                  
  24007047.364   126157866.918                                                  
  25447875.021   133729509.659                                                  
 21  8 31  8 49  4.0000000  0 22G 1G 7G13G14G15G17G19G21G30C19C23C27
                                C28E 1E 4E 5E 9E12E24E26E31E33
  22819510.052   119917287.220    22819513.375    93442029.185                  
  21989345.676   115554796.042    21989345.622    90042699.063                  
  21543621.982   113212505.770    21543621.553    88217538.788                  
  20619154.873   108354400.524    20619155.141    84432005.082                  
  23559867.756   123807951.277    23559867.845    96473730.566                  
  20574191.140   108118111.430    20574190.926    84247880.258                  
  22336145.833   117377247.573    22336144.260    91462793.031                  
  24060087.788   126436616.157    24060086.877    98522039.524                  
  20510492.576   107783326.364    20510494.703    83986997.680                  
                 131724024.195                   131724024.195    25296214.477  
                 135819642.343                   135819642.343    26082727.742  
                 116887956.151                   116887956.151    22447102.995  
                 119202475.253                   119202475.253    22891580.932  
  27159018.772   142721572.173                                                  
  27727558.959   145709305.206                                                  
  26068424.608   136990486.751                                                  
  23460952.493   123288122.572                                                  
  25072990.389   131759458.465                                                  
  25283362.361   132865009.176                                                  
  26593072.703   139747514.591                                                  
  24007122.700   126158262.828                                                  
  25447626.714   133728204.786                                                  
 21  8 31  8 49  5.0000000  0 22G 1G 7G13G14G15G17G19G21G30C19C23C27
                                C28E 1E 4E 5E 9E12E24E26E31E33
  22819292.407   119916143.401    22819295.713    93441137.897                  
  21989775.104   115557052.683    21989775.068    90044457.484                  
  21543476.474   113211741.153    21543476.063    88216942.985                  
  20619173.064   108354496.032    20619173.296    84432079.504                  
  23559584.836   123806464.444    23559584.925    96472571.993                  
  20573935.113   108116766.042    20573934.899    84246831.905                  
  22335520.381   117373960.815    22335518.809    91460231.923                  
  24060277.182   126437611.493    24060276.307    98522815.108                  
  20510608.100   107783933.448    20510610.244    83987470.733                  
                 131725477.735                   131725477.735    25296493.626  
                 135821925.430                   135821925.430    26083166.177  
                 116885775.101                   116885775.101    22446684.163  
                 119203379.930                   119203379.930    22891754.672  
  27159347.383   142723298.938                                                  
  27728126.139   145712285.708                                                  
  26068333.512   136990008.125                                                  
  23461320.827   123290058.063                                                  
  25072431.339   131756520.719                                                  
  25283134.834   132863813.520                                                  
  26593268.279   139748542.329                                                  
  24007198.036   126158658.806                                                  
  25447378.477   133726900.339                                                  
 21  8 31  8 49  6.0000000  0 22G 1G 7G13G14G15G17G19G21G30C19C23C27
                                C28E 1E 4E 5E 9E12E24E26E31E33
  22819074.834   119915000.184    22819078.157    93440247.081                  
  21990204.604   115559309.708    21990204.568    90046216.203                  
  21543331.092   113210977.175    21543330.681    88216347.680                  
  20619191.273   108354591.777    20619191.523    84432154.110                  
  23559302.023   123804978.202    23559302.076    96471413.882                  
  20573679.229   108115421.231    20573678.996    84245784.001                  
  22334895.001   117370674.362    22334893.429    91457671.050                  
  24060466.701   126438607.359    24060465.808    98523591.108                  
  20510723.712   107784541.017    20510725.839    83987944.163                  
                 131726931.626                   131726931.626    25296772.812  
                 135824208.638                   135824208.638    26083604.647  
                 116883594.473                   116883594.473    22446265.402  
                 119204285.140                   119204285.140    22891928.502  
  27159675.977   142725025.731                                                  
  27728693.302   145715266.183                                                  
  26068242.540   136989529.968                                                  
  23461689.179   123291993.843                                                  
  25071872.324   131753583.039                                                  
  25282907.326   132862617.903                                                  
  26593463.945   139749570.512                                                  
  24007273.425   126159054.871                                                  
  25447130.348   133725596.311                                                  
 21  8 31  8 49  7.0000000  0 22G 1G 7G13G14G15G17G19G21G30C19C23C27
                                C28E 1E 4E 5E 9E12E24E26E31E33
  22818857.421   119913857.551    22818860.745    93439356.715                  
  21990634.157   115561567.103    21990634.121    90047975.214                  
  21543185.835   113210213.875    21543185.424    88215752.898                  
  20619209.535   108354687.768    20619209.803    84432228.911                  
  23559019.299   123803492.532    23559019.388    96470256.219                  
  20573423.416   108114076.981    20573423.183    84244736.531                  
  22334269.657   117367388.223    22334268.084    91455110.423                  
  24060656.291   126439603.746    24060655.398    98524367.515                  
  20510839.414   107785149.049    20510841.558    83988417.953                  
                 131728385.867                   131728385.867    25297052.105  
                 135826491.969                   135826491.969    26084043.135  
                 116881414.267                   116881414.267    22445846.695  
                 119205190.890                   119205190.890    22892102.439  
  27160004.588   142726752.531                                                  
  27729260.465   145718246.629                                                  
  26068151.641   136989052.272                                                  
  23462057.602   123293929.945                                                  
  25071313.292   131750645.410                                                  
  25282679.817   132861422.335                                                  
  26593659.682   139750599.136                                                  
  24007348.797   126159451.007                                                  
  25446882.254   133724292.703                                                  
 21  8 31  8 49  8.0000000  0 22G 1G 7G13G14G15G17G19G21G30C19C23C27
                                C28E 1E 4E 5E 9E12E24E26E31E33
  22818640.098   119912715.519    22818643.404    93438466.825                  
  21991063.818   115563824.914    21991063.764    90049734.548                  
  21543040.720   113209451.250    21543040.291    88215158.645                  
  20619227.868   108354784.048    20619228.119    84432303.929                  
  23558736.682   123802007.422    23558736.754    96469098.988                  
  20573167.728   108112733.285    20573167.495    84243689.500                  
  22333644.402   117364102.480    22333642.811    91452550.101                  
  24060846.025   126440600.695    24060845.113    98525144.359                  
  20510955.223   107785757.566    20510957.332    83988892.121                  
                 131729840.456                   131729840.456    25297331.433  
                 135828775.430                   135828775.430    26084481.658  
                 116879234.482                   116879234.482    22445428.096  
                 119206097.173                   119206097.173    22892276.483  
  27160333.181   142728479.319                                                  
  27729827.574   145721226.864                                                  
  26068060.812   136988574.999                                                  
  23462426.115   123295866.496                                                  
  25070754.295   131747707.839                                                  
  25282452.345   132860226.923                                                  
  26593855.509   139751628.238                                                  
  24007424.186   126159847.216                                                  
  25446634.286   133722989.503                                                  
 21  8 31  8 49  9.0000000  0 22G 1G 7G13G14G15G17G19G21G30C19C23C27
                                C28E 1E 4E 5E 9E12E24E26E31E33
  22818422.882   119911574.069    22818426.206    93437577.383                  
  21991493.532   115566083.081    21991493.478    90051494.156                  
  21542895.713   113208689.270    21542895.302    88214564.895                  
  20619246.220   108354880.547    20619246.488    84432379.126                  
  23558454.191   123800522.911    23558454.280    96467942.227                  
  20572912.147   108111390.176    20572911.897    84242642.921                  
  22333019.200   117360817.007    22333017.628    91449989.997                  
  24061035.811   126441598.152    24061034.918    98525921.598                  
  20511071.104   107786366.543    20511073.248    83989366.649                  
                 131731295.403                   131731295.403    25297610.834  
                 135831059.011                   135831059.011    26084920.200  
                 116877055.116                   116877055.116    22445009.585  
                 119207003.993                   119207003.993    22892450.635  
  27160661.775   142730206.133                                                  
  27730394.719   145724207.172                                                  
  26067970.073   136988098.221                                                  
  23462794.682   123297803.273                                                  
  25070195.316   131744770.324                                                  
  25282224.854   132859031.505                                                  
  26594051.425   139752657.772                                                  
  24007499.593   126160243.505                                                  
  25446386.353   133721686.728                                                  
 21  8 31  8 49 10.0000000  0 22G 1G 7G13G14G15G17G19G21G30C19C23C27
                                C28E 1E 4E 5E 9E12E24E26E31E33
  22818205.774   119910433.208    22818209.097    93436688.399                  
  21991923.318   115568341.644    21991923.282    90053254.075                  
  21542750.831   113207927.948    21542750.438    88213971.657                  
  20619264.643   108354977.302    20619264.893    84432454.519                  
  23558171.825   123799038.972    23558171.896    96466785.915                  
  20572656.656   108110047.625    20572656.424    84241596.777                  
  22332394.053   117357531.868    22332392.480    91447430.149                  
  24061225.741   126442596.143    24061224.848    98526699.254                  
  20511187.074   107786975.987    20511189.200    83989841.543                  
                 131732750.697                   131732750.697    25297890.323  
                 135833342.722                   135833342.722    26085358.759  
                 116874876.171                   116874876.171    22444591.146  
                 119207911.349                   119207911.349    22892624.876  
  27160990.386   142731932.956                                                  
  27730961.846   145727187.395                                                  
  26067879.442   136987621.896                                                  
  23463163.302   123299740.370                                                  
  25069636.338   131741832.862                                                  
  25281997.382   132857836.158                                                  
  26594247.412   139753687.758                                                  
  24007575.018   126160639.872                                                  
  25446138.546   133720384.370                                                  
 21  8 31  8 49 11.0000000  0 22G 1G 7G13G14G15G17G19G21G30C19C23C27
                                C28E 1E 4E 5E 9E12E24E26E31E33
  22817988.808   119909292.928    22817992.114    93435799.871                  
  21992353.175   115570600.591    21992353.139    90055014.294                  
  21542606.092   113207167.286    21542605.681    88213378.933                  
  20619283.102   108355074.306    20619283.334    84432530.105                  
  23557889.548   123797555.615    23557889.619    96465630.052                  
  20572401.272   108108705.640    20572401.057    84240551.077                  
  22331768.976   117354247.038    22331767.404    91444870.543                  
  24061415.743   126443594.648    24061414.831    98527477.312                  
  20511303.133   107787585.921    20511305.277    83990316.814                  
                 131734206.339                   131734206.339    25298169.866  
                 135835626.556                   135835626.556    26085797.337  
                 116872697.648                   116872697.648    22444172.779  
                 119208819.243                   119208819.243    22892799.242  
  27161318.980   142733659.777                                                  
  27731528.937   145730167.574                                                  
  26067788.882   136987146.022                                                  
  23463531.976   123301677.801                                                  
  25069077.359   131738895.462                                                  
  25281769.945   132856640.877                                                  
  26594443.507   139754718.198                                                  
  24007650.461   126161036.308                                                  
  25445890.774   133719082.446                                                  
 21  8 31  8 49 12.0000000  0 22G 1G 7G13G14G15G17G19G21G30C19C23C27
                                C28E 1E 4E 5E 9E12E24E26E31E33
  22817771.914   119908153.250    22817775.237    93434911.808                  
  21992783.122   115572859.929    21992783.086    90056774.816                  
  21542461.460   113206407.276    21542461.067    88212786.715                  
  20619301.596   108355171.562    20619301.864    84432605.891                  
  23557607.378   123796072.844    23557607.467    96464474.644                  
  20572146.013   108107364.230    20572145.798    84239505.825                  
  22331143.954   117350962.539    22331142.381    91442311.191                  
  24061605.851   126444593.690    24061604.958    98528255.786                  
  20511419.300   107788196.313    20511421.426    83990792.446                  
                 131735662.333                   131735662.333    25298449.463  
                 135837910.514                   135837910.514    26086235.967  
                 116870519.547                   116870519.547    22443754.483  
                 119209727.668                   119209727.668    22892973.679  
  27161647.573   142735386.608                                                  
  27732096.047   145733147.697                                                  
  26067698.429   136986670.609                                                  
  23463900.721   123303615.547                                                  
  25068518.398   131735958.120                                                  
  25281542.508   132855445.668                                                  
  26594639.673   139755749.079                                                  
  24007725.922   126161432.825                                                  
  25445643.127   133717780.933                                                  
 21  8 31  8 49 13.0000000  0 22G 1G 7G13G14G15G17G19G21G30C19C23C27
                                C28E 1E 4E 5E 9E12E24E26E31E33
  22817555.163   119907014.159    22817558.486    93434024.207                  
  21993213.140   115575119.656    21993213.086    90058535.641                  
  21542316.971   113205647.929    21542316.560    88212195.016                  
  20619320.162   108355269.062    20619320.412    84432681.863                  
  23557325.316   123794590.636    23557325.405    96463319.677                  
  20571890.861   108106023.387    20571890.647    84238461.012                  
  22330519.002   117347678.366    22330517.412    91439752.097                  
  24061796.067   126445593.263    24061795.173    98529034.672                  
  20511535.538   107788807.180    20511537.682    83991268.442                  
                 131737118.678                   131737118.678    25298729.148  
                 135840194.601                   135840194.601    26086674.580  
                 116868341.868                   116868341.868    22443336.276  
                 119210636.632                   119210636.632    22893148.242  
  27161976.202   142737113.458                                                  
  27732663.138   145736127.767                                                  
  26067608.047   136986195.657                                                  
  23464269.519   123305553.618                                                  
  25067959.455   131733020.840                                                  
  25281315.053   132854250.520                                                  
  26594835.946   139756780.405                                                  
  24007801.383   126161829.419                                                  
  25445395.516   133716479.843                                                  
 21  8 31  8 49 14.0000000  0 22G 1G 7G13G14G15G17G19G21G30C19C23C27
                                C28E 1E 4E 5E 9E12E24E26E31E33
  22817338.501   119905875.661    22817341.824    93433137.063                  
  21993643.211   115577379.757    21993643.176    90060296.758                  
  21542172.607   113204889.239    21542172.179    88211603.831                  
  20619338.764   108355366.817    20619339.014    84432758.038                  
  23557043.378   123793109.024    23557043.467    96462165.172                  
  20571635.816   108104683.110    20571635.602    84237416.636                  
  22329894.105   117344394.519    22329892.515    91437193.253                  
  24061986.372   126446593.364    24061985.479    98529813.974                  
  20511651.883   107789418.519    20511653.991    83991744.812                  
                 131738575.376                   131738575.376    25299008.888  
                 135842478.810                   135842478.810    26087113.247  
                 116866164.610                   116866164.610    22442918.159  
                 119211546.133                   119211546.133    22893322.893  
  27162304.796   142738840.307                                                  
  27733230.211   145739107.793                                                  
  26067517.737   136985721.160                                                  
  23464638.372   123307492.000                                                  
  25067400.512   131730083.586                                                  
  25281087.634   132853055.430                                                  
  26595032.273   139757812.181                                                  
  24007876.880   126162226.088                                                  
  25445148.012   133715179.163                                                  
 21  8 31  8 49 15.0000000  0 22G 1G 7G13G14G15G17G19G21G30C19C23C27
                                C28E 1E 4E 5E 9E12E24E26E31E33
  22817121.964   119904737.673    22817125.287    93432250.289                  
  21994073.372   115579640.294    21994073.319    90062058.246                  
  21542028.333   113204131.200    21542027.940    88211013.147                  
  20619357.401   108355464.831    20619357.651    84432834.421                  
  23556761.548   123791627.985    23556761.619    96461011.117                  
  20571380.879   108103343.382    20571380.665    84236372.687                  
  22329269.261   117341111.003    22329267.688    91434634.683                  
  24062176.784   126447594.023    24062175.909    98530593.730                  
  20511768.300   107790030.328    20511770.444    83992221.542                  
                 131740032.423                   131740032.423    25299288.699  
                 135844763.143                   135844763.143    26087551.914  
                 116863987.773                   116863987.773    22442500.113  
                 119212456.164                   119212456.164    22893497.652  
  27162633.425   142740567.183                                                  
  27733797.285   145742087.567                                                  
  26067427.534   136985247.000                                                  
  23465007.314   123309430.761                                                  
  25066841.604   131727146.432                                                  
  25280860.233   132851860.344                                                  
  26595228.707   139758844.405                                                  
  24007952.376   126162622.788                                                  
  25444900.580   133713878.921                                                  
 21  8 31  8 49 16.0000000  0 22G 1G 7G13G14G15G17G19G21G30C19C23C27
                                C28E 1E 4E 5E 9E12E24E26E31E33
  22816905.534   119903600.345    22816908.858    93431364.058                  
  21994503.605   115581901.155    21994503.551    90063819.953                  
  21541884.219   113203373.813    21541883.826    88210422.976                  
  20619376.092   108355563.070    20619376.360    84432910.969                  
  23556479.825   123790147.526    23556479.896    96459857.515                  
  20571126.067   108102004.237    20571125.817    84235329.198                  
  22328644.506   117337827.795    22328642.916    91432076.344                  
  24062367.304   126448595.166    24062366.393    98531373.839                  
  20511884.823   107790642.598    20511886.932    83992698.638                  
                 131741489.815                   131741489.815    25299568.582  
                 135847047.605                   135847047.605    26087990.634  
                 116861811.356                   116861811.356    22442082.175  
                 119213366.739                   119213366.739    22893672.537  
  27162962.018   142742294.030                                                  
  27734364.340   145745067.473                                                  
  26067337.421   136984773.418                                                  
  23465376.309   123311369.812                                                  
  25066282.679   131724209.328                                                  
  25280632.832   132850665.378                                                  
  26595425.195   139759877.070                                                  
  24008027.873   126163019.616                                                  
  25444653.237   133712579.110                                                  
 21  8 31  8 49 17.0000000  0 22G 1G 7G13G14G15G17G19G21G30C19C23C27
                                C28E 1E 4E 5E 9E12E24E26E31E33
  22816689.248   119902463.610    22816692.535    93430478.292                  
  21994933.927   115584162.423    21994933.855    90065581.980                  
  21541740.213   113202617.090    21541739.820    88209833.323                  
  20619394.854   108355661.574    20619395.105    84432987.728                  
  23556198.227   123788667.646    23556198.298    96458704.360                  
  20570871.326   108100665.665    20570871.094    84234286.157                  
  22328019.787   117334544.914    22328018.197    91429518.250                  
  24062557.913   126449596.842    24062557.019    98532154.372                  
  20512001.419   107791255.352    20512003.545    83993176.106                  
                 131742947.562                   131742947.562    25299848.518  
                 135849332.192                   135849332.192    26088429.354  
                 116859635.363                   116859635.363    22441664.307  
                 119214277.842                   119214277.842    22893847.492  
  27163290.648   142744020.906                                                  
  27734931.378   145748047.335                                                  
  26067247.379   136984300.306                                                  
  23465745.340   123313309.165                                                  
  25065723.772   131721272.283                                                  
  25280405.466   132849470.491                                                  
  26595621.808   139760910.198                                                  
  24008103.423   126163416.515                                                  
  25444405.965   133711279.695                                                  
 21  8 31  8 49 18.0000000  0 22G 1G 7G13G14G15G17G19G21G30C19C23C27
                                C28E 1E 4E 5E 9E12E24E26E31E33
  22816473.032   119901327.474    22816476.338    93429592.991                  
  21995364.284   115586424.061    21995364.248    90067344.293                  
  21541596.367   113201861.026    21541595.938    88209244.183                  
  20619413.635   108355760.327    20619413.903    84433064.676                  
  23555916.718   123787188.346    23555916.808    96457551.661                  
  20570616.728   108099327.648    20570616.478    84233243.544                  
  22327395.140   117331262.343    22327393.532    91426960.407                  
  24062748.629   126450599.053    24062747.735    98532935.313                  
  20512118.121   107791868.578    20512120.248    83993653.945                  
                 131744405.662                   131744405.662    25300128.543  
                 135851616.904                   135851616.904    26088868.128  
                 116857459.794                   116857459.794    22441246.494  
                 119215189.484                   119215189.484    22894022.573  
  27163619.259   142745747.797                                                  
  27735498.416   145751027.124                                                  
  26067157.444   136983827.636                                                  
  23466114.460   123315248.845                                                  
  25065164.883   131718335.281                                                  
  25280178.101   132848275.672                                                  
  26595818.474   139761943.773                                                  
  24008178.956   126163813.496                                                  
  25444158.783   133709980.711                                                  
 21  8 31  8 49 19.0000000  0 22G 1G 7G13G14G15G17G19G21G30C19C23C27
                                C28E 1E 4E 5E 9E12E24E26E31E33
  22816256.942   119900191.922    22816260.266    93428708.148                  
  21995794.767   115588686.007    21995794.713    90069106.808                  
  21541452.629   113201105.485    21541452.236    88208655.378                  
  20619432.487   108355859.335    20619432.737    84433141.827                  
  23555635.335   123785709.622    23555635.424    96456399.399                  
  20570362.202   108097990.279    20570361.952    84232201.468                  
  22326770.546   117327980.165    22326768.938    91424402.891                  
  24062939.434   126451601.837    24062938.541    98533716.723                  
  20512234.931   107792482.072    20512237.076    83994131.891                  
                 131745864.011                   131745864.011    25300408.640  
                 135853901.720                   135853901.720    26089306.902  
                 116855284.711                   116855284.711    22440828.788  
                 119216101.698                   119216101.698    22894197.743  
  27163947.888   142747474.699                                                  
  27736065.400   145754007.168                                                  
  26067067.634   136983355.178                                                  
  23466483.599   123317188.984                                                  
  25064605.957   131715398.532                                                  
  25279950.753   132847080.829                                                  
  26596015.284   139762977.702                                                  
  24008254.488   126164210.653                                                  
  25443911.672   133708682.130                                                  
 21  8 31  8 49 20.0000000  0 22G 1G 7G13G14G15G17G19G21G30C19C23C27
                                C28E 1E 4E 5E 9E12E24E26E31E33
  22816040.959   119899056.962    22816044.283    93427823.761                  
  21996225.285   115590948.417    21996225.232    90070869.722                  
  21541308.998   113200350.739    21541308.622    88208067.265                  
  20619451.374   108355958.578    20619451.624    84433219.160                  
  23555354.059   123784231.493    23555354.148    96455247.608                  
  20570107.801   108096653.394    20570107.568    84231159.746                  
  22326146.006   117324698.246    22326144.415    91421845.551                  
  24063130.365   126452605.086    24063129.453    98534498.476                  
  20512351.795   107793096.234    20512353.957    83994610.457                  
                 131747322.805                   131747322.805    25300688.773  
                 135856186.673                   135856186.673    26089745.712  
                 116853109.977                   116853109.977    22440411.135  
                 119217014.410                   119217014.410    22894373.020  
  27164276.500   142749201.590                                                  
  27736632.420   145756986.859                                                  
  26066977.860   136982883.434                                                  
  23466852.826   123319129.303                                                  
  25064047.104   131712461.645                                                  
  25279723.423   132845886.133                                                  
  26596212.147   139764012.168                                                  
  24008330.056   126164607.778                                                  
  25443664.633   133707383.968                                                  
 21  8 31  8 49 21.0000000  0 22G 1G 7G13G14G15G17G19G21G30C19C23C27
                                C28E 1E 4E 5E 9E12E24E26E31E33
  22815825.102   119897922.589    22815828.425    93426939.837                  
  21996655.875   115593211.217    21996655.839    90072632.945                  
  21541165.527   113199596.647    21541165.116    88207479.663                  
  20619470.297   108356058.083    20619470.565    84433296.695                  
  23555072.872   123782753.934    23555072.961    96454096.261                  
  20569853.506   108095317.078    20569853.274    84230118.457                  
  22325521.537   117321416.655    22325519.965    91419288.470                  
  24063321.367   126453608.876    24063320.455    98535280.652                  
  20512468.783   107793710.884    20512470.927    83995089.407                  
                 131748781.945                   131748781.945    25300968.995  
                 135858471.754                   135858471.754    26090184.539  
                 116850935.668                   116850935.668    22439993.572  
                 119217927.651                   119217927.651    22894548.405  
  27164605.129   142750928.495                                                  
  27737199.422   145759966.484                                                  
  26066888.176   136982412.132                                                  
  23467222.125   123321069.925                                                  
  25063488.232   131709524.820                                                  
  25279496.076   132844691.492                                                  
  26596409.064   139765047.075                                                  
  24008405.642   126165004.988                                                  
  25443417.701   133706086.238                                                  
 21  8 31  8 49 22.0000000  0 22G 1G 7G13G14G15G17G19G21G30C19C23C27
                                C28E 1E 4E 5E 9E12E24E26E31E33
  22815609.369   119896788.815    22815612.675    93426056.374                  
  21997086.536   115595474.399    21997086.518    90074396.461                  
  21541022.146   113198843.228    21541021.735    88206892.583                  
  20619489.274   108356157.827    20619489.542    84433374.419                  
  23554791.828   123781276.953    23554791.899    96452945.371                  
  20569599.320   108093981.320    20569599.087    84229077.609                  
  22324897.140   117318135.387    22324895.532    91416731.637                  
  24063512.476   126454613.191    24063511.582    98536063.231                  
  20512585.825   107794325.991    20512587.987    83995568.711                  
                 131750241.437                   131750241.437    25301249.288  
                 135860756.960                   135860756.960    26090623.402  
                 116848761.777                   116848761.777    22439576.116  
                 119218841.433                   119218841.433    22894723.878  
  27164933.740   142752655.415                                                  
  27737766.424   145762946.055                                                  
  26066798.598   136981941.305                                                  
  23467591.460   123323010.892                                                  
  25062929.396   131706588.048                                                  
  25279268.782   132843496.917                                                  
  26596606.105   139766082.433                                                  
  24008481.246   126165402.262                                                  
  25443170.822   133704788.927                                                  
 21  8 31  8 49 23.0000000  0 22G 1G 7G13G14G15G17G19G21G30C19C23C27
                                C28E 1E 4E 5E 9E12E24E26E31E33
  22815393.726   119895655.628    22815397.031    93425173.376                  
  21997517.305   115597737.968    21997517.251    90076160.281                  
  21540878.908   113198090.492    21540878.497    88206306.031                  
  20619508.323   108356257.827    20619508.573    84433452.341                  
  23554510.873   123779800.567    23554510.962    96451794.939                  
  20569345.240   108092646.140    20569345.026    84228037.207                  
  22324272.796   117314854.442    22324271.206    91414175.055                  
  24063703.692   126455618.031    24063702.799    98536846.228                  
  20512702.957   107794941.574    20512705.119    83996048.386                  
                 131751701.278                   131751701.278    25301529.617  
                 135863042.289                   135863042.289    26091062.265  
                 116846588.308                   116846588.308    22439158.713  
                 119219755.747                   119219755.747    22894899.459  
  27165262.351   142754382.332                                                  
  27738333.408   145765925.579                                                  
  26066709.074   136981470.931                                                  
  23467960.884   123324952.153                                                  
  25062370.560   131703651.331                                                  
  25279041.452   132842302.414                                                  
  26596803.201   139767118.250                                                  
  24008556.868   126165799.610                                                  
  25442924.033   133703492.039                                                  
 21  8 31  8 49 24.0000000  0 22G 1G 7G13G14G15G17G19G21G30C19C23C27
                                C28E 1E 4E 5E 9E12E24E26E31E33
  22815178.207   119894523.028    22815181.513    93424290.828                  
  21997948.127   115600001.921    21997948.073    90077924.398                  
  21540735.777   113197338.398    21540735.384    88205719.984                  
  20619527.407   108356358.077    20619527.639    84433530.457                  
  23554230.043   123778324.751    23554230.115    96450644.950                  
  20569091.285   108091311.527    20569091.035    84226997.250                  
  22323648.524   117311573.825    22323646.916    91411618.730                  
  24063895.016   126456623.400    24063894.123    98537629.629                  
  20512820.195   107795557.638    20512822.358    83996528.433                  
                 131753161.465                   131753161.465    25301810.036  
                 135865327.745                   135865327.745    26091501.164  
                 116844415.266                   116844415.266    22438741.418  
                 119220670.599                   119220670.599    22895075.166  
  27165590.998   142756109.269                                                  
  27738900.374   145768905.042                                                  
  26066619.658   136981001.020                                                  
  23468330.362   123326893.754                                                  
  25061811.725   131700714.676                                                  
  25278814.176   132841107.973                                                  
  26597000.403   139768154.503                                                  
  24008632.507   126166197.043                                                  
  25442677.316   133702195.570                                                  
 21  8 31  8 49 25.0000000  0 22G 1G 7G13G14G15G17G19G21G30C19C23C27
                                C28E 1E 4E 5E 9E12E24E26E31E33
  22814962.778   119893391.032    22814966.102    93423408.749                  
  21998379.003   115602266.274    21998378.967    90079688.824                  
  21540592.807   113196586.971    21540592.396    88205134.454                  
  20619546.527   108356458.582    20619546.777    84433608.770                  
  23553949.321   123776849.519    23553949.393    96449495.418                  
  20568837.420   108089977.488    20568837.188    84225957.735                  
  22323024.305   117308293.523    22323022.697    91409062.648                  
  24064086.411   126457629.293    24064085.536    98538413.438                  
  20512937.523   107796174.168    20512939.686    83997008.845                  
                 131754622.004                   131754622.004    25302090.526  
                 135867613.329                   135867613.329    26091940.099  
                 116842242.640                   116842242.640    22438324.194  
                 119221585.985                   119221585.985    22895250.961  
  27165919.628   142757836.210                                                  
  27739467.340   145771884.461                                                  
  26066530.348   136980531.570                                                  
  23468699.894   123328835.675                                                  
  25061252.925   131697778.079                                                  
  25278586.900   132839913.597                                                  
  26597197.677   139769191.206                                                  
  24008708.147   126166594.552                                                  
  25442430.705   133700899.521                                                  
 21  8 31  8 49 26.0000000  0 22G 1G 7G13G14G15G17G19G21G30C19C23C27
                                C28E 1E 4E 5E 9E12E24E26E31E33
  22814747.474   119892259.626    22814750.798    93422527.129                  
  21998809.968   115604531.005    21998809.932    90081453.543                  
  21540449.926   113195836.210    21540449.533    88204549.441                  
  20619565.700   108356559.336    20619565.932    84433687.273                  
  23553668.706   123775374.882    23553668.777    96448346.344                  
  20568583.662   108088644.019    20568583.448    84224918.664                  
  22322400.140   117305013.555    22322398.532    91406506.824                  
  24064277.931   126458635.712    24064277.038    98539197.656                  
  20513054.941   107796791.168    20513057.103    83997489.617                  
                 131756082.894                   131756082.894    25302371.088  
                 135869899.035                   135869899.035    26092379.034  
                 116840070.442                   116840070.442    22437907.042  
                 119222501.907                   119222501.907    22895426.846  
  27166248.239   142759563.156                                                  
  27740034.306   145774863.810                                                  
  26066441.075   136980062.575                                                  
  23469069.496   123330777.913                                                  
  25060694.125   131694841.539                                                  
  25278359.624   132838719.288                                                  
  26597395.041   139770228.354                                                  
  24008783.804   126166992.132                                                  
  25442184.166   133699603.886                                                  
 21  8 31  8 49 27.0000000  0 22G 1G 7G13G14G15G17G19G21G30C19C23C27
                                C28E 1E 4E 5E 9E12E24E26E31E33
  22814532.296   119891128.807    22814535.619    93421645.969                  
  21999241.004   115606796.117    21999240.969    90083218.565                  
  21540307.189   113195086.098    21540306.778    88203964.933                  
  20619584.927   108356660.343    20619585.160    84433765.978                  
  23553388.198   123773900.823    23553388.287    96447197.726                  
  20568330.011   108087311.122    20568329.797    84223880.038                  
  22321776.047   117301733.907    22321774.439    91403951.250                  
  24064469.559   126459642.677    24064468.665    98539982.302                  
  20513172.447   107797408.650    20513174.592    83997970.767                  
                 131757544.134                   131757544.134    25302651.703  
                 135872184.866                   135872184.866    26092818.022  
                 116837898.659                   116837898.659    22437489.979  
                 119223418.364                   119223418.364    22895602.838  
  27166576.886   142761290.117                                                  
  27740601.237   145777843.117                                                  
  26066351.944   136979594.031                                                  
  23469439.153   123332720.459                                                  
  25060135.324   131691905.059                                                  
  25278132.366   132837525.027                                                  
  26597592.493   139771265.958                                                  
  24008859.480   126167389.790                                                  
  25441937.681   133698308.679                                                  
 21  8 31  8 49 28.0000000  0 22G 1G 7G13G14G15G17G19G21G30C19C23C27
                                C28E 1E 4E 5E 9E12E24E26E31E33
  22814317.224   119889998.590    22814320.548    93420765.274                  
  21999672.112   115609061.608    21999672.077    90084983.879                  
  21540164.558   113194336.645    21540164.183    88203380.942                  
  20619604.172   108356761.593    20619604.440    84433844.872                  
  23553107.797   123772427.352    23553107.887    96446049.558                  
  20568076.486   108085978.780    20568076.253    84222841.847                  
  22321152.007   117298454.587    22321150.417    91401395.933                  
  24064661.275   126460650.161    24064660.382    98540767.347                  
  20513290.026   107798026.589    20513292.188    83998452.273                  
                 131759005.722                   131759005.722    25302932.372  
                 135874470.825                   135874470.825    26093257.028  
                 116835727.304                   116835727.304    22437073.005  
                 119224335.350                   119224335.350    22895778.937  
  27166905.515   142763017.087                                                  
  27741168.185   145780822.369                                                  
  26066262.867   136979125.960                                                  
  23469808.881   123334663.343                                                  
  25059576.542   131688968.642                                                  
  25277905.125   132836330.856                                                  
  26597790.035   139772304.007                                                  
  24008935.155   126167787.520                                                  
  25441691.303   133697013.894                                                  
 21  8 31  8 49 29.0000000  0 22G 1G 7G13G14G15G17G19G21G30C19C23C27
                                C28E 1E 4E 5E 9E12E24E26E31E33
  22814102.260   119888868.953    22814105.583    93419885.035                  
  22000103.292   115611327.495    22000103.256    90086749.496                  
  21540022.088   113193587.856    21540021.677    88202797.465                  
  20619623.506   108356863.102    20619623.757    84433923.960                  
  23552827.522   123770954.458    23552827.593    96444901.844                  
  20567823.067   108084647.019    20567822.817    84221804.107                  
  22320528.039   117295175.585    22320526.448    91398840.864                  
  24064853.099   126461658.177    24064852.206    98541552.811                  
  20513407.693   107798645.012    20513409.855    83998934.159                  
                 131760467.657                   131760467.657    25303213.147  
                 135876756.907                   135876756.907    26093696.034  
                 116833556.370                   116833556.370    22436656.103  
                 119225252.880                   119225252.880    22895955.143  
  27167234.144   142764744.063                                                  
  27741735.098   145783801.558                                                  
  26066173.879   136978658.344                                                  
  23470178.645   123336606.544                                                  
  25059017.760   131686032.280                                                  
  25277677.903   132835136.746                                                  
  26597987.667   139773342.508                                                  
  24009010.866   126168185.343                                                  
  25441444.979   133695719.536                                                  
 21  8 31  8 49 30.0000000  0 22G 1G 7G13G14G15G17G19G21G30C19C23C27
                                C28E 1E 4E 5E 9E12E24E26E31E33
  22813887.403   119887739.921    22813890.726    93419005.270                  
  22000534.561   115613593.755    22000534.525    90088515.410                  
  21539879.708   113192839.707    21539879.315    88202214.487                  
  20619642.859   108356964.859    20619643.127    84434003.249                  
  23552547.353   123769482.149    23552547.443    96443754.590                  
  20567569.738   108083315.821    20567569.506    84220766.805                  
  22319904.124   117291896.905    22319902.516    91396286.042                  
  24065045.013   126462666.720    24065044.119    98542338.683                  
  20513525.486   107799263.911    20513527.648    83999416.411                  
                 131761929.946                   131761929.946    25303493.959  
                 135879043.116                   135879043.116    26094135.076  
                 116831385.864                   116831385.864    22436239.254  
                 119226170.945                   119226170.945    22896131.457  
  27167562.774   142766471.059                                                  
  27742302.028   145786780.710                                                  
  26066084.981   136978191.183                                                  
  23470548.498   123338550.079                                                  
  25058458.996   131683095.980                                                  
  25277450.680   132833942.690                                                  
  26598185.352   139774381.456                                                  
  24009086.577   126168583.234                                                  
  25441198.761   133694425.594                                                  
 21  8 31  8 49 31.0000000  0 22G 1G 7G13G14G15G17G19G21G30C19C23C27
                                C28E 1E 4E 5E 9E12E24E26E31E33
  22813672.688   119886611.476    22813675.976    93418125.957                  
  22000965.883   115615860.405    22000965.848    90090281.629                  
  21539737.488   113192092.236    21539737.077    88201632.040                  
  20619662.282   108357066.861    20619662.515    84434082.731                  
  23552267.292   123768010.417    23552267.381    96442607.786                  
  20567316.534   108081985.187    20567316.302    84219729.945                  
  22319280.280   117288618.554    22319278.672    91393731.480                  
  24065237.033   126463675.789    24065236.140    98543124.972                  
  20513643.332   107799883.273    20513645.494    83999899.031                  
                 131763392.587                   131763392.587    25303774.842  
                 135881329.453                   135881329.453    26094574.136  
                 116829215.782                   116829215.782    22435822.513  
                 119227089.548                   119227089.548    22896307.860  
  27167891.421   142768198.058                                                  
  27742868.923   145789759.800                                                  
  26065996.172   136977724.488                                                  
  23470918.404   123340493.910                                                  
  25057900.267   131680159.742                                                  
  25277223.458   132832748.707                                                  
  26598383.144   139775420.861                                                  
  24009162.306   126168981.200                                                  
  25440952.616   133693132.086                                                  
 21  8 31  8 49 32.0000000  0 22G 1G 7G13G14G15G17G19G21G30C19C23C27
                                C28E 1E 4E 5E 9E12E24E26E31E33
  22813458.046   119885483.618    22813461.352    93417247.109                  
  22001397.277   115618127.440    22001397.242    90092048.149                  
  21539595.358   113191345.407    21539594.965    88201050.097                  
  20619681.742   108357169.115    20619681.974    84434162.407                  
  23551987.338   123766539.272    23551987.427    96441461.437                  
  20567063.437   108080655.133    20567063.205    84218693.539                  
  22318656.473   117285340.540    22318654.900    91391177.184                  
  24065429.161   126464685.395    24065428.268    98543911.680                  
  20513761.303   107800503.113    20513763.465    84000382.024                  
                 131764855.575                   131764855.575    25304055.779  
                 135883615.915                   135883615.915    26095013.232  
                 116827046.123                   116827046.123    22435405.861  
                 119228008.689                   119228008.689    22896484.388  
  27168220.068   142769925.058                                                  
  27743435.818   145792738.841                                                  
  26065907.434   136977258.254                                                  
  23471288.364   123342438.079                                                  
  25057341.521   131677223.559                                                  
  25276996.253   132831554.788                                                  
  26598581.025   139776460.706                                                  
  24009238.053   126169379.247                                                  
  25440706.541   133691838.989                                                  
 21  8 31  8 49 33.0000000  0 22G 1G 7G13G14G15G17G19G21G30C19C23C27
                                C28E 1E 4E 5E 9E12E24E26E31E33
  22813243.546   119884356.358    22813246.852    93416368.727                  
  22001828.761   115620394.868    22001828.725    90093814.976                  
  21539453.353   113190599.238    21539452.960    88200468.667                  
  20619701.237   108357271.612    20619701.487    84434242.277                  
  23551707.491   123765068.706    23551707.581    96440315.543                  
  20566810.448   108079325.637    20566810.197    84217657.571                  
  22318032.755   117282062.829    22318031.164    91388623.125                  
  24065621.378   126465695.520    24065620.485    98544698.789                  
  20513879.346   107801123.421    20513881.508    84000865.382                  
                 131766318.913                   131766318.913    25304336.805  
                 135885902.503                   135885902.503    26095452.345  
                 116824876.884                   116824876.884    22434989.280  
                 119228928.359                   119228928.359    22896660.988  
  27168548.697   142771652.083                                                  
  27744002.695   145795717.814                                                  
  26065818.822   136976792.475                                                  
  23471658.378   123344382.559                                                  
  25056782.792   131674287.438                                                  
  25276769.084   132830360.937                                                  
  26598778.978   139777501.000                                                  
  24009313.817   126169777.366                                                  
  25440460.556   133690546.320                                                  
 21  8 31  8 49 34.0000000  0 22G 1G 7G13G14G15G17G19G21G30C19C23C27
                                C28E 1E 4E 5E 9E12E24E26E31E33
  22813029.136   119883229.683    22813032.459    93415490.796                  
  22002260.315   115622662.677    22002260.280    90095582.098                  
  21539311.509   113189853.730    21539311.098    88199887.750                  
  20619720.785   108357374.368    20619721.036    84434322.347                  
  23551427.787   123763598.723    23551427.859    96439170.098                  
  20566557.565   108077996.711    20566557.315    84216622.044                  
  22317409.108   117278785.452    22317407.500    91386069.325                  
  24065813.702   126466706.179    24065812.809    98545486.315                  
  20513997.460   107801744.212    20513999.622    84001349.113                  
                 131767782.601                   131767782.601    25304617.903  
                 135888189.215                   135888189.215    26095891.476  
                 116822708.070                   116822708.070    22434572.771  
                 119229848.567                   119229848.567    22896837.695  
  27168877.344   142773379.106                                                  
  27744569.554   145798696.751                                                  
  26065730.263   136976327.151                                                  
  23472028.464   123346327.359                                                  
  25056224.081   131671351.387                                                  
  25276541.915   132829167.136                                                  
  26598977.039   139778541.743                                                  
  24009389.582   126170175.565                                                  
  25440214.643   133689254.060                                                  
 21  8 31  8 49 35.0000000  0 22G 1G 7G13G14G15G17G19G21G30C19C23C27
                                C28E 1E 4E 5E 9E12E24E26E31E33
  22812814.832   119882103.585    22812818.156    93414613.320                  
  22002691.942   115624930.859    22002691.906    90097349.515                  
  21539169.754   113189108.882    21539169.361    88199307.348                  
  20619740.388   108357477.367    20619740.638    84434402.606                  
  23551148.155   123762129.310    23551148.244    96438025.103                  
  20566304.772   108076668.350    20566304.540    84215586.960                  
  22316785.497   117275508.398    22316783.907    91383515.777                  
  24066006.116   126467717.361    24066005.223    98546274.249                  
  20514115.682   107802365.476    20514117.844    84001833.215                  
                 131769246.635                   131769246.635    25304899.036  
                 135890476.055                   135890476.055    26096330.661  
                 116820539.675                   116820539.675    22434156.387  
                 119230769.310                   119230769.310    22897014.526  
  27169205.973   142775106.131                                                  
  27745136.413   145801675.607                                                  
  26065641.793   136975862.302                                                  
  23472398.603   123348272.482                                                  
  25055665.388   131668415.384                                                  
  25276314.764   132827973.412                                                  
  26599175.153   139779582.930                                                  
  24009465.382   126170573.840                                                  
  25439968.819   133687962.219                                                  
 21  8 31  8 49 36.0000000  0 22G 1G 7G13G14G15G17G19G21G30C19C23C27
                                C28E 1E 4E 5E 9E12E24E26E31E33
  22812600.672   119880978.104    22812603.996    93413736.321                  
  22003123.639   115627199.446    22003123.604    90099117.242                  
  21539028.142   113188364.691    21539027.749    88198727.462                  
  20619760.044   108357580.624    20619760.294    84434483.066                  
  23550868.648   123760660.492    23550868.719    96436880.569                  
  20566052.104   108075340.571    20566051.854    84214552.325                  
  22316161.939   117272231.655    22316160.367    91380962.473                  
  24066198.637   126468729.059    24066197.743    98547062.590                  
  20514233.992   107802987.212    20514236.155    84002317.683                  
                 131770711.018                   131770711.018    25305180.259  
                 135892763.021                   135892763.021    26096769.846  
                 116818371.708                   116818371.708    22433740.039  
                 119231690.591                   119231690.591    22897191.448  
  27169534.638   142776833.175                                                  
  27745703.272   145804654.427                                                  
  26065553.431   136975397.902                                                  
  23472768.795   123350217.921                                                  
  25055106.695   131665479.439                                                  
  25276087.595   132826779.751                                                  
  26599373.374   139780624.562                                                  
  24009541.183   126170972.194                                                  
  25439723.066   133686670.809                                                  
 21  8 31  8 49 37.0000000  0 22G 1G 7G13G14G15G17G19G21G30C19C23C27
                                C28E 1E 4E 5E 9E12E24E26E31E33
  22812386.619   119879853.216    22812389.943    93412859.785                  
  22003555.408   115629468.394    22003555.355    90100885.254                  
  21538886.655   113187621.160    21538886.262    88198148.085                  
  20619779.735   108357684.122    20619779.985    84434563.712                  
  23550589.248   123759192.235    23550589.319    96435736.473                  
  20565799.543   108074013.335    20565799.293    84213518.117                  
  22315538.471   117268955.258    22315536.881    91378409.434                  
  24066391.265   126469741.297    24066390.354    98547851.344                  
  20514352.393   107803609.418    20514354.555    84002802.520                  
                 131772175.753                   131772175.753    25305461.553  
                 135895050.105                   135895050.105    26097209.066  
                 116816204.159                   116816204.159    22433323.780  
                 119232612.404                   119232612.404    22897368.458  
  27169863.285   142778560.235                                                  
  27746270.113   145807633.177                                                  
  26065465.140   136974933.954                                                  
  23473139.077   123352163.692                                                  
  25054548.003   131662543.550                                                  
  25275860.480   132825586.156                                                  
  26599571.684   139781666.655                                                  
  24009617.001   126171370.616                                                  
  25439477.403   133685379.813                                                  
 21  8 31  8 49 38.0000000  0 22G 1G 7G13G14G15G17G19G21G30C19C23C27
                                C28E 1E 4E 5E 9E12E24E26E31E33
  22812172.655   119878728.911    22812175.979    93411983.699                  
  22003987.231   115631737.743    22003987.196    90102653.574                  
  21538745.293   113186878.293    21538744.900    88197569.227                  
  20619799.481   108357787.867    20619799.713    84434644.554                  
  23550309.955   123757724.562    23550310.044    96434592.831                  
  20565547.072   108072686.682    20565546.840    84212484.364                  
  22314915.057   117265679.178    22314913.467    91375856.649                  
  24066583.982   126470754.063    24066583.089    98548640.513                  
  20514470.900   107804232.099    20514473.062    84003287.727                  
                 131773640.837                   131773640.837    25305742.901  
                 135897337.320                   135897337.320    26097648.287  
                 116814037.040                   116814037.040    22432907.593  
                 119233534.749                   119233534.749    22897545.594  
  27170191.915   142780287.293                                                  
  27746836.936   145810611.874                                                  
  26065376.957   136974470.473                                                  
  23473509.395   123354109.768                                                  
  25053989.345   131659607.716                                                  
  25275633.365   132824392.622                                                  
  26599770.084   139782709.188                                                  
  24009692.837   126171769.120                                                  
  25439231.829   133684089.243                                                  
 21  8 31  8 49 39.0000000  0 22G 1G 7G13G14G15G17G19G21G30C19C23C27
                                C28E 1E 4E 5E 9E12E24E26E31E33
  22811958.835   119877605.196    22811962.141    93411108.082                  
  22004419.161   115634007.469    22004419.126    90104422.195                  
  21538604.056   113186136.086    21538603.663    88196990.886                  
  20619819.262   108357891.872    20619819.512    84434725.597                  
  23550030.787   123756257.482    23550030.859    96433449.652                  
  20565294.743   108071360.593    20565294.493    84211451.048                  
  22314291.696   117262403.418    22314290.106    91373304.106                  
  24066776.807   126471767.351    24066775.913    98549430.091                  
  20514589.479   107804855.247    20514591.641    84003773.294                  
                 131775106.266                   131775106.266    25306024.320  
                 135899624.661                   135899624.661    26098087.543  
                 116811870.340                   116811870.340    22432491.513  
                 119234457.632                   119234457.632    22897722.819  
  27170520.579   142782014.360                                                  
  27747403.759   145813590.527                                                  
  26065288.844   136974007.446                                                  
  23473879.802   123356056.176                                                  
  25053430.688   131656671.950                                                  
  25275406.232   132823199.155                                                  
  26599968.537   139783752.176                                                  
  24009768.673   126172167.703                                                  
  25438986.308   133682799.098                                                  
 21  8 31  8 49 40.0000000  0 22G 1G 7G13G14G15G17G19G21G30C19C23C27
                                C28E 1E 4E 5E 9E12E24E26E31E33
  22811745.121   119876482.083    22811748.427    93410232.926                  
  22004851.145   115636277.584    22004851.127    90106191.112                  
  21538462.945   113185394.536    21538462.534    88196413.051                  
  20619839.096   108357996.124    20619839.364    84434806.835                  
  23549751.727   123754790.965    23549751.798    96432306.914                  
  20565042.504   108070035.086    20565042.254    84210418.185                  
  22313668.407   117259127.984    22313666.798    91370751.820                  
  24066969.739   126472781.168    24066968.845    98550220.075                  
  20514708.147   107805478.867    20514710.291    84004259.229                  
                 131776572.042                   131776572.042    25306305.829  
                 135901912.120                   135901912.120    26098526.818  
                 116809704.062                   116809704.062    22432075.504  
                 119235381.050                   119235381.050    22897900.169  
  27170849.244   142783741.433                                                  
  27747970.565   145816569.124                                                  
  26065200.822   136973544.874                                                  
  23474250.244   123358002.898                                                  
  25052872.031   131653736.243                                                  
  25275179.134   132822005.750                                                  
  26600167.098   139784795.611                                                  
  24009844.545   126172566.360                                                  
  25438740.877   133681509.375                                                  
 21  8 31  8 49 41.0000000  0 22G 1G 7G13G14G15G17G19G21G30C19C23C27
                                C28E 1E 4E 5E 9E12E24E26E31E33
  22811531.497   119875359.551    22811534.821    93409358.226                  
  22005283.200   115638548.079    22005283.182    90107960.333                  
  21538321.958   113184653.644    21538321.565    88195835.734                  
  20619858.984   108358100.617    20619859.235    84434888.258                  
  23549472.756   123753325.040    23549472.845    96431164.633                  
  20564790.372   108068710.138    20564790.140    84209385.753                  
  22313045.189   117255852.884    22313043.580    91368199.792                  
  24067162.760   126473795.513    24067161.867    98551010.472                  
  20514826.922   107806102.960    20514829.067    84004745.540                  
                 131778038.172                   131778038.172    25306587.355  
                 135904199.711                   135904199.711    26098966.145  
                 116807538.208                   116807538.208    22431659.584  
                 119236305.003                   119236305.003    22898077.608  
  27171177.874   142785468.517                                                  
  27748537.352   145819547.659                                                  
  26065112.888   136973082.766                                                  
  23474620.759   123359949.934                                                  
  25052313.392   131650800.594                                                  
  25274952.055   132820812.407                                                  
  26600365.748   139785839.476                                                  
  24009920.417   126172965.093                                                  
  25438495.536   133680220.075                                                  
 21  8 31  8 49 42.0000000  0 22G 1G 7G13G14G15G17G19G21G30C19C23C27
                                C28E 1E 4E 5E 9E12E24E26E31E33
  22811317.998   119874237.617    22811321.322    93408483.996                  
  22005715.345   115640818.972    22005715.309    90109729.860                  
  21538181.097   113183913.414    21538180.703    88195258.930                  
  20619878.926   108358205.368    20619879.176    84434969.882                  
  23549193.892   123751859.703    23549193.999    96430022.811                  
  20564538.366   108067385.766    20564538.115    84208353.777                  
  22312422.007   117252578.099    22312420.398    91365648.011                  
  24067355.888   126474810.383    24067354.977    98551801.282                  
  20514945.751   107806727.530    20514947.914    84005232.219                  
                 131779504.646                   131779504.646    25306869.007  
                 135906487.426                   135906487.426    26099405.455  
                 116805372.776                   116805372.776    22431243.719  
                 119237229.491                   119237229.491    22898255.119  
  27171506.539   142787195.616                                                  
  27749104.140   145822526.145                                                  
  26065025.044   136972621.122                                                  
  23474991.326   123361897.302                                                  
  25051754.788   131647865.007                                                  
  25274724.975   132819619.140                                                  
  26600564.487   139786883.808                                                  
  24009996.307   126173363.902                                                  
  25438250.265   133678931.186                                                  
 21  8 31  8 49 43.0000000  0 22G 1G 7G13G14G15G17G19G21G30C19C23C27
                                C28E 1E 4E 5E 9E12E24E26E31E33
  22811104.624   119873116.277    22811107.948    93407610.222                  
  22006147.560   115643090.238    22006147.525    90111499.676                  
  21538040.360   113183173.851    21538039.967    88194682.649                  
  20619898.904   108358310.371    20619899.154    84435051.698                  
  23548915.188   123750394.929    23548915.260    96428881.429                  
  20564286.448   108066061.942    20564286.198    84207322.226                  
  22311798.896   117249303.644    22311797.305    91363096.493                  
  24067549.106   126475825.782    24067548.195    98552592.499                  
  20515064.705   107807352.571    20515066.868    84005719.261                  
                 131780971.468                   131780971.468    25307150.676  
                 135908775.267                   135908775.267    26099844.819  
                 116803207.775                   116803207.775    22430827.960  
                 119238154.512                   119238154.512    22898432.773  
  27171835.203   142788922.718                                                  
  27749670.928   145825504.566                                                  
  26064937.271   136972159.935                                                  
  23475361.966   123363844.980                                                  
  25051196.167   131644929.476                                                  
  25274497.913   132818425.917                                                  
  26600763.280   139787928.589                                                  
  24010072.214   126173762.784                                                  
  25438005.084   133677642.723                                                  
 21  8 31  8 49 44.0000000  0 22G 1G 7G13G14G15G17G19G21G30C19C23C27
                                C28E 1E 4E 5E 9E12E24E26E31E33
  22810891.339   119871995.529    22810894.663    93406736.914                  
  22006579.848   115645361.894    22006579.794    90113269.797                  
  21537899.749   113182434.942    21537899.356    88194106.874                  
  20619918.935   108358415.621    20619919.185    84435133.711                  
  23548636.557   123748930.762    23548636.646    96427740.520                  
  20564034.620   108064738.685    20564034.406    84206291.117                  
  22311175.839   117246029.513    22311174.248    91360545.219                  
  24067742.413   126476841.708    24067741.520    98553384.133                  
  20515183.749   107807978.081    20515185.893    84006206.671                  
                 131782438.640                   131782438.640    25307432.435  
                 135911063.230                   135911063.230    26100284.200  
                 116801043.189                   116801043.189    22430412.273  
                 119239080.070                   119239080.070    22898610.516  
  27172163.868   142790649.828                                                  
  27750237.679   145828482.934                                                  
  26064849.606   136971699.200                                                  
  23475732.641   123365792.981                                                  
  25050637.563   131641994.006                                                  
  25274270.888   132817232.773                                                  
  26600962.180   139788973.807                                                  
  24010148.140   126174161.746                                                  
  25437759.975   133676354.688                                                  
 21  8 31  8 49 45.0000000  0 22G 1G 7G13G14G15G17G19G21G30C19C23C27
                                C28E 1E 4E 5E 9E12E24E26E31E33
  22810678.180   119870875.376    22810681.503    93405864.066                  
  22007012.189   115647633.932    22007012.153    90115040.214                  
  21537759.263   113181696.688    21537758.887    88193531.613                  
  20619939.002   108358521.118    20619939.252    84435215.918                  
  23548358.032   123747467.165    23548358.122    96426600.059                  
  20563782.935   108063416.009    20563782.702    84205260.460                  
  22310552.853   117242755.699    22310551.263    91357994.200                  
  24067935.863   126477858.163    24067934.952    98554176.175                  
  20515302.864   107808604.063    20515305.026    84006694.445                  
                 131783906.160                   131783906.160    25307714.265  
                 135913351.320                   135913351.320    26100723.599  
                 116798879.027                   116798879.027    22429996.657  
                 119240006.160                   119240006.160    22898788.366  
  27172492.515   142792376.948                                                  
  27750804.431   145831461.238                                                  
  26064761.994   136971238.926                                                  
  23476103.405   123367741.297                                                  
  25050078.960   131639058.598                                                  
  25274043.844   132816039.688                                                  
  26601161.187   139790019.483                                                  
  24010224.065   126174560.781                                                  
  25437514.937   133675067.070                                                  
 21  8 31  8 49 46.0000000  0 22G 1G 7G13G14G15G17G19G21G30C19C23C27
                                C28E 1E 4E 5E 9E12E24E26E31E33
  22810465.145   119869755.817    22810468.469    93404991.684                  
  22007444.619   115649906.348    22007444.583    90116810.931                  
  21537618.901   113180959.103    21537618.526    88192956.871                  
  20619959.122   108358626.861    20619959.373    84435298.313                  
  23548079.633   123746004.149    23548079.722    96425460.042                  
  20563531.339   108062093.902    20563531.107    84204230.249                  
  22309929.939   117239482.219    22309928.349    91355443.434                  
  24068129.385   126478875.143    24068128.473    98554968.629                  
  20515422.068   107809230.512    20515424.212    84007182.589                  
                 131785374.026                   131785374.026    25307996.149  
                 135915639.536                   135915639.536    26101163.034  
                 116796715.293                   116796715.293    22429581.131  
                 119240932.789                   119240932.789    22898966.306  
  27172821.180   142794104.079                                                  
  27751371.183   145834439.492                                                  
  26064674.507   136970779.110                                                  
  23476474.223   123369689.938                                                  
  25049520.392   131636123.249                                                  
  25273816.818   132814846.673                                                  
  26601360.248   139791065.603                                                  
  24010300.027   126174959.896                                                  
  25437270.006   133673779.874                                                  
 21  8 31  8 49 47.0000000  0 22G 1G 7G13G14G15G17G19G21G30C19C23C27
                                C28E 1E 4E 5E 9E12E24E26E31E33
  22810252.218   119868636.847    22810255.524    93404119.762                  
  22007877.121   115652179.155    22007877.085    90118581.949                  
  21537478.683   113180222.169    21537478.272    88192382.637                  
  20619979.297   108358732.859    20619979.565    84435380.911                  
  23547801.341   123744541.720    23547801.412    96424320.489                  
  20563279.868   108060772.364    20563279.618    84203200.477                  
  22309307.078   117236209.062    22309305.488    91352892.922                  
  24068322.996   126479892.663    24068322.102    98555761.504                  
  20515541.362   107809857.448    20515543.524    84007671.113                  
                 131786842.242                   131786842.242    25308278.104  
                 135917927.874                   135917927.874    26101602.487  
                 116794551.981                   116794551.981    22429165.694  
                 119241859.949                   119241859.949    22899144.353  
  27173149.845   142795831.216                                                  
  27751937.917   145837417.702                                                  
  26064587.092   136970319.757                                                  
  23476845.077   123371638.890                                                  
  25048961.824   131633187.964                                                  
  25273589.792   132813653.726                                                  
  26601559.398   139792112.156                                                  
  24010375.988   126175359.098                                                  
  25437025.147   133672493.101                                                  
 21  8 31  8 49 48.0000000  0 22G 1G 7G13G14G15G17G19G21G30C19C23C27
                                C28E 1E 4E 5E 9E12E24E26E31E33
  22810039.398   119867518.485    22810042.704    93403248.309                  
  22008309.694   115654452.343    22008309.659    90120353.262                  
  21537338.554   113179485.886    21537338.161    88191808.910                  
  20619999.524   108358839.100    20619999.757    84435463.699                  
  23547523.156   123743079.868    23547523.245    96423181.382                  
  20563028.487   108059451.378    20563028.254    84202171.140                  
  22308684.272   117232936.210    22308682.681    91350342.647                  
  24068516.714   126480910.700    24068515.838    98556554.777                  
  20515660.762   107810484.845    20515662.925    84008159.992                  
                 131788310.806                   131788310.806    25308560.113  
                 135920216.339                   135920216.339    26102041.958  
                 116792389.093                   116792389.093    22428750.347  
                 119242787.645                   119242787.645    22899322.525  
  27173478.492   142797558.356                                                  
  27752504.633   145840395.844                                                  
  26064499.784   136969860.862                                                  
  23477216.020   123373588.168                                                  
  25048403.257   131630252.735                                                  
  25273362.802   132812460.840                                                  
  26601758.638   139793159.167                                                  
  24010451.967   126175758.362                                                  
  25436780.360   133671206.759                                                  
 21  8 31  8 49 49.0000000  0 22G 1G 7G13G14G15G17G19G21G30C19C23C27
                                C28E 1E 4E 5E 9E12E24E26E31E33
  22809826.685   119866400.706    22809830.009    93402377.312                  
  22008742.339   115656725.922    22008742.303    90122124.884                  
  21537198.586   113178750.285    21537198.175    88191235.714                  
  20620019.788   108358945.600    20620020.038    84435546.684                  
  23547245.096   123741618.604    23547245.185    96422042.739                  
  20562777.213   108058130.961    20562776.980    84201142.241                  
  22308061.536   117229663.707    22308059.946    91347792.645                  
  24068710.557   126481929.261    24068709.663    98557348.464                  
  20515780.235   107811112.723    20515782.397    84008649.250                  
                 131789779.716                   131789779.716    25308842.211  
                 135922504.933                   135922504.933    26102481.465  
                 116790226.630                   116790226.630    22428335.053  
                 119243715.875                   119243715.875    22899500.786  
  27173807.175   142799285.517                                                  
  27753071.367   145843373.937                                                  
  26064412.548   136969402.431                                                  
  23477587.016   123375537.762                                                  
  25047844.725   131627317.565                                                  
  25273135.811   132811268.005                                                  
  26601957.967   139794206.630                                                  
  24010527.964   126176157.702                                                  
  25436535.661   133669920.833                                                  
 21  8 31  8 49 50.0000000  0 22G 1G 7G13G14G15G17G19G21G30C19C23C27
                                C28E 1E 4E 5E 9E12E24E26E31E33
  22809614.097   119865283.527    22809617.403    93401506.780                  
  22009175.055   115658999.887    22009175.020    90123896.800                  
  21537058.725   113178015.331    21537058.332    88190663.024                  
  20620040.105   108359052.344    20620040.337    84435629.863                  
  23546967.143   123740157.930    23546967.215    96420904.551                  
  20562526.063   108056811.091    20562525.813    84200113.773                  
  22307438.854   117226391.533    22307437.264    91345242.899                  
  24068904.471   126482948.360    24068903.578    98558142.562                  
  20515899.814   107811741.077    20515901.959    84009138.876                  
                 131791248.973                   131791248.973    25309124.363  
                 135924793.649                   135924793.649    26102920.971  
                 116788064.586                   116788064.586    22427919.866  
                 119244644.641                   119244644.641    22899679.137  
  27174135.840   142801012.680                                                  
  27753638.065   145846351.965                                                  
  26064325.382   136968944.443                                                  
  23477958.084   123377487.668                                                  
  25047286.192   131624382.456                                                  
  25272908.839   132810075.254                                                  
  26602157.385   139795254.531                                                  
  24010603.961   126176557.125                                                  
  25436291.016   133668635.316                                                  
 21  8 31  8 49 51.0000000  0 22G 1G 7G13G14G15G17G19G21G30C19C23C27
                                C28E 1E 4E 5E 9E12E24E26E31E33
  22809401.617   119864166.934    22809404.923    93400636.710                  
  22009607.861   115661274.234    22009607.825    90125669.019                  
  21536919.007   113177281.047    21536918.596    88190090.852                  
  20620060.458   108359159.337    20620060.708    84435713.234                  
  23546689.280   123738697.821    23546689.351    96419766.800                  
  20562275.004   108055491.789    20562274.753    84199085.746                  
  22306816.244   117223119.676    22306814.636    91342693.402                  
  24069098.493   126483967.972    24069097.600    98558937.065                  
  20516019.483   107812369.900    20516021.627    84009628.868                  
                 131792718.581                   131792718.581    25309406.604  
                 135927082.481                   135927082.481    26103360.531  
                 116785902.977                   116785902.977    22427504.769  
                 119245573.941                   119245573.941    22899857.595  
  27174464.523   142802739.853                                                  
  27754204.745   145849329.946                                                  
  26064238.325   136968486.933                                                  
  23478329.206   123379437.914                                                  
  25046727.660   131621447.409                                                  
  25272681.885   132808882.559                                                  
  26602356.857   139796302.886                                                  
  24010679.976   126176956.632                                                  
  25436046.479   133667350.239                                                  
 21  8 31  8 49 52.0000000  0 22G 1G 7G13G14G15G17G19G21G30C19C23C27
                                C28E 1E 4E 5E 9E12E24E26E31E33
  22809189.243   119863050.942    22809192.567    93399767.109                  
  22010040.720   115663548.978    22010040.684    90127441.544                  
  21536779.397   113176547.421    21536779.004    88189519.195                  
  20620080.864   108359266.585    20620081.114    84435796.804                  
  23546411.542   123737238.306    23546411.613    96418629.515                  
  20562024.051   108054173.063    20562023.819    84198058.169                  
  22306193.705   117219848.147    22306192.097    91340144.159                  
  24069292.640   126484988.124    24069291.747    98559731.992                  
  20516139.223   107812999.195    20516141.386    84010119.228                  
                 131794188.535                   131794188.535    25309688.881  
                 135929371.447                   135929371.447    26103800.091  
                 116783741.785                   116783741.785    22427089.725  
                 119246503.777                   119246503.777    22900036.160  
  27174793.188   142804467.051                                                  
  27754771.426   145852307.868                                                  
  26064151.338   136968029.878                                                  
  23478700.382   123381388.468                                                  
  25046169.164   131618512.421                                                  
  25272454.948   132807689.929                                                  
  26602556.436   139797351.687                                                  
  24010756.026   126177356.204                                                  
  25435802.013   133666065.576                                                  
 21  8 31  8 49 53.0000000  0 22G 1G 7G13G14G15G17G19G21G30C19C23C27
                                C28E 1E 4E 5E 9E12E24E26E31E33
  22808976.995   119861935.538    22808980.301    93398897.965                  
  22010473.669   115665824.105    22010473.633    90129214.371                  
  21536639.911   113175814.448    21536639.518    88188948.052                  
  20620101.324   108359374.077    20620101.574    84435880.562                  
  23546133.929   123735779.366    23546134.000    96417492.683                  
  20561773.224   108052854.905    20561772.973    84197031.036                  
  22305571.202   117216576.944    22305569.594    91337595.168                  
  24069486.859   126486008.796    24069485.965    98560527.325                  
  20516259.053   107813628.969    20516261.215    84010609.958                  
                 131795658.835                   131795658.835    25309971.248  
                 135931660.535                   135931660.535    26104239.705  
                 116781581.017                   116781581.017    22426674.752  
                 119247434.144                   119247434.144    22900214.815  
  27175121.853   142806194.236                                                  
  27755338.106   145855285.734                                                  
  26064064.459   136967573.275                                                  
  23479071.628   123383339.340                                                  
  25045610.668   131615577.503                                                  
  25272227.994   132806497.366                                                  
  26602756.123   139798400.940                                                  
  24010832.077   126177755.859                                                  
  25435557.636   133664781.341                                                  
 21  8 31  8 49 54.0000000  0 22G 1G 7G13G14G15G17G19G21G30C19C23C27
                                C28E 1E 4E 5E 9E12E24E26E31E33
  22808764.854   119860820.726    22808768.160    93398029.278                  
  22010906.689   115668099.603    22010906.635    90130987.488                  
  21536500.569   113175082.133    21536500.158    88188377.414                  
  20620121.820   108359481.821    20620122.088    84435964.520                  
  23545856.405   123734321.007    23545856.476    96416356.302                  
  20561522.503   108051537.317    20561522.253    84196004.339                  
  22304948.788   117213306.067    22304947.180    91335046.433                  
  24069681.202   126487029.996    24069680.309    98561323.058                  
  20516379.008   107814259.206    20516381.152    84011101.054                  
                 131797129.484                   131797129.484    25310253.668  
                 135933949.753                   135933949.753    26104679.319  
                 116779420.673                   116779420.673    22426259.905  
                 119248365.047                   119248365.047    22900393.594  
  27175450.536   142807921.428                                                  
  27755904.768   145858263.542                                                  
  26063977.651   136967117.141                                                  
  23479442.929   123385290.537                                                  
  25045052.171   131612642.638                                                  
  25272001.075   132805304.868                                                  
  26602955.863   139799450.639                                                  
  24010908.145   126178155.595                                                  
  25435313.348   133663497.528                                                  
 21  8 31  8 49 55.0000000  0 22G 1G 7G13G14G15G17G19G21G30C19C23C27
                                C28E 1E 4E 5E 9E12E24E26E31E33
  22808552.820   119859706.508    22808556.144    93397161.054                  
  22011339.762   115670375.485    22011339.745    90132760.902                  
  21536361.315   113174350.487    21536360.940    88187807.301                  
  20620142.387   108359589.812    20620142.619    84436048.671                  
  23545579.006   123732863.249    23545579.078    96415220.382                  
  20561271.855   108050220.293    20561271.640    84194978.089                  
  22304326.428   117210035.516    22304324.820    91332497.953                  
  24069875.617   126488051.724    24069874.724    98562119.212                  
  20516499.016   107814889.922    20516501.178    84011592.519                  
                 131798600.476                   131798600.476    25310536.141  
                 135936239.094                   135936239.094    26105118.968  
                 116777260.749                   116777260.749    22425845.094  
                 119249296.485                   119249296.485    22900572.463  
  27175779.218   142809648.645                                                  
  27756471.395   145861241.297                                                  
  26063890.933   136966661.462                                                  
  23479814.283   123387242.050                                                  
  25044493.693   131609707.829                                                  
  25271774.156   132804112.437                                                  
  26603155.692   139800500.779                                                  
  24010984.214   126178555.399                                                  
  25435069.115   133662214.133                                                  
 21  8 31  8 49 56.0000000  0 22G 1G 7G13G14G15G17G19G21G30C19C23C27
                                C28E 1E 4E 5E 9E12E24E26E31E33
  22808340.894   119858592.887    22808344.217    93396293.300                  
  22011772.925   115672651.757    22011772.908    90134534.621                  
  21536222.223   113173619.504    21536221.848    88187237.704                  
  20620162.972   108359698.057    20620163.222    84436133.017                  
  23545301.715   123731406.063    23545301.804    96414084.915                  
  20561021.367   108048903.847    20561021.116    84193952.289                  
  22303704.121   117206765.305    22303702.513    91329949.739                  
  24070070.139   126489073.980    24070069.246    98562915.777                  
  20516619.114   107815521.110    20516621.276    84012084.352                  
                 131800071.820                   131800071.820    25310818.704  
                 135938528.563                   135938528.563    26105558.635  
                 116775101.254                   116775101.254    22425430.407  
                 119250228.452                   119250228.452    22900751.439  
  27176107.901   142811375.858                                                  
  27757038.040   145864218.994                                                  
  26063804.322   136966206.241                                                  
  23480185.708   123389193.872                                                  
  25043935.232   131606773.087                                                  
  25271547.255   132802920.065                                                  
  26603355.628   139801551.379                                                  
  24011060.318   126178955.273                                                  
  25434824.988   133660931.165                                                  
 21  8 31  8 49 57.0000000  0 22G 1G 7G13G14G15G17G19G21G30C19C23C27
                                C28E 1E 4E 5E 9E12E24E26E31E33
  22808129.092   119857479.848    22808132.416    93395425.999                  
  22012206.160   115674928.414    22012206.124    90136308.637                  
  21536083.255   113172889.179    21536082.862    88186668.617                  
  20620183.629   108359806.547    20620183.861    84436217.554                  
  23545024.512   123729949.465    23545024.602    96412949.903                  
  20560770.968   108047587.964    20560770.718    84192926.925                  
  22303081.886   117203495.411    22303080.278    91327401.765                  
  24070264.787   126490096.764    24070263.875    98563712.750                  
  20516739.319   107816152.765    20516741.481    84012576.550                  
                 131801543.508                   131801543.508    25311101.320  
                 135940818.151                   135940818.151    26105998.321  
                 116772942.184                   116772942.184    22425015.757  
                 119251160.957                   119251160.957    22900930.523  
  27176436.584   142813103.095                                                  
  27757604.666   145867196.637                                                  
  26063717.782   136965751.472                                                  
  23480557.187   123391146.023                                                  
  25043376.772   131603838.409                                                  
  25271320.354   132801727.749                                                  
  26603555.618   139802602.413                                                  
  24011136.422   126179355.230                                                  
  25434580.915   133659648.612                                                  
 21  8 31  8 49 58.0000000  0 22G 1G 7G13G14G15G17G19G21G30C19C23C27
                                C28E 1E 4E 5E 9E12E24E26E31E33
  22807917.416   119856367.410    22807920.721    93394559.164                  
  22012639.466   115677205.461    22012639.448    90138082.957                  
  21535944.395   113172159.508    21535944.002    88186100.044                  
  20620204.303   108359915.286    20620204.553    84436302.285                  
  23544747.453   123728493.438    23544747.543    96411815.335                  
  20560520.659   108046272.656    20560520.426    84191902.008                  
  22302459.705   117200225.840    22302458.096    91324854.050                  
  24070459.505   126491120.071    24070458.594    98564510.132                  
  20516859.613   107816784.898    20516861.775    84013069.121                  
                 131803015.544                   131803015.544    25311384.026  
                 135943107.870                   135943107.870    26106438.042  
                 116770783.539                   116770783.539    22424601.213  
                 119252093.997                   119252093.997    22901109.695  
  27176765.267   142814830.323                                                  
  27758171.275   145870174.219                                                  
  26063631.332   136965297.176                                                  
  23480928.720   123393098.493                                                  
  25042818.347   131600903.785                                                  
  25271093.507   132800535.512                                                  
  26603755.716   139803653.905                                                  
  24011212.544   126179755.268                                                  
  25434336.931   133658366.493                                                  
 21  8 31  8 49 59.0000000  0 22G 1G 7G13G14G15G17G19G21G30C19C23C27
                                C28E 1E 4E 5E 9E12E24E26E31E33
  22807705.846   119855255.571    22807709.134    93393692.794                  
  22013072.843   115679482.883    22013072.825    90139857.569                  
  21535805.678   113171430.500    21535805.285    88185531.983                  
  20620225.031   108360024.274    20620225.299    84436387.207                  
  23544470.501   123727037.999    23544470.573    96410681.226                  
  20560270.475   108044957.911    20560270.242    84190877.536                  
  22301837.577   117196956.597    22301835.986    91322306.590                  
  24070654.331   126492143.897    24070653.438    98565307.923                  
  20516979.997   107817417.503    20516982.159    84013562.063                  
                 131804487.926                   131804487.926    25311666.786  
                 135945397.711                   135945397.711    26106877.780  
                 116768625.315                   116768625.315    22424186.759  
                 119253027.572                   119253027.572    22901288.975  
  27177093.932   142816557.563                                                  
  27758737.884   145873151.742                                                  
  26063544.953   136964843.319                                                  
  23481300.324   123395051.272                                                  
  25042259.922   131597969.216                                                  
  25270866.624   132799343.328                                                  
  26603955.902   139804705.837                                                  
  24011288.684   126180155.383                                                  
  25434093.037   133657084.784                                                  
 21  8 31  8 50  0.0000000  0 22G 1G 7G13G14G15G17G19G21G30C19C23C27
                                C28E 1E 4E 5E 9E12E24E26E31E33
  22807494.384   119854144.319    22807497.672    93392826.888                  
  22013506.292   115681760.693    22013506.256    90141632.488                  
  21535667.086   113170702.152    21535666.675    88184964.442                  
  20620245.849   108360133.509    20620246.081    84436472.327                  
  23544193.639   123725583.149    23544193.728    96409547.577                  
  20560020.398   108043643.742    20560020.165    84189853.508                  
  22301215.520   117193687.674    22301213.912    91319759.378                  
  24070849.264   126493168.254    24070848.353    98566106.117                  
  20517100.488   107818050.581    20517102.614    84014055.370                  
                 131805960.657                   131805960.657    25311949.599  
                 135947687.680                   135947687.680    26107317.537  
                 116766467.516                   116766467.516    22423772.376  
                 119253961.679                   119253961.679    22901468.362  
  27177422.615   142818284.817                                                  
  27759304.475   145876129.204                                                  
  26063458.681   136964389.932                                                  
  23481671.982   123397004.379                                                  
  25041701.497   131595034.715                                                  
  25270639.777   132798151.214                                                  
  26604156.161   139805758.221                                                  
  24011364.842   126180555.563                                                  
  25433849.196   133655803.501                                                  
 21  8 31  8 50  1.0000000  0 22G 1G 7G13G14G15G17G19G21G30C19C23C27
                                C28E 1E 4E 5E 9E12E24E26E31E33
  22807283.012   119853033.675    22807286.335    93391961.448                  
  22013939.813   115684038.887    22013939.795    90143407.702                  
  21535528.601   113169974.467    21535528.208    88184397.417                  
  20620266.666   108360242.993    20620266.916    84436557.640                  
  23543916.901   123724128.863    23543916.973    96408414.367                  
  20559770.428   108042330.136    20559770.178    84188829.917                  
  22300593.517   117190419.089    22300591.945    91317212.431                  
  24071044.305   126494193.149    24071043.394    98566904.738                  
  20517221.032   107818684.143    20517223.194    84014549.055                  
                 131807433.731                   131807433.731    25312232.483  
                 135949977.774                   135949977.774    26107757.347  
                 116764310.144                   116764310.144    22423358.083  
                 119254896.321                   119254896.321    22901647.857  
  27177751.315   142820012.075                                                  
  27759871.066   145879106.618                                                  
  26063372.499   136963937.009                                                  
  23482043.694   123398957.801                                                  
  25041143.108   131592100.272                                                  
  25270412.948   132796959.156                                                  
  26604356.508   139806811.052                                                  
  24011440.999   126180955.828                                                  
  25433605.481   133654522.644                                                  
 21  8 31  8 50  2.0000000  0 22G 1G 7G13G14G15G17G19G21G30C19C23C27
                                C28E 1E 4E 5E 9E12E24E26E31E33
  22807071.782   119851923.617    22807075.106    93391096.468                  
  22014373.422   115686317.460    22014373.404    90145183.218                  
  21535390.259   113169247.446    21535389.866    88183830.903                  
  20620287.555   108360352.727    20620287.805    84436643.149                  
  23543640.289   123722675.167    23543640.360    96407281.621                  
  20559520.565   108041017.109    20559520.315    84187806.778                  
  22299971.604   117187150.824    22299969.996    91314665.730                  
  24071239.417   126495218.562    24071238.523    98567703.761                  
  20517341.684   107819318.163    20517343.846    84015043.099                  
                 131808907.157                   131808907.157    25312515.439  
                 135952267.988                   135952267.988    26108197.140  
                 116762153.194                   116762153.194    22422943.861  
                 119255831.495                   119255831.495    22901827.440  
  27178079.998   142821739.356                                                  
  27760437.621   145882083.968                                                  
  26063286.406   136963484.540                                                  
  23482415.494   123400911.536                                                  
  25040584.701   131589165.897                                                  
  25270186.100   132795767.168                                                  
  26604556.945   139807864.328                                                  
  24011517.175   126181356.169                                                  
  25433361.819   133653242.203                                                  
 21  8 31  8 50  3.0000000  0 22G 1G 7G13G14G15G17G19G21G30C19C23C27
                                C28E 1E 4E 5E 9E12E24E26E31E33
  22806860.660   119850814.149    22806863.983    93390231.950                  
  22014807.103   115688596.417    22014807.068    90146959.027                  
  21535252.042   113168521.091    21535251.631    88183264.909                  
  20620308.480   108360462.707    20620308.748    84436728.847                  
  23543363.765   123721222.054    23543363.837    96406149.324                  
  20559270.792   108039704.630    20559270.560    84186784.065                  
  22299349.726   117183882.884    22299348.136    91312119.281                  
  24071434.654   126496244.504    24071433.760    98568503.199                  
  20517462.425   107819952.667    20517464.587    84015537.511                  
                 131810380.926                   131810380.926    25312798.467  
                 135954558.332                   135954558.332    26108636.986  
                 116759996.672                   116759996.672    22422529.729  
                 119256767.207                   119256767.207    22902007.131  
  27178408.699   142823466.634                                                  
  27761004.194   145885061.269                                                  
  26063200.385   136963032.533                                                  
  23482787.349   123402865.585                                                  
  25040026.312   131586231.581                                                  
  25269959.307   132794575.242                                                  
  26604757.453   139808918.050                                                  
  24011593.386   126181756.583                                                  
  25433118.246   133651962.203                                                  
 21  8 31  8 50  4.0000000  0 22G 1G 7G13G14G15G17G19G21G30C19C23C27
                                C28E 1E 4E 5E 9E12E24E26E31E33
  22806649.662   119849705.285    22806652.968    93389367.903                  
  22015240.838   115690875.759    22015240.802    90148735.137                  
  21535113.932   113167795.396    21535113.539    88182699.437                  
  20620329.458   108360572.943    20620329.708    84436814.743                  
  23543087.367   123719769.529    23543087.421    96405017.485                  
  20559021.162   108038392.720    20559020.912    84185761.800                  
  22298727.920   117180615.276    22298726.312    91309573.093                  
  24071629.980   126497270.977    24071629.087    98569303.048                  
  20517583.255   107820587.638    20517585.417    84016032.293                  
                 131811855.039                   131811855.039    25313081.548  
                 135956848.801                   135956848.801    26109076.832  
                 116757840.571                   116757840.571    22422115.668  
                 119257703.449                   119257703.449    22902186.947  
  27178737.382   142825193.932                                                  
  27761570.732   145888038.507                                                  
  26063114.452   136962580.986                                                  
  23483159.239   123404819.969                                                  
  25039467.941   131583297.323                                                  
  25269732.477   132793383.390                                                  
  26604958.069   139809972.227                                                  
  24011669.598   126182157.073                                                  
  25432874.745   133650682.613                                                  
 21  8 31  8 50  5.0000000  0 22G 1G 7G13G14G15G17G19G21G30C19C23C27
                                C28E 1E 4E 5E 9E12E24E26E31E33
  22806438.754   119848597.014    22806442.060    93388504.313                  
  22015674.662   115693155.494    22015674.627    90150511.552                  
  21534975.966   113167070.358    21534975.573    88182134.473                  
  20620350.472   108360683.433    20620350.740    84436900.840                  
  23542811.059   123718317.581    23542811.148    96403886.098                  
  20558771.621   108037081.385    20558771.389    84184739.983                  
  22298106.185   117177347.996    22298104.577    91307027.164                  
  24071825.413   126498297.981    24071824.520    98570103.309                  
  20517704.175   107821223.089    20517706.337    84016527.453                  
                 131813329.503                   131813329.503    25313364.700  
                 135959139.395                   135959139.395    26109516.731  
                 116755684.897                   116755684.897    22421701.678  
                 119258640.225                   119258640.225    22902366.835  
  27179066.082   142826921.228                                                  
  27762137.287   145891015.684                                                  
  26063028.627   136962129.893                                                  
  23483531.200   123406774.663                                                  
  25038909.588   131580363.130                                                  
  25269505.702   132792191.599                                                  
  26605158.738   139811026.845                                                  
  24011745.827   126182557.649                                                  
  25432631.315   133649403.446                                                  
 21  8 31  8 50  6.0000000  0 22G 1G 7G13G14G15G17G19G21G30C19C23C27
                                C28E 1E 4E 5E 9E12E24E26E31E33
  22806227.953   119847489.313    22806231.277    93387641.169                  
  22016108.558   115695435.595    22016108.522    90152288.254                  
  21534838.124   113166345.978    21534837.713    88181570.019                  
  20620371.557   108360794.153    20620371.808    84436987.117                  
  23542534.875   123716866.227    23542534.964    96402755.172                  
  20558522.187   108035770.617    20558521.937    84183718.606                  
  22297484.504   117174081.040    22297482.896    91304481.481                  
  24072020.936   126499325.493    24072020.043    98570903.969                  
  20517825.201   107821859.011    20517827.364    84017022.976                  
                 131814804.313                   131814804.313    25313647.924  
                 135961430.114                   135961430.114    26109956.649  
                 116753529.648                   116753529.648    22421287.796  
                 119259577.540                   119259577.540    22902546.847  
  27179394.783   142828648.532                                                  
  27762703.824   145893992.846                                                  
  26062942.856   136961679.265                                                  
  23483903.234   123408729.684                                                  
  25038351.234   131577429.022                                                  
  25269278.926   132790999.860                                                  
  26605359.514   139812081.890                                                  
  24011822.056   126182958.298                                                  
  25432387.975   133648124.695                                                  
 21  8 31  8 50  7.0000000  0 22G 1G 7G13G14G15G17G19G21G30C19C23C27
                                C28E 1E 4E 5E 9E12E24E26E31E33
  22806017.277   119846382.204    22806020.601    93386778.484                  
  22016542.525   115697716.075    22016542.471    90154065.249                  
  21534700.407   113165622.258    21534699.996    88181006.083                  
  20620392.661   108360905.122    20620392.929    84437073.586                  
  23542258.799   123715415.438    23542258.888    96401624.688                  
  20558272.861   108034460.427    20558272.628    84182697.676                  
  22296862.876   117170814.415    22296861.286    91301936.063                  
  24072216.584   126500353.527    24072215.673    98571705.035                  
  20517946.300   107822495.399    20517948.462    84017518.862                  
                 131816279.466                   131816279.466    25313931.220  
                 135963720.958                   135963720.958    26110396.584  
                 116751374.824                   116751374.824    22420873.985  
                 119260515.383                   119260515.383    22902726.931  
  27179723.484   142830375.842                                                  
  27763270.344   145896969.956                                                  
  26062857.192   136961229.103                                                  
  23484275.320   123410685.018                                                  
  25037792.917   131574495.008                                                  
  25269052.132   132789808.175                                                  
  26605560.362   139813137.379                                                  
  24011898.321   126183359.015                                                  
  25432144.724   133646846.371                                                  
 21  8 31  8 50  8.0000000  0 22G 1G 7G13G14G15G17G19G21G30C19C23C27
                                C28E 1E 4E 5E 9E12E24E26E31E33
  22805806.745   119845275.759    22805810.032    93385916.321                  
  22016976.564   115699996.972    22016976.528    90155842.574                  
  21534562.798   113164899.192    21534562.423    88180442.653                  
  20620413.835   108361016.367    20620414.086    84437160.269                  
  23541982.847   123713965.251    23541982.919    96400494.672                  
  20558023.641   108033150.765    20558023.391    84181677.165                  
  22296241.320   117167548.113    22296239.712    91299390.890                  
  24072412.322   126501382.139    24072411.428    98572506.551                  
  20518067.488   107823132.265    20518069.632    84018015.122                  
                 131817754.968                   131817754.968    25314214.569  
                 135966011.925                   135966011.925    26110836.519  
                 116749220.426                   116749220.426    22420460.246  
                 119261453.762                   119261453.762    22902907.140  
  27180052.184   142832103.173                                                  
  27763836.828   145899946.871                                                  
  26062771.617   136960779.366                                                  
  23484647.460   123412640.643                                                  
  25037234.581   131571560.891                                                  
  25268825.392   132788616.592                                                  
  26605761.317   139814193.381                                                  
  24011974.586   126183759.808                                                  
  25431901.544   133645568.480                                                  
 21  8 31  8 50  9.0000000  0 22G 1G 7G13G14G15G17G19G21G30C19C23C27
                                C28E 1E 4E 5E 9E12E24E26E31E33
  22805596.283   119844169.847    22805599.607    93385054.570                  
  22017410.656   115702278.233    22017410.638    90157620.180                  
  21534425.332   113164176.795    21534424.939    88179879.751                  
  20620435.064   108361127.844    20620435.296    84437247.136                  
  23541706.985   123712515.637    23541707.057    96399365.102                  
  20557774.547   108031841.693    20557774.297    84180657.106                  
  22295619.836   117164282.154    22295618.245    91296845.985                  
  24072608.148   126502411.245    24072607.237    98573308.453                  
  20518188.765   107823769.607    20518190.927    84018511.749                  
                 131819230.817                   131819230.817    25314498.007  
                 135968303.019                   135968303.019    26111276.508  
                 116747066.448                   116747066.448    22420046.596  
                 119262392.675                   119262392.675    22903087.457  
  27180380.885   142833830.504                                                  
  27764403.312   145902923.843                                                  
  26062686.132   136960330.126                                                  
  23485019.672   123414596.621                                                  
  25036676.264   131568626.942                                                  
  25268598.652   132787425.060                                                  
  26605962.344   139815249.777                                                  
  24012050.851   126184160.680                                                  
  25431658.454   133644291.009                                                  
 21  8 31  8 50 10.0000000  0 22G 1G 7G13G14G15G17G19G21G30C19C23C27
                                C28E 1E 4E 5E 9E12E24E26E31E33
  22805385.965   119843064.546    22805389.253    93384193.301                  
  22017844.837   115704559.878    22017844.819    90159398.083                  
  21534288.008   113163455.056    21534287.597    88179317.352                  
  20620456.328   108361239.567    20620456.560    84437334.191                  
  23541431.248   123711066.600    23541431.320    96398235.985                  
  20557525.542   108030533.178    20557525.292    84179637.484                  
  22294998.405   117161016.500    22294996.796    91294301.324                  
  24072804.082   126503440.878    24072803.189    98574110.765                  
  20518310.149   107824407.418    20518312.293    84019008.745                  
                 131820707.008                   131820707.008    25314781.481  
                 135970594.239                   135970594.239    26111716.515  
                 116744912.903                   116744912.903    22419633.035  
                 119263332.121                   119263332.121    22903267.862  
  27180709.586   142835557.844                                                  
  27764969.813   145905900.741                                                  
  26062600.736   136959881.325                                                  
  23485391.938   123416552.903                                                  
  25036117.964   131565693.054                                                  
  25268371.912   132786233.591                                                  
  26606163.459   139816306.636                                                  
  24012127.152   126184561.637                                                  
  25431415.436   133643013.954                                                  
 21  8 31  8 50 11.0000000  0 22G 1G 7G13G14G15G17G19G21G30C19C23C27
                                C28E 1E 4E 5E 9E12E24E26E31E33
  22805175.736   119841959.835    22805179.059    93383332.489                  
  22018279.108   115706841.902    22018279.055    90161176.285                  
  21534150.774   113162733.974    21534150.381    88178755.468                  
  20620477.628   108361351.543    20620477.860    84437421.444                  
  23541155.601   123709618.159    23541155.672    96397107.328                  
  20557276.645   108029225.242    20557276.395    84178618.313                  
  22294377.045   117157751.184    22294375.437    91291756.917                  
  24073000.105   126504471.040    24072999.194    98574913.488                  
  20518431.605   107825045.704    20518433.767    84019506.114                  
                 131822183.548                   131822183.548    25315065.045  
                 135972885.583                   135972885.583    26112156.540  
                 116742759.777                   116742759.777    22419219.546  
                 119264272.102                   119264272.102    22903448.375  
  27181038.286   142837285.195                                                  
  27765536.279   145908877.572                                                  
  26062515.411   136959432.991                                                  
  23485764.274   123418509.505                                                  
  25035559.682   131562759.257                                                  
  25268145.208   132785042.185                                                  
  26606364.647   139817363.933                                                  
  24012203.488   126184962.656                                                  
  25431172.506   133641737.329                                                  
 21  8 31  8 50 12.0000000  0 22G 1G 7G13G14G15G17G19G21G30C19C23C27
                                C28E 1E 4E 5E 9E12E24E26E31E33
  22804965.632   119840855.722    22804968.938    93382472.142                  
  22018713.415   115709124.316    22018713.397    90162954.785                  
  21534013.683   113162013.546    21534013.308    88178194.098                  
  20620498.981   108361463.771    20620499.214    84437508.895                  
  23540880.096   123708170.300    23540880.186    96395979.130                  
  20557027.854   108027917.872    20557027.622    84177599.581                  
  22293755.721   117154486.184    22293754.113    91289212.767                  
  24073196.236   126505501.729    24073195.342    98575716.626                  
  20518553.168   107825684.461    20518555.312    84020003.848                  
                 131823660.434                   131823660.434    25315348.662  
                 135975177.049                   135975177.049    26112596.600  
                 116740607.081                   116740607.081    22418806.146  
                 119265212.618                   119265212.618    22903628.995  
  27181366.987   142839012.558                                                  
  27766102.745   145911854.347                                                  
  26062430.176   136958985.112                                                  
  23486136.665   123420466.421                                                  
  25035001.400   131559825.492                                                  
  25267918.503   132783850.843                                                  
  26606565.941   139818421.681                                                  
  24012279.807   126185363.762                                                  
  25430929.648   133640461.122                                                  
 21  8 31  8 50 13.0000000  0 22G 1G 7G13G14G15G17G19G21G30C19C23C27
                                C28E 1E 4E 5E 9E12E24E26E31E33
  22804755.635   119839752.214    22804758.959    93381612.261                  
  22019147.846   115711407.120    22019147.793    90164733.594                  
  21533876.717   113161293.797    21533876.342    88177633.254                  
  20620520.388   108361576.254    20620520.639    84437596.546                  
  23540604.681   123706723.021    23540604.753    96394851.375                  
  20556779.171   108026611.083    20556778.939    84176581.304                  
  22293134.487   117151221.516    22293132.879    91286668.872                  
  24073392.473   126506532.944    24073391.580    98576520.168                  
  20518674.802   107826323.704    20518676.964    84020501.953                  
                 131825137.664                   131825137.664    25315632.333  
                 135977468.644                   135977468.644    26113036.679  
                 116738454.809                   116738454.809    22418392.818  
                 119266153.663                   119266153.663    22903809.723  
  27181695.706   142840739.933                                                  
  27766669.193   145914831.072                                                  
  26062345.048   136958537.694                                                  
  23486509.127   123422423.660                                                  
  25034443.136   131556891.789                                                  
  25267691.817   132782659.565                                                  
  26606767.307   139819479.875                                                  
  24012356.144   126185764.943                                                  
  25430686.880   133639185.336                                                  
 21  8 31  8 50 14.0000000  0 22G 1G 7G13G14G15G17G19G21G30C19C23C27
                                C28E 1E 4E 5E 9E12E24E26E31E33
  22804545.763   119838649.296    22804549.087    93380752.848                  
  22019582.314   115713690.309    22019582.278    90166512.704                  
  21533739.876   113160574.693    21533739.483    88177072.913                  
  20620541.813   108361688.972    20620542.081    84437684.379                  
  23540329.373   123705276.320    23540329.462    96393724.079                  
  20556530.613   108025304.848    20556530.381    84175563.461                  
  22292513.306   117147957.174    22292511.698    91284125.227                  
  24073588.818   126507564.688    24073587.925    98577324.121                  
  20518796.526   107826963.408    20518798.688    84021000.425                  
                 131826615.242                   131826615.242    25315916.093  
                 135979760.363                   135979760.363    26113476.775  
                 116736302.962                   116736302.962    22417979.579  
                 119267095.246                   119267095.246    22903990.539  
  27182024.406   142842467.313                                                  
  27767235.641   145917807.729                                                  
  26062259.991   136958090.740                                                  
  23486881.624   123424381.219                                                  
  25033884.872   131553958.156                                                  
  25267465.148   132781468.346                                                  
  26606968.763   139820538.513                                                  
  24012432.498   126186166.202                                                  
  25430444.183   133637909.977                                                  
 21  8 31  8 50 15.0000000  0 22G 1G 7G13G14G15G17G19G21G30C19C23C27
                                C28E 1E 4E 5E 9E12E24E26E31E33
  22804335.999   119837546.926    22804339.305    93379893.841                  
  22020016.853   115715973.894    22020016.817    90168292.132                  
  21533603.160   113159856.231    21533602.785    88176513.061                  
  20620563.328   108361801.948    20620563.578    84437772.419                  
  23540054.208   123703830.165    23540054.279    96392597.184                  
  20556282.162   108023999.159    20556281.912    84174546.027                  
  22291892.179   117144693.226    22291890.588    91281581.922                  
  24073785.234   126508597.033    24073784.341    98578128.587                  
  20518918.339   107827603.587    20518920.501    84021499.269                  
                 131828093.161                   131828093.161    25316199.925  
                 135982052.176                   135982052.176    26113916.907  
                 116734151.531                   116734151.531    22417566.411  
                 119268037.355                   119268037.355    22904171.463  
  27182353.125   142844194.665                                                  
  27767802.071   145920784.478                                                  
  26062175.024   136957644.246                                                  
  23487254.194   123426339.089                                                  
  25033326.644   131551024.468                                                  
  25267238.462   132780277.274                                                  
  26607170.272   139821597.514                                                  
  24012508.888   126186567.661                                                  
  25430201.575   133636635.018                                                  
 21  8 31  8 50 16.0000000  0 22G 1G 7G13G14G15G17G19G21G30C19C23C27
                                C28E 1E 4E 5E 9E12E24E26E31E33
  22804126.342   119836445.202    22804129.665    93379035.355                  
  22020451.481   115718257.848    22020451.445    90170071.832                  
  21533466.587   113159138.453    21533466.176    88175953.754                  
  20620584.878   108361915.168    20620585.128    84437860.640                  
  23539779.114   123702384.630    23539779.204    96391470.788                  
  20556033.801   108022694.081    20556033.586    84173529.081                  
  22291271.123   117141429.550    22291269.515    91279038.798                  
  24073981.776   126509629.832    24073980.882    98578933.363                  
  20519040.259   107828244.247    20519042.421    84021998.485                  
                 131829571.431                   131829571.431    25316483.792  
                 135984344.145                   135984344.145    26114357.056  
                 116732000.536                   116732000.536    22417153.369  
                 119268980.005                   119268980.005    22904352.476  
  27182681.825   142845922.063                                                  
  27768368.501   145923761.012                                                  
  26062090.146   136957198.206                                                  
  23487626.816   123428297.284                                                  
  25032768.415   131548090.926                                                  
  25267011.794   132779086.188                                                  
  26607371.906   139822657.058                                                  
  24012585.260   126186969.038                                                  
  25429959.039   133635360.532                                                  
 21  8 31  8 50 17.0000000  0 22G 1G 7G13G14G15G17G19G21G30C19C23C27
                                C28E 1E 4E 5E 9E12E24E26E31E33
  22803916.792   119835344.062    22803920.115    93378177.323                  
  22020886.181   115720542.184    22020886.145    90171851.832                  
  21533330.121   113158421.338    21533329.728    88175394.966                  
  20620606.464   108362028.632    20620606.714    84437949.051                  
  23539504.164   123700939.687    23539504.235    96390344.858                  
  20555785.564   108021389.557    20555785.314    84172512.571                  
  22290650.121   117138166.188    22290648.513    91276495.914                  
  24074178.424   126510663.160    24074177.513    98579738.552                  
  20519162.251   107828885.369    20519164.413    84022498.060                  
                 131831050.042                   131831050.042    25316767.766  
                 135986636.243                   135986636.243    26114797.224  
                 116729849.966                   116729849.966    22416740.362  
                 119269923.187                   119269923.187    22904533.597  
  27183010.544   142847649.473                                                  
  27768934.896   145926737.505                                                  
  26062005.358   136956752.634                                                  
  23487999.528   123430255.794                                                  
  25032210.205   131545157.473                                                  
  25266785.161   132777895.171                                                  
  26607573.611   139823717.034                                                  
  24012661.668   126187370.523                                                  
  25429716.574   133634086.441                                                  
 21  8 31  8 50 18.0000000  0 22G 1G 7G13G14G15G17G19G21G30C19C23C27
                                C28E 1E 4E 5E 9E12E24E26E31E33
  22803707.385   119834243.536    22803710.708    93377319.770                  
  22021320.934   115722826.899    22021320.916    90173632.129                  
  21533193.781   113157704.872    21533193.388    88174836.676                  
  20620628.103   108362142.350    20620628.353    84438037.665                  
  23539229.320   123699495.325    23539229.392    96389219.379                  
  20555537.435   108020085.609    20555537.203    84171496.503                  
  22290029.172   117134903.151    22290027.582    91273953.288                  
  24074375.162   126511697.010    24074374.233    98580544.149                  
  20519284.368   107829526.962    20519286.512    84022998.000                  
                 131832529.001                   131832529.001    25317051.777  
                 135988928.460                   135988928.460    26115237.427  
                 116727699.820                   116727699.820    22416327.445  
                 119270866.902                   119270866.902    22904714.842  
  27183339.263   142849376.895                                                  
  27769501.308   145929713.937                                                  
  26061920.659   136956307.510                                                  
  23488372.276   123432214.626                                                  
  25031651.977   131542224.089                                                  
  25266558.528   132776704.219                                                  
  26607775.406   139824777.473                                                  
  24012738.076   126187772.094                                                  
  25429474.216   133632812.782                                                  
 21  8 31  8 50 19.0000000  0 22G 1G 7G13G14G15G17G19G21G30C19C23C27
                                C28E 1E 4E 5E 9E12E24E26E31E33
  22803498.067   119833143.587    22803501.373    93376462.667                  
  22021755.777   115725112.004    22021755.759    90175412.731                  
  21533057.565   113156989.069    21533057.172    88174278.907                  
  20620649.796   108362256.321    20620650.046    84438126.469                  
  23538954.566   123698051.547    23538954.656    96388094.360                  
  20555289.395   108018782.227    20555289.181    84170480.887                  
  22289408.313   117131640.456    22289406.723    91271410.930                  
  24074571.972   126512731.392    24074571.078    98581350.161                  
  20519406.539   107830169.028    20519408.701    84023498.312                  
                 131834008.304                   131834008.304    25317335.858  
                 135991220.804                   135991220.804    26115677.649  
                 116725550.101                   116725550.101    22415914.617  
                 119271811.151                   119271811.151    22904896.177  
  27183667.981   142851104.325                                                  
  27770067.685   145932690.321                                                  
  26061836.049   136955862.859                                                  
  23488745.078   123434173.767                                                  
  25031093.802   131539290.759                                                  
  25266331.895   132775513.323                                                  
  26607977.272   139825838.353                                                  
  24012814.502   126188173.731                                                  
  25429231.912   133631539.542                                                  
 21  8 31  8 50 20.0000000  0 22G 1G 7G13G14G15G17G19G21G30C19C23C27
                                C28E 1E 4E 5E 9E12E24E26E31E33
  22803288.856   119832044.243    22803292.180    93375606.035                  
  22022190.709   115727397.487    22022190.655    90177193.624                  
  21532921.475   113156273.938    21532921.082    88173721.660                  
  20620671.525   108362370.524    20620671.775    84438215.460                  
  23538679.937   123696608.344    23538680.027    96386969.786                  
  20555041.498   108017479.422    20555041.266    84169465.711                  
  22288787.508   117128378.086    22288785.899    91268868.821                  
  24074768.924   126513766.289    24074768.013    98582156.575                  
  20519528.798   107830811.573    20519530.961    84023998.996                  
                 131835487.952                   131835487.952    25317619.994  
                 135993513.277                   135993513.277    26116117.906  
                 116723400.807                   116723400.807    22415501.860  
                 119272755.933                   119272755.933    22905077.601  
  27183996.700   142852831.759                                                  
  27770634.061   145935666.641                                                  
  26061751.493   136955418.645                                                  
  23489117.968   123436133.221                                                  
  25030535.627   131536357.496                                                  
  25266105.298   132774322.495                                                  
  26608179.246   139826899.669                                                  
  24012890.946   126188575.446                                                  
  25428989.716   133630266.722                                                  
 21  8 31  8 50 21.0000000  0 22G 1G 7G13G14G15G17G19G21G30C19C23C27
                                C28E 1E 4E 5E 9E12E24E26E31E33
  22803079.789   119830945.500    22803083.094    93374749.870                  
  22022625.677   115729683.364    22022625.659    90178974.827                  
  21532785.527   113155559.450    21532785.116    88173164.918                  
  20620693.307   108362484.991    20620693.557    84438304.655                  
  23538405.415   123695165.731    23538405.505    96385845.672                  
  20554793.673   108016177.188    20554793.440    84168450.984                  
  22288166.756   117125116.044    22288165.165    91266326.973                  
  24074965.966   126514801.718    24074965.054    98582963.402                  
  20519651.183   107831454.598    20519653.328    84024500.055                  
                 131836967.950                   131836967.950    25317904.218  
                 135995805.875                   135995805.875    26116558.163  
                 116721251.941                   116721251.941    22415089.193  
                 119273701.249                   119273701.249    22905259.133  
  27184325.418   142854559.195                                                  
  27771200.420   145938642.888                                                  
  26061667.062   136954974.895                                                  
  23489490.877   123438092.999                                                  
  25029977.435   131533424.292                                                  
  25265878.701   132773131.719                                                  
  26608381.291   139827961.435                                                  
  24012967.407   126188977.227                                                  
  25428747.573   133628994.325                                                  
 21  8 31  8 50 22.0000000  0 22G 1G 7G13G14G15G17G19G21G30C19C23C27
                                C28E 1E 4E 5E 9E12E24E26E31E33
  22802870.828   119829847.339    22802874.116    93373894.164                  
  22023060.734   115731969.628    22023060.716    90180756.331                  
  21532649.687   113154845.634    21532649.294    88172608.700                  
  20620715.143   108362599.702    20620715.375    84438394.043                  
  23538131.001   123693723.714    23538131.108    96384722.022                  
  20554545.972   108014875.519    20554545.740    84167436.695                  
  22287546.075   117121854.325    22287544.485    91263785.374                  
  24075163.097   126515837.673    24075162.185    98583770.642                  
  20519773.622   107832098.091    20519775.784    84025001.477                  
                 131838448.288                   131838448.288    25318188.497  
                 135998098.594                   135998098.594    26116998.455  
                 116719103.499                   116719103.499    22414676.615  
                 119274647.098                   119274647.098    22905440.771  
  27184654.137   142856286.652                                                  
  27771766.779   145941619.094                                                  
  26061582.720   136954531.615                                                  
  23489863.875   123440053.090                                                  
  25029419.278   131530491.152                                                  
  25265652.122   132771941.017                                                  
  26608583.425   139829023.649                                                  
  24013043.887   126189379.094                                                  
  25428505.537   133627722.356                                                  
 21  8 31  8 50 23.0000000  0 22G 1G 7G13G14G15G17G19G21G30C19C23C27
                                C28E 1E 4E 5E 9E12E24E26E31E33
  22802661.957   119828749.782    22802665.263    93373038.925                  
  22023495.880   115734256.270    22023495.862    90182538.133                  
  21532513.972   113154132.472    21532513.579    88172052.987                  
  20620737.015   108362714.667    20620737.265    84438483.624                  
  23537856.711   123692282.275    23537856.801    96383598.821                  
  20554298.397   108013574.426    20554298.165    84166422.858                  
  22286925.466   117118592.944    22286923.858    91261244.038                  
  24075360.317   126516874.155    24075359.424    98584578.288                  
  20519896.168   107832742.061    20519898.312    84025503.272                  
                 131839928.972                   131839928.972    25318472.864  
                 136000391.442                   136000391.442    26117438.784  
                 116716955.487                   116716955.487    22414264.108  
                 119275593.482                   119275593.482    22905622.517  
  27184982.855   142858014.112                                                  
  27772333.119   145944595.226                                                  
  26061498.432   136954088.786                                                  
  23490236.944   123442013.495                                                  
  25028861.139   131527558.074                                                  
  25265425.560   132770750.382                                                  
  26608785.631   139830086.307                                                  
  24013120.366   126189781.035                                                  
  25428263.572   133626450.801                                                  
 21  8 31  8 50 24.0000000  0 22G 1G 7G13G14G15G17G19G21G30C19C23C27
                                C28E 1E 4E 5E 9E12E24E26E31E33
  22802453.194   119827652.817    22802456.517    93372184.148                  
  22023931.080   115736543.300    22023931.062    90184320.230                  
  21532378.382   113153419.964    21532378.006    88171497.789                  
  20620758.940   108362829.874    20620759.172    84438573.395                  
  23537582.511   123690841.410    23537582.600    96382476.069                  
  20554050.929   108012273.899    20554050.679    84165409.461                  
  22286304.893   117115331.886    22286303.302    91258702.954                  
  24075557.663   126517911.160    24075556.751    98585386.344                  
  20520018.803   107833386.496    20520020.965    84026005.429                  
                 131841410.004                   131841410.004    25318757.285  
                 136002684.409                   136002684.409    26117879.112  
                 116714807.897                   116714807.897    22413851.674  
                 119276540.395                   119276540.395    22905804.388  
  27185311.592   142859741.581                                                  
  27772899.442   145947571.297                                                  
  26061414.268   136953646.418                                                  
  23490610.032   123443974.223                                                  
  25028303.000   131524625.067                                                  
  25265198.981   132769559.800                                                  
  26608987.944   139831149.417                                                  
  24013196.863   126190183.051                                                  
  25428021.679   133625179.683                                                  
 21  8 31  8 50 25.0000000  0 22G 1G 7G13G14G15G17G19G21G30C19C23C27
                                C28E 1E 4E 5E 9E12E24E26E31E33
  22802244.573   119826556.449    22802247.878    93371329.832                  
  22024366.387   115738830.720    22024366.334    90186102.637                  
  21532242.916   113152708.126    21532242.541    88170943.105                  
  20620780.901   108362945.333    20620781.151    84438663.363                  
  23537308.454   123689401.142    23537308.543    96381353.785                  
  20553803.532   108010973.938    20553803.300    84164396.504                  
  22285684.409   117112071.156    22285682.801    91256162.125                  
  24075755.098   126518948.696    24075754.204    98586194.815                  
  20520141.527   107834031.411    20520143.671    84026507.956                  
                 131842891.380                   131842891.380    25319041.760  
                 136004977.507                   136004977.507    26118319.477  
                 116712660.738                   116712660.738    22413439.346  
                 119277487.842                   119277487.842    22905986.313  
  27185640.328   142861469.067                                                  
  27773465.765   145950547.329                                                  
  26061330.177   136953204.513                                                  
  23490983.226   123445935.259                                                  
  25027744.879   131521692.118                                                  
  25264972.438   132768369.288                                                  
  26609190.347   139832212.981                                                  
  24013273.378   126190585.153                                                  
  25427779.876   133623908.984                                                  
 21  8 31  8 50 26.0000000  0 22G 1G 7G13G14G15G17G19G21G30C19C23C27
                                C28E 1E 4E 5E 9E12E24E26E31E33
  22802036.059   119825460.688    22802039.365    93370475.997                  
  22024801.713   115741118.507    22024801.695    90187885.328                  
  21532107.594   113151996.942    21532107.201    88170388.938                  
  20620802.916   108363061.035    20620803.184    84438753.519                  
  23537034.486   123687961.440    23537034.558    96380231.941                  
  20553556.278   108009674.547    20553556.046    84163383.992                  
  22285063.961   117108810.761    22285062.352    91253621.558                  
  24075952.640   126519986.768    24075951.746    98587003.703                  
  20520264.341   107834676.802    20520266.503    84027010.860                  
                 131844373.096                   131844373.096    25319326.307  
                 136007270.730                   136007270.730    26118759.859  
                 116710514.000                   116710514.000    22413027.072  
                 119278435.825                   119278435.825    22906168.380  
  27185969.065   142863196.550                                                  
  27774032.088   145953523.297                                                  
  26061246.157   136952763.064                                                  
  23491356.457   123447896.621                                                  
  25027186.776   131518759.227                                                  
  25264745.894   132767178.844                                                  
  26609392.803   139833276.980                                                  
  24013349.911   126190987.325                                                  
  25427538.161   133622638.706                                                  
 21  8 31  8 50 27.0000000  0 22G 1G 7G13G14G15G17G19G21G30C19C23C27
                                C28E 1E 4E 5E 9E12E24E26E31E33
  22801827.653   119824365.510    22801830.958    93369622.610                  
  22025237.145   115743406.684    22025237.127    90189668.321                  
  21531972.379   113151286.421    21531972.004    88169835.285                  
  20620824.984   108363176.987    20620825.234    84438843.875                  
  23536760.643   123686522.340    23536760.715    96379110.562                  
  20553309.114   108008375.730    20553308.882    84162371.929                  
  22284443.602   117105550.691    22284441.993    91251081.246                  
  24076150.289   126521025.378    24076149.378    98587813.007                  
  20520387.244   107835322.659    20520389.406    84027514.128                  
                 131845855.161                   131845855.161    25319610.924  
                 136009564.077                   136009564.077    26119200.276  
                 116708367.692                   116708367.692    22412614.923  
                 119279384.341                   119279384.341    22906350.519  
  27186297.783   142864924.054                                                  
  27774598.357   145956499.200                                                  
  26061162.244   136952322.078                                                  
  23491729.758   123449858.297                                                  
  25026628.673   131515826.419                                                  
  25264519.386   132765988.462                                                  
  26609595.366   139834341.433                                                  
  24013426.462   126191389.567                                                  
  25427296.519   133621368.867                                                  
 21  8 31  8 50 28.0000000  0 22G 1G 7G13G14G15G17G19G21G30C19C23C27
                                C28E 1E 4E 5E 9E12E24E26E31E33
  22801619.353   119823270.926    22801622.659    93368769.687                  
  22025672.649   115745695.237    22025672.613    90191451.609                  
  21531837.308   113150576.557    21531836.914    88169282.145                  
  20620847.106   108363293.188    20620847.356    84438934.417                  
  23536486.908   123685083.817    23536486.979    96377989.638                  
  20553062.057   108007077.478    20553061.825    84161360.301                  
  22283823.279   117102290.951    22283821.688    91248541.188                  
  24076348.027   126522064.505    24076347.116    98588622.719                  
  20520510.237   107835968.995    20520512.399    84028017.766                  
                 131847337.570                   131847337.570    25319895.596  
                 136011857.547                   136011857.547    26119640.712  
                 116706221.809                   116706221.809    22412202.827  
                 119280333.388                   119280333.388    22906532.783  
  27186626.520   142866651.558                                                  
  27775164.663   145959475.042                                                  
  26061078.420   136951881.543                                                  
  23492103.096   123451820.284                                                  
  25026070.587   131512893.655                                                  
  25264292.879   132764798.138                                                  
  26609798.001   139835406.321                                                  
  24013503.013   126191791.886                                                  
  25427054.947   133620099.425                                                  
 21  8 31  8 50 29.0000000  0 22G 1G 7G13G14G15G17G19G21G30C19C23C27
                                C28E 1E 4E 5E 9E12E24E26E31E33
  22801411.179   119822176.952    22801414.503    93367917.242                  
  22026108.224   115747984.174    22026108.188    90193235.199                  
  21531702.361   113149867.360    21531701.968    88168729.523                  
  20620869.263   108363409.642    20620869.513    84439025.165                  
  23536213.261   123683645.879    23536213.333    96376869.164                  
  20552815.125   108005779.797    20552814.875    84160349.122                  
  22283203.045   117099031.536    22283201.437    91246001.382                  
  24076545.855   126523104.159    24076544.962    98589432.839                  
  20520633.318   107836615.809    20520635.481    84028521.773                  
                 131848820.324                   131848820.324    25320180.339  
                 136014151.145                   136014151.145    26120081.184  
                 116704076.350                   116704076.350    22411790.803  
                 119281282.970                   119281282.970    22906715.136  
  27186955.256   142868379.071                                                  
  27775730.914   145962450.849                                                  
  26060994.686   136951441.473                                                  
  23492476.523   123453782.590                                                  
  25025512.520   131509960.944                                                  
  25264066.389   132763607.882                                                  
  26610000.743   139836471.649                                                  
  24013579.600   126192194.293                                                  
  25426813.465   133618830.434                                                  
 21  8 31  8 50 30.0000000  0 22G 1G 7G13G14G15G17G19G21G30C19C23C27
                                C28E 1E 4E 5E 9E12E24E26E31E33
  22801203.112   119821083.570    22801206.418    93367065.254                  
  22026543.853   115750273.511    22026543.835    90195019.093                  
  21531567.521   113149158.817    21531567.128    88168177.409                  
  20620891.457   108363526.339    20620891.725    84439116.098                  
  23535939.740   123682208.530    23535939.812    96375749.152                  
  20552568.300   108004482.695    20552568.068    84159338.395                  
  22282582.865   117095772.452    22282581.256    91243461.841                  
  24076743.808   126524144.339    24076742.897    98590243.366                  
  20520756.507   107837263.099    20520758.652    84029026.156                  
                 131850303.421                   131850303.421    25320465.153  
                 136016444.868                   136016444.868    26120521.655  
                 116701931.319                   116701931.319    22411378.887  
                 119282233.081                   119282233.081    22906897.597  
  27187283.992   142870106.598                                                  
  27776297.183   145965426.561                                                  
  26060911.023   136951001.866                                                  
  23492850.003   123455745.211                                                  
  25024954.452   131507028.309                                                  
  25263839.899   132762417.690                                                  
  26610203.538   139837537.438                                                  
  24013656.186   126192596.770                                                  
  25426572.055   133617561.861                                                  
 21  8 31  8 50 31.0000000  0 22G 1G 7G13G14G15G17G19G21G30C19C23C27
                                C28E 1E 4E 5E 9E12E24E26E31E33
  22800995.153   119819990.785    22800998.476    93366213.735                  
  22026979.571   115752563.211    22026979.535    90196803.273                  
  21531432.824   113148450.943    21531432.413    88167625.821                  
  20620913.721   108363643.285    20620913.972    84439207.222                  
  23535666.326   123680771.742    23535666.416    96374629.579                  
  20552321.583   108003186.153    20552321.332    84158328.102                  
  22281962.738   117092513.703    22281961.148    91240922.554                  
  24076941.833   126525185.047    24076940.939    98591054.312                  
  20520879.768   107837910.849    20520881.912    84029530.894                  
                 131851786.864                   131851786.864    25320750.039  
                 136018738.716                   136018738.716    26120962.180  
                 116699786.718                   116699786.718    22410967.024  
                 119283183.731                   119283183.731    22907080.165  
  27187612.747   142871834.132                                                  
  27776863.435   145968402.239                                                  
  26060827.468   136950562.711                                                  
  23493223.519   123457708.149                                                  
  25024396.403   131504095.742                                                  
  25263613.427   132761227.563                                                  
  26610406.441   139838603.673                                                  
  24013732.773   126192999.320                                                  
  25426330.734   133616293.706                                                  
 21  8 31  8 50 32.0000000  0 22G 1G 7G13G14G15G17G19G21G30C19C23C27
                                C28E 1E 4E 5E 9E12E24E26E31E33
  22800787.318   119818898.586    22800790.642    93365362.671                  
  22027415.379   115754853.304    22027415.343    90198587.761                  
  21531298.235   113147743.726    21531297.842    88167074.741                  
  20620936.022   108363760.484    20620936.272    84439298.546                  
  23535393.038   123679335.550    23535393.127    96373510.468                  
  20552074.954   108001890.180    20552074.722    84157318.253                  
  22281342.683   117089255.283    22281341.075    91238383.527                  
  24077139.983   126526226.274    24077139.071    98591865.656                  
  20521003.100   107838559.074    20521005.262    84030036.007                  
                 131853270.648                   131853270.648    25321034.978  
                 136021032.686                   136021032.686    26121402.705  
                 116697642.542                   116697642.542    22410555.268  
                 119284134.910                   119284134.910    22907262.822  
  27187941.483   142873561.677                                                  
  27777429.686   145971377.849                                                  
  26060743.984   136950124.014                                                  
  23493597.125   123459671.403                                                  
  25023838.353   131501163.233                                                  
  25263386.955   132760037.480                                                  
  26610609.415   139839670.345                                                  
  24013809.395   126193401.941                                                  
  25426089.502   133615025.978                                                  
 21  8 31  8 50 33.0000000  0 22G 1G 7G13G14G15G17G19G21G30C19C23C27
                                C28E 1E 4E 5E 9E12E24E26E31E33
  22800579.609   119817807.009    22800582.914    93364512.089                  
  22027851.240   115757143.782    22027851.204    90200372.551                  
  21531163.788   113147037.172    21531163.377    88166524.185                  
  20620958.376   108363877.927    20620958.626    84439390.062                  
  23535119.838   123677899.941    23535119.927    96372391.812                  
  20551828.433   108000594.782    20551828.219    84156308.850                  
  22280722.681   117085997.191    22280721.073    91235844.754                  
  24077338.221   126527268.030    24077337.328    98592677.414                  
  20521126.557   107839207.781    20521128.719    84030541.493                  
                 131854754.777                   131854754.777    25321320.007  
                 136023326.784                   136023326.784    26121843.266  
                 116695498.793                   116695498.793    22410143.583  
                 119285086.620                   119285086.620    22907445.586  
  27188270.219   142875289.228                                                  
  27777995.902   145974353.391                                                  
  26060660.589   136949685.778                                                  
  23493970.784   123461634.990                                                  
  25023280.339   131498230.792                                                  
  25263160.501   132758847.496                                                  
  26610812.497   139840737.460                                                  
  24013886.036   126193804.656                                                  
  25425848.341   133613758.675                                                  
 21  8 31  8 50 34.0000000  0 22G 1G 7G13G14G15G17G19G21G30C19C23C27
                                C28E 1E 4E 5E 9E12E24E26E31E33
  22800372.006   119816716.008    22800375.294    93363661.961                  
  22028287.173   115759434.645    22028287.137    90202157.636                  
  21531029.467   113146331.285    21531029.056    88165974.140                  
  20620980.766   108363995.622    20620981.016    84439481.770                  
  23534846.764   123676464.914    23534846.835    96371273.609                  
  20551582.037   107999299.933    20551581.805    84155299.880                  
  22280102.751   117082739.434    22280101.161    91233306.242                  
  24077536.568   126528310.314    24077535.656    98593489.583                  
  20521250.086   107839856.960    20521252.248    84031047.347                  
                 131856239.253                   131856239.253    25321605.072  
                 136025621.007                   136025621.007    26122283.844  
                 116693355.469                   116693355.469    22409731.952  
                 119286038.866                   119286038.866    22907628.458  
  27188598.956   142877016.790                                                  
  27778562.118   145977328.898                                                  
  26060577.283   136949248.020                                                  
  23494344.497   123463598.875                                                  
  25022722.326   131495298.394                                                  
  25262934.065   132757657.566                                                  
  26611015.632   139841805.042                                                  
  24013962.676   126194207.439                                                  
  25425607.253   133612491.794                                                  
 21  8 31  8 50 35.0000000  0 22G 1G 7G13G14G15G17G19G21G30C19C23C27
                                C28E 1E 4E 5E 9E12E24E26E31E33
  22800164.493   119815625.611    22800167.817    93362812.301                  
  22028723.177   115761725.891    22028723.159    90203943.024                  
  21530895.253   113145626.052    21530894.860    88165424.606                  
  20621003.227   108364113.554    20621003.460    84439573.668                  
  23534573.797   123675030.485    23534573.886    96370155.870                  
  20551335.766   107998005.645    20551335.516    84154291.343                  
  22279482.875   117079481.999    22279481.285    91230767.979                  
  24077735.003   126529353.126    24077734.092    98594302.164                  
  20521373.721   107840506.606    20521375.884    84031553.567                  
                 131857724.075                   131857724.075    25321890.226  
                 136027915.356                   136027915.356    26122724.459  
                 116691212.575                   116691212.575    22409320.447  
                 119286991.650                   119286991.650    22907811.419  
  27188927.692   142878744.359                                                  
  27779128.334   145980304.318                                                  
  26060494.067   136948810.699                                                  
  23494718.281   123465563.083                                                  
  25022164.312   131492366.079                                                  
  25262707.646   132756467.691                                                  
  26611218.874   139842873.055                                                  
  24014039.334   126194610.294                                                  
  25425366.253   133611225.339                                                  
 21  8 31  8 50 36.0000000  0 22G 1G 7G13G14G15G17G19G21G30C19C23C27
                                C28E 1E 4E 5E 9E12E24E26E31E33
  22799957.123   119814535.809    22799960.411    93361963.105                  
  22029159.252   115764017.519    22029159.235    90205728.708                  
  21530761.181   113144921.464    21530760.788    88164875.579                  
  20621025.707   108364231.742    20621025.957    84439665.762                  
  23534300.954   123673596.637    23534301.044    96369038.586                  
  20551089.567   107996711.929    20551089.317    84153283.255                  
  22278863.088   117076224.894    22278861.480    91228229.977                  
  24077933.546   126530396.454    24077932.635    98595115.149                  
  20521497.429   107841156.730    20521499.573    84032060.157                  
                 131859209.233                   131859209.233    25322175.433  
                 136030209.829                   136030209.829    26123165.073  
                 116689070.106                   116689070.106    22408908.995  
                 119287944.957                   119287944.957    22907994.505  
  27189256.464   142880471.939                                                  
  27779694.513   145983279.675                                                  
  26060410.923   136948373.833                                                  
  23495092.101   123467527.597                                                  
  25021606.334   131489433.823                                                  
  25262481.246   132755277.887                                                  
  26611422.206   139843941.517                                                  
  24014116.028   126195013.229                                                  
  25425125.343   133609959.303                                                  
 21  8 31  8 50 37.0000000  0 22G 1G 7G13G14G15G17G19G21G30C19C23C27
                                C28E 1E 4E 5E 9E12E24E26E31E33
  22799749.861   119813446.610    22799753.166    93361114.380                  
  22029595.417   115766309.535    22029595.400    90207514.696                  
  21530627.217   113144217.555    21530626.842    88164327.078                  
  20621048.239   108364350.182    20621048.507    84439758.056                  
  23534028.202   123672163.365    23534028.309    96367921.750                  
  20550843.475   107995418.770    20550843.243    84152275.597                  
  22278243.337   117072968.117    22278241.746    91225692.231                  
  24078132.178   126531440.308    24078131.267    98595928.539                  
  20521621.243   107841807.338    20521623.405    84032567.120                  
                 131860694.741                   131860694.741    25322460.694  
                 136032504.430                   136032504.430    26123605.741  
                 116686928.064                   116686928.064    22408497.668  
                 119288898.802                   119288898.802    22908177.680  
  27189585.201   142882199.528                                                  
  27780260.711   145986255.003                                                  
  26060327.885   136947937.445                                                  
  23495465.992   123469492.430                                                  
  25021048.356   131486501.637                                                  
  25262254.845   132754088.150                                                  
  26611625.627   139845010.425                                                  
  24014192.704   126195416.232                                                  
  25424884.504   133608693.696                                                  
 21  8 31  8 50 38.0000000  0 22G 1G 7G13G14G15G17G19G21G30C19C23C27
                                C28E 1E 4E 5E 9E12E24E26E31E33
  22799542.705   119812357.997    22799545.993    93360266.110                  
  22030031.654   115768601.938    22030031.618    90209300.980                  
  21530493.396   113143514.308    21530493.021    88163779.093                  
  20621070.826   108364468.872    20621071.076    84439850.534                  
  23533755.574   123670730.679    23533755.663    96366805.374                  
  20550597.526   107994126.172    20550597.276    84151268.380                  
  22277623.657   117069711.668    22277622.049    91223154.739                  
  24078330.917   126532484.693    24078330.006    98596742.343                  
  20521745.147   107842458.413    20521747.273    84033074.453                  
                 131862180.595                   131862180.595    25322746.062  
                 136034799.153                   136034799.153    26124046.427  
                 116684786.449                   116684786.449    22408086.376  
                 119289853.179                   119289853.179    22908360.963  
  27189913.955   142883927.129                                                  
  27780826.873   145989230.261                                                  
  26060244.920   136947501.507                                                  
  23495839.955   123471457.589                                                  
  25020490.377   131483569.519                                                  
  25262028.445   132752898.460                                                  
  26611829.101   139846079.785                                                  
  24014269.416   126195819.325                                                  
  25424643.737   133607428.515                                                  
 21  8 31  8 50 39.0000000  0 22G 1G 7G13G14G15G17G19G21G30C19C23C27
                                C28E 1E 4E 5E 9E12E24E26E31E33
  22799335.657   119811269.977    22799338.962    93359418.305                  
  22030467.962   115770894.716    22030467.926    90211087.562                  
  21530359.700   113142811.719    21530359.325    88163231.621                  
  20621093.466   108364587.802    20621093.698    84439943.212                  
  23533483.053   123669298.589    23533483.143    96365689.462                  
  20550351.648   107992834.143    20550351.398    84150261.606                  
  22277004.048   117066455.563    22277002.440    91220617.512                  
  24078529.764   126533529.609    24078528.834    98597556.566                  
  20521869.122   107843109.964    20521871.284    84033582.153                  
                 131863666.789                   131863666.789    25323031.466  
                 136037094.001                   136037094.001    26124487.113  
                 116682645.262                   116682645.262    22407675.174  
                 119290808.085                   119290808.085    22908544.335  
  27190242.692   142885654.729                                                  
  27781393.036   145992205.449                                                  
  26060162.061   136947066.034                                                  
  23496213.972   123473423.059                                                  
  25019932.435   131480637.468                                                  
  25261802.062   132751708.843                                                  
  26612032.683   139847149.582                                                  
  24014346.145   126196222.492                                                  
  25424403.077   133606163.753                                                  
 21  8 31  8 50 40.0000000  0 22G 1G 7G13G14G15G17G19G21G30C19C23C27
                                C28E 1E 4E 5E 9E12E24E26E31E33
  22799128.715   119810182.570    22799132.039    93358570.977                  
  22030904.323   115773187.891    22030904.306    90212874.449                  
  21530226.147   113142109.790    21530225.736    88162684.664                  
  20621116.142   108364706.982    20621116.374    84440036.079                  
  23533210.658   123667867.083    23533210.747    96364574.000                  
  20550105.895   107991542.696    20550105.663    84149255.281                  
  22276384.476   117063199.778    22276382.885    91218080.539                  
  24078728.699   126534575.050    24078727.806    98598371.200                  
  20521993.205   107843761.989    20521995.367    84034090.222                  
                 131865153.329                   131865153.329    25323316.942  
                 136039388.972                   136039388.972    26124927.834  
                 116680504.500                   116680504.500    22407264.080  
                 119291763.533                   119291763.533    22908727.814  
  27190571.464   142887382.357                                                  
  27781959.198   145995180.595                                                  
  26060079.274   136946631.020                                                  
  23496588.060   123475388.837                                                  
  25019374.493   131477705.452                                                  
  25261575.697   132750519.297                                                  
  26612236.336   139848219.837                                                  
  24014422.857   126196625.726                                                  
  25424162.488   133604899.413                                                  
 21  8 31  8 50 41.0000000  0 22G 1G 7G13G14G15G17G19G21G30C19C23C27
                                C28E 1E 4E 5E 9E12E24E26E31E33
  22798921.917   119809095.753    22798925.223    93357724.107                  
  22031340.774   115775481.441    22031340.739    90214661.634                  
  21530092.683   113141408.528    21530092.308    88162138.223                  
  20621138.853   108364826.414    20621139.121    84440129.145                  
  23532938.352   123666436.160    23532938.441    96363458.996                  
  20549860.232   107990251.820    20549860.000    84148249.402                  
  22275764.975   117059944.322    22275763.384    91215543.817                  
  24078927.743   126535621.008    24078926.813    98599186.228                  
  20522117.359   107844414.481    20522119.521    84034598.660                  
                 131866640.207                   131866640.207    25323602.489  
                 136041684.073                   136041684.073    26125368.592  
                 116678364.168                   116678364.168    22406853.038  
                 119292719.503                   119292719.503    22908911.400  
  27190900.218   142889109.981                                                  
  27782525.342   145998155.671                                                  
  26059996.576   136946196.460                                                  
  23496962.201   123477354.944                                                  
  25018816.568   131474773.518                                                  
  25261349.332   132749329.809                                                  
  26612440.079   139849290.532                                                  
  24014499.622   126197029.043                                                  
  25423921.954   133603635.508                                                  
 21  8 31  8 50 42.0000000  0 22G 1G 7G13G14G15G17G19G21G30C19C23C27
                                C28E 1E 4E 5E 9E12E24E26E31E33
  22798715.208   119808009.532    22798718.514    93356877.700                  
  22031777.297   115777775.379    22031777.279    90216449.113                  
  21529959.363   113140707.919    21529958.987    88161592.297                  
  20621161.636   108364946.092    20621161.886    84440222.399                  
  23532666.171   123665005.816    23532666.260    96362344.442                  
  20549614.694   107988961.517    20549614.479    84147243.973                  
  22275145.563   117056689.188    22275143.955    91213007.352                  
  24079126.875   126536667.497    24079125.964    98600001.676                  
  20522241.620   107845067.449    20522243.782    84035107.464                  
                 131868127.433                   131868127.433    25323888.072  
                 136043979.296                   136043979.296    26125809.367  
                 116676224.263                   116676224.263    22406442.104  
                 119293676.012                   119293676.012    22909095.076  
  27191228.972   142890837.617                                                  
  27783091.468   146001130.688                                                  
  26059913.985   136945762.359                                                  
  23497336.397   123479321.362                                                  
  25018258.662   131471841.661                                                  
  25261123.003   132748140.384                                                  
  26612643.929   139850361.673                                                  
  24014576.388   126197432.442                                                  
  25423681.526   133602372.020                                                  
 21  8 31  8 50 43.0000000  0 22G 1G 7G13G14G15G17G19G21G30C19C23C27
                                C28E 1E 4E 5E 9E12E24E26E31E33
  22798508.625   119806923.918    22798511.948    93356031.765                  
  22032213.908   115780069.689    22032213.855    90218236.887                  
  21529826.185   113140007.980    21529825.774    88161046.892                  
  20621184.455   108365066.015    20621184.705    84440315.845                  
  23532394.097   123663576.050    23532394.187    96361230.339                  
  20549369.281   107987671.782    20549369.048    84146238.985                  
  22274526.187   117053434.386    22274524.579    91210471.140                  
  24079326.115   126537714.517    24079325.221    98600817.535                  
  20522365.953   107845720.895    20522368.115    84035616.645                  
                 131869615.005                   131869615.005    25324173.762  
                 136046274.648                   136046274.648    26126250.160  
                 116674084.783                   116674084.783    22406031.242  
                 119294633.050                   119294633.050    22909278.877  
  27191557.744   142892565.262                                                  
  27783657.577   146004105.638                                                  
  26059831.466   136945328.715                                                  
  23497710.645   123481288.085                                                  
  25017700.737   131468909.859                                                  
  25260896.674   132746951.016                                                  
  26612847.832   139851433.254                                                  
  24014653.153   126197835.902                                                  
  25423441.187   133601108.960                                                  
 21  8 31  8 50 44.0000000  0 22G 1G 7G13G14G15G17G19G21G30C19C23C27
                                C28E 1E 4E 5E 9E12E24E26E31E33
  22798302.148   119805838.894    22798305.454    93355186.292                  
  22032650.556   115782364.395    22032650.538    90220024.968                  
  21529693.096   113139308.707    21529692.721    88160501.999                  
  20621207.327   108365186.192    20621207.577    84440409.487                  
  23532122.149   123662146.874    23532122.220    96360116.695                  
  20549123.957   107986382.641    20549123.724    84145234.462                  
  22273906.882   117050179.921    22273905.274    91207935.200                  
  24079525.461   126538762.056    24079524.532    98601633.798                  
  20522490.392   107846374.813    20522492.555    84036126.191                  
                 131871102.915                   131871102.915    25324459.505  
                 136048570.121                   136048570.121    26126690.989  
                 116671945.730                   116671945.730    22405620.451  
                 119295590.622                   119295590.622    22909462.767  
  27191886.499   142894292.915                                                  
  27784223.685   146007080.534                                                  
  26059749.018   136944895.534                                                  
  23498084.966   123483255.134                                                  
  25017142.866   131465978.116                                                  
  25260670.363   132745761.720                                                  
  26613051.843   139852505.285                                                  
  24014729.936   126198239.450                                                  
  25423200.903   133599846.325                                                  
 21  8 31  8 50 45.0000000  0 22G 1G 7G13G14G15G17G19G21G30C19C23C27
                                C28E 1E 4E 5E 9E12E24E26E31E33
  22798095.779   119804754.462    22798099.102    93354341.280                  
  22033087.293   115784659.480    22033087.275    90221813.353                  
  21529560.169   113138610.091    21529559.758    88159957.625                  
  20621230.235   108365306.610    20621230.503    84440503.320                  
  23531850.272   123660718.285    23531850.361    96359003.509                  
  20548878.758   107985094.054    20548878.526    84144230.368                  
  22273287.631   117046925.794    22273286.041    91205399.512                  
  24079724.898   126539810.118    24079723.986    98602450.474                  
  20522614.922   107847029.207    20522617.084    84036636.109                  
                 131872591.171                   131872591.171    25324745.302  
                 136050865.722                   136050865.722    26127131.835  
                 116669807.110                   116669807.110    22405209.767  
                 119296548.727                   119296548.727    22909646.764  
  27192215.253   142896020.577                                                  
  27784789.776   146010055.378                                                  
  26059666.678   136944462.818                                                  
  23498459.340   123485222.500                                                  
  25016584.977   131463046.441                                                  
  25260444.052   132744572.493                                                  
  26613255.925   139853577.761                                                  
  24014806.755   126198643.066                                                  
  25422960.725   133598584.114                                                  
 21  8 31  8 50 46.0000000  0 22G 1G 7G13G14G15G17G19G21G30C19C23C27
                                C28E 1E 4E 5E 9E12E24E26E31E33
  22797889.534   119803670.636    22797892.858    93353496.742                  
  22033524.119   115786954.949    22033524.083    90223602.028                  
  21529427.348   113137912.141    21529426.955    88159413.771                  
  20621253.197   108365427.275    20621253.465    84440597.348                  
  23531578.537   123659290.289    23531578.627    96357890.784                  
  20548633.666   107983806.034    20548633.416    84143226.718                  
  22272668.452   117043671.978    22272666.861    91202864.071                  
  24079924.441   126540858.714    24079923.547    98603267.559                  
  20522739.540   107847684.079    20522741.702    84037146.399                  
                 131874079.769                   131874079.769    25325031.153  
                 136053161.446                   136053161.446    26127572.700  
                 116667668.915                   116667668.915    22404799.137  
                 119297507.364                   119297507.364    22909830.869  
  27192544.025   142897748.249                                                  
  27785355.867   146013030.140                                                  
  26059584.427   136944030.550                                                  
  23498833.785   123487190.177                                                  
  25016027.106   131460114.833                                                  
  25260217.759   132743383.320                                                  
  26613460.096   139854650.692                                                  
  24014883.574   126199046.758                                                  
  25422720.601   133597322.333                                                  
 21  8 31  8 50 47.0000000  0 22G 1G 7G13G14G15G17G19G21G30C19C23C27
                                C28E 1E 4E 5E 9E12E24E26E31E33
  22797683.415   119802587.410    22797686.721    93352652.669                  
  22033960.998   115789250.809    22033960.981    90225391.007                  
  21529294.653   113137214.849    21529294.260    88158870.421                  
  20621276.212   108365548.191    20621276.463    84440691.567                  
  23531306.928   123657862.876    23531307.000    96356778.515                  
  20548388.664   107982518.583    20548388.414    84142223.507                  
  22272049.344   117040418.487    22272047.735    91200328.886                  
  24080124.074   126541907.823    24080123.162    98604085.051                  
  20522864.266   107848339.426    20522866.392    84037657.059                  
                 131875568.711                   131875568.711    25325317.093  
                 136055457.297                   136055457.297    26128013.600  
                 116665531.145                   116665531.145    22404388.596  
                 119298466.531                   119298466.531    22910015.063  
  27192872.797   142899475.926                                                  
  27785921.922   146016004.864                                                  
  26059502.265   136943598.749                                                  
  23499208.284   123489158.167                                                  
  25015469.253   131457183.281                                                  
  25259991.483   132742194.214                                                  
  26613664.339   139855724.058                                                  
  24014960.393   126199450.532                                                  
  25422480.585   133596060.969                                                  
 21  8 31  8 50 48.0000000  0 22G 1G 7G13G14G15G17G19G21G30C19C23C27
                                C28E 1E 4E 5E 9E12E24E26E31E33
  22797477.403   119801504.784    22797480.691    93351809.066                  
  22034397.968   115791547.050    22034397.932    90227180.286                  
  21529162.100   113136518.202    21529161.707    88158327.582                  
  20621299.281   108365669.361    20621299.514    84440785.985                  
  23531035.408   123656436.047    23531035.480    96355666.700                  
  20548143.787   107981231.719    20548143.537    84141220.754                  
  22271430.271   117037165.340    22271428.681    91197793.966                  
  24080323.814   126542957.460    24080322.902    98604902.946                  
  20522989.045   107848995.246    20522991.207    84038168.085                  
                 131877057.996                   131877057.996    25325603.105  
                 136057753.274                   136057753.274    26128454.518  
                 116663393.805                   116663393.805    22403978.145  
                 119299426.235                   119299426.235    22910199.364  
  27193201.552   142901203.629                                                  
  27786487.977   146018979.514                                                  
  26059420.175   136943167.405                                                  
  23499582.837   123491126.481                                                  
  25014911.418   131454251.799                                                  
  25259765.226   132741005.175                                                  
  26613868.671   139856797.878                                                  
  24015037.265   126199854.383                                                  
  25422240.621   133594800.028                                                  
 21  8 31  8 50 49.0000000  0 22G 1G 7G13G14G15G17G19G21G30C19C23C27
                                C28E 1E 4E 5E 9E12E24E26E31E33
  22797271.499   119800422.753    22797274.804    93350965.925                  
  22034835.008   115793843.664    22034834.955    90228969.853                  
  21529029.655   113135822.239    21529029.262    88157785.271                  
  20621322.386   108365790.773    20621322.618    84440880.590                  
  23530763.996   123655009.806    23530764.085    96354555.343                  
  20547898.999   107979945.418    20547898.767    84140218.441                  
  22270811.306   117033912.519    22270809.698    91195259.300                  
  24080523.661   126544007.629    24080522.732    98605721.257                  
  20523113.932   107849651.527    20523116.094    84038679.477                  
                 131878547.624                   131878547.624    25325889.188  
                 136060049.372                   136060049.372    26128895.454  
                 116661256.889                   116661256.889    22403567.783  
                 119300386.468                   119300386.468    22910383.754  
  27193530.342   142902931.333                                                  
  27787054.014   146021954.124                                                  
  26059338.174   136942736.532                                                  
  23499957.443   123493095.108                                                  
  25014353.583   131451320.382                                                  
  25259538.968   132739816.199                                                  
  26614073.129   139857872.141                                                  
  24015114.120   126200258.315                                                  
  25422000.766   133593539.527                                                  
 21  8 31  8 50 50.0000000  0 22G 1G 7G13G14G15G17G19G21G30C19C23C27
                                C28E 1E 4E 5E 9E12E24E26E31E33
  22797065.701   119799341.312    22797069.007    93350123.241                  
  22035272.102   115796140.671    22035272.084    90230759.730                  
  21528897.335   113135126.921    21528896.942    88157243.469                  
  20621345.526   108365912.433    20621345.776    84440975.391                  
  23530492.708   123653584.148    23530492.780    96353444.441                  
  20547654.337   107978659.692    20547654.104    84139216.577                  
  22270192.377   117030660.038    22270190.769    91192724.899                  
  24080723.597   126545058.308    24080722.686    98606539.973                  
  20523238.926   107850308.300    20523241.088    84039191.246                  
                 131880037.593                   131880037.593    25326175.307  
                 136062345.599                   136062345.599    26129336.426  
                 116659120.407                   116659120.407    22403157.474  
                 119301347.234                   119301347.234    22910568.252  
  27193859.114   142904659.039                                                  
  27787620.068   146024928.660                                                  
  26059256.280   136942306.107                                                  
  23500332.120   123495064.050                                                  
  25013795.766   131448389.033                                                  
  25259312.728   132738627.289                                                  
  26614277.622   139858946.839                                                  
  24015190.993   126200662.313                                                  
  25421760.981   133592279.445                                                  
 21  8 31  8 50 51.0000000  0 22G 1G 7G13G14G15G17G19G21G30C19C23C27
                                C28E 1E 4E 5E 9E12E24E26E31E33
  22796860.029   119798260.481    22796863.334    93349281.035                  
  22035709.286   115798438.062    22035709.268    90232549.903                  
  21528765.158   113134432.270    21528764.765    88156702.180                  
  20621368.720   108366034.347    20621368.988    84441070.390                  
  23530221.528   123652159.074    23530221.599    96352333.992                  
  20547409.781   107977374.530    20547409.531    84138215.157                  
  22269573.501   117027407.888    22269571.893    91190190.757                  
  24080923.623   126546109.525    24080922.712    98607359.102                  
  20523363.973   107850965.547    20523366.135    84039703.386                  
                 131881527.898                   131881527.898    25326461.497  
                 136064641.953                   136064641.953    26129777.416  
                 116656984.370                   116656984.370    22402747.273  
                 119302308.523                   119302308.523    22910752.874  
  27194187.886   142906386.763                                                  
  27788186.088   146027903.134                                                  
  26059174.458   136941876.140                                                  
  23500706.852   123497033.297                                                  
  25013237.966   131445457.745                                                  
  25259086.507   132737438.438                                                  
  26614482.222   139860022.001                                                  
  24015267.901   126201066.395                                                  
  25421521.268   133591019.789                                                  
 21  8 31  8 50 52.0000000  0 22G 1G 7G13G14G15G17G19G21G30C19C23C27
                                C28E 1E 4E 5E 9E12E24E26E31E33
  22796654.463   119797180.234    22796657.751    93348439.289                  
  22036146.541   115800735.835    22036146.505    90234340.376                  
  21528633.106   113133738.281    21528632.695    88156161.410                  
  20621391.986   108366156.500    20621392.218    84441165.573                  
  23529950.437   123650734.581    23529950.526    96351223.999                  
  20547165.333   107976089.952    20547165.101    84137214.184                  
  22268954.697   117024156.059    22268953.106    91187656.864                  
  24081123.756   126547161.266    24081122.863    98608178.641                  
  20523489.146   107851623.253    20523491.308    84040215.883                  
                 131883018.559                   131883018.559    25326747.759  
                 136066938.430                   136066938.430    26130218.423  
                 116654848.742                   116654848.742    22402337.161  
                 119303270.356                   119303270.356    22910937.587  
  27194516.658   142908114.487                                                  
  27788752.107   146030877.555                                                  
  26059092.725   136941446.636                                                  
  23501081.654   123499002.866                                                  
  25012680.167   131442526.524                                                  
  25258860.285   132736249.649                                                  
  26614686.894   139861097.608                                                  
  24015344.791   126201470.548                                                  
  25421281.645   133589760.562                                                  
 21  8 31  8 50 53.0000000  0 22G 1G 7G13G14G15G17G19G21G30C19C23C27
                                C28E 1E 4E 5E 9E12E24E26E31E33
  22796449.023   119796100.598    22796452.329    93347598.012                  
  22036583.867   115803034.001    22036583.832    90236131.152                  
  21528501.161   113133044.956    21528500.768    88155621.157                  
  20621415.251   108366278.910    20621415.519    84441260.956                  
  23529679.471   123649310.675    23529679.560    96350114.465                  
  20546920.974   107974805.934    20546920.760    84136213.653                  
  22268335.964   117020904.564    22268334.356    91185123.231                  
  24081323.996   126548213.524    24081323.103    98608998.583                  
  20523614.408   107852281.441    20523616.552    84040728.759                  
                 131884509.554                   131884509.554    25327034.092  
                 136069235.029                   136069235.029    26130659.466  
                 116652713.542                   116652713.542    22401927.103  
                 119304232.717                   119304232.717    22911122.406  
  27194845.448   142909842.234                                                  
  27789318.108   146033851.909                                                  
  26059011.081   136941017.590                                                  
  23501456.529   123500972.753                                                  
  25012122.385   131439595.356                                                  
  25258634.063   132735060.925                                                  
  26614891.655   139862173.644                                                  
  24015421.717   126201874.774                                                  
  25421042.092   133588501.754                                                  
 21  8 31  8 50 54.0000000  0 22G 1G 7G13G14G15G17G19G21G30C19C23C27
                                C28E 1E 4E 5E 9E12E24E26E31E33
  22796243.672   119795021.554    22796246.978    93346757.199                  
  22037021.265   115805332.531    22037021.212    90237922.214                  
  21528369.341   113132352.289    21528368.966    88155081.413                  
  20621438.606   108366401.558    20621438.856    84441356.528                  
  23529408.648   123647887.348    23529408.720    96349005.378                  
  20546676.758   107973522.488    20546676.526    84135213.566                  
  22267717.285   117017653.394    22267715.677    91182589.855                  
  24081524.344   126549266.316    24081523.433    98609818.938                  
  20523739.741   107852940.102    20523741.903    84041242.001                  
                 131886000.897                   131886000.897    25327320.497  
                 136071531.752                   136071531.752    26131100.528  
                 116650578.770                   116650578.770    22401517.134  
                 119305195.614                   119305195.614    22911307.297  
  27195174.220   142911569.976                                                  
  27789884.092   146036826.202                                                  
  26058929.527   136940589.000                                                  
  23501831.439   123502942.956                                                  
  25011564.622   131436664.274                                                  
  25258407.877   132733872.262                                                  
  26615096.524   139863250.129                                                  
  24015498.661   126202279.073                                                  
  25420802.648   133587243.371                                                  
 21  8 31  8 50 55.0000000  0 22G 1G 7G13G14G15G17G19G21G30C19C23C27
                                C28E 1E 4E 5E 9E12E24E26E31E33
  22796038.464   119793943.121    22796041.752    93345916.863                  
  22037458.717   115807631.457    22037458.699    90239713.585                  
  21528237.664   113131660.284    21528237.253    88154542.191                  
  20621461.997   108366524.465    20621462.247    84441452.302                  
  23529137.897   123646464.619    23529137.986    96347896.753                  
  20546432.632   107972239.618    20546432.399    84134213.926                  
  22267098.677   117014402.565    22267097.087    91180056.739                  
  24081724.781   126550319.639    24081723.887    98610639.711                  
  20523865.164   107853599.243    20523867.326    84041755.613                  
                 131887492.581                   131887492.581    25327606.955  
                 136073828.604                   136073828.604    26131541.624  
                 116648444.425                   116648444.425    22401107.254  
                 119306159.038                   119306159.038    22911492.313  
  27195502.992   142913297.741                                                  
  27790450.057   146039800.432                                                  
  26058848.062   136940160.875                                                  
  23502206.402   123504913.464                                                  
  25011006.858   131433733.250                                                  
  25258181.709   132732683.667                                                  
  26615301.445   139864327.074                                                  
  24015575.623   126202683.452                                                  
  25420563.256   133585985.414                                                  
 21  8 31  8 50 56.0000000  0 22G 1G 7G13G14G15G17G19G21G30C19C23C27
                                C28E 1E 4E 5E 9E12E24E26E31E33
  22795833.346   119792865.280    22795836.652    93345076.987                  
  22037896.276   115809930.765    22037896.240    90241505.254                  
  21528106.095   113130968.946    21528105.702    88154003.488                  
  20621485.423   108366647.609    20621485.673    84441548.258                  
  23528867.288   123645042.462    23528867.360    96346788.581                  
  20546188.612   107970957.317    20546188.380    84133214.731                  
  22266480.123   117011152.065    22266478.515    91177523.884                  
  24081925.325   126551373.488    24081924.413    98611460.890                  
  20523990.676   107854258.843    20523992.838    84042269.589                  
                 131888984.608                   131888984.608    25327893.485  
                 136076125.581                   136076125.581    26131982.721  
                 116646310.513                   116646310.513    22400697.482  
                 119307122.996                   119307122.996    22911677.436  
  27195831.782   142915025.503                                                  
  27791016.041   146042774.610                                                  
  26058766.651   136939733.212                                                  
  23502581.437   123506884.296                                                  
  25010449.112   131430802.291                                                  
  25257955.523   132731495.142                                                  
  26615506.457   139865404.448                                                  
  24015652.585   126203087.913                                                  
  25420323.954   133584727.874                                                  
 21  8 31  8 50 57.0000000  0 22G 1G 7G13G14G15G17G19G21G30C19C23C27
                                C28E 1E 4E 5E 9E12E24E26E31E33
  22795628.353   119791788.039    22795631.658    93344237.578                  
  22038333.888   115812230.457    22038333.852    90243297.224                  
  21527974.686   113130278.264    21527974.275    88153465.293                  
  20621508.903   108366771.002    20621509.153    84441644.407                  
  23528596.751   123643620.906    23528596.841    96345680.878                  
  20545944.718   107969675.585    20545944.486    84132215.981                  
  22265861.640   117007901.899    22265860.032    91174991.285                  
  24082125.958   126552427.867    24082125.065    98612282.484                  
  20524116.295   107854918.938    20524118.457    84042783.949                  
                 131890476.981                   131890476.981    25328180.086  
                 136078422.683                   136078422.683    26132423.854  
                 116644177.023                   116644177.023    22400287.763  
                 119308087.489                   119308087.489    22911862.666  
  27196160.572   142916753.280                                                  
  27791582.006   146045748.730                                                  
  26058685.383   136939306.003                                                  
  23502956.544   123508855.438                                                  
  25009891.384   131427871.384                                                  
  25257729.354   132730306.672                                                  
  26615711.557   139866482.274                                                  
  24015729.565   126203492.450                                                  
  25420084.742   133583470.768                                                  
 21  8 31  8 50 58.0000000  0 22G 1G 7G13G14G15G17G19G21G30C19C23C27
                                C28E 1E 4E 5E 9E12E24E26E31E33
  22795423.484   119790711.395    22795426.772    93343398.638                  
  22038771.572   115814530.531    22038771.554    90245089.489                  
  21527843.366   113129588.249    21527842.973    88152927.621                  
  20621532.436   108366894.648    20621532.686    84441740.754                  
  23528326.357   123642199.923    23528326.447    96344573.616                  
  20545700.913   107968394.425    20545700.681    84131217.672                  
  22265243.211   117004652.065    22265241.621    91172458.949                  
  24082326.717   126553482.769    24082325.805    98613104.488                  
  20524242.003   107855579.497    20524244.166    84043298.672                  
                 131891969.692                   131891969.692    25328466.741  
                 136080719.910                   136080719.910    26132865.022  
                 116642043.966                   116642043.966    22399878.115  
                 119309052.512                   119309052.512    22912047.986  
  27196489.362   142918481.072                                                  
  27792147.936   146048722.793                                                  
  26058604.168   136938879.258                                                  
  23503331.704   123510826.897                                                  
  25009333.656   131424940.563                                                  
  25257503.222   132729118.250                                                  
  26615916.765   139867560.540                                                  
  24015806.563   126203897.070                                                  
  25419845.601   133582214.085                                                  
