     2.11           OBSERVATION DATA    M (MIXED)           RINEX VERSION / TYPE
CONVBIN 2.4.3                           20210901 010637 UTC PGM / RUN BY / DATE 
log: ngs/ingy2430.21o                                       COMMENT             
format: RINEX                                               COMMENT             
INGY                                                        MARKER NAME         
                                                            MARKER NUMBER       
                                                            OBSERVER / AGENCY   
355068              LEICA GRX1200GGPRO  9.20/3.823          REC # / TYPE / VERS 
07170139            LEIAX1202GG     NONE                    ANT # / TYPE        
   229481.0710 -4771570.9850  4212189.6140                  APPROX POSITION XYZ 
        0.0000        0.0000        0.0000                  ANTENNA: DELTA H/E/N
     1     1                                                WAVELENGTH FACT L1/2
     4    C1    L1    P2    L2                              # / TYPES OF OBSERV 
    30.000                                                  INTERVAL            
  2021     8    31     0     0    0.0000000     GPS         TIME OF FIRST OBS   
  2021     8    31    23    59   30.0000000     GPS         TIME OF LAST OBS    
                                                            END OF HEADER       
 21  8 31  0  0  0.0000000  0 18G10G12G23G 1G22G32G 3G21G25G31R16R22
                                R 9R21R 5R15R 6R 7
  21953666.360   115367328.780    21953669.360    89896644.031  
  23414865.860   123045980.369    23414867.120    95880001.050  
  24983330.760   131288285.520    24983334.500   102302577.518  
  22809505.680   119864775.190    22809510.380    93401152.571  
  23186542.820   121846120.478    23186541.260    94945034.171  
  20693271.460   108743930.156    20693274.100    84735533.882  
  24765747.660   130144885.446    24765752.500   101411607.431  
  23443044.920   123194045.649    23443045.000    95995380.710  
  22025076.240   115742595.461    22025079.240    90189061.502  
  20626024.820   108390563.778    20626023.880    84460207.095  
  19687216.900   105165626.788    19687221.840    81795530.232  
  22952651.480   122522804.730    22952656.300    95295542.086  
  22930155.600   122445769.945    22930161.740    95235629.412  
  23638127.620   126492374.160    23638134.680    98382985.124  
  20904744.320   111747880.826    20904749.440    86915066.630  
  20727898.700   110763671.551    20727903.960    86149570.098  
  19758021.140   105432596.357                                  
  23144009.160   123891700.730    23144013.720    96360237.112  
 21  8 31  0  0 30.0000000  0 18G10G12G23G 1G22G32G 3G21G25G31R16R22
                                R 9R21R 5R15R 6R 7
  21969889.780   115452582.534    21969892.720    89963075.487  
  23421558.420   123081151.194    23421559.640    95907406.859  
  25004409.760   131399055.020    25004413.600   102388891.326  
  22808115.000   119857466.523    22808119.760    93395457.517  
  23170471.880   121761667.660    23170470.460    94879226.823  
  20697492.920   108766113.897    20697495.400    84752819.910  
  24745508.320   130038527.588    24745513.420   101328731.276  
  23447273.540   123216268.553    23447274.040    96012697.220  
  22022285.220   115727930.023    22022288.500    90177633.901  
  20615416.480   108334817.053    20615415.540    84416768.107  
  19675433.260   105102681.003    19675438.300    81746572.419  
  22959603.880   122559916.219    22959608.820    95324406.593  
  22905498.980   122314105.101    22905505.340    95133223.566  
  23657612.000   126596637.761    23657618.260    98464078.968  
  20916430.660   111810351.636    20916435.640    86963654.994  
  20741652.920   110837168.608    20741658.020    86206734.487  
  19749110.760   105385047.578                                  
  23125205.960   123791046.299    23125210.680    96281950.303  
 21  8 31  0  1  0.0000000  0 18G10G12G23G 1G22G32G 3G21G25G31R16R22
                                R 9R21R 5R15R 6R 7
  21986181.900   115538197.527    21986184.900    90029788.417  
  23428364.780   123116915.936    23428365.660    95935275.446  
  25025504.640   131509908.963    25025509.320   102475270.834  
  22806841.740   119850772.916    22806846.040    93390241.729  
  23154448.300   121677462.661    23154446.760    94813612.569  
  20701762.900   108788552.276    20701765.140    84770304.350  
  24725283.020   129932243.487    24725288.120   101245912.570  
  23451584.440   123238921.521    23451585.000    96030348.863  
  22019613.620   115713890.813    22019616.920    90166694.254  
  20604903.000   108279568.519    20604902.120    84373717.315  
  19663786.400   105040465.984    19663791.640    81698182.993  
  22966687.200   122597729.248    22966692.340    95353816.707  
  22880873.560   122182607.010    22880879.820    95030947.376  
  23677141.240   126701140.395    23677146.920    98545358.717  
  20928183.100   111873174.484    20928188.000    87012517.179  
  20755525.220   110911297.356    20755529.820    86264390.143  
  19740262.600   105337832.504                                  
  23106399.440   123690373.083    23106404.040    96203648.902  
 21  8 31  0  1 30.0000000  0 17G10G12G 1G22G32G 3G21G25G31R16R22R 9
                                R21R 5R15R 6R 7
  22002542.500   115624172.701    22002545.360    90096782.020  
  23435283.720   123153273.910    23435283.920    95963606.273  
  22805685.060   119844694.790    22805689.540    93385505.543  
  23138472.420   121593508.414    23138470.720    94748193.718  
  20706081.360   108811245.837    20706083.540    84787987.640  
  24705072.360   129826035.762    24705077.300   101163153.330  
  23455977.080   123262003.823    23455977.480    96048335.039  
  22017061.640   115700479.326    22017064.740    90156243.749  
  20594484.540   108224819.665    20594483.800    84331055.893  
  19652277.040   104978984.691    19652282.100    81650364.239  
  22973901.440   122636246.6671                                 
  22856280.020   122051279.692    22856286.260    94928804.040  
  23696714.220   126805878.147    23696719.780    98626821.307  
  20940001.620   111936350.290    20940006.300    87061653.894  
  20769515.100   110986055.065    20769519.900    86322535.017  
  19731477.420   105290953.241                                  
  23087589.220   123589683.192    23087594.240    96125334.607  
 21  8 31  0  2  0.0000000  0 18G10G12G23G 1G22G32G 3G21G25G31R16R22
                                R 9R21R 5R15R 6R 7
  22018968.160   115710490.337    22018971.080    90164042.471  
  23442311.200   123190207.860    23442312.520    95992385.958  
  25067738.880   131731855.7541                                 
  22804642.720   119839215.898    22804647.040    93381236.283  
  23122541.380   121509790.948    23122540.000    94682959.372  
  20710445.220   108834178.433    20710447.520    84805857.194  
  24684873.380   129719890.465    24684877.980   101080442.731  
  23460448.120   123285497.841    23460447.960    96066642.052  
  22014626.060   115687680.396    22014629.140    90146270.563  
  20584158.220   108170554.866    20584157.540    84288771.656  
  19640902.460   104918223.438    19640907.360    81603105.503  
  22981243.820   122675440.054                                  
  22831716.060   121920110.256    22831722.500    94826783.492  
  23716327.240   126910829.707    23716332.980    98708450.177  
  20951883.060   111999862.613    20951887.700    87111052.344  
  20783618.760   111061421.621    20783623.780    86381153.440  
  19722752.680   105244396.264                                  
  23068773.280   123488961.665    23068778.880    96046995.729  
 21  8 31  0  2 30.0000000  0 17G10G12G 1G22G32G 3G21G25G31R16R22R 9
                                R21R 5R15R 6R 7
  22035467.480   115797195.040    22035470.620    90231604.528  
  23449457.700   123227762.611    23449458.760    96021649.366  
  22803722.880   119834382.216    22803727.220    93377469.804  
  23106664.460   121426358.700    23106663.400    94617947.296  
  20714863.300   108857396.283    20714865.800    84823949.015  
  24664695.180   129613855.896    24664700.420   100997818.466  
  23465006.020   123309449.155    23465005.740    96085305.391  
  22012316.080   115675541.187    22012319.060    90136811.443  
  20573933.080   108116821.426    20573932.400    84246901.456  
  19629671.760   104858230.918    19629676.680    81556444.671  
  22988721.800   122715358.390                                  
  22807191.200   121789149.211    22807197.640    94724925.001  
  23735987.920   127016037.565    23735994.020    98790278.399  
  20963836.080   112063758.090    20963840.660    87160748.779  
  20797844.360   111137440.579    20797849.560    86440279.277  
  19714097.520   105198210.485                                  
  23049960.640   123388256.676    23049966.640    95968669.685  
 21  8 31  0  3  0.0000000  0 17G10G12G 1G22G32G 3G21G25G31R16R22R 9
                                R21R 5R15R 6R 7
  22052030.680   115884235.399    22052034.120    90299428.131  
  23456713.120   123265887.549    23456713.560    96051357.065  
  22802916.440   119830143.747    22802920.620    93374167.095  
  23090832.600   121343164.129    23090831.960    94553120.435  
  20719326.260   108880849.577    20719328.720    84842224.297  
  24644528.980   129507884.440    24644534.500   100915243.414  
  23469641.220   123333806.607    23469641.020    96104285.213  
  22010122.300   115664012.833    22010125.100    90127828.320  
  20563799.760   108063570.452    20563799.260    84205407.207  
  19618575.780   104798958.799    19618580.860    81510344.165  
  22996325.800   122755948.564    22996331.080    95476870.159  
  22782696.520   121658349.488    22782703.200    94623191.998  
  23755685.980   127121446.432    23755692.720    98872262.966  
  20975851.320   112127986.279    20975856.100    87210703.999  
  20812182.120   111214057.502    20812187.900    86499870.204  
  19705502.760   105152347.476                                  
  23031142.080   123287519.066    23031148.060    95890318.233  
 21  8 31  0  3 30.0000000  0 16G10G12G 1G22G32G 3G21G25G31R16R 9R21
                                R 5R15R 6R 7
  22068661.080   115971628.728    22068664.600    90367526.778  
  23464079.660   123304600.505    23464079.580    96081523.027  
  22802226.680   119826519.186    22802231.060    93371342.759  
  23075050.280   121260228.731    23075049.940    94488495.524  
  20723837.680   108904557.242    20723840.060    84860697.796  
  24624379.540   129401997.420    24624384.960   100832734.113  
  23474356.940   123358587.980    23474356.900    96123595.340  
  22008048.480   115653115.142    22008051.240    90119336.630  
  20553762.040   108010821.517    20553761.600    84164304.166  
  19607618.960   104740428.709    19607623.980    81464820.783  
  22758236.400   121527733.785    22758242.980    94521602.119  
  23775423.940   127227070.796    23775431.220    98954415.225  
  20987932.300   112192566.439    20987937.260    87260932.975  
  20826634.800   111291288.560    20826640.660    86559938.793  
  19696972.360   105106827.937                                  
  23012321.240   123186769.422    23012326.420    95811957.401  
 21  8 31  0  4  0.0000000  0 17G10G12G 1G22G32G 3G21G25G31R16R22R 9
                                R21R 5R15R 6R 7
  22085358.120   116059371.590    22085361.480    90435897.798  
  23471558.260   123343898.472    23471558.040    96112144.795  
  22801653.540   119823506.461    22801657.940    93368995.159  
  23059317.720   121177552.729    23059316.760    94424072.712  
  20728397.200   108928517.468    20728399.480    84879368.098  
  24604246.140   129296195.006    24604251.380   100750290.743  
  23479153.040   123383789.683    23479152.900    96143233.017  
  22006094.600   115642847.126    22006097.380    90111335.584  
  20543819.580   107958573.432    20543818.940    84123591.390  
  19596800.960   104682640.876    19596805.980    81419874.709  
  23011919.840   122839189.9201   23011925.520    95541615.4171 
  22733811.200   121397304.033    22733817.500    94420156.830  
  23795201.540   127332904.587    23795208.680    99036730.280  
  21000078.940   112257496.846    21000083.940    87311434.366  
  20841201.340   111369127.931    20841207.040    86620480.507  
  19688506.620   105061653.062                                  
  22993497.620   123086007.040    22993503.120    95733586.722  
 21  8 31  0  4 30.0000000  0 17G10G12G 1G22G32G 3G21G25G31R16R22R 9
                                R21R 5R15R 6R 7
  22102121.680   116147463.778    22102124.740    90504541.018  
  23479148.020   123383781.637    23479147.540    96143222.619  
  22801197.100   119821106.712    22801201.300    93367125.219  
  23043635.580   121095139.750    23043633.900    94359854.841  
  20733005.060   108952731.736    20733007.340    84898236.354  
  24584129.740   129190480.905    24584134.560   100667916.173  
  23484028.880   123409411.995    23484028.600    96163198.442  
  22004260.940   115633211.062    22004263.780    90103826.981  
  20533972.900   107906828.567    20533972.200    84083270.734  
  19586122.540   104625598.954    19586127.440    81375508.788  
  23019908.600   122881835.248    23019914.300    95574784.005  
  22709421.440   121267064.924    22709427.640    94318859.873  
  23815017.660   127438944.193    23815024.420    99119205.414  
  21012291.320   112322778.690    21012296.400    87362209.096  
  20855881.420   111447573.729    20855887.400    86681493.905  
  19680106.180   105016825.813                                  
  22974672.440   122985234.715    22974678.320    95655208.355  
 21  8 31  0  5  0.0000000  0 17G10G12G 1G22G32G 3G21G25G31R16R22R 9
                                R21R 5R15R 6R 7
  22118951.220   116235903.697    22118954.180    90573455.204  
  23486848.460   123424248.663    23486848.040    96174755.339  
  22800857.080   119819319.661    22800861.160    93365732.687  
  23028003.560   121012992.197    23028001.620    94295843.798  
  20737661.260   108977200.077    20737663.500    84917302.594  
  24564030.180   129084857.327    24564034.860   100585612.164  
  23488984.360   123435453.476    23488984.260    96183490.480  
  22002547.620   115624207.836    22002550.600    90096811.478  
  20524222.000   107855587.622    20524221.500    84043342.746  
  19575584.080   104569304.696    19575588.880    81331724.391  
  23028025.180   122925160.966    23028030.480    95608481.765  
  22685067.980   121137020.158    22685074.200    94217714.057  
  23834871.580   127545185.224    23834877.660    99201837.279  
  21024569.380   112388412.131    21024574.660    87413257.284  
  20870674.240   111526622.325    20870680.200    86742976.117  
  19671771.200   104972348.880                                  
  22955846.120   122884454.167    22955852.240    95576823.587  
 21  8 31  0  5 30.0000000  0 17G10G12G 1G22G32G 3G21G25G31R16R22R 9
                                R21R 5R15R 6R 7
  22135846.780   116324691.121    22135849.800    90642640.157  
  23494660.280   123465300.023    23494660.000    96206743.391  
  22800633.920   119818146.443    22800637.740    93364818.491  
  23012422.460   120931113.731    23012420.840    94232042.443  
  20742366.080   109001923.966    20742368.100    84936567.958  
  24543948.620   128979328.028    24543953.400   100503381.645  
  23494019.400   123461914.259    23494019.760    96204109.263  
  22000955.060   115615839.649    22000958.180    90090290.830  
  20514567.400   107804852.699    20514566.940    84003809.056  
  19565186.380   104513761.857    19565191.100    81288524.415  
  23036269.320   122969165.295    23036273.700    95642707.383  
  22660752.000   121007174.995    22660758.140    94116723.485  
  23854762.640   127651624.776    23854768.000    99284623.506  
  21036913.420   112454398.412    21036918.680    87464579.897  
  20885579.660   111606271.560    20885585.180    86804925.508  
  19663502.500   104928225.625                                  
  22937018.960   122783668.266    22937025.100    95498434.622  
 21  8 31  0  6  0.0000000  0 18G10G12G 1G22G32G 3G21G25G31G26R16R22
                                R 9R21R 5R15R 6R 7
  22152809.200   116413830.280    22152812.300    90712099.193  
  23502583.880   123506939.889    23502583.480    96239190.026  
  22800528.440   119817592.588    22800532.560    93364386.918  
  22996893.640   120849512.534    22996892.880    94168457.160  
  20747120.660   109026909.310    20747122.560    84956037.062  
  24523886.080   128873901.091    24523890.880   100421230.839  
  23499135.280   123488799.117    23499135.860    96225058.477  
  21999484.740   115608113.139    21999487.860    90084270.189  
  20505010.440   107754630.761    20505010.120    83964675.101  
  24748684.720   130055214.4511   24748693.220   101341760.6511 
  19554930.720   104458978.670    19554935.740    81245915.284  
  23044640.900   123013851.814    23044645.340    95677463.552  
  22636475.140   120877538.641    22636481.340    94015895.318  
  23874690.660   127758263.770    23874695.540    99367564.877  
  21049324.640   112520743.587    21049329.860    87516181.677  
  20900597.940   111686523.763    20900603.320    86867343.890  
  19655301.620   104884464.411                                  
  22918191.620   122682884.076    22918197.180    95420046.983  
 21  8 31  0  6 30.0000000  0 18G10G12G 1G22G32G 3G21G25G31G26R16R22
                                R 9R21R 5R15R 6R 7
  22169834.360   116503299.329    22169837.580    90781815.280  
  23510615.560   123549147.453    23510615.800    96272079.019  
  22800536.780   119817637.522    22800541.040    93364421.919  
  22981414.540   120768170.807    22981414.120    94105074.027  
  20751921.280   109052135.921    20751923.120    84975694.159  
  24503840.120   128768558.556    24503844.500   100339145.805  
  23504327.880   123516086.378    23504328.440    96246321.277  
  21998132.840   115601008.828    21998136.000    90078734.370  
  20495547.280   107704901.864    20495547.140    83925925.333  
  24727403.120   129943373.484    24727409.140   101254612.087  
  19544813.680   104404936.305    19544818.980    81203882.369  
  23053135.440   123059196.774    23053139.880    95712731.909  
  22612234.220   120748094.220    22612240.460    93915216.438  
  23894651.460   127865077.401    23894657.260    99450642.096  
  21061799.100   112587426.931    21061804.560    87568046.448  
  20915724.340   111767354.971    20915729.540    86930212.612  
  19647164.720   104841046.389                                  
  22899360.720   122582082.660    22899366.040    95341645.979  
 21  8 31  0  7  0.0000000  0 18G10G12G 1G22G32G 3G21G25G31G26R16R22
                                R 9R21R 5R15R 6R 7
  22186924.620   116593108.537    22186927.800    90851796.440  
  23518757.080   123591932.833    23518757.620    96305418.271  
  22800661.400   119818292.761    22800665.860    93364932.493  
  22965987.940   120687102.733    22965987.440    94041904.145  
  20756770.040   109077615.854    20756771.880    84995548.658  
  24483813.140   128663314.704    24483816.600   100257137.616  
  23509599.020   123543786.455    23509599.560    96267905.723  
  21996901.700   115594539.406    21996904.840    90073693.277  
  20486180.520   107655678.821    20486180.220    83887569.736  
  24706109.980   129831477.798    24706116.880   101167420.728  
  19534838.160   104351648.745    19534843.480    81162436.507  
  23061755.080   123105209.705    23061760.080    95748519.752  
  22588032.200   120618857.558    22588038.540    93814699.125  
  23914646.240   127972073.210    23914653.500    99533860.950  
  21074339.140   112654460.671    21074344.500    87620183.768  
  20930960.580   111848773.478    20930965.720    86993538.102  
  19639095.180   104797986.445                                  
  22880529.360   122481277.576    22880534.360    95263242.075  
 21  8 31  0  7 30.0000000  0 18G10G12G 1G22G32G 3G21G25G31G26R16R22
                                R 9R21R 5R15R 6R 7
  22204080.380   116683260.980    22204083.500    90922045.049  
  23527009.240   123635299.742    23527010.680    96339210.605  
  22800902.940   119819562.641    22800907.620    93365922.026  
  22950615.000   120606315.362    22950613.800    93978952.940  
  20761667.780   109103353.872    20761669.620    85015604.255  
  24463805.980   128558176.527    24463810.060   100175211.826  
  23514949.520   123571902.897    23514949.780    96289814.614  
  21995792.200   115588710.342    21995795.720    90069151.149  
  20476911.140   107606967.294    20476910.680    83849612.722  
  24684808.100   129719534.822    24684814.560   101080192.656  
  19525005.280   104299123.276    19525010.460    81121583.385  
  23070499.760   123151892.769    23070505.580    95784828.791  
  22563870.540   120489836.984    22563877.000    93714349.901  
  23934674.940   128079251.491    23934683.140    99617221.727  
  21086945.660   112721849.323    21086950.940    87672597.145  
  20946307.040   111930780.555    20946312.780    87057321.362  
  19631094.220   104755291.333                                  
  22861698.320   122380475.437    22861703.880    95184840.488  
 21  8 31  0  8  0.0000000  0 17G10G12G 1G22G32G 3G21G25G31G26R16R 9
                                R21R 5R15R 6R 7
  22221300.100   116773750.959    22221303.520    90992556.658  
  23535371.060   123679242.514    23535372.940    96373451.695  
  22801260.620   119821442.682    22801265.440    93367386.993  
  22935294.800   120525806.932    22935293.380    93916219.106  
  20766613.900   109129345.961    20766615.700    85035857.830  
  24443818.420   128453142.296    24443822.960   100093367.029  
  23520378.100   123600430.230    23520378.400    96312043.674  
  21994803.860   115583518.172    21994807.660    90065105.321  
  20467738.340   107558763.610    20467737.840    83812051.427  
  24663496.540   129607543.124    24663503.100   100992926.572  
  19515314.800   104247357.234    19515319.560    81081320.921  
  22539749.460   120361031.899    22539755.900    93614168.263  
  23954736.400   128186603.423    23954744.460    99700717.610  
  21099617.860   112789589.134    21099622.980    87725283.627  
  20961762.100   112013368.549    20961768.400    87121556.454  
  19623161.180   104712959.213                                  
  22842867.460   122279673.445    22842873.260    95106439.014  
 21  8 31  0  8 30.0000000  0 17G10G12G 1G22G32G 3G21G25G31G26R16R 9
                                R21R 5R15R 6R 7
  22238583.220   116864574.720    22238586.840    91063328.354  
  23543842.260   123723758.038    23543843.940    96408139.063  
  22801733.960   119823930.374    22801738.700    93369325.452  
  22920027.400   120445577.690    22920025.920    93853702.823  
  20771607.940   109155590.160    20771609.980    85056307.856  
  24423850.520   128348212.202    24423855.460   100011603.399  
  23525884.100   123629364.645    23525884.560    96334589.934  
  21993936.820   115578961.526    21993940.580    90061554.697  
  20458661.820   107511066.438    20458661.320    83774884.820  
  24642175.720   129495503.493    24642182.300   100905623.157  
  19505766.120   104196350.367    19505770.960    81041648.936  
  22515669.040   120232443.829    22515675.180    93514155.417  
  23974828.960   128294122.379    23974836.660    99784343.402  
  21112355.100   112857677.511    21112360.500    87778241.216  
  20977324.960   112096531.447    20977330.920    87186238.695  
  19615296.240   104670990.335                                  
  22824036.560   122178870.912    22824042.620    95028037.119  
 21  8 31  0  9  0.0000000  0 17G10G12G 1G22G32G 3G21G25G31G26R16R 9
                                R21R 5R15R 6R 7
  22255929.640   116955730.186    22255933.100    91134358.541  
  23552422.180   123768844.690    23552424.080    96443271.484  
  22802322.760   119827024.831    22802327.460    93371736.713  
  22904813.520   120365629.583    22904812.340    93791405.604  
  20776649.900   109182086.156    20776652.180    85076954.080  
  24403903.300   128243388.362    24403908.020    99929922.509  
  23531467.140   123658704.491    23531467.740    96357452.123  
  21993190.780   115575040.681    21993194.400    90058499.489  
  20449681.700   107463876.159    20449681.140    83738113.192  
  24620846.500   129383418.174    24620852.960   100818284.075  
  19496360.080   104146104.405    19496364.780    81002568.758  
  22491629.900   120104075.914    22491636.060    93414313.789  
  23994951.920   128401803.493    23994958.420    99868095.284  
  21125157.600   112926114.090    21125163.100    87831469.621  
  20992994.600   112180265.410    20993000.600    87251365.101  
  19607499.840   104629386.693                                  
  22805205.340   122078068.977    22805212.020    94949635.709  
 21  8 31  0  9 30.0000000  0 17G10G12G 1G22G32G 3G21G25G31G26R16R 9
                                R21R 5R15R 6R 7
  22273339.320   117047217.769    22273342.400    91205647.510  
  23561111.440   123814502.676    23561112.180    96478849.079  
  22803027.580   119830727.610    22803032.060    93374622.024  
  22889654.240   120285967.000    22889653.220    93729330.883  
  20781740.240   109208836.082    20781742.480    85097798.176  
  24383977.200   128138675.096    24383981.480    99848327.754  
  23537127.620   123688450.732    23537128.160    96380630.982  
  21992566.120   115571758.228    21992569.940    90055941.754  
  20440798.560   107417195.440    20440798.100    83701738.625  
  24599509.340   129271291.958    24599515.700   100730913.163  
  19487096.980   104096622.972    19487101.840    80964083.224  
  22467632.960   119975933.882    22467639.100    93314647.845  
  24015104.680   128509644.579    24015110.460    99951971.607  
  21138025.800   112994901.120    21138031.140    87884970.622  
  21008770.960   112264568.618    21008776.700    87316934.254  
  19599772.600   104588152.041                                  
  22786375.180   121977271.591    22786381.740    94871237.796  
 21  8 31  0 10  0.0000000  0 17G10G12G 1G22G32G 3G21G25G31G26R16R 9
                                R21R 5R15R 6R 7
  22290812.160   117139037.177    22290814.920    91277195.054  
  23569909.280   123860732.204    23569909.580    96514872.083  
  22803847.940   119835039.600    22803852.660    93377982.007  
  22874550.200   120206593.686    22874549.140    93667481.557  
  20786879.180   109235841.415    20786881.400    85118841.295  
  24364072.460   128034076.127    24364077.400    99766822.081  
  23542865.580   123718603.177    23542865.980    96404126.371  
  21992063.460   115569116.180    21992067.240    90053883.016  
  20432012.820   107371026.004    20432012.380    83665762.467  
  24578165.300   129159129.109    24578172.300   100643513.641  
  19477977.800   104047909.394    19477982.600    80926194.902  
  22443679.400   119848022.703    22443685.580    93215161.460  
  24035286.520   128617642.310    24035292.240   100035969.784  
  21150959.680   113064039.683    21150965.020    87938745.024  
  21024653.680   112349439.012    21024658.640    87382944.554  
  19592115.140   104547290.698                                  
  22767546.780   121876481.237    22767552.760    94792845.324  
 21  8 31  0 10 30.0000000  0 18G10G12G 1G22G32G 3G21G25G31G26R16R22
                                R 9R21R 5R15R 6R 7
  22308347.300   117231184.240    22308350.040    91348997.905  
  23578814.720   123907529.850    23578814.500    96551337.771  
  22804784.020   119839957.759    22804788.740    93381814.316  
  22859501.340   120127509.640    22859500.340    93605857.650  
  20792066.100   109263099.827    20792068.600    85140081.606  
  24344188.900   127929591.384    24344194.480    99685405.480  
  23548680.160   123749157.921    23548680.240    96427935.240  
  21991682.220   115567112.645    21991685.840    90052321.816  
  20423324.020   107325366.220    20423323.580    83630183.440  
  24556814.480   129046929.847    24556821.300   100556085.727  
  19469002.000   103999962.807    19469006.980    80888903.131  
  23125555.900   123445786.6191   23125562.880    96013418.6531 
  22419769.100   119720343.874    22419775.420    93115855.786  
  24055496.460   128725789.584    24055503.180   100120084.295  
  21163958.820   113133527.028    21163964.000    87992790.697  
  21040641.000   112434870.568    21040645.920    87449391.316  
  19584527.600   104506802.163                                  
  22748719.680   121775697.576    22748724.800    94714458.032  
 21  8 31  0 11  0.0000000  0 18G10G12G 1G22G32G 3G21G25G31G26R16R22
                                R 9R21R 5R15R 6R 7
  22325944.420   117323657.559    22325947.360    91421054.990  
  23587827.780   123954893.989    23587827.140    96588244.903  
  22805835.300   119845481.789    22805839.900    93386118.773  
  22844508.000   120048717.601    22844506.520    93544461.252  
  20797301.260   109290611.693    20797303.920    85161519.417  
  24324328.360   127825223.586    24324333.940    99604079.972  
  23554571.020   123780113.735    23554570.700    96452056.645  
  21991422.680   115565748.433    21991426.200    90051258.807  
  20414732.420   107280217.060    20414732.000    83595002.294  
  24535457.160   128934697.288    24535463.920   100468631.948  
  19460170.120   103952785.205    19460175.100    80852209.468  
  23135158.360   123497042.691    23135165.060    96053284.503  
  22395903.160   119592900.861    22395909.540    93016733.502  
  24075733.780   128834082.391    24075741.480   100204311.940  
  21177023.340   113203363.821    21177028.320    88047108.174  
  21056732.680   112520859.675    21056737.980    87516271.710  
  19577010.320   104466688.444                                  
  22729894.240   121674922.181    22729899.540    94636077.180  
 21  8 31  0 11 30.0000000  0 18G10G12G 1G22G32G 3G21G25G31G26R16R22
                                R 9R21R 5R15R 6R 7
  22343603.220   117416455.828    22343606.620    91493365.260  
  23596948.020   124002823.252    23596947.480    96625592.411  
  22807001.820   119851611.560    22807006.520    93390895.216  
  22829570.460   119970220.201    22829568.940    93483294.457  
  20802584.860   109318377.504    20802587.620    85183155.108  
  24304491.120   127720975.548    24304496.240    99522847.760  
  23560537.960   123811469.764    23560537.360    96476489.898  
  21991284.980   115565024.399    21991288.280    90050694.629  
  20406238.100   107235579.378    20406237.620    83560219.703  
  24514093.960   128822434.582    24514100.860   100381154.638  
  19451482.840   103906379.074    19451487.680    80816115.821  
  23144881.020   123548940.158    23144887.080    96093649.180  
  22372082.100   119465697.738    22372088.400    92917797.812  
  24095997.160   128942516.571    24096005.680   100288649.590  
  21190153.100   113273549.964    21190158.220    88101697.342  
  21072927.920   112607402.996    21072933.540    87583583.156  
  19569563.940   104426952.757                                  
  22711070.580   121574157.388    22711076.440    94557704.588  
 21  8 31  0 12  0.0000000  0 18G10G12G 1G22G32G 3G21G25G31G26R16R22
                                R 9R21R 5R15R 6R 7
  22361323.860   117509578.840    22361327.560    91565928.582  
  23606176.080   124051318.309    23606175.760    96663380.757  
  22808283.640   119858347.929    22808288.200    93396144.322  
  22814689.260   119892020.891    22814687.940    93422359.962  
  20807917.140   109346398.884    20807920.140    85204989.942  
  24284677.000   127616851.117    24284682.140    99441711.829  
  23566580.820   123843225.484    23566580.200    96501234.582  
  21991269.380   115564942.594    21991272.760    90050630.865  
  20397841.660   107191455.439    20397841.020    83525837.431  
  24492726.040   128710146.062    24492732.780   100293657.184  
  19442940.420   103860747.096    19442945.220    80780624.301  
  23154722.940   123601477.922    23154729.140    96134511.912  
  22348306.920   119338739.675    22348313.200    92819052.714  
  24116287.040   129051089.386    24116293.880   100373095.042  
  21203348.680   113344087.164    21203353.760    88156559.574  
  21089226.600   112694498.668    21089232.480    87651324.203  
  19562188.880   104387598.518                                  
  22692249.440   121473406.202    22692255.280    94479342.575  
 21  8 31  0 12 30.0000000  0 18G10G12G 1G22G32G 3G21G25G31G26R16R22
                                R 9R21R 5R15R 6R 7
  22379105.580   117603022.255    22379109.320    91638741.573  
  23615510.680   124100375.195    23615511.340    96701606.871  
  22809680.320   119865687.650    22809685.020    93401863.590  
  22799864.960   119814119.859    22799863.640    93361657.876  
  20813297.620   109374673.358    20813300.680    85227021.989  
  24264886.260   127512850.103    24264891.020    99360672.157  
  23572699.100   123875377.336    23572698.360    96526287.947  
  21991375.620   115565500.803    21991379.000    90051065.847  
  20389542.460   107147842.893    20389541.800    83491853.652  
  24471353.320   128597832.004    24471359.960   100206139.849  
  19434542.500   103815888.274    19434547.660    80745734.125  
  23164684.400   123654649.511    23164689.940    96175867.622  
  22324577.640   119212027.456    22324583.820    92720498.840  
  24136601.040   129159793.543    24136607.080   100457642.647  
  21216609.240   113414972.497    21216614.500    88211692.573  
  21105627.660   112782139.923    21105633.500    87719489.622  
  19554885.480   104348625.994                                  
  22673430.400   121372667.662    22673436.200    94400990.380  
 21  8 31  0 13  0.0000000  0 18G10G12G 1G22G32G 3G21G25G31G26R16R22
                                R 9R21R 5R15R 6R 7
  22396948.120   117696784.820    22396951.640    91711803.267  
  23624952.120   124149992.549    23624953.360    96740269.683  
  22811191.920   119873630.513    22811196.320    93408052.829  
  22785098.140   119736519.966    22785096.700    93301190.456  
  20818726.340   109403201.472    20818729.240    85249251.680  
  24245119.660   127408975.443    24245124.080    99279730.903  
  23578892.540   123907924.009    23578892.040    96551648.978  
  21991603.840   115566699.928    21991607.320    90052000.232  
  20381340.880   107104742.842    20381340.060    83458269.207  
  24449976.480   128485495.621    24449983.180   100118605.105  
  19426290.080   103771804.773    19426295.140    80711446.980  
  23174763.660   123708453.155    23174769.220    96217714.900  
  22300895.280   119085565.343    22300901.080    92622139.496  
  24156938.700   129268625.087    24156944.920   100542289.322  
  21229935.020   113486206.169    21229940.260    88267096.488  
  21122130.160   112870323.673    21122135.340    87788076.981  
  19547654.140   104310037.664                                  
  22654614.460   121271943.890    22654619.960    94322649.672  
 21  8 31  0 13 30.0000000  0 18G10G12G 1G22G32G 3G21G25G31G26R16R22
                                R 9R21R 5R15R 6R 7
  22414850.980   117790864.569    22414854.460    91785112.106  
  23634500.300   124200168.403    23634501.900    96779367.714  
  22812817.980   119882175.590    22812822.320    93414711.322  
  22770389.100   119659222.927    22770387.660    93240959.021  
  20824203.280   109431983.123    20824206.100    85271678.924  
  24225377.280   127305229.264    24225381.660    99198889.779  
  23585160.580   123940863.520    23585160.480    96577316.083  
  21991954.020   115568540.139    21991957.400    90053434.155  
  20373236.700   107062155.191    20373235.960    83425084.051  
  24428595.760   128373139.473    24428602.560   100031054.977  
  19418182.920   103728497.926    19418187.820    80677763.889  
  23184960.180   123762885.054    23184966.020    96260050.822  
  22277260.440   118959356.923    22277266.040    92523977.471  
  24177298.740   129377579.574    24177306.240   100627031.603  
  21243326.000   113557788.180    21243331.200    88322771.340  
  21138733.180   112959045.942    21138738.140    87857083.174  
  19540494.680   104271834.905                                  
  22635801.740   121171236.272    22635807.120    94244321.508  
 21  8 31  0 14  0.0000000  0 16G10G12G 1G22G32G 3G21G25G31G26R16R 9
                                R 5R15R 6R 7
  22432813.520   117885258.131    22432817.020    91858665.471  
  23644154.640   124250899.850    23644156.360    96818898.685  
  22814558.200   119891320.518    22814562.640    93421837.228  
  22755738.000   119582230.065    22755736.640    93180964.626  
  20829728.400   109461016.789    20829731.100    85294302.551  
  24205659.840   127201612.521    24205664.560    99118149.499  
  23591502.880   123974193.186    23591502.720    96603287.251  
  21992426.000   115571020.156    21992429.280    90055366.631  
  20365229.960   107020079.491    20365229.260    83392297.807  
  24407211.540   128260764.846    24407218.460    99943490.474  
  19410221.140   103685967.382    19410226.020    80644684.590  
  22253673.420   118833403.779    22253679.140    92426013.999  
  21256781.820   113629716.471    21256786.980    88378715.521  
  21155435.940   113048301.298    21155441.300    87926503.998  
  19533408.180   104234019.054                                  
  22616992.040   121070545.108    22616997.040    94166006.162  
 21  8 31  0 14 30.0000000  0 16G10G12G 1G22G32G 3G21G25G31G26R16R 9
                                R 5R15R 6R 7
  22450835.960   117979966.340    22450839.440    91932464.020  
  23653914.740   124302187.985    23653915.900    96858863.447  
  22816412.940   119901067.187    22816417.260    93429432.027  
  22741145.540   119505545.876    22741144.340    93121210.762  
  20835301.980   109490305.219    20835304.500    85317124.701  
  24185967.860   127098130.160    24185972.560    99037513.943  
  23597919.800   124007914.047    23597919.660    96629563.234  
  21993020.280   115574142.921    21993023.420    90057799.955  
  20357321.160   106978518.627    20357320.400    83359912.743  
  24385824.800   128148376.992    24385831.300    99855915.627  
  19402405.340   103644217.190    19402410.240    80612212.233  
  22230135.380   118707712.311    22230141.260    92328254.062  
  21270302.600   113701993.537    21270307.980    88434930.956  
  21172238.520   113138088.799    21172243.800    87996338.689  
  19526394.980   104196595.227                                  
  22598186.200   120969874.513    22598190.940    94087706.823  
 21  8 31  0 15  0.0000000  0 16G10G12G 1G22G32G 3G21G25G31G26R16R 9
                                R 5R15R 6R 7
  22468917.400   118074984.231    22468920.720    92006503.890  
  23663779.940   124354027.546    23663780.620    96899257.921  
  22818381.220   119911411.562    22818385.700    93437492.593  
  22726611.300   119429169.435    22726610.300    93061696.685  
  20840923.400   109519845.306    20840925.660    85340142.934  
  24166301.400   126994781.495    24166305.640    98956982.544  
  23604409.860   124042020.922    23604410.200    96656139.991  
  21993736.360   115577905.503    21993739.520    90060731.833  
  20349509.800   106937469.624    20349508.940    83327926.521  
  24364435.360   128035975.678    24364441.760    99768330.320  
  19394735.480   103603245.699    19394740.200    80580345.538  
  22206646.340   118582282.920    22206652.220    92230697.971  
  21283888.060   113774615.874    21283893.460    88491414.940  
  21189139.340   113228401.232    21189144.180    88066581.664  
  19519454.980   104159561.948                                  
  22579383.760   120869223.186    22579388.660    94009422.512  
 21  8 31  0 15 30.0000000  0 17G10G12G 1G22G32G 3G21G25G31G26R16R22
                                R 9R 5R15R 6R 7
  22487058.140   118170314.069    22487061.420    92080786.822  
  23673750.680   124406421.151    23673750.860    96940084.098  
  22820463.920   119922356.939    22820468.340    93446021.452  
  22712136.680   119353107.465    22712136.160    93002427.671  
  20846593.580   109549641.160    20846595.640    85363360.478  
  24146661.280   126891572.930    24146665.860    98876560.343  
  23610974.260   124076516.399    23610974.620    96683019.557  
  21994574.880   115582312.244    21994578.140    90064165.655  
  20341796.600   106896937.173    20341795.920    83296342.818  
  24343044.680   127923567.760    24343051.260    99680739.868  
  19387212.380   103563057.813    19387216.800    80549088.296  
  23226911.080   123986827.0631   23226916.860    96434225.5061 
  22183207.840   118457123.187    22183213.800    92133351.610  
  21297538.920   113847587.587    21297544.380    88548170.673  
  21206138.600   113319239.105    21206143.520    88137233.339  
  19512589.200   104122925.236                                  
  22560585.880   120768596.737    22560591.340    93931157.573  
 21  8 31  0 16  0.0000000  0 17G10G12G 1G22G32G 3G21G25G31G26R16R22
                                R 9R 5R15R 6R 7
  22505257.520   118265952.386    22505260.960    92155310.111  
  23683825.920   124459365.696    23683825.620    96981339.598  
  22822660.460   119933900.720    22822664.940    93455016.616  
  22697722.280   119277360.633    22697721.720    92943404.198  
  20852312.080   109579691.273    20852314.160    85386776.137  
  24127047.980   126788505.249    24127053.020    98796247.965  
  23617612.100   124111397.464    23617612.440    96710199.585  
  21995535.880   115587361.684    21995538.960    90068100.271  
  20334181.400   106856919.778    20334180.900    83265160.453  
  24321652.960   127811154.382    24321659.480    99593145.194  
  19379835.780   103523653.500    19379840.200    80518440.518  
  23237686.780   124044349.5281   23237693.220    96478964.9371 
  22159820.100   118332234.866    22159826.260    92036216.361  
  21311254.960   113920906.580    21311260.180    88605196.521  
  21223235.340   113410596.765    21223240.100    88208289.268  
  19505798.240   104086686.110                                  
  22541792.920   120667995.395    22541798.420    93852912.128  
 21  8 31  0 16 30.0000000  0 17G10G12G 1G22G32G 3G21G25G31G26R16R22
                                R 9R 5R15R 6R 7
  22523515.200   118361896.482    22523518.660    92230071.692  
  23694005.340   124512858.718    23694005.100    97023022.460  
  22824970.520   119946041.210    22824975.120    93464476.751  
  22683368.380   119201930.411    22683367.660    92884627.422  
  20858078.620   109609994.814    20858080.580    85410389.273  
  24107462.120   126685580.054    24107466.440    98716046.581  
  23624322.640   124146661.558    23624322.980    96737678.069  
  21996618.900   115593053.143    21996621.880    90072535.172  
  20326664.220   106817417.041    20326663.720    83234379.121  
  24300260.660   127698737.494    24300266.900    99505547.750  
  19372606.000   103485033.564    19372610.540    80488402.806  
  23248576.780   124102481.015    23248583.240    96524178.267  
  22136483.720   118207620.643    22136489.900    91939294.277  
  21325035.460   113994571.836    21325040.960    88662491.672  
  21240427.940   113502469.662    21240432.380    88279745.921  
  19499081.780   104050845.966                                  
  22523004.500   120567420.231    22523010.200    93774687.078  
 21  8 31  0 17  0.0000000  0 17G10G12G 1G22G32G 3G21G25G31G26R16R22
                                R 9R 5R15R 6R 7
  22541830.820   118458146.595    22541834.460    92305071.724  
  23704288.220   124566900.486    23704288.240    97065132.904  
  22827394.740   119958779.540    22827399.160    93474402.718  
  22669075.440   119126820.914    22669074.580    92826100.588  
  20863893.760   109640554.006    20863895.580    85434201.629  
  24087904.140   126582801.881    24087908.420    98635959.796  
  23631106.080   124182308.902    23631106.560    96765455.202  
  21997824.440   115599388.816    21997827.340    90077472.056  
  20319245.500   106778431.367    20319244.980    83204000.687  
  24278868.660   127586322.001    24278874.840    99417951.389  
  19365523.660   103447200.860    19365528.320    80458977.376  
  23259580.680   124161219.385    23259587.100    96569863.663  
  22113199.780   118083286.504    22113205.980    91842590.033  
  21338881.020   114068585.045    21338886.800    88720057.444  
  21257716.500   113594855.898    21257721.260    88351601.850  
  19492440.880   104015408.616                                  
  22504221.200   120466874.689    22504227.120    93696485.030  
 21  8 31  0 17 30.0000000  0 17G10G12G 1G22G32G 3G21G25G31G26R16R22
                                R 9R 5R15R 6R 7
  22560204.100   118554700.079    22560207.860    92380308.142  
  23714675.080   124621488.375    23714675.860    97107668.911  
  22829932.440   119972113.924    22829936.620    93484793.156  
  22654844.140   119052033.601    22654842.900    92767824.770  
  20869757.320   109671368.063    20869759.480    85458212.563  
  24068374.400   126480172.312    24068378.320    98555988.746  
  23637962.040   124218336.944    23637962.360    96793528.985  
  21999152.640   115606368.042    21999155.520    90082910.424  
  20311925.060   106739962.574    20311924.660    83174025.030  
  24257477.200   127473909.943    24257483.500    99330357.733  
  19358588.680   103410155.634    19358593.540    80430164.439  
  23270697.780   124220560.241    23270703.560    96616017.667  
  22089968.860   117959234.882    22089975.060    91746105.516  
  21352791.840   114142945.207    21352797.320    88777893.083  
  21275100.380   113687750.862    21275105.420    88423853.459  
  19485875.780   103980376.446                                  
  22485443.700   120366359.775    22485450.060    93618306.863  
 21  8 31  0 18  0.0000000  0 17G10G12G 1G22G32G 3G21G25G31G26R16R22
                                R 9R 5R15R 6R 7
  22578634.600   118651553.549    22578638.360    92455778.306  
  23725165.380   124676619.210    23725167.000    97150627.991  
  22832582.800   119986041.970    22832587.040    93495646.176  
  22640674.440   118977569.937    22640673.180    92709801.163  
  20875669.200   109702435.591    20875671.600    85482421.017  
  24048872.760   126377692.255    24048876.680    98476134.224  
  23644889.580   124254742.873    23644890.120    96821897.203  
  22000602.720   115613989.364    22000606.080    90088849.113  
  20304702.840   106702009.128    20304702.280    83144450.919  
  24236086.620   127361502.643    24236093.140    99242767.754  
  19351800.940   103373897.269    19351805.900    80401963.507  
  23281926.480   124280498.635    23281931.720    96662636.422  
  22066791.140   117835467.794    22066797.520    91649842.324  
  21366767.020   114217650.663    21366772.500    88835997.281  
  21292578.520   113781149.141    21292583.520    88496496.553  
  19479386.720   103945748.872                                  
  22466672.100   120265876.037    22466678.560    93540152.896  
 21  8 31  0 18 30.0000000  0 16G10G12G 1G22G32G 3G21G25G31G26R16R 9
                                R 5R15R 6R 7
  22597121.400   118748701.605    22597125.060    92531478.039  
  23735759.160   124732287.225    23735759.820    97194005.640  
  22835345.200   120000559.034    22835349.620    93506958.173  
  22626565.860   118903427.801    22626564.360    92652028.106  
  20881628.720   109733753.156    20881631.080    85506824.298  
  24029400.040   126275360.802    24029403.400    98396395.399  
  23651888.240   124291520.901    23651889.020    96850555.371  
  22002174.480   115622249.366    22002178.060    90095285.486  
  20297577.840   106664567.534    20297577.400    83115275.677  
  24214696.920   127249099.349    24214703.420    99155180.876  
  19345160.120   103338423.772    19345165.200    80374373.026  
  22043666.720   117711985.279    22043673.120    91553800.462  
  21380806.080   114292697.305    21380811.580    88894366.860  
  21310149.800   113875043.267    21310154.860    88569525.301  
  19472973.220   103911525.636                                  
  22447906.440   120165421.567    22447912.700    93462021.752  
 21  8 31  0 19  0.0000000  0 16G10G12G 1G22G32G 3G21G25G31G26R16R 9
                                R 5R15R 6R 7
  22615664.960   118846147.383    22615668.560    92607409.763  
  23746456.020   124788495.788    23746456.740    97237804.546  
  22838220.480   120015669.174    22838224.900    93518732.320  
  22612519.860   118829614.703    22612518.380    92594511.456  
  20887636.740   109765325.782    20887639.200    85531426.330  
  24009956.760   126173185.211    24009959.900    98316778.053  
  23658958.580   124328674.690    23658959.300    96879506.353  
  22003868.720   115631152.980    22003872.220    90102223.375  
  20290551.560   106627643.419    20290550.860    83086503.646  
  24193309.460   127136707.912    24193315.900    99067603.262  
  19338667.400   103303741.335    19338672.320    80347397.807  
  22020597.380   117588795.604    22020603.540    91457986.360  
  21394909.700   114368089.996    21394915.280    88953005.578  
  21327813.880   113969434.501    21327819.400    88642940.690  
  19466636.580   103877713.362                                  
  22429147.760   120065002.919    22429153.500    93383918.445  
 21  8 31  0 19 30.0000000  0 16G10G12G 1G22G32G 3G21G25G31G26R16R 9
                                R 5R15R 6R 7
  22634264.240   118943886.532    22634268.000    92683570.067  
  23757254.760   124845240.822    23757255.340    97282021.427  
  22841208.100   120031368.774    22841212.300    93530965.790  
  22598536.580   118756130.625    22598534.680    92537251.152  
  20893692.780   109797151.128    20893695.440    85556225.288  
  23990543.120   126071165.737    23990546.580    98237282.406  
  23666099.460   124366199.803    23666100.280    96908746.672  
  22005684.880   115640697.714    22005688.560    90109660.820  
  20283623.300   106591234.486    20283622.420    83058133.067  
  24171924.280   127024328.731    24171930.820    98980035.182  
  19332322.420   103269848.005    19332327.360    80321036.343  
  21997583.160   117465900.257    21997589.160    91362401.168  
  21409077.660   114443826.105    21409083.340    89011911.414  
  21345569.440   114064316.415    21345575.240    88716737.716  
  19460377.000   103844312.304                                  
  22410395.400   119964619.766    22410401.140    93305842.740  
 21  8 31  0 20  0.0000000  0 16G10G12G 1G22G32G 3G21G25G31G26R16R 9
                                R 5R15R 6R 7
  22652919.440   119041919.849    22652923.360    92759959.593  
  23768155.600   124902523.274    23768155.840    97326657.119  
  22844308.120   120047659.528    22844312.300    93543659.897  
  22584616.900   118682980.471    22584614.620    92480251.064  
  20899797.420   109829232.001    20899800.060    85581223.358  
  23971160.120   125969307.324    23971163.600    98157912.253  
  23673311.220   124404097.550    23673311.940    96938277.343  
  22007623.760   115650886.395    22007627.420    90117600.058  
  20276793.520   106555343.595    20276792.580    83030166.145  
  24150542.600   126911967.334    24150549.040    98892480.977  
  19326125.880   103236747.547    19326131.000    80295291.561  
  21974625.200   117343305.249    21974631.040    91267049.568  
  21423310.280   114519907.752    21423316.120    89071085.960  
  21363416.820   114159687.947    21363422.800    88790915.531  
  19454195.440   103811326.179                                  
  22391650.200   119864276.664    22391655.920    93227798.188  
 21  8 31  0 20 30.0000000  0 16G10G12G 1G22G32G 3G21G25G31G26R16R 9
                                R 5R15R 6R 7
  22671629.760   119140243.565    22671633.700    92836575.420  
  23779157.740   124960339.347    23779158.300    97371708.575  
  22847520.040   120064538.445    22847524.220    93556812.291  
  22570760.640   118610164.616    22570758.120    92423511.468  
  20905950.480   109861566.533    20905953.080    85606419.090  
  23951807.860   125867610.695    23951811.560    98078668.167  
  23680593.360   124442363.830    23680593.700    96968095.238  
  22009684.760   115661716.957    22009688.360    90126039.476  
  20270061.880   106519969.066    20270061.040    83002601.602  
  24129164.440   126799624.710    24129170.940    98804941.385  
  19320077.700   103204438.954    19320082.680    80270162.670  
  21951723.620   117221011.985    21951729.180    91171932.656  
  21437607.140   114596332.767    21437613.080    89130527.604  
  21381354.800   114255543.467    21381360.740    88865469.790  
  19448091.920   103778756.381                                  
  22372912.320   119763973.190    22372918.180    93149784.453  
 21  8 31  0 21  0.0000000  0 16G10G12G 1G22G32G 3G21G25G31G26R16R 9
                                R 5R15R 6R 7
  22690395.440   119238857.290    22690398.980    92913417.245  
  23790260.920   125018688.778    23790261.860    97417175.641  
  22850844.040   120082005.867    22850847.780    93570423.303  
  22556968.380   118537687.007    22556966.080    92367035.445  
  20912152.220   109894156.395    20912154.960    85631813.771  
  23932487.120   125766079.902    23932490.580    97999553.284  
  23687945.600   124480998.856    23687945.680    96998200.410  
  22011868.260   115673190.925    22011871.540    90134980.228  
  20263428.880   106485112.666    20263428.080    82975440.787  
  24107790.500   126687305.279    24107796.860    98717419.839  
  19314178.260   103172924.707    19314183.160    80245651.600  
  21928879.500   117099025.824    21928884.820    91077054.602  
  21451968.520   114673102.207    21451974.520    89190237.121  
  21399383.080   114351880.274    21399389.040    88940398.403  
  19442067.220   103746606.646                                  
  22354183.020   119663713.088    22354188.800    93071804.436  
 21  8 31  0 21 30.0000000  0 17G10G12G 1G22G32G 3G21G25G31G26R16R22
                                R 9R 5R15R 6R 7
  22709216.100   119337759.619    22709219.200    92990483.955  
  23801465.440   125077570.145    23801466.620    97463057.160  
  22854279.660   120100061.236    22854283.540    93584492.393  
  22543240.760   118465550.383    22543238.680    92310825.089  
  20918402.760   109927002.180    20918405.240    85657407.887  
  23913198.340   125664717.940    23913201.960    97920569.951  
  23695367.680   124520000.955    23695367.600    97028591.641  
  22014174.120   115685308.614    22014177.480    90144422.605  
  20256894.720   106450775.205    20256893.800    82948684.332  
  24086421.800   126575012.413    24086428.240    98629919.006  
  19308427.720   103142206.312    19308432.700    80221759.531  
  23363602.620   124716497.7241   23363609.160    97001745.9191 
  21906093.480   116977350.670    21906098.740    90982418.439  
  21466394.500   114750216.466    21466400.360    89250214.835  
  21417501.060   114448695.329    21417506.380    89015699.010  
  19436121.680   103714879.377                                  
  22335462.500   119563498.885    22335468.060    92993860.112  
 21  8 31  0 22  0.0000000  0 17G10G12G 1G22G32G 3G21G25G31G26R16R22
                                R 9R 5R15R 6R 7
  22728090.500   119436945.014    22728093.680    93067771.220  
  23812769.980   125136977.180    23812770.740    97509348.377  
  22857826.520   120118699.681    22857830.540    93599015.846  
  22529577.640   118393753.393    22529576.060    92254879.385  
  20924701.240   109960100.311    20924703.580    85683198.627  
  23893941.580   125563523.661    23893945.440    97841717.308  
  23702858.260   124559365.035    23702858.040    97059264.904  
  22016601.960   115698066.287    22016605.160    90154363.647  
  20250458.560   106416952.880    20250457.640    82922329.277  
  24065057.960   126462745.367    24065064.620    98542438.314  
  19302825.600   103112280.624    19302830.500    80198484.013  
  23375703.260   124781090.510    23375709.840    97051984.701  
  21883365.680   116855986.284    21883370.980    90888023.994  
  21480884.180   114827671.180    21480889.700    89310457.361  
  21435706.720   114545980.922    21435711.900    89091365.544  
  19430254.860   103683573.128                                  
  22316750.260   119463328.623    22316755.240    92915949.971  
 21  8 31  0 22 30.0000000  0 16G10G12G 1G22G32G 3G21G25G31G26R16R 9
                                R 5R15R 6R 7
  22747018.780   119536413.615    22747022.240    93145279.155  
  23824174.700   125196911.044    23824174.720    97556050.064  
  22861484.560   120137922.054    22861488.220    93613994.324  
  22515979.820   118322300.276    22515979.060    92199201.662  
  20931048.080   109993453.002    20931050.580    85709187.724  
  23874717.640   125462501.716    23874721.580    97762998.976  
  23710417.860   124599091.643    23710417.640    97090220.683  
  22019152.000   115711465.826    22019155.140    90164804.849  
  20244120.840   106383648.591    20244120.040    82896377.898  
  24043700.200   126350509.113    24043706.660    98454981.574  
  19297372.460   103083150.504    19297377.160    80175827.259  
  21860697.300   116734938.373    21860702.720    90793875.697  
  21495437.820   114905468.606    21495443.520    89370966.429  
  21453999.800   114643734.937    21454005.020    89167396.394  
  19424467.720   103652692.016                                  
  22298046.240   119363206.087    22298051.260    92838076.972  
 21  8 31  0 23  0.0000000  0 17G10G12G 1G22G32G 3G21G25G31G26R16R22
                                R 9R 5R15R 6R 7
  22766000.160   119636161.183    22766003.740    93223004.475  
  23835679.160   125257367.163    23835679.220    97603158.759  
  22865253.100   120157724.875    22865256.820    93629425.086  
  22502447.820   118251191.199    22502447.520    92143792.006  
  20937442.960   110027058.003    20937445.280    85735373.437  
  23855526.640   125361652.265    23855530.660    97684415.082  
  23718045.260   124639175.842    23718045.440    97121455.108  
  22021823.440   115725504.725    22021826.840    90175744.264  
  20237881.220   106350859.460    20237880.500    82870827.942  
  24022348.360   126238304.179    24022354.740    98367549.271  
  19292067.860   103054814.169    19292072.600    80153787.899  
  23400221.260   124911968.8621   23400227.980    97153782.1341 
  21838088.280   116614207.972    21838093.900    90699974.345  
  21510054.820   114983605.637    21510060.640    89431739.627  
  21472379.660   114741951.598    21472385.000    89243787.084  
  19418760.480   103622236.076                                  
  22279351.120   119263130.872    22279356.540    92760240.758  
 21  8 31  0 23 30.0000000  0 16G10G12G 1G22G32G 3G21G25G31G26R16R 9
                                R 5R15R 6R 7
  22785034.860   119736189.220    22785038.500    93300948.343  
  23847283.300   125318346.461    23847283.500    97650675.085  
  22869132.160   120178110.371    22869136.100    93645309.868  
  22488982.760   118180431.873    22488982.640    92088654.869  
  20943886.400   110060918.871    20943888.620    85761758.519  
  23836369.480   125260981.290    23836373.720    97605970.239  
  23725741.380   124679619.488    23725741.880    97152969.613  
  22024617.200   115740186.214    22024620.600    90187184.369  
  20231740.400   106318589.291    20231739.680    82845682.360  
  24001003.640   126126136.963    24001009.760    98280146.340  
  19286912.580   103027275.847    19286917.340    80132369.215  
  21815539.820   116493802.200    21815545.660    90606325.502  
  21524736.020   115062085.302    21524741.780    89492779.311  
  21490846.220   114840630.248    21490851.500    89320537.123  
  19413134.020   103592210.983                                  
  22260665.980   119163108.692    22260671.340    92682445.765  
 21  8 31  0 24  0.0000000  0 16G10G12G 1G22G32G 3G21G25G31G26R16R 9
                                R 5R15R 6R 7
  22804122.220   119836493.606    22804125.760    93379107.551  
  23858986.440   125379845.697    23858986.460    97698596.580  
  22873121.780   120199075.015    22873125.620    93661645.968  
  22475584.540   118110022.241    22475584.040    92033790.212  
  20950378.280   110095033.529    20950380.600    85788341.361  
  23817246.320   125160489.171    23817250.900    97527664.791  
  23733505.180   124720418.840    23733505.680    97184761.297  
  22027532.900   115755507.832    22027536.200    90199123.311  
  20225697.980   106286835.811    20225697.120    82820939.380  
  23979666.180   126014008.148    23979672.140    98192773.327  
  19281906.560   103000534.592    19281911.440    80111570.476  
  21793052.380   116373722.261    21793058.360    90512930.089  
  21539480.880   115140905.350    21539486.520    89554083.765  
  21509398.240   114939764.999    21509403.200    89397641.919  
  19407588.060   103562616.979                                  
  22241991.080   119063139.104    22241995.940    92604691.643  
 21  8 31  0 24 30.0000000  0 16G10G12G 1G22G32G 3G21G25G31G26R16R 9
                                R 5R15R 6R 7
  22823261.700   119937071.705    22823265.060    93457480.041  
  23870787.960   125441861.855    23870788.620    97746920.818  
  22877220.860   120220616.876    22877224.820    93678431.840  
  22462253.240   118039964.016    22462252.440    91979199.402  
  20956918.300   110129401.387    20956920.600    85815121.512  
  23798157.600   125060177.790    23798161.760    97449500.133  
  23741336.140   124761571.199    23741336.820    97216828.035  
  22030570.340   115771468.644    22030573.260    90211560.301  
  20219753.720   106255598.340    20219752.800    82796598.500  
  23958336.460   125901919.960    23958342.420    98105431.976  
  19277049.660   102974589.626    19277054.520    80091391.068  
  21770626.880   116253970.872    21770632.640    90419790.189  
  21554289.440   115220064.457    21554294.940    89615651.891  
  21528034.600   115039351.097    21528039.520    89475097.773  
  19402123.020   103533454.897                                  
  22223326.120   118963223.523    22223330.560    92526979.545  
 21  8 31  0 25  0.0000000  0 16G10G12G 1G22G32G 3G21G25G31G26R16R 9
                                R 5R15R 6R 7
  22842453.220   120037923.085    22842456.420    93536065.475  
  23882687.560   125504394.352    23882688.280    97795647.463  
  22881430.040   120242736.122    22881434.100    93695667.608  
  22448989.540   117970260.986    22448988.240    91924885.361  
  20963506.740   110164024.067    20963509.000    85842100.222  
  23779104.280   124960051.140    23779108.000    97371479.434  
  23749234.140   124803076.178    23749234.740    97249169.564  
  22033729.400   115788069.824    22033732.500    90224496.302  
  20213907.920   106224878.979    20213907.180    82772661.340  
  23937015.300   125789876.839    23937021.300    98018125.748  
  19272342.200   102949443.145    19272347.020    80071832.707  
  21748263.880   116134553.088    21748269.480    90326909.757  
  21569161.700   115299563.743    21569167.120    89677484.631  
  21546754.600   115139386.125    21546760.680    89552902.757  
  19396739.760   103504728.948                                  
  22204671.640   118863365.313    22204676.340    92449312.101  
 21  8 31  0 25 30.0000000  0 17G10G12G 1G22G32G 3G21G25G31G26R16R 9
                                R23R 5R15R 6R 7
  22861696.380   120139046.119    22861699.700    93614862.581  
  23894684.620   125567441.135    23894685.680    97844774.743  
  22885748.980   120265431.785    22885752.860    93713352.560  
  22435794.060   117900915.806    22435792.080    91870850.162  
  20970143.780   110198902.032    20970146.160    85869277.855  
  23760086.640   124860112.205    23760090.580    97293605.031  
  23757199.160   124844932.580    23757199.940    97281784.921  
  22037010.320   115805311.443    22037013.360    90237931.340  
  20208160.760   106194677.812    20208160.100    82749127.973  
  23915703.360   125677882.151    23915709.280    97930857.234  
  19267784.480   102925096.319    19267789.120    80052896.294  
  21725963.780   116015472.765    21725969.600    90234291.829  
  24139692.320   129131088.3091                                 
  21584097.620   115379402.959    21584102.520    89739581.780  
  21565558.060   115239866.581    21565565.180    89631054.198  
  19391438.400   103476441.212                                  
  22186027.800   118763567.262    22186033.440    92371691.465  
 21  8 31  0 26  0.0000000  0 18G10G12G 1G22G32G 3G21G25G31G26R16R22
                                R 9R23R 5R15R 6R 7
  22880990.780   120240438.960    22880994.360    93693869.919  
  23906779.340   125631000.713    23906780.820    97894301.658  
  22890177.260   120288702.535    22890181.080    93731485.598  
  22422667.080   117831930.538    22422664.520    91817095.397  
  20976829.300   110234035.386    20976831.860    85896654.484  
  23741104.940   124760363.513    23741108.960    97215878.857  
  23765230.680   124887138.067    23765231.560    97314672.283  
  22040413.220   115823193.109    22040416.060    90251865.112  
  20202512.340   106164994.886    20202511.640    82725998.433  
  23894401.220   125565938.676    23894407.120    97843628.655  
  19263376.180   102901548.962    19263380.960    80034581.688  
  23476262.240   125317882.8511                                 
  21703727.780   115896733.175    21703733.400    90141938.900  
  24132256.680   129091313.700                                  
  21599096.880   115459581.872    21599101.640    89801943.104  
  21584444.520   115340788.743    21584451.760    89709549.215  
  19386219.820   103448594.080                                  
  22167395.980   118663830.934    22167401.720    92294118.794  
 21  8 31  0 26 30.0000000  0 18G10G12G 1G22G32G 3G21G25G31G26R16R22
                                R 9R23R 5R15R 6R 7
  22900335.980   120342098.730    22900339.820    93773085.240  
  23918971.280   125695070.394    23918972.420    97944226.067  
  22894714.680   120312546.186    22894718.300    93750065.079  
  22409608.760   117763306.895    22409605.860    91763622.443  
  20983563.380   110269423.504    20983565.940    85924229.635  
  23722159.900   124660806.963    23722163.920    97138302.409  
  23773328.080   124929690.548    23773329.020    97347830.036  
  22043937.620   115841713.683    22043940.520    90266296.732  
  20196962.340   106135829.479    20196961.640    82703272.149  
  23873109.180   125454048.713    23873114.700    97756441.765  
  19259117.640   102878801.471    19259122.540    80016889.210  
  23489291.720   125387432.337    23489297.660    97523562.859  
  21681556.200   115778337.307    21681561.720    90049853.288  
  24124951.900   129052240.198                                  
  21614159.360   115540099.057    21614164.020    89864567.539  
  21603412.580   115442147.618    21603419.320    89788383.866  
  19381084.060   103421189.403                                  
  22148776.420   118564157.868    22148781.780    92216595.326  
 21  8 31  0 27  0.0000000  0 17G10G12G 1G22G32G 3G21G25G31G26R16R22
                                R 9R 5R15R 6R 7
  22919730.880   120444019.399    22919734.640    93852503.882  
  23931259.320   125759643.897    23931260.560    97994543.029  
  22899359.860   120336957.211    22899363.500    93769086.669  
  22396618.820   117695043.073    22396615.740    91710429.875  
  20990345.200   110305062.364    20990347.840    85952000.161  
  23703251.380   124561440.977    23703255.020    97060874.433  
  23781490.700   124972583.801    23781491.420    97381253.343  
  22047582.680   115860868.629    22047585.520    90281222.680  
  20191510.020   106107177.425    20191509.420    82680945.890  
  23851826.980   125342211.030    23851832.800    97669295.631  
  19255008.200   102856849.345    19255013.100    79999815.344  
  23502420.060   125457509.524    23502425.640    97578067.327  
  21659448.620   115660284.170    21659454.200    89958034.247  
  21629284.200   115620950.160    21629288.880    89927451.708  
  21622460.680   115543935.375    21622466.340    89867552.097  
  19376030.620   103394224.936                                  
  22130168.060   118464545.641    22130172.160    92139119.116  
 21  8 31  0 27 30.0000000  0 17G10G12G 1G22G32G 3G21G25G31G26R16R 9
                                R23R 5R15R 6R 7
  22939175.880   120546202.633    22939179.500    93932127.120  
  23943643.680   125824722.143    23943643.920    98045253.410  
  22904113.400   120361937.876    22904117.220    93788552.116  
  22383698.500   117627144.638    22383695.380    91657522.018  
  20997175.560   110340955.733    20997178.140    85979969.022  
  23684379.980   124462271.752    23684383.540    96983599.788  
  23789718.280   125015819.308    23789718.740    97414943.324  
  22051349.000   115880661.155    22051351.920    90296645.436  
  20186156.140   106079042.396    20186155.380    82659022.493  
  23830555.980   125230432.258    23830561.860    97582195.369  
  19251048.440   102835697.213    19251053.340    79983363.696  
  21637406.340   115542580.816    21637412.000    89866487.262  
  24110736.780   128976178.6091                                 
  21644472.020   115702138.361    21644476.740    89990598.055  
  21641588.940   115646151.788    21641593.260    89947053.693  
  19371061.040   103367706.425                                  
  22111572.120   118365000.121    22111576.180    92061694.866  
 21  8 31  0 28  0.0000000  0 17G10G12G 1G22G32G 3G21G25G31G26R16R 9
                                R23R 5R15R 6R 7
  22958670.840   120648648.667    22958674.480    94011955.137  
  23956124.000   125890305.625    23956123.740    98096357.411  
  22908975.760   120387488.914    22908979.840    93808462.000  
  22370848.420   117559616.389    22370845.280    91604902.624  
  21004054.820   110377105.921    21004057.280    86008137.991  
  23665546.860   124363304.134    23665550.600    96906482.256  
  23798010.860   125059397.015    23798011.440    97448899.937  
  22055237.080   115901093.035    22055239.940    90312566.388  
  20180900.920   106051426.394    20180900.220    82637503.541  
  23809297.120   125118717.522    23809303.220    97495145.027  
  19247238.760   102815347.233    19247243.740    79967535.948  
  21615430.620   115425233.077    21615436.500    89775216.899  
  24103827.240   128939215.804                                  
  21659723.140   115783665.241    21659728.060    90054007.811  
  21660797.180   115748795.039    21660800.880    90026887.310  
  19366175.980   103341638.094                                  
  22092989.300   118265525.861    22092993.780    91984326.058  
 21  8 31  0 28 30.0000000  0 17G10G12G 1G22G32G 3G21G25G31G26R16R 9
                                R23R 5R15R 6R 7
  22978214.500   120751351.314    22978218.200    94091983.102  
  23968699.320   125956388.460    23968699.700    98147850.511  
  22913945.640   120413604.578    22913949.400    93828811.871  
  22358068.240   117492456.490    22358065.320    91552570.259  
  21010982.180   110413508.860    21010984.540    86036503.903  
  23646751.880   124264536.565    23646755.680    96829520.588  
  23806367.600   125103311.626    23806368.000    97483119.071  
  22059246.020   115922159.558    22059248.820    90328981.860  
  20175743.740   106024325.380    20175743.060    82616385.877  
  23788050.340   125007065.599    23788056.640    97408143.646  
  19243578.780   102795795.788    19243583.700    79952329.279  
  21593521.540   115308240.413    21593527.380    89684222.688  
  24097049.120   128902958.440                                  
  21675036.880   115865526.068    21675042.160    90117677.305  
  21680083.800   115851856.969    21680087.340    90107046.558  
  19361374.740   103316018.048                                  
  22074419.640   118166120.546    22074424.640    91907010.869  
 21  8 31  0 29  0.0000000  0 18G10G12G 1G22G32G 3G21G25G31G26R16R22
                                R 9R23R 5R15R 6R 7
  22997807.200   120854312.857    22997811.240    94172212.790  
  23981369.900   126022972.059    23981369.980    98199733.849  
  22919023.380   120440287.751    22919026.860    93849603.952  
  22345359.340   117425671.387    22345356.600    91500529.960  
  21017958.380   110450168.923    21017960.780    86065070.182  
  23627996.380   124165975.857    23627999.900    96752720.122  
  23814788.780   125147565.039    23814789.120    97517602.225  
  22063376.340   115943864.439    22063379.080    90345894.746  
  20170685.280   105997743.590    20170684.680    82595672.802  
  23766816.920   124895483.730    23766822.880    97321196.848  
  19240069.080   102777047.146    19240073.880    79937747.009  
  23555913.100   125743066.8651   23555920.040    97800189.1411 
  21571680.460   115191610.273    21571686.240    89593510.416  
  24090403.520   128867412.591                                  
  21690413.900   115947724.681    21690419.480    90181609.543  
  21699448.980   115955338.235    21699453.140    90187531.953  
  19356658.840   103290852.517                                  
  22055864.140   118066790.404    22055869.320    91829754.144  
 21  8 31  0 29 30.0000000  0 17G10G12G 1G22G32G 3G21G25G31G26R16R22
                                R 9R 5R15R 6R 7
  23017448.180   120957527.938    23017452.380    94252640.034  
  23994134.420   126090051.803    23994134.680    98252003.768  
  22924207.860   120467533.531    22924211.680    93870834.426  
  22332721.400   117359259.544    22332718.900    91448780.505  
  21024982.820   110487082.904    21024985.300    86093834.315  
  23609280.160   124067621.376    23609283.800    96676080.314  
  23823273.280   125192151.963    23823273.820    97552345.264  
  22067627.360   115966203.828    22067630.340    90363302.071  
  20165725.100   105971677.458    20165724.480    82575361.539  
  23745596.820   124783971.552    23745602.740    97234304.370  
  19236708.980   102759098.042    19236713.720    79923786.607  
  23569528.180   125815741.4561                                 
  21549907.240   115075342.800    21549912.980    89503080.224  
  21705853.240   116030257.315    21705859.040    90245801.542  
  21718891.320   116059231.360    21718895.920    90268337.732  
  19352027.740   103266140.686                                  
  22037322.400   117967534.820    22037327.700    91752555.369  
 21  8 31  0 30  0.0000000  0 18G10G12G 1G22G32G 3G21G25G31G26R16R22
                                R 9R23R 5R15R 6R 7
  23037137.460   121060995.241    23037141.500    94333263.847  
  24006992.960   126157625.929    24006993.920    98304658.861  
  22929499.320   120495341.047    22929503.420    93892502.621  
  22320155.180   117293224.272    22320152.580    91397324.487  
  21032055.720   110524251.617    21032058.360    86122796.936  
  23590603.640   123969476.363    23590607.200    96599603.748  
  23831821.180   125237071.281    23831821.740    97587347.312  
  22071999.140   115989177.835    22072001.880    90381203.896  
  20160863.220   105946127.491    20160862.520    82555452.484  
  23724390.740   124672532.755    23724396.700    97147469.061  
  19233498.820   102741949.532    19233503.400    79910448.879  
  23583238.460   125888927.870                                  
  21528202.740   114959442.077    21528208.500    89412935.296  
  24077513.160   128798456.9771                                 
  21721354.840   116113124.247    21721361.260    90310253.542  
  21738409.580   116163533.151    21738415.160    90349461.260  
  19347482.240   103241885.265                                  
  22018794.840   117868356.023    22018800.000    91675416.355  
 21  8 31  0 30 30.0000000  0 18G10G12G 1G22G32G 3G21G25G31G26R16R22
                                R 9R23R 5R15R 6R 7
  23056874.360   121164712.993    23056878.320    94414082.807  
  24019945.460   126225692.212    24019946.600    98357697.549  
  22934897.380   120523709.037    22934901.660    93914607.540  
  22307661.180   117227568.184    22307658.540    91346163.922  
  21039177.060   110561675.410    21039179.820    86151958.319  
  23571967.160   123871543.693    23571971.220    96523292.632  
  23840431.980   125282321.072    23840432.420    97622606.846  
  22076491.540   116012786.142    22076494.580    90399599.965  
  20156099.620   105921094.005    20156098.860    82535945.880  
  23703199.180   124561170.555    23703205.160    97060693.466  
  19230438.400   102725601.750    19230443.120    79897733.954  
  23597043.140   125962618.729                                  
  21506567.520   114843911.673    21506573.240    89323078.395  
  24071267.240   128765046.209                                  
  21736919.120   116196324.768    21736925.800    90374965.019  
  21758004.020   116268240.130    21758008.960    90430899.982  
  19343022.920   103218088.363                                  
  22000282.260   117769256.723    22000286.720    91598339.167  
 21  8 31  0 31  0.0000000  0 18G10G12G 1G22G32G 3G21G25G31G26R16R22
                                R 9R23R 5R15R 6R 7
  23076658.060   121268678.005    23076662.220    94495094.435  
  24032991.040   126294247.439    24032991.840    98411117.170  
  22940401.880   120552634.665    22940406.020    93937146.976  
  22295239.340   117162291.907    22295236.700    91295299.328  
  21046346.860   110599353.242    21046349.660    86181317.654  
  23553371.760   123773824.858    23553376.140    96447148.165  
  23849105.080   125327898.221    23849105.300    97658121.471  
  22081104.220   116037026.851    22081107.460    90418488.831  
  20151433.900   105896575.641    20151433.080    82516840.674  
  23682022.480   124449886.758    23682028.300    96973978.919  
  19227527.960   102710053.885    19227532.520    79885641.172  
  23610941.440   126036808.670                                  
  21485002.160   114728753.587    21485007.640    89233511.065  
  24065154.560   128732349.435                                  
  21752545.840   116279857.352    21752552.260    90439934.761  
  21777673.800   116373346.988    21777677.500    90512649.738  
  19338649.560   103194751.228                                  
  21981785.120   117670237.723    21981788.960    91521324.387  
 21  8 31  0 31 30.0000000  0 16G10G12G 1G22G32G 3G21G25G31G26R16R 9
                                R 5R15R 6R 7
  23096488.340   121372887.639    23096492.720    94576296.671  
  24046129.500   126363288.668    24046130.380    98464915.553  
  22946012.100   120582115.685    22946016.240    93960119.215  
  22282890.080   117097397.093    22282887.560    91244731.969  
  21053564.960   110637284.629    21053567.720    86210874.563  
  23534817.600   123676321.873    23534822.100    96371171.877  
  23857839.720   125373800.191    23857840.000    97693889.229  
  22085837.060   116061898.752    22085840.640    90437869.536  
  20146866.100   105872571.561    20146865.180    82498136.202  
  23660861.080   124338683.696    23660867.100    96887327.306  
  19224766.800   102695304.996    19224771.520    79874169.822  
  21463507.040   114613971.118    21463512.560    89144235.871  
  21768234.540   116363720.793    21768240.640    90505161.851  
  21797417.320   116478849.248    21797420.740    90594707.063  
  19334362.740   103171875.148                                  
  21963303.160   117571300.744    21963307.160    91444373.437  
 21  8 31  0 32  0.0000000  0 17G10G12G 1G22G32G 3G21G25G31G26R16R 9
                                R23R 5R15R 6R 7
  23116365.440   121477341.864    23116369.960    94657689.500  
  24059360.260   126432815.475    24059361.140    98519092.284  
  22951728.140   120612152.548    22951732.300    93983524.520  
  22270614.200   117032888.246    22270611.940    91194465.367  
  21060831.780   110675471.682    21060834.480    86240630.697  
  23516305.500   123579039.383    23516309.880    96295367.373  
  23866636.300   125420027.143    23866636.900    97729910.188  
  22090690.260   116087403.124    22090694.000    90457743.080  
  20142396.420   105849083.613    20142395.580    82479833.919  
  23639716.140   124227566.410    23639722.020    96800742.514  
  19222155.760   102681357.155    19222160.560    79863321.520  
  21442083.060   114499569.323    21442088.680    89055256.770  
  24053331.480   128669102.9741                                 
  21783985.400   116447916.582    21783991.320    90570647.431  
  21817234.180   116584745.077    21817238.920    90677070.446  
  19330163.000   103149464.275                                  
  21944836.960   117472449.660    21944841.180    91367489.292  
 21  8 31  0 32 30.0000000  0 17G10G12G 1G22G32G 3G21G25G31G26R16R 9
                                R23R 5R15R 6R 7
  23136288.580   121582036.755    23136293.020    94739269.845  
  24072682.280   126502824.364    24072682.820    98573644.644  
  22957549.320   120642741.650    22957553.300    94007360.159  
  22258411.620   116968765.657    22258409.800    91144499.748  
  21068146.960   110713912.623    21068149.640    86270584.662  
  23497835.340   123481978.168    23497839.500    96219735.305  
  23875494.080   125466574.889    23875494.720    97766181.120  
  22095663.380   116113537.429    22095667.100    90478107.478  
  20138024.600   105826109.704    20138023.660    82461932.178  
  23618587.740   124116535.971    23618593.600    96714225.418  
  19219694.280   102668208.633    19219699.080    79853094.892  
  21420730.860   114385549.627    21420736.520    88966574.845  
  24047621.540   128638557.292                                  
  21799797.920   116532442.323    21799803.680    90636389.624  
  21837123.680   116691028.702    21837129.440    90759735.441  
  19326050.520   103127518.555                                  
  21926386.720   117373685.167    21926391.680    91290672.516  
 21  8 31  0 33  0.0000000  0 17G10G12G 1G22G32G 3G21G25G31G26R16R 9
                                R23R 5R15R 6R 7
  23156257.720   121686973.642    23156262.020    94821038.780  
  24086096.080   126573316.179    24086097.280    98628573.272  
  22963475.880   120673884.690    22963479.520    94031627.443  
  22246283.840   116905034.725    22246282.360    91094839.327  
  21075511.120   110752610.889    21075513.680    86300739.156  
  23479408.160   123385144.176    23479412.360    96144280.297  
  23884413.460   125513444.779    23884413.800    97802703.098  
  22100756.920   116140304.262    22100760.720    90498964.755  
  20133751.320   105803653.024    20133750.240    82444433.466  
  23597477.080   124005598.738    23597482.700    96627780.929  
  19217383.000   102655862.374    19217387.760    79843492.256  
  21399451.480   114271918.973    21399456.880    88878195.505  
  24042045.680   128608733.758                                  
  21815672.360   116617300.642    21815677.960    90702390.491  
  21857085.580   116797699.471    21857091.660    90842701.557  
  19322025.980   103106044.287                                  
  21907953.740   117275012.659    21907958.740    91213927.257  
 21  8 31  0 33 30.0000000  0 17G10G12G 1G22G32G 3G21G25G31G26R16R22
                                R 9R 5R15R 6R 7
  23176271.060   121792144.212    23176275.380    94902989.801  
  24099600.740   126644282.430    24099601.800    98683871.643  
  22969506.060   120705573.715    22969509.900    94056320.163  
  22234230.160   116841691.815    22234228.800    91045481.259  
  21082922.940   110791560.447    21082925.380    86331089.449  
  23461023.760   123288533.901    23461028.120    96068999.599  
  23893392.560   125560628.762    23893392.680    97839469.793  
  22105969.460   116167696.555    22105973.080    90520309.405  
  20129575.160   105781707.155    20129574.200    82427332.804  
  23576383.540   123894751.485    23576389.000    96541406.553  
  19215220.660   102644312.135    19215225.520    79834508.745  
  23681810.940   126415111.2861   23681816.580    98322890.3451 
  21378244.300   114158674.258    21378249.400    88790116.341  
  21831607.960   116702484.544    21831613.220    90768644.595  
  21877118.100   116904747.398    21877123.520    90925961.037  
  19318089.080   103085036.434                                  
  21889537.400   117176428.193    21889541.820    91137250.465  
 21  8 31  0 34  0.0000000  0 18G10G12G 1G22G32G 3G21G25G31G26R16R22
                                R 9R23R 5R15R 6R 7
  23196329.520   121897552.275    23196333.760    94985125.891  
  24113196.360   126715726.647    24113196.580    98739542.470  
  22975640.780   120737812.935    22975644.540    94081441.604  
  22222251.640   116778744.312    22222250.160    90996431.287  
  21090383.640   110830767.213    21090386.200    86361640.155  
  23442683.520   123192155.857    23442687.980    95993899.859  
  23902431.660   125608130.420    23902431.800    97876484.070  
  22111302.120   116195719.421    22111305.760    90542145.402  
  20125497.140   105760277.226    20125496.240    82410634.165  
  23555308.800   123784003.068    23555314.220    96455109.208  
  19213208.520   102633563.657    19213213.400    79826148.829  
  23696254.900   126492215.303    23696260.580    98382860.105  
  21357111.200   114045824.996    21357116.220    88702344.761  
  24031298.820   128551242.5491                                 
  21847605.280   116787999.489    21847610.280    90835156.184  
  21897221.920   117012174.428    21897226.480    91009515.391  
  19314241.340   103064503.188                                  
  21871139.040   117077939.914    21871143.200    91060648.476  
 21  8 31  0 34 30.0000000  0 18G10G12G 1G22G32G 3G21G25G31G26R16R22
                                R 9R23R 5R15R 6R 7
  23216432.200   122003192.676    23216436.180    95067443.030  
  24126881.860   126787643.245    24126881.840    98795581.393  
  22981879.420   120770597.438    22981883.060    94106987.944  
  22210348.360   116716191.723    22210346.660    90947689.036  
  21097892.800   110870228.244    21097895.520    86392388.994  
  23424387.560   123096009.550    23424392.040    95918980.705  
  23911530.080   125655944.808    23911530.700    97913741.994  
  22116754.000   116224368.991    22116757.360    90564469.730  
  20121516.800   105739360.472    20121515.920    82394335.396  
  23534252.780   123673353.364    23534257.980    96368888.762  
  19211345.960   102623613.440    19211350.680    79818409.786  
  23710787.780   126569789.950                                  
  21336052.280   113933371.217    21336057.320    88614880.765  
  24026128.540   128523584.270                                  
  21863663.620   116873841.765    21863668.760    90901922.353  
  21917395.100   117119973.567    21917400.220    91093359.172  
  19310482.300   103044443.936                                  
  21852758.560   116979547.021    21852762.660    90984120.667  
 21  8 31  0 35  0.0000000  0 18G10G12G 1G22G32G 3G21G25G31G26R16R22
                                R 9R23R 5R15R 6R 7
  23236578.820   122109061.848    23236582.380    95149938.412  
  24140656.500   126860028.783    24140656.860    98851985.752  
  22988221.160   120803923.901    22988224.940    94132956.604  
  22198520.380   116654034.585    22198518.380    90899254.930  
  21105450.100   110909942.105    21105452.840    86423334.841  
  23406135.960   123000096.203    23406140.400    95844243.088  
  23920687.800   125704068.087    23920688.360    97951240.661  
  22122324.780   116253642.776    22122328.280    90587280.480  
  20117633.720   105718954.922    20117632.880    82378434.978  
  23513215.800   123562803.893    23513221.180    96282746.429  
  19209632.480   102614459.555    19209637.000    79811290.097  
  23725406.340   126647829.711                                  
  21315067.700   113821314.504    21315072.780    88527725.599  
  24021093.340   128496648.353                                  
  21879782.620   116960009.073    21879787.960    90968941.331  
  21937636.440   117228139.173    21937643.060    91177487.921  
  19306812.160   103024858.763                                  
  21834395.700   116881250.217    21834400.580    90907667.652  
 21  8 31  0 35 30.0000000  0 17G10G12G 1G22G32G 3G21G25G31G26R16R 9
                                R23R 5R15R 6R 7
  23256769.260   122215161.815    23256772.600    95232613.642  
  24154520.440   126932884.939    24154520.300    98908756.726  
  22994666.580   120837794.717    22994670.320    94159349.433  
  22186768.680   116592279.174    22186766.440    90851133.857  
  21113056.280   110949913.087    21113059.060    86454481.051  
  23387930.200   122904422.578    23387934.200    95769692.244  
  23929904.780   125752502.688    23929905.180    97988981.875  
  22128014.880   116283544.119    22128018.080    90610580.244  
  20113848.620   105699064.360    20113847.740    82362935.845  
  23492199.240   123452361.842    23492204.520    96196687.790  
  19208068.780   102606106.305    19208073.280    79804793.135  
  21294158.860   113709662.657    21294163.900    88440885.326  
  24016194.080   128470440.495                                  
  21895963.380   117046504.963    21895968.840    91036215.860  
  21957946.760   117336672.028    21957953.720    91261902.291  
  19303231.700   103005753.703                                  
  21816051.520   116783055.787    21816057.140    90831294.263  
 21  8 31  0 36  0.0000000  0 17G10G12G 1G22G32G 3G21G25G31G26R16R 9
                                R23R 5R15R 6R 7
  23277002.840   122321489.166    23277006.220    95315466.057  
  24168473.040   127006207.953    24168473.200    98965891.514  
  23001215.020   120872206.710    23001218.720    94186163.940  
  22175093.340   116530926.365    22175091.240    90803326.493  
  21120711.240   110990139.903    21120713.900    86485826.595  
  23369769.740   122808989.957    23369773.660    95695329.195  
  23939180.260   125801244.776    23939180.620    98026962.705  
  22133824.040   116314070.710    22133827.140    90634367.204  
  20110161.240   105679687.158    20110160.380    82347836.737  
  23471203.340   123342028.791    23471208.680    96110714.109  
  19206654.560   102598551.707    19206659.080    79798917.343  
  21273326.040   113598417.204    21273331.440    88354361.151  
  24011430.340   128444960.103                                  
  21912205.300   117133327.465    21912211.020    91103744.453  
  21978325.500   117445566.429    21978331.500    91346597.932  
  19299741.700   102987129.986                                  
  21797727.320   116684964.939    21797732.580    90755001.408  
 21  8 31  0 36 30.0000000  0 17G10G12G 1G22G32G 3G21G25G31G26R16R 9
                                R23R 5R15R 6R 7
  23297279.020   122428041.397    23297282.740    95398493.703  
  24182514.000   127079995.267    24182514.920    99023388.100  
  23007865.980   120907157.659    23007869.600    94213398.418  
  22163495.080   116469978.022    22163493.180    90755834.296  
  21128414.960   111030622.263    21128417.300    86517371.293  
  23351655.420   122713800.617    23351659.620    95621155.737  
  23948513.840   125850291.856    23948513.820    98065181.186  
  22139751.960   116345221.233    22139754.660    90658640.347  
  20106571.420   105660822.458    20106570.600    82333136.975  
  23450228.720   123231807.417    23450234.140    96024827.419  
  19205389.540   102591794.943    19205394.160    79793662.090  
  21252570.020   113487581.498    21252575.640    88268155.662  
  24006803.600   128420207.799                                  
  21928508.080   117220475.284    21928514.180    91171526.004  
  21998770.960   117554818.300    21998776.640    91431571.603  
  19296341.800   102968988.869                                  
  21779422.900   116586979.667    21779427.600    90678790.671  
 21  8 31  0 37  0.0000000  0 17G10G12G 1G22G32G 3G21G25G31G26R16R 9
                                R23R 5R15R 6R 7
  23317597.040   122534813.481    23317600.900    95481692.651  
  24196642.900   127154240.938    24196643.480    99081241.874  
  23014618.480   120942642.680    23014622.060    94241049.081  
  22151973.680   116409432.882    22151971.740    90708656.280  
  21136166.660   111071357.343    21136168.820    86549112.908  
  23333587.880   122618854.329    23333591.820    95547171.653  
  23957904.440   125899639.067    23957904.300    98103633.532  
  22145797.780   116376991.806    22145800.420    90683396.638  
  20103078.480   105642467.155    20103077.760    82318834.149  
  23429275.440   123121697.713    23429280.860    95939027.758  
  19204273.240   102585832.603    19204278.000    79789024.725  
  21231890.900   113377155.724    21231896.380    88182269.016  
  24002312.100   128396181.800                                  
  21944871.340   117307945.103    21944877.600    91239558.033  
  22019281.460   117664420.706    22019287.800    91516817.888  
  19293032.300   102951329.378                                  
  21761138.200   116489098.968    21761142.500    90602661.240  
 21  8 31  0 37 30.0000000  0 17G10G12G 1G22G32G 3G21G25G31G26R16R 9
                                R23R 5R15R 6R 7
  23337956.980   122641805.362    23337960.840    95565062.876  
  24210859.000   127228945.012    24210859.500    99139452.824  
  23021472.480   120978662.028    23021476.380    94269116.091  
  22140530.020   116349295.772    22140528.200    90661796.208  
  21143966.700   111112347.337    21143969.080    86581053.147  
  23315567.760   122524155.851    23315571.320    95473380.644  
  23967352.180   125949286.369    23967351.840    98142319.698  
  22151961.760   116409383.453    22151964.320    90708636.880  
  20099682.700   105624622.889    20099682.120    82304929.536  
  23408344.420   123011704.868    23408349.880    95853319.137  
  19203306.080   102580666.250    19203310.860    79785006.461  
  21211289.260   113267145.034    21211294.500    88096705.200  
  23997957.140   128372885.227                                  
  21961295.200   117395737.946    21961301.260    91307841.327  
  22039856.800   117774372.074    22039863.400    91602335.579  
  19289813.980   102934155.651                                  
  21742873.520   116391327.463    21742878.200    90526616.759  
 21  8 31  0 38  0.0000000  0 17G10G12G 1G22G32G 3G21G25G31G26R16R 9
                                R23R 5R15R 6R 7
  23358358.800   122749016.780    23358362.500    95648604.182  
  24225162.200   127304107.668    24225162.720    99198021.118  
  23028428.300   121015215.587    23028432.220    94297599.382  
  22129164.920   116289570.597    22129163.020    90615257.125  
  21151815.480   111153594.142    21151818.180    86613193.496  
  23297595.460   122429709.616    23297598.900    95399786.206  
  23976856.660   125999233.371    23976856.560    98181239.405  
  22158243.960   116442397.029    22158246.540    90734361.757  
  20096384.440   105607290.933    20096383.960    82291424.127  
  23387436.460   122901833.614    23387441.840    95767705.265  
  19202488.180   102576297.373    19202493.100    79781608.466  
  21190766.340   113157554.339    21190771.420    88011468.046  
  23993738.540   128350320.841                                  
  21977779.640   117483855.221    21977785.540    91376376.957  
  22060497.740   117884669.981    22060503.480    91688122.799  
  19286687.540   102917471.594                                  
  21724629.500   116293669.109    21724634.960    90450660.328  
 21  8 31  0 38 30.0000000  0 17G10G12G 1G22G32G 3G21G25G31G26R16R 9
                                R23R 5R15R 6R 7
  23378801.460   122856443.681    23378805.060    95732313.406  
  24239551.440   127379723.782    24239551.960    99256942.802  
  23035484.760   121052299.476    23035489.200    94326495.876  
  22117878.160   116230256.996    22117876.100    90569038.739  
  21159712.940   111195095.916    21159715.720    86645532.528  
  23279671.140   122335516.413    23279674.740    95326388.928  
  23986417.280   126049476.022    23986417.480    98220389.496  
  22164643.980   116476029.518    22164646.640    90760568.904  
  20093183.420   105590469.031    20093182.920    82278316.159  
  23366552.000   122792085.114    23366557.160    95682187.038  
  19201818.960   102572722.985    19201823.900    79778828.393  
  21170322.380   113048385.217    21170327.540    87926558.787  
  23989657.280   128328487.514                                  
  21994324.160   117572293.876    21994329.680    91445162.543  
  22081202.540   117995308.515    22081207.700    91774174.958  
  19283652.460   102901277.050                                  
  21706407.000   116196124.554    21706412.920    90374792.395  
 21  8 31  0 39  0.0000000  0 17G10G12G 1G22G32G 3G21G25G31G26R16R 9
                                R23R 5R15R 6R 7
  23399284.700   122964085.747    23399288.660    95816190.277  
  24254026.800   127455792.767    24254028.120    99316217.370  
  23042642.540   121089913.549    23042646.920    94355805.533  
  22106670.440   116171359.186    22106668.280    90523144.360  
  21167659.620   111236854.553    21167662.020    86678071.728  
  23261795.000   122241580.592    23261799.260    95253192.267  
  23996034.400   126100014.003    23996034.680    98259769.696  
  22171161.780   116510281.616    22171164.340    90787258.868  
  20090079.720   105574158.568    20090079.200    82265606.716  
  23345691.800   122682464.134    23345696.840    95596768.201  
  19201298.760   102569944.576    19201303.700    79776667.425  
  21149958.300   112939642.577    21149963.540    87841981.243  
  23985713.240   128307388.009                                  
  22010928.680   117661055.468    22010934.320    91514199.302  
  22101970.600   118106286.049    22101976.340    91860490.781  
  19280709.880   102885576.299                                  
  21688206.860   116098697.942    21688212.760    90299016.183  
 21  8 31  0 39 30.0000000  0 18G10G12G 1G22G32G 3G21G25G31G26R16R22
                                R 9R23R 5R15R 6R 7
  23419808.540   123071940.202    23419812.680    95900232.616  
  24268587.500   127532312.024    24268589.480    99375842.725  
  23049900.940   121128055.129    23049905.360    94385526.237  
  22095542.080   116112878.471    22095539.540    90477574.982  
  21175654.960   111278869.492    21175657.260    86710810.637  
  23243968.940   122147904.387    23243972.920    95180197.849  
  24005707.140   126150844.319    24005707.240    98299377.689  
  22177797.140   116545151.630    22177799.740    90814430.308  
  20087073.180   105558358.311    20087072.500    82253294.827  
  23324856.320   122572973.061    23324861.420    95511450.602  
  19200927.500   102567960.877    19200932.280    79775124.556  
  23860796.620   127370548.8391                                 
  21129674.740   112831329.049    21129679.900    87757737.444  
  23981906.040   128287022.692                                  
  22027593.060   117750138.070    22027598.800    91583485.697  
  22122800.720   118217597.891    22122807.500    91947066.626  
  19277860.380   102870370.293                                  
  21670029.460   116001391.205    21670035.060    90223333.211  
 21  8 31  0 40  0.0000000  0 17G10G12G 1G22G32G 3G21G25G31G26R16R 9
                                R23R 5R15R 6R 7
  23440371.800   123180000.745    23440376.120    95984435.586  
  24283232.920   127609274.425    24283234.580    99435813.449  
  23057258.320   121166718.152    23057262.960    94415653.245  
  22084492.560   116054812.978    22084489.940    90432329.145  
  21183698.240   111321136.736    21183700.600    86743746.152  
  23226192.360   122054486.237    23226195.420    95107404.473  
  24015434.100   126201960.860    24015434.500    98339208.718  
  22184548.880   116580634.226    22184551.800    90842079.106  
  20084162.680   105543063.801    20084162.040    82241377.039  
  23304045.380   122463610.801    23304050.540    95426233.335  
  19200704.180   102566767.026    19200708.860    79774196.014  
  21109471.300   112723443.727    21109476.400    87673826.690  
  23978235.800   128267387.974                                  
  22044316.800   117839537.117    22044322.660    91653018.262  
  22143691.880   118329235.885    22143699.080    92033896.146  
  19275103.200   102855656.628                                  
  21651874.060   115904202.279    21651879.140    90147741.870  
 21  8 31  0 40 30.0000000  0 17G10G12G 1G22G32G 3G21G25G31G26R16R 9
                                R23R 5R15R 6R 7
  23460974.500   123288267.232    23460978.660    96068799.009  
  24297962.660   127686679.802    24297963.820    99496129.289  
  23064714.780   121205902.568    23064719.620    94446186.552  
  22073522.640   115997166.818    22073520.320    90387410.076  
  21191789.800   111363658.310    21191792.180    86776879.846  
  23208465.880   121961330.875    23208468.240    95034815.848  
  24025215.440   126253363.092    24025216.100    98379262.348  
  22191417.480   116616730.316    22191420.580    90870205.928  
  20081348.720   105528276.577    20081348.100    82229854.538  
  23283259.680   122354382.301    23283265.000    95341120.336  
  19200628.700   102566364.429    19200633.520    79773882.893  
  21089348.900   112615991.736    21089354.060    87590252.975  
  23974702.780   128248486.589                                  
  22061100.180   117929253.396    22061106.120    91722797.482  
  22164644.580   118441198.324    22164650.680    92120978.060  
  19272439.000   102841439.660                                  
  21633741.340   115807135.478    21633746.020    90072245.502  
 21  8 31  0 41  0.0000000  0 17G10G12G 1G22G32G 3G21G25G31G26R16R 9
                                R23R 5R15R 6R 7
  23481615.940   123396738.663    23481620.160    96153322.143  
  24312776.280   127764526.206    24312776.940    99556788.795  
  23072270.480   121245607.414    23072274.940    94477125.358  
  22062633.120   115939943.003    22062630.920    90342820.096  
  21199929.840   111406435.439    21199932.440    86810212.672  
  23190789.560   121868441.972    23190792.400    94962434.922  
  24035051.120   126305050.310    24035051.840    98419538.049  
  22198402.800   116653439.773    22198406.340    90898810.712  
  20078631.480   105513997.148    20078630.780    82218727.712  
  23262500.380   122245291.703    23262505.500    95256114.764  
  19200701.220   102566752.854    19200706.260    79774185.018  
  21069308.500   112508977.409    21069313.760    87507019.659  
  23971306.980   128230320.658                                  
  22077943.280   118019287.409    22077949.200    91792823.920  
  22185657.380   118553482.360    22185663.200    92208310.042  
  19269869.000   102827722.006                                  
  21615632.040   115710194.629    21615636.520    89996847.102  
 21  8 31  0 41 30.0000000  0 17G10G12G 1G22G32G 3G21G25G31G26R16R 9
                                R23R 5R15R 6R 7
  23502296.400   123505416.299    23502300.800    96238005.935  
  24327674.100   127842815.409    24327673.960    99617793.363  
  23079925.440   121285834.075    23079929.820    94508470.808  
  22051825.120   115883147.010    22051822.680    90298563.474  
  21208119.300   111449471.657    21208122.020    86843747.375  
  23173164.880   121775825.705    23173168.340    94890266.457  
  24044941.400   126357023.567    24044942.260    98460036.611  
  22205505.200   116690764.834    22205509.140    90927895.173  
  20076011.380   105500228.619    20076010.680    82207998.998  
  23241768.580   122136345.532    23241773.500    95171221.734  
  19200922.700   102567935.431    19200927.600    79775104.805  
  21049351.260   112402407.143    21049356.600    87424131.733  
  23968048.920   128212893.938                                  
  22094846.120   118109642.019    22094851.900    91863099.674  
  22206729.680   118666087.630    22206736.000    92295891.853  
  19267393.220   102814509.446                                  
  21597547.300   115613385.541    21597551.700    89921551.197  
 21  8 31  0 42  0.0000000  0 17G10G12G 1G22G32G 3G21G25G31G26R16R 9
                                R23R 5R15R 6R 7
  23523014.220   123614289.756    23523019.020    96322842.326  
  24342654.280   127921536.521    24342653.920    99679134.475  
  23087678.120   121326572.221    23087681.760    94540214.814  
  22041097.500   115826772.745    22041094.860    90254635.475  
  21216356.560   111492758.774    21216359.360    86877477.596  
  23155591.280   121683476.560    23155595.140    94818306.134  
  24054884.080   126409272.446    24054885.040    98500749.978  
  22212723.140   116728696.043    22212727.320    90957451.957  
  20073486.760   105486961.948    20073486.040    82197661.337  
  23221063.280   122027538.507    23221068.020    95086437.125  
  19201291.060   102569902.739    19201295.760    79776634.941  
  21029476.260   112296275.846    21029481.560    87341585.233  
  23964927.660   128196199.008                                  
  22111807.340   118200308.036    22111812.940    91933617.616  
  22227859.600   118779002.065    22227866.620    92383714.106  
  19265009.780   102801795.028                                  
  21579486.200   115516702.529    21579490.820    89846353.346  
 21  8 31  0 42 30.0000000  0 17G10G12G 1G22G32G 3G21G25G31G26R16R 9
                                R23R 5R15R 6R 7
  23543770.020   123723362.274    23543775.040    96407833.841  
  24357716.880   128000692.019    24357717.800    99740814.104  
  23095528.800   121367825.146    23095531.800    94572359.954  
  22030451.600   115770827.674    22030449.000    90211041.920  
  21224642.500   111536302.326    21224645.420    86911407.624  
  23138070.480   121591402.682    23138074.240    94746560.302  
  24064879.780   126461800.375    24064880.840    98541680.786  
  22220057.460   116767237.524    22220061.660    90987484.280  
  20071058.540   105474201.992    20071057.860    82187718.515  
  23200386.020   121918879.087    23200390.800    95001767.527  
  19201807.080   102572659.388    19201811.840    79778779.007  
  21009685.020   112190592.059    21009690.060    87259386.786  
  23961944.700   128180241.863                                  
  22128827.440   118291289.926    22128833.200    92004381.295  
  22249048.280   118892227.159    22249055.100    92471778.107  
  19262721.640   102789586.654                                  
  21561449.860   115420153.231    21561454.460    89771259.491  
 21  8 31  0 43  0.0000000  0 17G10G12G 1G22G32G 3G21G25G31G26R16R 9
                                R23R 5R15R 6R 7
  23564563.100   123832629.622    23564567.880    96492977.155  
  24372861.680   128080277.416    24372863.400    99802828.697  
  23103476.080   121409588.681    23103478.780    94604902.954  
  22019887.380   115715311.722    22019884.840    90167782.744  
  21232976.860   111580100.264    21232979.780    86945535.878  
  23120602.100   121499604.606    23120605.140    94675029.346  
  24074927.860   126514602.561    24074928.780    98582825.318  
  22227507.560   116806385.944    22227511.440    91017989.542  
  20068726.420   105461946.238    20068725.640    82178168.577  
  23179737.000   121810368.233    23179741.760    94917213.699  
  19202470.260   102576202.468    19202475.100    79781534.751  
  20989977.840   112085356.967    20989982.940    87177537.322  
  23959099.260   128165020.905                                  
  22145905.500   118382584.836    22145912.080    92075388.319  
  22270294.200   119005756.977    22270300.400    92560079.105  
  19260528.460   102777883.911                                  
  21543438.460   115323738.234    21543442.880    89696270.085  
 21  8 31  0 43 30.0000000  0 17G10G12G 1G22G32G 3G21G25G31G26R16R 9
                                R23R 5R15R 6R 7
  23585393.260   123942091.238    23585397.820    96578271.853  
  24388088.420   128160291.645    24388090.000    99865177.474  
  23111520.420   121451862.404    23111523.040    94637843.514  
  22009405.460   115660228.663    22009403.060    90124860.889  
  21241360.000   111624154.372    21241362.800    86979863.750  
  23103186.880   121408086.689    23103189.540    94603716.692  
  24085028.060   126567678.598    24085028.800    98624183.202  
  22235073.040   116846141.632    22235076.880    91048968.005  
  20066490.360   105450195.660    20066489.620    82169012.293  
  23159117.240   121702010.613    23159122.020    94832779.277  
  19203280.840   102580532.806    19203285.660    79784902.796  
  20970355.580   111980575.111    20970360.620    87096040.376  
  23956392.080   128150538.183                                  
  22163042.520   118474193.355    22163049.420    92146639.356  
  22291595.700   119119589.520    22291602.800    92648615.422  
  19258431.240   102766690.809                                  
  21525453.100   115227461.424    21525457.440    89621388.140  
 21  8 31  0 44  0.0000000  0 17G10G12G 1G22G32G 3G21G25G31G26R16R 9
                                R23R 5R15R 6R 7
  23606259.380   124051743.008    23606263.820    96663714.729  
  24403395.540   128240730.875    24403397.560    99927857.430  
  23119661.040   121494642.050    23119663.700    94671178.295  
  21999005.880   115605578.057    21999003.540    90082276.007  
  21249791.620   111668462.750    21249794.300    87014389.753  
  23085824.900   121316849.667    23085827.520    94532622.925  
  24095179.560   126621024.142    24095180.260    98665751.070  
  22242753.760   116886501.256    22242756.980    91080417.066  
  20064349.980   105438947.914    20064349.340    82160247.815  
  23138526.880   121593807.270    23138531.560    94748465.060  
  19204238.200   102585646.940    19204243.120    79788880.468  
  20950818.340   111876247.515    20950823.340    87014896.751  
  23953822.340   128136792.441                                  
  22180238.040   118566112.908    22180244.520    92218132.313  
  22312953.260   119233718.836    22312960.740    92737382.606  
  19256429.180   102756006.085                                  
  21507493.940   115131323.472    21507498.080    89546614.182  
 21  8 31  0 44 30.0000000  0 17G10G12G 1G22G32G 3G21G25G31G26R16R 9
                                R23R 5R15R 6R 7
  23627162.040   124161587.009    23627166.640    96749307.399  
  24418783.500   128321596.540    24418784.880    99990869.606  
  23127898.340   121537929.735    23127901.120    94704908.979  
  21988689.660   115551366.441    21988687.540    90040033.200  
  21258272.680   111713029.668    21258275.020    87049117.221  
  23068517.540   121225900.419    23068520.520    94461753.432  
  24105382.540   126674641.366    24105383.320    98707530.699  
  22250549.740   116927467.720    22250552.880    91112338.999  
  20062305.920   105428206.301    20062305.320    82151877.735  
  23117967.180   121485765.467    23117971.860    94664276.722  
  19205342.900   102591548.289    19205347.980    79793470.413  
  20931367.640   111772381.857    20931372.520    86934112.390  
  23951391.680   128123788.417                                  
  22197492.460   118658346.792    22197498.640    92289869.710  
  22334366.720   119348145.441    22334374.000    92826381.030  
  19254523.180   102745836.396                                  
  21489561.760   115035331.200    21489566.140    89471953.555  
 21  8 31  0 45  0.0000000  0 17G10G12G 1G22G32G 3G21G25G31G26R16R 9
                                R23R 5R15R 6R 7
  23648100.060   124271616.369    23648104.580    96835044.499  
  24434251.280   128402881.421    24434252.080   100054208.450  
  23136230.820   121581718.629    23136233.940    94739030.168  
  21978456.380   115497591.277    21978454.420    89998130.485  
  21266802.000   111757850.591    21266804.320    87084042.618  
  23051264.980   121135237.060    23051268.080    94391106.708  
  24115636.140   126728523.497    24115636.820    98749516.719  
  22258459.960   116969034.988    22258462.980    91144729.061  
  20060357.300   105417965.918    20060356.620    82143898.221  
  23097437.840   121377883.625    23097442.640    94580213.031  
  19206593.820   102598231.174    19206599.040    79798668.222  
  20912002.920   111668976.289    20912008.020    86853685.897  
  23949098.540   128111521.745                                  
  22214804.780   118750889.407    22214810.300    92361847.256  
  22355834.620   119462860.862    22355840.880    92915604.179  
  19252713.580   102736178.809                                  
  21471656.320   114939482.202    21471660.880    89397404.362  
 21  8 31  0 45 30.0000000  0 17G10G12G 1G22G32G 3G21G25G31G26R16R 9
                                R23R 5R15R 6R 7
  23669073.180   124381830.375    23669077.540    96920925.503  
  24449798.800   128484584.061    24449800.200   100117872.888  
  23144658.540   121626007.873    23144661.660    94773541.274  
  21968306.920   115444255.818    21968305.000    89956570.409  
  21275379.840   111802927.024    21275382.160    87119167.109  
  23034067.620   121044863.714    23034070.760    94320685.953  
  24125939.580   126782669.569    24125940.480    98791708.421  
  22266484.440   117011203.121    22266487.480    91177587.367  
  20058504.040   105408227.231    20058503.340    82136309.640  
  23076939.880   121270166.163    23076944.760    94496277.442  
  19207991.220   102605695.431    19207996.380    79804473.764  
  20892725.300   111566035.381    20892730.520    86773620.809  
  23946943.460   128099994.312                                  
  22232174.940   118843741.304    22232180.100    92434065.358  
  22377355.360   119577862.660    22377361.160    93005049.978  
  19251000.420   102727037.126                                  
  21453778.500   114843780.977    21453782.920    89322970.112  
 21  8 31  0 46  0.0000000  0 17G10G12G 1G22G32G 3G21G25G31G26R16R 9
                                R23R 5R15R 6R 7
  23690080.940   124492226.455    23690085.380    97006948.361  
  24465425.340   128566701.687    24465427.560   100181860.639  
  23153180.840   121670794.964    23153184.680    94808440.285  
  21958241.440   115391361.600    21958239.580    89915354.158  
  21284006.220   111848258.686    21284008.720    87154490.472  
  23016925.760   120954782.682    23016928.720    94250492.984  
  24136292.760   126837076.814    24136293.660    98834103.650  
  22274622.940   117053970.274    22274625.660    91210912.423  
  20056746.060   105398989.270    20056745.280    82129111.235  
  23056473.620   121162615.761    23056478.580    94412472.004  
  19209534.740   102613940.044    19209539.700    79810886.239  
  20873535.220   111463561.579    20873540.260    86693919.015  
  23944926.680   128089205.738                                  
  22249602.580   118936901.191    22249607.660    92506522.994  
  22398928.900   119693146.680    22398935.200    93094715.263  
  19249384.080   102718412.354                                  
  21435928.600   114748229.391    21435932.880    89248652.225  
 21  8 31  0 46 30.0000000  0 17G10G12G 1G22G32G 3G21G25G31G26R16R 9
                                R23R 5R15R 6R 7
  23711123.020   124602802.604    23711127.480    97093111.529  
  24481130.620   128649231.932    24481131.680   100246169.944  
  23161797.420   121716077.762    23161801.900    94843725.574  
  21948260.460   115338910.791    21948258.440    89874483.408  
  21292681.140   111893845.840    21292683.800    87190012.921  
  22999839.920   120864996.901    22999842.640    94180530.058  
  24146695.340   126891742.972    24146696.260    98876700.611  
  22282874.900   117097335.218    22282877.460    91244703.287  
  20055083.360   105390251.807    20055082.540    82122302.824  
  23036039.620   121055235.662    23036044.800    94328799.295  
  19211224.000   102622964.078    19211229.100    79817904.938  
  20854433.260   111361558.387    20854438.160    86614583.254  
  23943047.800   128079156.760                                  
  22267087.300   119030368.221    22267092.900    92579219.486  
  22420555.440   119808709.347    22420562.140    93184597.289  
  19247865.080   102710306.402                                  
  21418107.160   114652830.175    21418111.300    89174452.856  
 21  8 31  0 47  0.0000000  0 17G10G12G 1G22G32G 3G21G25G31G26R16R 9
                                R23R 5R15R 6R 7
  23732199.060   124713557.855    23732203.520    97179414.250  
  24496913.800   128732173.397    24496914.060   100310799.696  
  23170508.700   121761855.196    23170513.560    94879396.261  
  21938364.680   115286907.446    21938362.420    89833961.342  
  21301404.940   111939689.685    21301407.440    87225735.403  
  22982810.960   120775510.150    22982813.660    94110800.166  
  24157147.280   126946667.281    24157148.480    98919498.725  
  22291240.440   117141297.620    22291243.440    91278959.702  
  20053516.020   105382015.156    20053515.120    82115884.661  
  23015638.800   120948030.045    23015644.240    94245262.546  
  19213059.160   102632767.080    19213064.180    79825529.501  
  20835420.300   111260029.880    20835425.080    86535616.693  
  23941307.320   128069848.681                                  
  22284629.600   119124142.804    22284635.620    92652155.226  
  22442233.620   119924548.029    22442240.520    93274694.015  
  19246443.700   102702722.441                                  
  21400314.900   114557587.061    21400318.820    89100374.888  
 21  8 31  0 47 30.0000000  0 17G10G12G 1G22G32G 3G21G25G31G26R16R 9
                                R23R 5R15R 6R 7
  23753308.240   124824487.928    23753312.860    97265853.198  
  24512774.440   128815521.825    24512775.200   100375746.549  
  23179313.260   121808122.990    23179318.180    94915449.063  
  21928553.820   115235350.398    21928551.260    89793787.039  
  21310177.120   111985788.369    21310179.840    87261656.450  
  22965839.260   120686323.264    22965841.860    94041303.918  
  24167647.600   127001845.167    24167648.460    98962494.421  
  22299718.860   117185854.010    22299721.780    91313678.969  
  20052043.360   105374276.294    20052042.340    82109854.382  
  22995271.340   120840999.952    22995276.660    94161862.557  
  19215039.580   102643345.727    19215044.480    79833757.332  
  20816496.220   111158976.811    20816501.060    86457019.915  
  23939705.820   128061279.888                                  
  22302228.940   119218221.755    22302235.000    92725327.690  
  22463961.700   120040656.931    22463969.500    93365000.885  
  19245120.120   102695660.343                                  
  21382552.000   114462500.818    21382556.000    89026418.920  
 21  8 31  0 48  0.0000000  0 17G10G12G 1G22G32G 3G21G25G31G26R16R 9
                                R23R 5R15R 6R 7
  23774450.120   124935589.184    23774454.860    97352425.550  
  24528711.420   128899272.479    24528712.820   100441006.856  
  23188210.520   121854877.319    23188215.540    94951880.971  
  21918827.920   115184239.789    21918825.100    89753960.603  
  21318997.440   112032140.407    21319000.120    87297774.915  
  22948924.940   120597437.372    22948927.760    93972042.212  
  24178195.580   127057273.029    24178196.020    99005684.916  
  22308309.660   117231001.365    22308313.140    91348858.713  
  20050664.900   105367033.321    20050664.040    82104210.517  
  22974937.840   120734146.988    22974943.080    94078600.597  
  19217164.520   102654697.408    19217169.560    79842586.428  
  20797661.540   111058400.751    20797666.400    86378794.134  
  23938241.940   128053449.008                                  
  22319884.980   119312602.689    22319890.940    92798735.031  
  22485739.120   120157030.843    22485746.860    93455513.894  
  19243894.460   102689119.717                                  
  21364818.240   114367572.170    21364823.040    88952585.570  
 21  8 31  0 48 30.0000000  0 17G10G12G 1G22G32G 3G21G25G31G26R16R 9
                                R23R 5R15R 6R 7
  23795624.760   125046862.311    23795629.440    97439131.846  
  24544724.900   128983425.989    24544725.600   100506581.047  
  23197200.600   121902118.756    23197205.180    94988692.460  
  21909187.760   115133581.079    21909185.020    89714486.312  
  21327866.700   112078748.817    21327869.420    87334093.161  
  22932068.940   120508858.110    22932071.920    93903019.446  
  24188791.060   127112951.583    24188791.320    99049070.792  
  22317013.320   117276741.059    22317016.880    91384500.036  
  20049381.340   105360288.462    20049380.580    82098954.789  
  22954639.200   120627477.041    22954644.260    93995481.225  
  19219434.600   102666823.314    19219439.620    79852017.683  
  20778917.380   110958307.755    20778922.140    86300944.080  
  23936916.660   128046358.864                                  
  22337598.040   119407287.780    22337603.780    92872378.955  
  22507566.340   120273668.817    22507573.180    93546232.333  
  19242767.200   102683105.618                                  
  21347114.880   114272807.043    21347120.240    88878879.414  
 21  8 31  0 49  0.0000000  0 17G10G12G 1G22G32G 3G21G25G31G26R16R 9
                                R23R 5R15R 6R 7
  23816831.720   125158305.228    23816836.460    97525970.448  
  24560814.900   129067979.948    24560815.180   100572467.243  
  23206283.020   121949845.099    23206287.200    95025881.809  
  21899634.040   115083376.349    21899631.340    89675365.749  
  21336784.760   112125613.770    21336787.520    87370611.298  
  22915271.740   120420588.299    22915274.820    93834237.822  
  24199433.580   127168878.606    24199433.780    99092650.251  
  22325829.520   117323071.670    22325832.840    91420601.804  
  20048192.520   105354040.745    20048191.620    82094086.442  
  22934376.040   120520993.256    22934381.080    93912506.932  
  19221849.300   102679722.467    19221854.380    79862050.354  
  20760264.180   110858700.750    20760269.020    86223472.013  
  23935729.980   128040009.814                                  
  22355367.680   119502275.626    22355373.200    92946258.339  
  22529442.600   120390567.363    22529448.620    93637153.357  
  19241739.360   102677620.296                                  
  21329443.100   114178208.623    21329448.420    88805302.887  
 21  8 31  0 49 30.0000000  0 17G10G12G 1G22G32G 3G21G25G31G26R16R 9
                                R23R 5R15R 6R 7
  23838070.160   125269913.946    23838074.920    97612938.238  
  24576980.320   129152929.767    24576981.080   100638661.974  
  23215456.840   121998052.222    23215460.920    95063445.781  
  21890166.640   115033625.990    21890164.300    89636599.262  
  21345751.460   112172733.523    21345754.020    87407327.989  
  22898533.360   120332628.811    22898536.700    93765698.027  
  24210122.600   127225049.766    24210122.880    99136419.943  
  22334757.800   117369989.754    22334761.040    91457161.352  
  20047097.860   105348287.721    20047096.820    82089603.569  
  22914148.500   120414696.953    22914153.540    93829678.717  
  19224408.100   102693391.703    19224413.340    79872681.994  
  20741702.040   110759580.874    20741706.900    86146378.826  
  23934681.340   128034400.118                                  
  22373193.340   119597563.965    22373198.800    93020371.463  
  22551366.640   120507720.867    22551372.080    93728272.689  
  19240810.400   102672662.657                                  
  21311802.580   114083776.797    21311807.400    88731855.923  
 21  8 31  0 50  0.0000000  0 17G10G12G 1G22G32G 3G21G25G31G26R16R 9
                                R23R 5R15R 6R 7
  23859339.740   125381686.557    23859344.480    97700033.741  
  24593220.840   129238273.130    24593221.760   100705163.329  
  23224721.680   122046737.994    23224725.480    95101382.730  
  21880785.960   114984331.377    21880783.960    89598187.890  
  21354766.680   112220108.485    21354769.260    87444243.537  
  22881854.900   120244982.731    22881857.840    93697402.408  
  24220857.740   127281462.990    24220857.920    99180378.283  
  22343797.580   117417494.050    22343800.980    91494177.660  
  20046097.100   105343029.160    20046096.080    82085506.001  
  22893957.320   120308591.425    22893962.260    93746999.171  
  19227110.920   102707829.706    19227116.140    79883911.550  
  20723231.740   110660951.309    20723236.800    86069667.002  
  23933770.980   128029530.102                                  
  22391074.900   119693151.739    22391080.580    93094717.457  
  22573337.040   120625126.000    22573342.420    93819587.716  
  19239980.700   102668235.307                                  
  21294193.900   113989515.073    21294198.340    88658541.251  
 21  8 31  0 50 30.0000000  0 17G10G12G 1G22G32G 3G21G25G31G26R16R 9
                                R23R 5R15R 6R 7
  23880640.160   125493621.124    23880644.840    97787255.427  
  24609535.600   129324007.620    24609535.660   100771969.456  
  23234077.140   122095900.354    23234080.840    95139691.038  
  21871492.720   114935494.822    21871490.520    89560133.447  
  21363830.500   112267738.947    21363833.040    87481358.187  
  22865236.700   120157653.015    22865239.140    93629353.281  
  24231638.420   127338116.237    24231638.820    99224523.634  
  22352948.760   117465583.124    22352952.060    91531649.688  
  20045190.400   105338264.464    20045189.300    82081793.261  
  22873803.100   120202680.032    22873808.000    93664470.889  
  19229957.380   102723035.537    19229962.700    79895738.314  
  20704854.060   110562815.109    20704859.080    85993338.903  
  23932998.740   128025399.848                                  
  22409012.220   119789038.476    22409018.420    93169295.982  
  22595354.300   120742779.295    22595360.100    93911095.830  
  19239250.800   102664340.524                                  
  21276617.440   113895426.243    21276621.700    88585361.079  
 21  8 31  0 51  0.0000000  0 17G10G12G 1G22G32G 3G21G25G31G26R16R 9
                                R23R 5R15R 6R 7
  23901971.040   125605715.261    23901975.560    97874601.438  
  24625924.140   129410130.294    24625924.040   100839078.103  
  23243522.540   122145536.708    23243526.060    95178368.675  
  21862287.080   114887118.726    21862284.740    89522437.806  
  21372942.940   112315624.827    21372945.660    87518671.854  
  22848679.300   120070642.195    22848681.360    93561552.658  
  24242464.140   127395006.933    24242464.540    99268854.032  
  22362211.020   117514255.265    22362214.440    91569576.028  
  20044377.560   105333992.577    20044376.460    82078464.518  
  22853686.300   120096965.571    22853691.120    93582096.070  
  19232947.440   102739007.046    19232952.660    79908160.590  
  20686569.240   110465175.324    20686574.140    85917396.897  
  23932364.780   128022009.282                                  
  22427005.660   119885223.000    22427012.060    93244106.105  
  22617417.580   120860676.848    22617423.960    94002793.904  
  19238620.880   102660978.953                                  
  21259073.420   113801512.894    21259077.860    88512317.401  
 21  8 31  0 51 30.0000000  0 17G10G12G 1G22G32G 3G21G25G31G26R16R 9
                                R23R 5R15R 6R 7
  23923332.140   125717968.329    23923336.500    97962071.291  
  24642386.320   129496640.456    24642387.120   100906488.608  
  23253057.900   122195646.266    23253061.740    95217415.066  
  21853169.520   114839205.932    21853167.320    89485103.176  
  21382104.000   112363767.862    21382106.900    87556185.893  
  22832183.420   119983954.588    22832185.120    93494003.909  
  24253334.740   127452134.426    24253335.560    99313368.908  
  22371584.340   117563510.371    22371587.220    91607956.632  
  20043658.620   105330214.454    20043657.620    82075520.532  
  22833607.960   119991452.783    22833612.580    93499878.387  
  19236080.640   102755744.228    19236086.020    79921178.407  
  20668378.260   110368036.247    20668382.940    85841844.336  
  23931869.400   128019360.026                                  
  22445055.040   119981705.629    22445061.240    93319148.100  
  22639525.940   120978816.427    22639532.360    94094680.201  
  19238091.700   102658154.464                                  
  21241563.020   113707779.260    21241567.600    88439413.494  
 21  8 31  0 52  0.0000000  0 17G10G12G 1G22G32G 3G21G25G31G26R16R 9
                                R23R 5R15R 6R 7
  23944722.320   125830373.666    23944726.680    98049659.784  
  24658921.120   129583530.605    24658921.760   100974195.222  
  23262681.800   122246222.068    23262685.640    95256824.767  
  21844139.660   114791753.660    21844137.520    89448127.393  
  21391313.320   112412163.547    21391316.300    87593896.815  
  22815748.620   119897588.448    22815750.460    93426705.645  
  24264249.620   127509492.043    24264250.680    99358063.130  
  22381067.380   117613342.238    22381070.400    91646786.664  
  20043032.520   105326924.581    20043031.640    82072956.996  
  22813567.660   119886140.162    22813572.220    93417816.676  
  19239356.060   102773241.118    19239361.440    79934787.103  
  20650280.620   110271395.947    20650285.220    85766679.700  
  23931512.220   128017447.377                                  
  22463159.040   120078480.876    22463165.140    93394417.670  
  22661677.900   121097190.180    22661684.340    94186748.620  
  19237662.680   102655864.085                                  
  21224086.260   113614223.567    21224090.940    88366647.990  
 21  8 31  0 52 30.0000000  0 17G10G12G 1G22G32G 3G21G25G31G26R16R 9
                                R23R 5R15R 6R 7
  23966141.680   125942933.126    23966146.060    98137368.400  
  24675528.120   129670802.295    24675528.920   101042199.212  
  23272394.900   122297265.796    23272398.580    95296599.092  
  21835198.560   114744767.934    21835196.440    89411515.148  
  21400571.660   112460816.047    21400574.600    87631807.847  
  22799376.020   119811550.635    22799378.020    93359663.248  
  24275208.560   127567081.236    24275209.380    99402937.767  
  22390660.620   117663753.267    22390663.100    91686067.970  
  20042500.000   105324126.300    20042499.160    82070776.521  
  22793566.700   119781034.859    22793571.200    93335916.504  
  19242774.380   102791500.481    19242779.560    79948988.832  
  20632277.620   110175261.588    20632282.220    85691908.590  
  23931292.800   128016275.035                                  
  22481318.220   120175551.852    22481324.120    93469917.270  
  22683873.780   121215798.233    22683880.200    94278999.272  
  19237334.340   102654113.716                                  
  21206643.800   113520852.426    21206648.500    88294026.038  
 21  8 31  0 53  0.0000000  0 17G10G12G 1G22G32G 3G21G25G31G26R16R 9
                                R23R 5R15R 6R 7
  23987589.780   126055644.149    23987594.360    98225195.120  
  24692207.580   129758452.656    24692208.160   101110498.250  
  23282196.380   122348774.668    23282200.160    95336735.847  
  21826346.420   114698250.504    21826344.600    89375267.811  
  21409878.800   112509725.111    21409881.540    87669918.808  
  22783066.400   119725843.356    22783068.660    93292878.406  
  24286210.940   127624899.532    24286211.900    99447990.935  
  22400363.520   117714741.431    22400365.860    91725798.980  
  20042060.760   105321818.412    20042060.000    82068978.176  
  22773605.740   119676139.617    22773610.220    93254180.026  
  19246335.040   102810520.201    19246340.120    79963781.949  
  20614370.060   110079635.742    20614374.540    85617532.975  
  23931212.280   128015842.700                                  
  22499532.460   120272917.125    22499538.120    93545645.781  
  22706113.100   121334636.535    22706118.820    94371429.042  
  19237108.000   102652904.497                                  
  21189236.260   113427668.756    21189241.120    88221549.890  
 21  8 31  0 53 30.0000000  0 17G10G12G 1G22G32G 3G21G25G31G26R16R 9
                                R23R 5R15R 6R 7
  24009065.840   126168501.608    24009070.580    98313135.904  
  24708957.800   129846475.580    24708958.520   101179087.590  
  23292085.540   122400743.167    23292089.760    95377230.769  
  21817583.420   114652200.489    21817581.600    89339384.682  
  21419234.280   112558887.863    21419237.020    87708227.437  
  22766819.840   119640466.497    22766822.080    93226351.010  
  24297256.060   127682941.549    24297256.980    99493218.436  
  22410174.860   117766301.950    22410177.740    91765976.018  
  20041714.100   105319996.949    20041713.420    82067558.858  
  22753684.820   119571454.512    22753689.240    93172607.277  
  19250037.020   102830295.124    19250041.860    79979162.449  
  20596557.560   109984518.114    20596562.160    85543552.645  
  23931269.060   128016146.712                                  
  22517800.800   120370572.688    22517806.600    93621600.064  
  22728394.320   121453698.722    22728399.700    94464032.963  
  19236982.600   102652235.059                                  
  21171863.540   113334672.135    21171868.160    88149219.212  
 21  8 31  0 54  0.0000000  0 17G10G12G 1G22G32G 3G21G25G31G26R16R 9
                                R23R 5R15R 6R 7
  24030570.280   126281508.035    24030575.180    98401192.784  
  24725779.080   129934873.790    24725779.680   101247969.382  
  23302062.620   122453173.681    23302067.020    95418085.692  
  21808910.620   114606623.753    21808908.480    89303870.351  
  21428638.940   112608309.138    21428641.500    87746737.522  
  22750637.460   119555427.529    22750639.520    93160086.896  
  24308344.300   127741209.860    24308344.800    99538622.270  
  22420095.260   117818437.880    22420098.660    91806601.399  
  20041460.860   105318666.056    20041460.220    82066521.799  
  22733805.360   119466987.395    22733809.760    93091204.392  
  19253880.980   102850828.657    19253885.800    79995132.975  
  20578841.400   109889916.356    20578846.280    85469973.565  
  23931464.280   128017192.099                                  
  22536124.000   120468522.425    22536130.160    93697783.103  
  22750716.840   121572985.815    22750723.020    94556811.765  
  19236959.480   102652111.475                                  
  21154527.420   113241870.121    21154531.900    88077039.896  
 21  8 31  0 54 30.0000000  0 17G10G12G 1G22G32G 3G21G25G31G26R16R 9
                                R23R 5R15R 6R 7
  24052101.760   126394655.425    24052106.640    98489359.520  
  24742670.400   130023638.690    24742670.620   101317136.874  
  23312125.960   122506057.901    23312130.820    95459294.137  
  21800327.320   114561516.699    21800324.940    89268722.007  
  21438091.740   112657983.217    21438094.200    87785444.586  
  22734518.660   119470723.428    22734520.960    93094083.715  
  24319473.920   127799696.066    24319474.340    99584195.874  
  22430123.760   117871141.666    22430128.040    91847669.284  
  20041299.720   105317819.157    20041299.060    82065861.880  
  22713966.820   119362735.539    22713971.120    93009969.243  
  19257865.620   102872113.314    19257870.280    80011687.711  
  20561221.440   109795827.116    20561226.260    85396793.091  
  23931797.020   128018972.290                                  
  22554501.180   120566759.013    22554507.480    93774189.280  
  22773079.940   121692488.320    22773086.660    94649758.110  
  19237037.700   102652529.926                                  
  21137227.140   113149259.597    21137231.600    88005009.528  
 21  8 31  0 55  0.0000000  0 17G10G12G 1G22G32G 3G21G25G31G26R16R 9
                                R23R 5R15R 6R 7
  24073660.060   126507943.932    24073664.780    98577636.195  
  24759631.740   130112769.489    24759631.920   101386589.514  
  23322276.000   122559395.667    23322280.460    95500856.010  
  21791834.040   114516882.990    21791831.380    89233942.508  
  21447593.040   112707912.518    21447595.360    87824350.533  
  22718464.260   119386359.157    22718466.940    93028345.358  
  24330644.840   127858400.026    24330645.920    99629939.159  
  22440261.180   117924413.839    22440265.280    91889180.032  
  20041230.840   105317457.075    20041230.120    82065579.735  
  22694170.240   119258704.327    22694174.540    92928906.018  
  19261990.700   102894149.563    19261995.500    80028827.017  
  20543698.560   109702255.930    20543703.120    85324015.558  
  23932267.560   128021489.515                                  
  22572932.620   120665284.041    22572938.740    93850819.816  
  22795483.480   121812204.998    22795489.740    94742871.038  
  19237218.220   102653494.123                                  
  21119963.480   113056845.750    21119968.200    87933132.131  
 21  8 31  0 55 30.0000000  0 17G10G12G 1G22G32G 3G21G25G31G26R16R 9
                                R23R 5R15R 6R 7
  24095244.760   126621371.426    24095249.240    98666021.186  
  24776661.920   130202263.967    24776662.660   101456325.602  
  23332511.540   122613184.516    23332516.340    95542769.390  
  21783431.020   114472725.363    21783428.320    89199533.973  
  21457143.000   112758097.137    21457145.220    87863455.433  
  22702475.020   119302337.611    22702478.340    92962874.065  
  24341857.080   127917319.820    24341858.060    99675850.638  
  22450506.840   117978252.670    22450510.180    91931132.344  
  20041254.160   105317579.724    20041253.440    82065675.309  
  22674416.300   119154896.910    22674420.720    92848017.182  
  19266256.140   102916935.296    19266261.080    80046549.260  
  20526273.160   109609205.357    20526277.580    85251642.934  
  23932876.040   128024743.362                                  
  22591417.620   120764096.479    22591423.960    93927673.867  
  22817926.580   121932132.629    22817932.380    94836148.039  
  19237501.360   102655005.746                                  
  21102737.180   112964631.669    21102742.160    87861410.108  
 21  8 31  0 56  0.0000000  0 17G10G12G 1G22G32G 3G21G25G31G26R16R 9
                                R23R 5R15R 6R 7
  24116855.660   126734937.488    24116860.060    98754514.172  
  24793760.960   130292121.508    24793761.840   101526344.537  
  23342833.200   122667423.697    23342837.700    95585033.667  
  21775119.140   114429046.885    21775116.520    89165498.806  
  21466741.660   112808539.072    21466744.040    87902760.826  
  22686552.240   119218663.353    22686555.980    92897673.383  
  24353110.020   127976454.594    24353110.760    99721929.609  
  22460860.480   118032658.150    22460863.300    91973526.205  
  20041369.880   105318187.832    20041369.140    82066149.155  
  22654705.680   119051318.206    22654710.280    92767306.577  
  19270661.880   102940471.008    19270666.820    80064854.814  
  20508946.140   109516680.291    20508950.640    85179679.043  
  23933622.240   128028735.267                                  
  22609956.200   120863196.730    22609963.040    94004751.758  
  22840408.500   122052269.041    22840413.800    94929587.501  
  19237887.860   102657068.418                                  
  21085549.020   112872621.868    21085553.840    87789846.977  
 21  8 31  0 56 30.0000000  0 17G10G12G 1G22G32G 3G21G25G31G26R16R 9
                                R23R 5R15R 6R 7
  24138491.640   126848635.291    24138496.100    98843109.772  
  24810927.880   130382334.211    24810927.840   101596640.122  
  23353238.880   122722106.054    23353243.400    95627643.257  
  21766897.900   114385844.626    21766895.460    89131834.722  
  21476388.340   112859233.671    21476390.820    87942263.093  
  22670695.420   119135334.395    22670699.260    92832741.780  
  24364402.800   128035797.492    24364403.500    99768170.773  
  22471319.960   118087623.669    22471322.260    92016356.502  
  20041576.860   105319275.396    20041576.180    82066996.609  
  22635038.300   118947966.407    22635043.100    92686772.785  
  19275206.860   102964750.012    19275211.800    80083738.494  
  20491717.080   109424678.280    20491721.600    85108121.973  
  23934505.580   128033459.944                                  
  22628547.360   120962579.222    22628554.680    94082049.168  
  22862927.720   122172606.263    22862933.260    95023183.063  
  19238377.040   102659678.761                                  
  21068398.560   112780814.249    21068403.400    87718441.091  
 21  8 31  0 57  0.0000000  0 17G10G12G 1G22G32G 3G21G25G31G26R16R 9
                                R23R 5R15R 6R 7
  24160152.720   126962464.917    24160157.300    98931808.128  
  24828162.500   130472901.846    24828162.220   101667212.371  
  23363729.060   122777231.334    23363733.320    95670597.996  
  21758768.120   114343122.604    21758765.700    89098544.843  
  21486083.700   112910183.318    21486086.360    87981964.098  
  22654905.500   119052355.813    22654909.120    92768083.176  
  24375735.320   128095348.513    24375735.900    99814574.111  
  22481885.780   118143149.779    22481888.780    92059623.606  
  20041875.260   105320843.884    20041874.620    82068218.808  
  22615415.380   118844847.206    22615420.020    92606420.233  
  19279891.220   102989772.389    19279896.000    80103200.339  
  20474586.960   109333204.512    20474591.600    85036975.755  
  23935526.120   128038919.388                                  
  22647192.120   121062245.201    22647199.160    94159567.058  
  22885484.500   122293142.990    22885489.960    95116933.840  
  19238969.500   102662840.406                                  
  21051286.980   112689214.346    21051291.680    87647196.745  
 21  8 31  0 57 30.0000000  0 17G10G12G 1G22G32G 3G21G25G31G26R16R 9
                                R23R 5R15R 6R 7
  24181838.480   127076424.047    24181843.100    99020607.357  
  24845464.220   130563821.556    24845464.660   101738059.124  
  23374303.140   122832796.867    23374307.340    95713895.796  
  21750729.980   114300882.623    21750727.720    89065630.583  
  21495827.620   112961388.011    21495830.280    88021863.845  
  22639182.560   118969730.197    22639185.980    92703699.626  
  24387106.780   128155104.912    24387107.360    99861137.471  
  22492558.540   118199234.456    22492561.420    92103325.985  
  20042265.080   105322892.542    20042264.420    82069815.166  
  22595837.320   118741963.436    22595841.700    92526251.122  
  19284714.440   103015536.053    19284719.180    80123238.753  
  20457556.360   109242261.808    20457561.120    84966242.590  
  23936684.160   128045113.022                                  
  22665890.000   121162193.252    22665896.440    94237304.382  
  22908077.880   122413875.341    22908083.980    95210836.751  
  19239665.520   102666554.846                                  
  21034214.580   112597824.872    21034219.300    87576116.068  
 21  8 31  0 58  0.0000000  0 17G10G12G 1G22G32G 3G21G25G31G26R16R 9
                                R23R 5R15R 6R 7
  24203548.600   127190510.544    24203553.440    99109505.819  
  24862832.200   130655090.931    24862833.000   101809178.162  
  23384960.420   122888800.111    23384964.540    95757534.685  
  21742783.940   114259126.119    21742781.840    89033093.048  
  21505620.020   113012847.867    21505622.840    88061962.407  
  22623526.940   118887460.318    22623530.220    92639593.256  
  24398516.900   128215064.525    24398517.620    99907859.208  
  22503337.380   118255875.853    22503339.880    92147462.133  
  20042746.180   105325420.382    20042745.480    82071784.914  
  22576304.700   118639318.242    22576308.900    92446267.908  
  19289676.040   103042039.504    19289680.600    80143852.533  
  20440625.560   109151852.552    20440630.500    84895924.326  
  23937979.000   128052040.019                                  
  22684640.240   121262422.261    22684646.080    94315260.265  
  22930707.600   122534800.181    22930714.260    95304889.372  
  19240465.560   102670823.874                                  
  21017182.000   112506648.748    21017186.620    87505201.324  
 21  8 31  0 58 30.0000000  0 17G10G12G 1G22G32G 3G21G25G31G26R16R 9
                                R23R 5R15R 6R 7
  24225282.900   127304724.050    24225287.640    99198503.266  
  24880266.440   130746709.247    24880266.340   101880569.060  
  23395700.880   122945240.372    23395704.840    95801514.101  
  21734930.780   114217857.025    21734928.740    89000935.322  
  21515461.580   113064564.794    21515464.180    88102261.303  
  22607939.800   118805550.773    22607942.940    92575767.667  
  24409965.480   128275226.932    24409965.980    99954738.922  
  22514222.040   118313073.942    22514224.740    92192032.060  
  20043318.620   105328428.164    20043317.860    82074128.641  
  22556818.420   118536916.476    22556822.380    92366474.384  
  19294775.920   103069282.519    19294780.600    80165041.551  
  20423795.420   109061981.529    20423800.340    84826024.691  
  23939411.240   128059701.749                                  
  22703442.940   121362933.052    22703448.740    94393435.291  
  22953372.520   122655915.895    22953379.600    95399090.448  
  19241370.020   102675650.273                                  
  21000190.260   112415690.575    21000194.940    87434456.102  
 21  8 31  0 59  0.0000000  0 17G10G12G 1G22G32G 3G21G25G31G26R16R 9
                                R23R 5R15R 6R 7
  24247040.000   127419059.194    24247045.140    99287595.510  
  24897765.900   130838670.271    24897765.120   101952227.091  
  23406523.280   123002111.853    23406527.100    95845829.498  
  21727169.980   114177073.696    21727167.800    88969156.119  
  21525351.440   113116535.744    21525353.940    88142758.139  
  22592421.300   118724001.204    22592424.600    92512222.584  
  24421451.320   128335586.401    24421452.040   100001772.262  
  22525211.460   118370823.674    22525214.420    92237031.796  
  20043981.540   105331911.615    20043980.660    82076843.015  
  22537378.460   118434758.109    22537382.340    92286870.524  
  19300013.260   103097259.761    19300017.920    80186801.622  
  20407066.220   108972647.942    20407070.840    84756543.050  
  23940979.860   128068094.466                                  
  22722297.500   121463721.256    22722303.560    94471826.050  
  22976072.060   122777215.442    22976079.180    95493434.513  
  19242378.600   102681032.849                                  
  20983239.280   112324950.491    20983244.000    87363880.515  
 21  8 31  0 59 30.0000000  0 16G10G 1G22G32G 3G21G25G31G26R16R 9R23
                                R 5R15R 6R 7
  24268820.680   127533518.204    24268825.980    99376784.262  
  23417427.960   123059416.349    23417431.900    95890482.348  
  21719502.740   114136782.451    21719500.580    88937760.348  
  21535290.400   113168765.192    21535292.940    88183456.394  
  22576972.880   118642818.663    22576976.020    92448963.503  
  24432975.120   128396145.096    24432975.760   100048960.811  
  22536306.140   118429127.375    22536309.320    92282463.235  
  20044735.700   105335874.618    20044734.820    82079931.070  
  22517986.020   118332850.619    22517989.980    92207462.150  
  19305388.300   103125973.577    19305393.160    80209134.582  
  20390438.780   108883859.029    20390443.600    84687485.056  
  23942686.160   128077221.756                                  
  22741204.720   121564790.456    22741210.840    94550435.384  
  22998806.300   122898700.034    22998812.660    95587922.540  
  19243492.620   102686976.991                                  
  20966330.400   112234435.568    20966335.080    87293480.041  
 21  8 31  1  0  0.0000000  0 17G10G12G 1G22G32G 3G21G25G31G26R16R 9
                                R23R 5R15R 6R 7
  24290623.740   127648093.929    24290628.980    99466063.951  
  24932958.880   131023583.5821   24932961.020   102096303.1331 
  23428413.740   123117146.259    23428417.280    95935466.682  
  21711928.440   114096979.675    21711926.560    88906745.199  
  21545277.580   113221248.204    21545279.960    88224352.235  
  22561593.900   118562000.934    22561596.860    92385988.684  
  24444535.220   128456895.340    24444536.240   100096298.573  
  22547505.260   118487978.236    22547508.380    92328321.004  
  20045579.940   105340310.887    20045579.120    82083387.903  
  22498640.840   118231192.037    22498644.840    92128247.738  
  19310900.120   103155416.685    19310905.100    80232034.781  
  20373912.880   108795612.016    20373917.760    84618848.544  
  23944528.540   128087078.049                                  
  22760163.180   121666133.851    22760169.220    94629257.973  
  23021573.320   123020361.005    23021579.220    95682547.708  
  19244711.280   102693479.610                                  
  20949463.120   112144143.907    20949467.640    87223253.209  
 21  8 31  1  0 30.0000000  0 17G10G12G 1G22G32G 3G21G25G31G26R16R 9
                                R23R 5R15R 6R 7
  24312448.640   127762784.416    24312453.840    99555433.053  
  24950651.680   131116560.512    24950654.300   102168752.838  
  23439479.700   123175299.285    23439483.260    95980780.727  
  21704447.620   114057667.514    21704445.740    88876112.351  
  21555313.020   113273985.199    21555315.460    88265445.979  
  22546284.920   118481551.049    22546287.680    92323300.487  
  24456131.560   128517835.109    24456132.720   100143784.073  
  22558807.700   118547374.438    22558810.720    92374603.763  
  20046514.040   105345220.015    20046513.260    82087213.208  
  22479343.760   118129785.822    22479347.860    92049229.972  
  19316548.060   103185587.656    19316553.020    80255501.089  
  20357489.240   108707910.278    20357493.820    84550636.113  
  23946506.900   128097662.594                                  
  22779172.880   121767751.191    22779179.040    94708293.622  
  23044373.080   123142195.417    23044378.000    95777307.808  
  19246034.920   102700541.934                                  
  20932637.940   112054078.311    20932642.420    87153202.201  
 21  8 31  1  1  0.0000000  0 16G10G 1G22G32G 3G21G25G31G26R16R 9R23
                                R 5R15R 6R 7
  24334295.120   127877588.165    24334300.060    99644890.413  
  23450625.680   123233873.382    23450629.800    96026422.862  
  21697060.640   114018848.304    21697058.680    88845863.624  
  21565396.840   113326976.874    21565399.340    88306738.169  
  22531046.300   118401472.333    22531049.180    92260901.520  
  24467764.100   128578962.969    24467764.800   100191416.143  
  22570213.620   118607314.700    22570217.060    92421310.469  
  20047537.980   105350601.101    20047537.160    82091406.268  
  22460095.500   118028635.649    22460099.660    91970411.702  
  19322332.120   103216484.615    19322337.060    80279532.045  
  20341168.240   108620756.733    20341172.640    84482850.066  
  23948622.040   128108975.642                                  
  22798233.620   121869641.605    22798239.640    94787541.675  
  23067204.780   123264200.343    23067208.680    95872200.539  
  19247463.660   102708166.130                                  
  20915855.620   111964242.948    20915860.220    87083330.262  
 21  8 31  1  1 30.0000000  0 16G10G 1G22G32G 3G21G25G31G26R16R 9R23
                                R 5R15R 6R 7
  24356162.900   127992503.150    24356167.740    99734434.475  
  23461851.460   123292866.226    23461855.700    96072391.296  
  21689767.700   113980523.596    21689765.680    88816000.221  
  21575529.300   113380223.581    21575531.980    88348229.093  
  22515878.660   118321767.804    22515881.640    92198794.128  
  24479431.720   128640276.503    24479432.400   100239192.900  
  22581723.120   118667797.247    22581726.440    92468439.724  
  20048651.620   105356453.697    20048650.900    82095966.743  
  22440896.300   117927744.840    22440900.880    91891795.570  
  19328251.800   103248105.927    19328256.580    80304126.393  
  20324950.340   108534154.159    20324954.720    84415492.546  
  23950872.660   128121016.284                                  
  22817345.260   121971804.052    22817350.980    94867001.286  
  23090067.720   123386372.473    23090071.400    95967223.251  
  19248998.120   102716354.041                                  
  20899117.200   111874640.940    20899121.880    87013639.805  
 21  8 31  1  2  0.0000000  0 17G10G12G 1G22G32G 3G21G25G31G26R16R 9
                                R23R 5R15R 6R 7
  24378051.760   128107530.852    24378057.000    99824066.353  
  25004107.320   131397478.3701   25004109.140   102387643.1451 
  23473157.220   123352278.667    23473161.400    96118686.673  
  21682569.940   113942698.809    21682567.780    88786526.355  
  21585711.020   113433728.949    21585713.840    88389921.571  
  22500783.620   118242443.772    22500786.760    92136983.232  
  24491134.580   128701776.869    24491135.540   100287115.230  
  22593335.860   118728823.687    22593338.880    92515992.817  
  20049855.520   105362780.300    20049854.800    82100896.567  
  22421747.820   117827120.005    22421752.540    91813386.689  
  19334307.240   103280452.742    19334312.140    80329285.026  
  20308836.900   108448108.704    20308841.280    84348568.342  
  23953260.300   128133787.454                                  
  22836507.920   122074240.948    22836513.940    94946674.380  
  23112962.320   123508712.163    23112965.440    96062376.366  
  19250639.120   102725110.859                                  
  20882423.420   111785278.669    20882428.300    86944135.823  
 21  8 31  1  2 30.0000000  0 17G10G12G 1G22G32G 3G21G25G31G26R16R 9
                                R23R 5R15R 6R 7
  24399959.860   128222658.243    24399965.200    99913775.965  
  25022050.740   131491765.722    25022053.160   102461113.895  
  23484540.560   123412097.316    23484544.580    96165298.585  
  21675465.560   113905365.180    21675463.460    88757435.209  
  21595940.040   113487482.347    21595942.880    88431807.324  
  22485759.660   118163492.366    22485762.620    92075462.669  
  24502870.760   128763451.252    24502872.140   100335173.152  
  22605049.860   118790381.189    22605052.860    92563959.715  
  20051147.480   105369569.178    20051146.560    82106186.616  
  22402648.620   117726753.581    22402653.240    91735179.137  
  19340495.860   103313511.909    19340500.940    80354997.712  
  20292826.080   108362611.960    20292830.520    84282070.916  
  23955781.840   128147277.317                                  
  22855719.680   122176940.240    22855726.260    95026551.574  
  23135885.020   123631205.119    23135888.720    96157648.613  
  19252384.840   102734426.318                                  
  20865773.240   111696148.462    20865778.280    86874812.335  
 21  8 31  1  3  0.0000000  0 16G10G 1G22G32G 3G21G25G31G26R16R 9R23
                                R 5R15R 6R 7
  24421888.160   128337891.352    24421893.520   100003567.889  
  23496002.200   123472327.540    23496006.220    96212231.192  
  21668456.340   113868531.564    21668454.260    88728733.687  
  21606217.840   113541491.883    21606220.740    88473892.656  
  22470808.700   118084924.084    22470811.800    92014240.653  
  24514641.200   128825304.917    24514642.680   100383370.790  
  22616866.440   118852475.812    22616869.200    92612345.118  
  20052528.700   105376827.125    20052527.760    82111842.164  
  22383600.520   117626656.598    22383605.260    91657181.559  
  19346819.260   103347289.936    19346824.220    80381269.503  
  20276920.040   108277674.642    20276924.480    84216008.593  
  23958439.600   128161493.043                                  
  22874982.340   122279909.027    22874989.020    95106638.331  
  23158837.360   123753856.154    23158841.400    96253043.862  
  19254237.160   102744310.247                                  
  20849168.600   111607261.790    20849173.500    86805678.265  
 21  8 31  1  3 30.0000000  0 17G10G12G 1G22G32G 3G21G25G31G26R16R 9
                                R23R 5R15R 6R 7
  24443835.880   128453226.600    24443841.180   100093439.444  
  25058119.180   131681305.7471   25058120.100   102608814.2821 
  23507541.480   123532965.491    23507545.000    96259481.536  
  21661542.580   113832198.819    21661540.300    88700422.453  
  21616544.060   113595756.488    21616546.920    88516176.737  
  22455931.180   118006740.612    22455934.020    91953318.473  
  24526445.100   128887335.017    24526446.920   100431705.915  
  22628783.980   118915104.253    22628786.660    92661146.515  
  20053998.720   105384552.140    20053997.720    82117861.666  
  22364604.400   117526831.056    22364609.040    91579395.468  
  19353276.440   103381782.389    19353281.480    80408096.966  
  20261118.880   108193298.066    20261123.480    84150382.413  
  23961232.180   128176432.474                                  
  22894294.880   122383144.779    22894301.160    95186932.805  
  23181818.820   123876660.738    23181822.860    96348558.551  
  19256195.960   102754763.097                                  
  20832609.620   111518619.979    20832614.300    86736734.643  
 21  8 31  1  4  0.0000000  0 16G10G 1G22G32G 3G21G25G31G26R16R 9R23
                                R 5R15R 6R 7
  24465802.960   128568663.770    24465808.280   100183390.399  
  23519158.040   123594010.253    23519161.540    96307048.844  
  21654724.600   113796370.282    21654722.240    88672504.118  
  21626919.200   113650278.036    21626922.020    88558661.045  
  22441127.460   117928946.507    22441130.380    91892699.707  
  24538282.580   128949540.275    24538284.060   100480177.485  
  22640802.640   118978266.219    22640806.100    92710363.639  
  20055557.680   105392745.156    20055556.700    82124245.834  
  22345661.040   117427281.766    22345665.440    91501824.660  
  19359867.400   103416989.660    19359872.220    80435480.391  
  20245423.380   108109486.389    20245428.200    84085195.605  
  23964160.380   128192096.327                                  
  22913657.320   122486648.075    22913663.520    95267435.306  
  23204828.320   123999617.285    23204832.760    96444191.432  
  19258261.960   102765787.682                                  
  20816097.220   111430228.420    20816101.820    86667985.662  
 21  8 31  1  4 30.0000000  0 16G10G 1G22G32G 3G21G25G31G26R16R 9R23
                                R 5R15R 6R 7
  24487787.840   128684194.828    24487793.160   100273414.499  
  23530850.200   123655453.305    23530853.640    96354926.532  
  21648001.640   113761041.926    21647999.300    88644975.525  
  21637342.100   113705050.758    21637344.820    88601341.072  
  22426396.980   117851538.581    22426400.160    91832381.869  
  24550151.840   129011912.619    24550152.980   100528779.283  
  22652922.520   119041953.865    22652925.480    92759990.386  
  20057204.340   105401398.946    20057203.460    82130989.057  
  22326769.620   117328005.959    22326773.840    91424466.950  
  19366590.320   103452902.896    19366595.360    80463412.912  
  20229833.260   108026236.632    20229838.140    84020445.832  
  23967222.960   128208477.888                                  
  22933068.540   122590411.791    22933074.560    95348140.327  
  23227864.440   124122716.443    23227869.280    96539935.180  
  19260434.120   102777379.355                                  
  20799631.100   111342083.773    20799635.700    86599428.730  
 21  8 31  1  5  0.0000000  0 16G10G 1G22G32G 3G21G25G31G26R16R 9R23
                                R 5R15R 6R 7
  24509790.800   128799820.854    24509796.060   100363512.630  
  23542618.320   123717295.254    23542622.080    96403115.025  
  21641375.000   113726219.016    21641372.640    88617840.788  
  21647813.360   113760078.082    21647816.240    88644219.488  
  22411741.400   117774522.954    22411744.380    91772369.704  
  24562053.040   129074453.033    24562053.860   100577512.058  
  22665142.500   119106168.367    22665145.080    92810027.647  
  20058939.080   105410515.600    20058938.280    82138092.948  
  22307931.340   117229010.045    22307935.380    91347327.328  
  19373445.760   103489523.372    19373450.640    80491895.500  
  20214349.440   107943553.967    20214354.380    83956137.129  
  23970419.920   128225579.267                                  
  22952528.740   122694438.116    22952534.820    95429049.637  
  23250927.520   124245958.545    23250932.120    96635790.183  
  19262713.300   102789542.828                                  
  20783212.400   111254192.625    20783216.880    86531068.964  
 21  8 31  1  5 30.0000000  0 17G10G 1G22G32G 3G21G25G31G26R16R10R 9
                                R23R 5R15R 6R 7
  24531812.000   128915542.379    24531817.320   100453685.155  
  23554462.040   123779536.059    23554466.000    96451614.319  
  21634845.080   113691904.811    21634842.780    88591102.451  
  21658333.820   113815362.744    21658336.520    88687298.446  
  22397161.660   117697905.012    22397164.340    91712667.416  
  24573985.900   129137161.846    24573986.940   100626376.002  
  22677462.380   119170910.304    22677465.500    92860475.887  
  20060762.440   105420097.106    20060761.440    82145559.066  
  22289147.400   117130299.793    22289151.320    91270410.297  
  19380433.860   103526851.504    19380438.440    80520928.485  
  24108587.620   128512333.3601                                 
  20198972.820   107861443.684    20198977.620    83892273.620  
  23973751.780   128243402.073                                  
  22972038.580   122798728.508    22972044.620    95510164.302  
  23274017.300   124369342.781    23274021.720    96731755.752  
  19265100.880   102802282.006                                  
  20766842.340   111166560.881    20766846.440    86462910.931  
 21  8 31  1  6  0.0000000  0 17G10G 1G22G32G 3G21G25G31G26R16R10R 9
                                R23R 5R15R 6R 7
  24553850.680   129031355.916    24553856.080   100543929.388  
  23566381.100   123842171.631    23566385.360    96500421.225  
  21628412.220   113658099.980    21628409.840    88564761.022  
  21668902.860   113870903.498    21668905.460    88730576.935  
  22382657.760   117621686.073    22382660.240    91653276.039  
  24585950.100   129200035.224    24585951.380   100675368.211  
  22689881.680   119236176.082    22689885.360    92911332.353  
  20062673.860   105430140.934    20062672.700    82153385.428  
  22270418.200   117031876.896    22270422.040    91193717.188  
  19387553.340   103564882.980    19387558.100    80550508.526  
  24084024.520   128381397.996                                  
  20183703.620   107779906.712    20183708.260    83828856.004  
  23977217.960   128261943.657                                  
  22991597.420   122903280.313    22991603.740    95591482.267  
  23297132.900   124492864.475    23297136.720    96827828.210  
  19267595.960   102815596.634                                  
  20750521.080   111079190.474    20750524.880    86394956.181  
 21  8 31  1  6 30.0000000  0 17G10G 1G22G32G 3G21G25G31G26R16R10R 9
                                R23R 5R15R 6R 7
  24575905.080   129147251.522    24575910.260   100634237.569  
  23578373.420   123905191.514    23578377.680    96549527.564  
  21622075.080   113624798.085    21622072.660    88538811.507  
  21679519.100   113926692.639    21679521.740    88774048.980  
  22368228.860   117545861.137    22368231.100    91594191.667  
  24597944.100   129263062.995    24597945.680   100724480.723  
  22702399.700   119301955.941    22702402.940    92962589.353  
  20064671.380   105440637.980    20064670.340    82161564.955  
  22251742.780   116933736.673    22251746.600    91117244.336  
  19394802.780   103603607.960    19394807.040    80580627.953  
  24059480.060   128250563.748                                  
  20168540.720   107698937.610    20168545.480    83765880.084  
  23980817.080   128281195.225                                  
  23011203.160   123008084.425    23011209.800    95672996.537  
  23320271.780   124616512.684    23320275.560    96923998.975  
  19270197.580   102829480.134                                  
  20734247.520   110992076.400    20734251.420    86327200.814  
 21  8 31  1  7  0.0000000  0 17G10G 1G22G32G 3G21G25G31G26R16R10R 9
                                R23R 5R15R 6R 7
  24597976.040   129263234.772    24597981.020   100724614.067  
  23590439.880   123968600.577    23590443.840    96598937.205  
  21615835.520   113592008.306    21615833.180    88513261.034  
  21690184.180   113982737.960    21690186.700    88817720.655  
  22353876.880   117470440.595    22353879.100    91535422.403  
  24609968.440   129326250.338    24609969.700   100773717.573  
  22715016.400   119368255.350    22715019.720    93014251.204  
  20066756.360   105451594.982    20066755.400    82170102.884  
  22233123.000   116835889.851    22233126.960    91041000.125  
  19402183.040   103643031.896    19402187.320    80611291.019  
  24034956.520   128119841.671                                  
  20153486.020   107618546.625    20153490.540    83703353.799  
  23984549.980   128301163.052                                  
  23030856.940   123113147.158    23030864.180    95754711.898  
  23343435.300   124740291.737    23343439.020    97020271.583  
  19272907.780   102843941.409                                  
  20718023.660   110905229.578    20718027.940    86259653.317  
 21  8 31  1  7 30.0000000  0 17G10G 1G22G32G 3G21G25G31G26R16R10R 9
                                R23R 5R15R 6R 7
  24620062.860   129379302.115    24620067.900   100815056.098  
  23602579.400   124032394.884    23602583.680    96648646.996  
  21609693.420   113559730.966    21609691.240    88488109.877  
  21700897.840   114039038.303    21700900.360    88861591.046  
  22339601.940   117395425.936    22339604.460    91476969.420  
  24622022.440   129389593.574    24622023.580   100823075.897  
  22727731.220   119435070.861    22727734.520    93066315.234  
  20068928.360   105463009.557    20068927.540    82178997.365  
  22214559.540   116738338.305    22214563.540    90964985.987  
  19409693.500   103683150.701    19409697.680    80642494.530  
  24010454.340   127989233.900                                  
  20138539.720   107538734.622    20138544.020    83641277.828  
  23988416.340   128321844.821                                  
  23050558.800   123218466.112    23050565.700    95836626.586  
  23366622.340   124864197.140    23366626.520    97116642.480  
  19275726.280   102858980.774                                  
  20701850.160   110818652.192    20701854.400    86192315.378  
 21  8 31  1  8  0.0000000  0 17G10G 1G22G32G 3G21G25G31G26R16R10R 9
                                R23R 5R15R 6R 7
  24642165.180   129495450.275    24642169.740   100905561.090  
  23614791.400   124096570.463    23614795.980    96698653.870  
  21603648.860   113527966.405    21603646.800    88463358.285  
  21711659.900   114095592.514    21711662.260    88905659.264  
  22325404.380   117320818.610    22325407.340    91418833.866  
  24634105.420   129453089.284    24634106.540   100872553.070  
  22740543.240   119502399.137    22740546.080    93118778.820  
  20071187.020   105474879.277    20071186.440    82188246.497  
  22196052.660   116641083.900    22196056.500    90889203.378  
  19417333.180   103723960.883    19417337.340    80674235.784  
  23985974.120   127858741.668                                  
  20123702.200   107459502.824    20123706.580    83579653.142  
  23992415.820   128343238.112                                  
  23070308.240   123324038.575    23070314.660    95918738.477  
  23389832.120   124988224.399    23389836.960    97213108.113  
  19278653.040   102874597.747                                  
  20685727.420   110732345.804    20685731.480    86125188.199  
 21  8 31  1  8 30.0000000  0 18G10G 4G 1G22G32G 3G21G25G31G26R16R10
                                R 9R23R 5R15R 6R 7
  24664282.460   129611677.755    24664286.960   100996127.882  
  25312995.860   133020694.003    25312997.520   103652493.9931 
  23627075.640   124161125.165    23627080.400    96748956.185  
  21597702.200   113496716.293    21597700.220    88439007.565  
  21722470.340   114152401.331    21722472.720    88949925.871  
  22311285.240   117246622.021    22311288.080    91361018.348  
  24646217.020   129516735.809    24646218.000   100922147.694  
  22753452.360   119570238.605    22753454.960    93171640.770  
  20073532.220   105487203.746    20073531.780    82197849.986  
  22177602.940   116544130.285    22177606.760    90813655.154  
  19425102.140   103765460.399    19425106.260    80706513.192  
  23961516.500   127728368.980                                  
  20108973.900   107380854.094    20108978.200    83518481.942  
  23996547.940   128365342.001                                  
  23090105.280   123429864.127    23090111.380    96001047.200  
  23413064.500   125112371.119    23413069.680    97309666.723  
  19281688.140   102890793.598                                  
  20669655.980   110646314.413    20669660.080    86058274.919  
 21  8 31  1  9  0.0000000  0 18G10G 4G 1G22G32G 3G21G25G31G26R16R10
                                R 9R23R 5R15R 6R 7
  24686414.580   129727982.360    24686419.280   101086754.769  
  25295740.560   132930016.663    25295742.560   103581836.330  
  23639431.460   124226056.271    23639436.520    96799551.769  
  21591853.700   113465982.389    21591851.800    88415059.072  
  21733329.260   114209464.836    21733331.640    88994390.928  
  22297244.940   117172838.824    22297247.680    91303524.962  
  24658356.760   129580530.726    24658357.620   100971857.977  
  22766457.960   119638587.065    22766460.360    93224899.329  
  20075963.760   105499981.832    20075963.340    82207806.938  
  22159210.780   116447480.545    22159214.940    90738343.730  
  19432999.580   103807646.748    19433003.420    80739324.786  
  23937081.700   127598118.610                                  
  20094355.100   107302790.747    20094359.340    83457766.039  
  24000812.680   128388155.217                                  
  23109949.440   123535941.206    23109956.180    96083551.539  
  23436318.460   125236634.030    23436324.140    97406315.687  
  19284832.060   102907570.459                                  
  20653636.480   110560561.116    20653640.620    85991577.930  
 21  8 31  1  9 30.0000000  0 18G10G 4G 1G22G32G 3G21G25G31G26R16R10
                                R 9R23R 5R15R 6R 7
  24708560.340   129844359.075    24708565.140   101177437.872  
  25278479.660   132839308.540    25278482.240   103511154.642  
  23651858.200   124291358.045    23651863.140    96850436.212  
  21586103.080   113435763.347    21586101.340    88391511.785  
  21744236.060   114266780.181    21744238.420    89039052.239  
  22283283.200   117099468.836    22283285.680    91246353.545  
  24670523.800   129644468.827    24670524.680   101021679.837  
  22779559.480   119707439.433    22779562.320    93278550.510  
  20078480.900   105513209.468    20078480.520    82218114.193  
  22140876.600   116351134.851    22140880.860    90663269.224  
  19441024.440   103850514.804    19441028.420    80772666.614  
  23912669.640   127467990.677                                  
  20079845.660   107225311.817    20079850.120    83397504.693  
  24005209.200   128411673.447                                  
  23129839.900   123642265.810    23129847.080    96166248.370  
  23459593.080   125361007.096    23459599.040    97503050.358  
  19288084.420   102924926.107                                  
  20637668.760   110475086.210    20637672.960    85925097.467  
 21  8 31  1 10  0.0000000  0 18G10G 4G 1G22G32G 3G21G25G31G26R16R10
                                R 9R23R 5R15R 6R 7
  24730719.880   129960808.580    24730725.100   101268177.660  
  25261213.180   132748573.190    25261216.280   103440451.717  
  23664355.280   124357030.625    23664360.140    96901609.595  
  21580451.480   113406063.492    21580449.560    88368369.059  
  21755191.200   114324350.358    21755193.720    89083912.112  
  22269401.060   117026517.640    22269403.420    91189508.476  
  24682718.080   129708550.366    24682719.320   101071613.539  
  22792757.760   119776796.321    22792761.320    93332594.826  
  20081083.920   105526888.384    20081083.440    82228773.092  
  22122601.620   116255099.148    22122605.720    90588436.250  
  19449176.980   103894064.560    19449181.140    80806538.644  
  23888282.040   127337991.344                                  
  20065446.740   107148422.745    20065451.300    83337702.113  
  24009737.720   128435898.254                                  
  23149777.020   123748839.501    23149784.000    96249138.952  
  23482888.080   125485489.988    23482894.920    97599870.387  
  19291446.040   102942864.116                                  
  20621754.260   110389895.753    20621758.400    85858838.252  
 21  8 31  1 10 30.0000000  0 18G10G 4G 1G22G32G 3G21G25G31G26R16R10
                                R 9R23R 5R15R 6R 7
  24752892.080   130077325.260    24752897.480   101358969.837  
  25243940.900   132657807.994    25243943.800   103369725.686  
  23676921.980   124423067.713    23676926.600    96953067.052  
  21574898.360   113376880.391    21574896.120    88345628.991  
  21766194.080   114382171.924    21766196.700    89128967.875  
  22255598.320   116953984.393    22255600.480    91132989.069  
  24694938.660   129772769.848    24694939.520   101121654.607  
  22806051.500   119846651.878    22806054.860    93387027.705  
  20083771.940   105541013.845    20083771.280    82239779.948  
  22104385.580   116159372.984    22104389.660    90513844.485  
  19457455.820   103938289.283    19457460.060    80840935.655  
  23863918.380   127208119.657                                  
  20051158.040   107072122.098    20051162.700    83278357.215  
  24014397.620   128460824.518                                  
  23169759.560   123855657.183    23169766.160    96332219.313  
  23506202.660   125610076.093    23506210.140    97696770.745  
  19294916.400   102961382.712                                  
  20605892.920   110304989.706    20605897.320    85792800.250  
 21  8 31  1 11  0.0000000  0 17G10G 4G 1G22G32G 3G21G25G31G26R16R 9
                                R23R 5R15R 6R 7
  24775077.320   130193910.114    24775083.000   101449815.166  
  25226663.500   132567016.559    25226667.040   103298979.317  
  23689557.980   124489469.695    23689562.740    97004808.768  
  21569444.320   113348218.805    21569442.020    88323295.310  
  21777245.540   114440248.143    21777248.200    89174222.063  
  22241876.160   116881874.969    22241878.460    91076799.920  
  24707185.380   129837127.455    24707186.660   101171803.366  
  22819440.460   119917007.102    22819443.360    93441849.984  
  20086545.460   105555587.866    20086544.560    82251136.322  
  22086229.500   116063962.567    22086233.780    90439498.763  
  19465860.960   103983190.313    19465865.980    80875858.681  
  20036980.600   106996414.983    20036985.180    83219473.934  
  24019188.860   128486453.947                                  
  23189787.940   123962721.021    23189794.300    96415491.152  
  23529536.240   125734765.308    23529544.240    97793751.273  
  19298496.440   102980485.891                                  
  20590086.000   110220374.347    20590090.480    85726988.319  
 21  8 31  1 11 30.0000000  0 17G10G 4G 1G22G32G 3G21G25G31G26R16R 9
                                R23R 5R15R 6R 7
  24797274.680   130310557.965    24797280.380   101540709.573  
  25209381.140   132476196.640    25209384.700   103228210.624  
  23702262.540   124556230.604    23702266.860    97056830.221  
  21564089.200   113320076.970    21564086.780    88301366.618  
  21788345.000   114498575.975    21788347.600    89219672.324  
  22228234.540   116810188.979    22228237.220    91020940.719  
  24719457.460   129901617.912    24719458.540   101222055.594  
  22832923.100   119987856.704    22832925.940    93497057.452  
  20089403.460   105570606.298    20089402.540    82262839.000  
  22068133.600   115968867.840    22068137.880    90365399.039  
  19474391.660   104028761.456    19474397.140    80911302.924  
  20022913.980   106921300.628    20022918.460    83161051.685  
  24024110.440   128512782.026                                  
  23209861.640   124070026.382    23209868.100    96498950.813  
  23552888.600   125859551.479    23552896.920    97890807.260  
  19302185.600   103000171.590                                  
  20574333.260   110136049.499    20574337.980    85661402.330  
 21  8 31  1 12  0.0000000  0 18G10G 4G 1G22G32G 3G21G25G31G26R16R10
                                R 9R23R 5R15R 6R 7
  24819484.740   130427270.865    24819490.100   101631654.665  
  25192094.360   132385353.236    25192096.540   103157423.468  
  23715035.520   124623351.947    23715039.440    97109132.534  
  21558833.920   113292460.519    21558831.580    88279847.322  
  21799493.080   114557159.723    21799495.860    89265321.986  
  22214674.880   116738933.273    22214677.700    90965416.802  
  24731755.160   129966242.978    24731755.500   101272412.778  
  22846499.240   120059202.545    22846502.880    93552651.601  
  20092346.400   105586072.130    20092345.540    82274890.299  
  22050099.240   115874096.097    22050103.380    90291550.979  
  19483048.720   104075004.659    19483054.040    80947269.861  
  23790980.580   126819302.3991                                 
  20008959.640   106846785.533    20008964.220    83103095.535  
  24029163.300   128539811.262                                  
  23229981.020   124177576.386    23229988.100    96582600.749  
  23576258.520   125984435.690    23576267.640    97987939.433  
  19305984.800   103020444.492                                  
  20558636.540   110052023.008    20558641.160    85596048.407  
 21  8 31  1 12 30.0000000  0 18G10G 4G 1G22G32G 3G21G25G31G26R16R10
                                R 9R23R 5R15R 6R 7
  24841705.880   130544042.940    24841711.760   101722645.860  
  25174802.600   132294483.163    25174804.800   103086615.621  
  23727875.860   124690827.063    23727879.760    97161710.498  
  21553678.020   113265366.922    21553675.760    88258735.436  
  21810689.040   114615995.717    21810691.960    89311168.199  
  22201197.100   116668106.801    22201200.000    90910227.356  
  24744077.500   130030996.541    24744077.800   101322870.090  
  22860167.800   120131038.740    22860172.380    93608627.788  
  20095373.620   105601980.502    20095372.760    82287286.435  
  22032126.000   115779646.609    22032130.140    90217954.028  
  19491830.420   104121913.164    19491835.620    80983754.258  
  23766720.460   126689981.285                                  
  19995117.380   106772867.961    19995121.800    83045604.120  
  24034346.220   128567536.242                                  
  23250145.420   124285365.362    23250152.640    96666436.546  
  23599645.680   126109411.522    23599655.460    98085142.883  
  19309893.660   103041302.854                                  
  20542995.240   109968294.135    20542999.900    85530925.969  
 21  8 31  1 13  0.0000000  0 18G10G 4G 1G22G32G 3G21G25G31G26R16R10
                                R 9R23R 5R15R 6R 7
  24863938.480   130660873.777    24863943.940   101813682.802  
  25157505.500   132203588.722    25157508.200   103015788.901  
  23740782.980   124758655.035    23740787.020    97214563.425  
  21548622.300   113238799.255    21548620.020    88238033.368  
  21821933.400   114675085.798    21821936.340    89357212.399  
  22187802.000   116597713.963    22187804.960    90855375.819  
  24756424.100   130095878.199    24756424.500   101373427.179  
  22873930.180   120203364.545    22873935.080    93664985.572  
  20098485.140   105618331.689    20098484.300    82300027.624  
  22014214.860   115685524.199    22014219.120    90144611.959  
  19500736.680   104169486.058    19500741.260    81020755.388  
  23742486.840   126560805.199                                  
  19981387.520   106699551.435    19981391.980    82988580.176  
  24039659.040   128595957.638                                  
  23270354.800   124393394.254    23270361.760    96750458.952  
  23623050.160   126234477.232    23623060.100    98182416.249  
  19313912.520   103062748.707                                  
  20527410.480   109884867.924    20527415.120    85466038.942  
 21  8 31  1 13 30.0000000  0 18G10G 4G 1G22G32G 3G21G25G31G26R16R10
                                R 9R23R 5R15R 6R 7
  24886180.940   130777757.471    24886185.840   101904760.960  
  25140203.620   132112667.238    25140206.020   102944940.953  
  23753756.000   124826829.086    23753760.120    97267686.056  
  21543666.220   113212755.223    21543663.940    88217739.327  
  21833225.680   114734426.252    21833228.420    89403451.706  
  22174489.360   116527753.713    22174492.160    90800861.363  
  24768794.100   130160881.648    24768794.880   101424079.156  
  22887785.680   120276174.036    22887789.840    93721720.224  
  20101680.000   105635120.902    20101679.320    82313110.132  
  21996366.020   115591728.125    21996370.140    90071524.166  
  19509765.740   104217717.120    19509770.220    81058268.434  
  23718280.560   126431773.741                                  
  19967769.920   106626834.582    19967774.480    82932022.658  
  24045101.100   128625069.345                                  
  23290607.480   124501657.826    23290614.360    96834663.889  
  23646470.240   126359625.952    23646480.100    98279754.197  
  19318041.160   103084779.099                                  
  20511882.360   109801743.938    20511886.620    85401386.963  
 21  8 31  1 14  0.0000000  0 18G10G 4G 1G22G32G 3G21G25G31G26R16R10
                                R 9R23R 5R15R 6R 7
  24908432.920   130894691.551    24908438.040   101995878.521  
  25122896.660   132021718.773    25122899.560   102874072.059  
  23766794.280   124895346.075    23766798.760    97321075.895  
  21538809.820   113187235.515    21538807.700    88197853.843  
  21844565.580   114794016.715    21844568.060    89449885.843  
  22161259.160   116458228.167    22161262.020    90746685.633  
  24781186.560   130226003.979    24781187.760   101474823.782  
  22901733.360   120349464.337    22901735.760    93778829.570  
  20104957.980   105652346.704    20104957.220    82326532.836  
  21978580.000   115498261.010    21978583.940    89998692.693  
  19518917.120   104266602.716    19518921.620    81096290.578  
  23694101.740   126302889.317                                  
  19954264.860   106554718.884    19954269.420    82875932.704  
  24050671.880   128654869.515                                  
  23310904.000   124610153.959    23310910.420    96919049.723  
  23669904.960   126484854.455    23669914.920    98377154.159  
  19322279.340   103107394.741                                  
  20496411.160   109718925.005    20496415.580    85336972.260  
 21  8 31  1 14 30.0000000  0 18G10G 4G 1G22G32G 3G21G25G31G26R16R10
                                R 9R23R 5R15R 6R 7
  24930694.400   131011678.273    24930700.660   102087036.905  
  25105585.480   131930748.539    25105588.900   102803186.195  
  23779898.260   124964207.476    23779902.720    97374734.105  
  21534054.420   113162245.977    21534052.380    88178381.483  
  21855953.620   114853861.666    21855956.360    89496518.256  
  22148112.800   116389144.420    22148115.760    90692854.158  
  24793602.040   130291247.436    24793603.720   101525662.780  
  22915773.020   120423237.552    22915775.260    93836315.219  
  20108319.580   105670011.776    20108318.680    82340297.830  
  21960857.780   115405130.226    21960861.580    89926123.310  
  19528191.420   104316144.861    19528195.900    81134823.358  
  23669952.160   126174159.508                                  
  19940873.680   106483210.687    19940878.060    82820315.241  
  24056371.900   128685360.661                                  
  23331244.380   124718886.056    23331251.060    97003619.059  
  23693354.960   126610164.017    23693364.500    98474617.205  
  19326627.880   103130601.008                                  
  20480998.400   109636418.863    20481002.840    85272800.818  
 21  8 31  1 15  0.0000000  0 17G 4G 1G22G32G 3G21G25G31G26R16R10R 9
                                R23R 5R15R 6R 7
  25088270.040   131839753.632    25088273.100   102732281.135  
  23793066.340   125033406.737    23793070.740    97428655.597  
  21529399.360   113137783.865    21529397.300    88159320.100  
  21867389.260   114913957.463    21867392.280    89543346.119  
  22135050.100   116320501.391    22135053.180    90639366.084  
  24806039.480   130356606.046    24806040.920   101576591.518  
  22929902.980   120497487.640    22929905.260    93894172.414  
  20111763.880   105688111.526    20111763.020    82354401.542  
  21943199.320   115312335.105    21943203.040    89853815.472  
  19537587.160   104366336.505    19537591.960    81173861.324  
  23645831.460   126045583.838                                  
  19927595.820   106412308.328    19927600.240    82765168.991  
  24062200.140   128716537.484                                  
  23351628.460   124827848.671    23351635.240    97088367.747  
  23716819.060   126735547.738    23716828.600    98572137.959  
  19331086.840   103154394.892                                  
  20465644.160   109554225.095    20465648.340    85208872.338  
 21  8 31  1 15 30.0000000  0 17G 4G 1G22G32G 3G21G25G31G26R16R10R 9
                                R23R 5R15R 6R 7
  25070950.640   131748739.647    25070952.300   102661361.066  
  23806298.860   125102945.833    23806303.480    97482841.916  
  21524846.000   113113855.519    21524843.740    88140674.637  
  21878873.940   114974308.897    21878876.740    89590373.202  
  22122072.640   116252306.520    22122075.980    90586227.229  
  24818499.120   130422081.812    24818500.100   101627611.575  
  22944123.440   120572217.103    22944125.960    93952403.144  
  20115291.540   105706649.458    20115290.740    82368846.681  
  21925606.340   115219883.418    21925610.020    89781775.246  
  19547104.900   104417179.913    19547109.620    81213406.205  
  23621741.180   125917169.618                                  
  19914432.780   106342018.602    19914437.340    82710499.233  
  24068157.020   128748402.943                                  
  23372056.080   124937045.486    23372063.000    97173298.551  
  23740297.300   126861007.747    23740306.840    98669718.038  
  19335656.720   103178782.139                                  
  20450349.400   109472351.708    20450353.720    85145193.062  
 21  8 31  1 16  0.0000000  0 17G 4G 1G22G32G 3G21G25G31G26R16R10R 9
                                R23R 5R15R 6R 7
  25053626.940   131657704.981    25053629.960   102590425.012  
  23819595.380   125172819.541    23819600.300    97537288.949  
  21520394.080   113090459.638    21520391.680    88122444.087  
  21890406.800   115034913.768    21890409.440    89637597.767  
  22109180.940   116184560.114    22109184.100    90533437.822  
  24830980.180   130487670.188    24830981.300   101678719.366  
  22958433.260   120647421.246    22958436.940    94011003.705  
  20118901.860   105725621.951    20118901.000    82383630.444  
  21908078.880   115127775.920    21908082.620    89710003.217  
  19556743.720   104468670.257    19556748.500    81253454.278  
  23597681.700   125788918.347                                  
  19901384.340   106272341.211    19901389.040    82656305.740  
  24074241.520   128780952.817                                  
  23392526.540   125046472.457    23392533.540    97258408.363  
  23763788.760   126986538.714    23763798.380    98767353.278  
  19340337.840   103203761.492                                  
  20435114.740   109390800.092    20435119.220    85081764.038  
 21  8 31  1 16 30.0000000  0 18G 4G16G 1G22G32G 3G21G25G31G26R16R10
                                R 9R23R 5R15R 6R 7
  25036299.600   131566650.043    25036302.360   102519473.223  
  24919580.060   130953275.8291                                 
  23832955.220   125243024.613    23832959.800    97591994.193  
  21516043.480   113067597.170    21516041.100    88104629.185  
  21901987.700   115095771.782    21901990.380    89685019.584  
  22096375.340   116117264.382    22096378.000    90480999.605  
  24843482.300   130553368.300    24843482.960   101729912.638  
  22972833.180   120723097.343    22972837.700    94069971.986  
  20122594.560   105745027.315    20122593.580    82398751.513  
  21890617.280   115036015.184    21890621.180    89638501.400  
  19566503.320   104520803.864    19566508.060    81294002.647  
  23573652.820   125660832.004                                  
  19888450.980   106203277.536    19888455.640    82602589.577  
  24080453.460   128814184.888                                  
  23413039.600   125156128.098    23413046.280    97343696.058  
  23787293.020   127112137.223    23787301.720    98865041.068  
  19345130.260   103229333.328                                  
  20419940.800   109309572.670    20419945.160    85018587.164  
 21  8 31  1 17  0.0000000  0 18G 4G16G 1G22G32G 3G21G25G31G26R16R10
                                R 9R23R 5R15R 6R 7
  25018967.740   131475569.474    25018969.980   102448501.341  
  24896279.620   130830832.567    24896281.660   101946064.1891 
  23846376.160   125313552.126    23846380.680    97646950.699  
  21511793.380   113045263.091    21511790.980    88087226.004  
  21913615.540   115156876.904    21913618.320    89732633.948  
  22083654.900   116050415.916    22083657.200    90428909.900  
  24856003.500   130619167.753    24856004.320   101781184.853  
  22987322.220   120799236.819    22987325.960    94129301.445  
  20126368.420   105764858.508    20126367.400    82414204.393  
  21873221.020   114944598.159    21873225.160    89567267.424  
  19576381.580   104573571.804    19576386.280    81335044.395  
  23549653.960   125532907.528                                  
  19875631.860   106134823.553    19875636.260    82549347.613  
  24086791.840   128848091.019                                  
  23433594.260   125266004.614    23433600.600    97429155.565  
  23810808.100   127237794.154    23810816.260    98962774.320  
  19350032.460   103255491.761                                  
  20404826.980   109228667.002    20404831.440    84955660.542  
 21  8 31  1 17 30.0000000  0 18G 4G16G 1G22G32G 3G21G25G31G26R16R10
                                R 9R23R 5R15R 6R 7
  25001631.960   131384468.227    25001634.240   102377513.395  
  24872972.980   130708355.807    24872973.560   101850627.919  
  23859858.760   125384403.373    23859863.160    97702159.457  
  21507644.960   113023462.805    21507642.540    88070238.768  
  21925291.380   115218233.308    21925294.000    89780444.127  
  22071020.680   115984021.399    22071023.020    90377173.936  
  24868544.220   130685070.404    24868545.660   101832537.496  
  23001900.500   120875841.449    23001902.720    94188993.396  
  20130223.860   105785118.580    20130222.840    82429991.466  
  21855891.720   114853531.983    21855895.660    89496306.809  
  19586378.940   104626975.204    19586383.560    81376580.369  
  23525687.340   125405152.325                                  
  19862927.940   106066984.880    19862932.040    82496584.213  
  24093256.680   128882673.867                                  
  23454190.940   125376104.959    23454197.600    97514789.102  
  23834334.320   127363510.761    23834342.000    99060553.966  
  19355045.360   103282242.268                                  
  20389774.680   109148090.532    20389779.240    84892989.975  
 21  8 31  1 18  0.0000000  0 18G 4G16G 1G22G32G 3G21G25G31G26R16R10
                                R 9R23R 5R15R 6R 7
  24984292.100   131293348.933    24984295.140   102306511.479  
  24849660.700   130585850.355    24849660.640   101755169.241  
  23873402.880   125455577.379    23873407.140    97757619.682  
  21503598.620   113002199.391    21503596.200    88053669.877  
  21937015.320   115279842.971    21937018.040    89828451.642  
  22058473.340   115918085.408    22058476.220    90325795.261  
  24881104.420   130751075.769    24881106.240   101883970.194  
  23016566.760   120952910.851    23016568.660    94249047.506  
  20134160.840   105805807.731    20134159.860    82446112.880  
  21838630.200   114762821.584    21838634.080    89425623.422  
  19596495.100   104681013.816    19596499.900    81418610.408  
  23501753.340   125277571.058                                  
  19850339.860   105999765.564    19850344.080    82444302.560  
  24099848.380   128917933.372                                  
  23474829.640   125486429.532    23474836.460    97600597.077  
  23857871.380   127489286.117    23857878.340    99158379.296  
  19360169.760   103309587.726                                  
  20374784.800   109067848.159    20374789.260    84830579.257  
 21  8 31  1 18 30.0000000  0 18G 4G16G 1G22G32G 3G21G25G31G26R16R10
                                R 9R23R 5R15R 6R 7
  24966948.340   131202206.602    24966951.240   102235491.519  
  24826342.200   130463313.188    24826343.120   101659685.823  
  23887006.820   125527065.302    23887010.820    97813324.525  
  21499653.600   112981467.964    21499651.060    88037515.518  
  21948786.300   115341700.038    21948789.020    89876651.937  
  22046012.100   115852604.544    22046015.700    90274771.218  
  24893682.800   130817175.447    24893684.560   101935476.336  
  23031319.760   121030436.618    23031321.660    94309457.205  
  20138178.180   105826918.990    20138177.160    82462563.214  
  21821435.660   114672463.916    21821439.560    89355214.905  
  19606728.500   104735678.140    19606733.100    81461127.113  
  23477851.380   125150161.369                                  
  19837867.240   105933161.339    19837871.160    82392499.293  
  24106564.820   128953861.032                                  
  23495508.580   125596970.673    23495515.500    97686573.488  
  23881417.820   127615111.279    23881423.960    99256243.365  
  19365404.880   103337522.428                                  
  20359856.820   108987937.746    20359861.160    84768426.726  
 21  8 31  1 19  0.0000000  0 18G 4G16G 1G22G32G 3G21G25G31G26R16R10
                                R 9R23R 5R15R 6R 7
  24949602.100   131111051.682    24949604.580   102164461.589  
  24803020.140   130340756.785    24803020.980   101564187.456  
  23900671.380   125598873.820    23900675.740    97869279.218  
  21495811.880   112961279.274    21495809.280    88021784.083  
  21960606.320   115403814.147    21960608.880    89925052.542  
  22033639.520   115787591.043    22033643.840    90224111.361  
  24906280.660   130883376.824    24906282.000   101987061.815  
  23046160.400   121108426.030    23046162.800    94370228.130  
  20142277.320   105848459.995    20142276.280    82479348.419  
  21804310.600   114582471.676    21804314.620    89285091.136  
  19617080.360   104790975.229    19617085.260    81504135.958  
  23453984.760   125022935.552                                  
  19825511.760   105867183.960    19825515.860    82341183.585  
  24113407.540   128990464.863                                  
  23516229.660   125707736.972    23516236.480    97772724.973  
  23904974.840   127740993.218    23904980.420    99354151.656  
  19370752.120   103366057.091                                  
  20344993.260   108908372.205    20344997.440    84706542.444  
 21  8 31  1 19 30.0000000  0 18G 4G16G 1G22G32G 3G21G25G31G26R16R10
                                R 9R23R 5R15R 6R 7
  24932251.960   131019876.950    24932254.940   102093416.427  
  24779693.620   130218176.049    24779695.120   101468670.110  
  23914394.820   125670992.166    23914399.520    97925475.295  
  21492072.060   112941626.534    21492069.460    88006470.270  
  21972473.680   115466177.392    21972476.240    89973647.264  
  22021355.160   115723039.482    22021359.920    90173811.450  
  24918895.480   130949669.293    24918897.220   102038718.205  
  23061086.740   121186868.664    23061090.460    94431352.201  
  20146456.600   105870422.278    20146455.540    82496461.890  
  21787254.300   114492839.825    21787258.240    89215248.177  
  19627548.620   104846893.232    19627553.260    81547627.742  
  23430151.040   124895888.367                                  
  19813272.300   105801826.768    19813276.540    82290350.234  
  24120375.100   129027734.741                                  
  23536991.120   125818718.927    23536997.740    97859044.255  
  23928540.260   127866920.960    23928545.620    99452095.526  
  19376210.320   103395183.980                                  
  20330193.040   108829146.713    20330197.640    84644922.646  
 21  8 31  1 20  0.0000000  0 18G 4G16G 1G22G32G 3G21G25G31G26R16R10
                                R 9R23R 5R15R 6R 7
  24914898.520   130928684.389    24914900.620   102022357.360  
  24756363.060   130095575.247    24756365.200   101373137.130  
  23928177.180   125743418.513    23928181.960    97981911.381  
  21488434.520   112922511.873    21488432.040    87991575.732  
  21984388.680   115528790.938    21984391.240    90022437.028  
  22009159.940   115658953.576    22009164.420    90123874.382  
  24931527.980   131016051.907    24931529.420   102090444.908  
  23076099.960   121265763.126    23076103.780    94492828.371  
  20150716.120   105892805.705    20150714.920    82513903.520  
  21770267.400   114403572.480    21770271.180    89145689.245  
  19638132.840   104903431.672    19638137.120    81591602.082  
  23406351.580   124769024.543                                  
  19801149.560   105737092.843    19801154.000    82240001.655  
  24127466.760   129065669.565                                  
  23557793.020   125929916.077    23557799.340    97945530.869  
  23952114.220   127992892.782    23952119.260    99550073.722  
  19381780.160   103424905.498                                  
  20315457.400   108750266.059    20315461.940    84583571.038  
 21  8 31  1 20 30.0000000  0 18G 4G16G 1G22G32G 3G21G25G31G26R16R10
                                R 9R23R 5R15R 6R 7
  24897542.300   130837476.721    24897544.040   101951286.520  
  24733029.900   129972959.404    24733031.960   101277592.316  
  23942017.920   125816151.788    23942022.400    98038586.651  
  21484899.880   112903938.274    21484897.660    87977102.797  
  21996351.680   115591656.617    21996354.340    90071423.261  
  21997054.680   115595337.664    21997058.640    90074303.542  
  24944177.320   131082523.889    24944179.040   102142241.195  
  23091199.160   121345108.833    23091202.760    94554656.178  
  20155055.800   105915610.596    20155054.580    82531673.573  
  21753350.460   114314674.333    21753354.260    89076418.015  
  19648832.760   104960588.511    19648837.160    81636057.416  
  23382587.220   124642348.339                                  
  19789144.300   105672985.785    19789148.800    82190140.634  
  24134682.700   129104269.382                                  
  23578635.360   126041328.725    23578641.700    98032185.106  
  23975696.180   128118907.965    23975701.640    99648085.629  
  19387461.920   103455223.406                                  
  20300787.120   108671735.383    20300791.820    84522491.651  
 21  8 31  1 21  0.0000000  0 18G 4G16G 1G22G32G 3G21G25G31G26R16R10
                                R 9R23R 5R15R 6R 7
  24880183.200   130746251.642    24880185.000   101880202.114  
  24709693.840   129850328.320    24709695.780   101182035.714  
  23955915.720   125889185.895    23955920.500    98095496.274  
  21481467.840   112885903.523    21481465.900    87963049.752  
  22008362.100   115654771.259    22008364.740    90120603.491  
  21985039.020   115532191.059    21985042.300    90025098.413  
  24956842.180   131149079.654    24956843.700   102194102.679  
  23106383.020   121424900.146    23106386.320    94616831.227  
  20159474.520   105938832.356    20159473.580    82549768.459  
  21736503.760   114226145.170    21736507.580    89007434.299  
  19659647.140   105018357.482    19659651.400    81680988.842  
  23358858.660   124515859.717                                  
  19777256.200   105609503.946    19777260.620    82140765.896  
  24142021.800   129143528.808                                  
  23599516.900   126152952.262    23599523.620    98119003.360  
  23999284.920   128244960.061    23999291.020    99746126.229  
  19393254.980   103486135.439                                  
  20286182.020   108593554.483    20286186.880    84461684.303  
 21  8 31  1 21 30.0000000  0 17G 4G16G 1G22G32G 3G21G25G31G26R16R10
                                R 9R 5R15R 6R 7
  24862820.420   130655011.096    24862823.060   101809105.673  
  24686355.840   129727685.929    24686357.220   101086470.213  
  23969870.740   125962519.087    23969875.320    98152639.005  
  21478138.900   112868409.599    21478137.080    87949418.130  
  22020419.940   115718136.159    22020422.580    90169978.723  
  21973113.280   115469517.530    21973115.960    89976261.917  
  24969522.820   131215718.438    24969524.720   102246028.923  
  23121651.520   121505135.804    23121654.920    94679352.490  
  20163972.760   105962471.305    20163971.900    82568188.426  
  21719728.340   114137989.175    21719732.040    88938741.357  
  19670575.760   105076737.215    19670580.160    81726395.280  
  23335165.820   124389562.983                                  
  19765485.780   105546650.229    19765489.920    82091879.692  
  23620437.680   126264786.273    23620444.560    98205985.297  
  24022880.440   128371047.798    24022887.520    99844194.559  
  19399159.680   103517643.620                                  
  20271643.380   108515728.342    20271648.020    84401152.887  
 21  8 31  1 22  0.0000000  0 17G 4G16G 1G22G32G 3G21G25G31G26R16R10
                                R 9R 5R15R 6R 7
  24845455.620   130563755.868    24845457.640   101737997.812  
  24663016.360   129605035.059    24663017.820   100990898.158  
  23983881.840   126036148.395    23983886.360    98210012.438  
  21474913.120   112851457.737    21474911.140    87936208.893  
  22032525.380   115781751.209    22032527.960    90219548.878  
  21961277.860   115407319.513    21961280.100    89927795.959  
  24982219.000   131282437.357    24982221.000   102298017.637  
  23137003.660   121585813.287    23137006.740    94742218.063  
  20168550.240   105986525.671    20168549.220    82586932.085  
  21703024.360   114050209.168    21703028.020    88870341.392  
  19681618.080   105135724.062    19681622.880    81772273.956  
  23311509.220   124263461.104                                  
  19753833.140   105484426.136    19753837.580    82043483.195  
  23641397.660   126376829.183    23641404.520    98293129.756  
  24046482.120   128497168.125    24046490.640    99942288.212  
  19405175.980   103549748.334                                  
  20257171.820   108438260.247    20257176.100    84340899.947  
 21  8 31  1 22 30.0000000  0 17G 4G16G 1G22G32G 3G21G25G31G26R16R10
                                R 9R 5R15R 6R 7
  24828086.840   130472486.002    24828090.020   101666878.651  
  24639675.660   129482378.017    24639677.080   100895321.311  
  23997948.500   126110070.154    23997953.000    98267613.754  
  21471790.480   112835048.025    21471788.380    87923422.112  
  22044678.300   115845615.720    22044681.020    90269313.418  
  21949533.120   115345598.772    21949535.040    89879701.908  
  24994930.240   131349233.537    24994932.040   102350066.600  
  23152439.560   121666929.363    23152442.180    94805425.401  
  20173206.320   106010993.242    20173205.300    82605997.731  
  21686392.100   113962807.321    21686395.980    88802236.116  
  19692773.400   105195314.519    19692778.020    81818622.081  
  23287889.080   124137556.694                                  
  19742298.640   105422832.595    19742303.220    81995577.130  
  23662396.360   126489078.697    23662402.880    98380434.878  
  24070089.080   128623317.507    24070099.540   100040404.519  
  19411304.100   103582449.196                                  
  20242767.660   108361153.062    20242771.520    84280927.719  
 21  8 31  1 23  0.0000000  0 17G 4G16G 1G22G32G 3G21G25G31G26R16R10
                                R 9R 5R15R 6R 7
  24810716.340   130381205.195    24810719.600   101595750.852  
  24616334.840   129359720.867    24616336.100   100799744.320  
  24012070.760   126184284.235    24012075.320    98325442.873  
  21468771.800   112819184.381    21468769.720    87911060.842  
  22056879.120   115909732.505    22056881.960    90319274.535  
  21937879.980   115284360.606    21937881.780    89831983.902  
  25007656.140   131416106.982    25007658.160   102402175.697  
  23167958.920   121748484.318    23167961.560    94868974.692  
  20177941.300   106035875.848    20177940.400    82625386.785  
  21669832.920   113875789.354    21669836.880    88734429.951  
  19704041.720   105255508.420    19704046.380    81865439.568  
  23264307.160   124011854.738                                  
  19730882.960   105361874.056    19730887.560    81948164.956  
  23683433.820   126601536.271    23683440.420    98467901.838  
  24093701.460   128749496.010    24093714.300   100138543.459  
  19417544.680   103615749.764                                  
  20228432.000   108284412.793    20228435.880    84221240.874  
 21  8 31  1 23 30.0000000  0 17G 4G16G 1G22G32G 3G21G25G31G26R16R10
                                R 9R 5R15R 6R 7
  24793343.300   130289909.233    24793346.560   101524611.196  
  24592993.540   129237061.492    24592995.040   100704165.621  
  24026247.280   126258782.616    24026252.080    98383493.496  
  21465856.220   112803862.382    21465853.980    87899121.634  
  22069127.100   115974096.477    22069129.920    90369428.266  
  21926317.940   115223602.386    21926319.860    89784639.862  
  25020395.160   131483050.469    25020397.000   102454339.444  
  23183560.560   121830470.570    23183563.440    94932860.061  
  20182753.940   106061166.839    20182753.200    82645094.052  
  21653346.620   113789153.034    21653350.420    88666921.176  
  19715421.660   105316297.395    19715426.520    81912719.879  
  23240763.500   123886353.563                                  
  19719585.580   105301546.656    19719590.120    81901243.665  
  23704508.860   126714195.184    23704515.660    98555525.397  
  24117318.080   128875696.129    24117334.260   100236699.273  
  19423896.820   103649645.104                                  
  20214164.480   108208037.414    20214168.400    84161837.825  
 21  8 31  1 24  0.0000000  0 17G 4G16G 1G22G32G 3G21G25G31G26R16R10
                                R 9R 5R15R 6R 7
  24775968.800   130198605.879    24775970.660   101453465.656  
  24569653.740   129114409.858    24569655.100   100608592.960  
  24040478.700   126333569.167    24040483.700    98441768.700  
  21463045.260   112789090.041    21463042.800    87887610.729  
  22081423.580   116038714.495    22081426.320    90419779.950  
  21914848.940   115163333.456    21914851.080    89737677.086  
  25033148.360   131550068.775    25033150.560   102506561.427  
  23199245.020   121912892.409    23199248.300    94997084.863  
  20187645.300   106086871.782    20187644.660    82665123.882  
  21636934.900   113702908.170    21636938.540    88599717.432  
  19726913.780   105377685.527    19726918.280    81960466.200  
  23217259.880   123761062.666                                  
  19708408.120   105241859.152    19708412.560    81854820.068  
  23725622.920   126827061.064    23725629.580    98643309.900  
  24140939.520   129001921.661    24140959.160   100334874.885  
  19430361.720   103684142.953                                  
  20199967.300   108132037.687    20199971.280    84102726.959  
 21  8 31  1 24 30.0000000  0 16G 4G16G 1G22G32G 3G21G25G31G26R16R10
                                R 9R 5R 6R 7
  24758590.380   130107280.189    24758592.000   101382302.715  
  24546312.860   128991753.039    24546314.380   100513016.259  
  24054761.420   126408625.057    24054766.500    98500253.762  
  21460335.940   112774852.140    21460333.360    87876516.267  
  22093765.440   116103570.637    22093767.940    90470317.184  
  21903470.480   115103540.354    21903472.740    89691085.077  
  25045911.620   131617143.438    25045913.820   102558827.390  
  23215008.780   121995731.464    23215012.120    95061634.749  
  20192612.100   106112973.558    20192611.540    82685462.939  
  21620595.060   113617041.673    21620598.660    88532808.515  
  19738514.520   105439653.342    19738518.660    82008663.379  
  23193793.000   123635969.313                                  
  19697347.700   105182796.715    19697352.060    81808882.633  
  23746772.280   126940115.894    23746779.160    98731241.407  
  19436936.740   103719227.271                                  
  20185837.860   108056400.808    20185841.820    84043898.311  
 21  8 31  1 25  0.0000000  0 16G 4G16G 1G22G32G 3G21G25G31G26R16R10
                                R 9R 5R 6R 7
  24741210.600   130015949.244    24741213.400   101311135.853  
  24522974.600   128869110.441    24522976.120   100417450.632  
  24069098.060   126483963.644    24069102.900    98558959.128  
  21457731.480   112761165.947    21457728.840    87865851.705  
  22106155.640   116168681.196    22106158.120    90521052.666  
  21892186.160   115044241.800    21892188.540    89644878.441  
  25058689.000   131684288.035    25058690.680   102611147.706  
  23230854.420   122079001.484    23230857.680    95126520.461  
  20197657.380   106139487.086    20197656.840    82706122.837  
  21604330.760   113531572.704    21604334.440    88466209.370  
  19750226.000   105502214.447    19750230.460    82057322.025  
  23170366.000   123511092.729                                  
  19686407.580   105124377.333    19686411.960    81763445.367  
  23767959.820   127053374.580    23767966.560    98819331.486  
  19443624.880   103754915.248                                  
  20171779.660   107981146.684    20171783.720    83985367.361  
 21  8 31  1 25 30.0000000  0 16G 4G16G 1G22G32G 3G21G25G31G26R16R10
                                R 9R 5R 6R 7
  24723829.080   129924610.732    24723832.460   101239963.003  
  24499639.100   128746481.863    24499640.640   100321895.927  
  24083487.120   126559578.689    24083492.160    98617879.864  
  21455231.600   112748029.067    21455228.980    87855615.171  
  22118593.640   116234042.926    22118596.140    90571983.865  
  21880995.800   114985436.979    21880998.180    89599056.514  
  25071478.660   131751497.127    25071479.900   102663518.374  
  23246780.500   122162696.697    23246784.420    95191737.493  
  20202780.200   106166407.545    20202779.740    82727099.820  
  21588142.120   113446500.872    21588145.800    88399919.671  
  19762047.300   105565361.782    19762051.680    82106436.610  
  23146980.040   123386432.874                                  
  19675587.500   105066599.227    19675591.860    81718506.861  
  23789184.360   127166832.316    23789191.260    98907576.326  
  19450425.040   103791203.971                                  
  20157792.940   107906275.244    20157797.000    83927134.030  
 21  8 31  1 26  0.0000000  0 15G16G 1G22G32G 3G21G25G31G26R16R10R 9
                                R 5R 6R 7
  24476305.480   128623863.167    24476307.060   100226348.938  
  24097927.160   126635460.221    24097932.000    98677008.277  
  21452835.120   112735435.285    21452832.440    87845801.841  
  22131078.060   116299648.856    22131080.640    90623105.347  
  21869898.340   114927121.364    21869900.880    89553615.798  
  25084278.920   131818761.492    25084280.760   102715932.130  
  23262786.020   122246807.639    23262789.800    95257278.472  
  20207978.940   106193726.656    20207978.400    82748387.439  
  21572028.220   113361822.116    21572031.960    88333936.274  
  19773976.440   105629085.587    19773980.940    82155999.564  
  23123633.840   123261985.549                                  
  19664886.540   105009456.855    19664890.920    81674062.813  
  23810444.720   127280480.734    23810451.520    98995969.521  
  19457336.560   103828086.927                                  
  20143877.120   107831783.041    20143881.140    83869195.670  
 21  8 31  1 26 30.0000000  0 17G 4G16G 1G22G32G 3G21G25G31G26R16R10
                                R 9R 8R 5R 6R 7
  24689060.380   129741882.0711   24689064.460   101097591.6581 
  24452976.260   128501267.285    24452977.780   100130819.754  
  24112419.120   126711614.942    24112423.700    98736349.559  
  21450544.020   112723395.366    21450541.340    87836420.087  
  22143610.880   116365508.513    22143613.540    90674424.546  
  21858896.340   114869306.870    21858899.160    89508565.563  
  25097091.140   131886088.336    25097092.820   102768394.569  
  23278872.340   122331341.248    23278875.380    95323148.817  
  20213255.120   106221452.812    20213254.420    82769992.244  
  21555991.440   113277548.770    21555995.320    88268268.778  
  19786014.740   105693392.562    19786019.580    82206016.104  
  23100330.140   123137763.181                                  
  19654306.660   104952960.983    19654311.080    81630121.606  
  24027857.740   128668086.1571   24027864.400   100075206.8791 
  23831742.160   127394327.508    23831748.760    99084516.975  
  19464361.360   103865573.796                                  
  20130034.620   107757683.373    20130038.860    83811562.609  
 21  8 31  1 27  0.0000000  0 17G 4G16G 1G22G32G 3G21G25G31G26R16R10
                                R 9R 8R 5R 6R 7
  24671674.040   129650513.392    24671676.780   101026395.201  
  24429649.660   128378686.000    24429651.560   100035301.925  
  24126960.600   126788028.749    24126964.980    98795892.726  
  21448356.140   112711898.402    21448353.580    87827461.412  
  22156189.720   116431610.790    22156192.480    90725932.797  
  21847988.180   114811984.853    21847991.300    89463899.077  
  25109912.320   131953464.126    25109913.920   102820895.162  
  23295036.900   122416283.810    23295039.700    95389337.861  
  20218606.360   106249573.507    20218605.500    82791904.480  
  21540030.260   113193672.552    21540034.120    88202910.740  
  19798159.360   105758267.914    19798164.200    82256474.703  
  23077066.860   123013757.501                                  
  19643846.140   104897101.709    19643850.280    81586675.510  
  24005806.880   128550005.769    24005813.040    99983366.759  
  23853074.600   127508360.279    23853080.940    99173209.098  
  19471497.660   103903654.004                                  
  20116263.820   107683967.837    20116268.120    83754228.326  
 21  8 31  1 27 30.0000000  0 17G 4G16G 1G22G32G 3G21G25G31G26R16R10
                                R 9R 8R 5R 6R 7
  24654286.180   129559137.088    24654287.740   100955192.810  
  24406327.400   128256126.915    24406329.160    99939801.423  
  24141551.320   126864703.413    24141555.840    98855639.121  
  21446272.760   112700950.224    21446270.180    87818930.362  
  22168815.520   116497960.416    22168818.380    90777633.778  
  21837175.120   114755162.402    21837178.300    89419621.849  
  25122743.100   132020891.318    25122745.080   102873435.768  
  23311279.640   122501637.625    23311282.800    95455847.313  
  20224033.380   106278092.188    20224032.520    82814126.827  
  21524146.200   113110201.112    21524149.860    88137868.098  
  19810410.840   105823713.495    19810415.720    82307376.821  
  23053845.900   122889976.845                                  
  19633505.960   104841885.417    19633510.040    81543729.526  
  23983747.260   128431877.809    23983752.840    99891489.614  
  23874442.000   127622582.109    23874448.840    99262048.254  
  19478746.020   103942332.468                                  
  20102566.540   107610645.147    20102570.560    83697199.586  
 21  8 31  1 28  0.0000000  0 17G 4G16G 1G22G32G 3G21G25G31G26R16R10
                                R 9R 8R 5R 6R 7
  24636897.340   129467756.002    24636897.780   100883986.622  
  24383010.440   128133595.211    24383012.180    99844322.244  
  24156191.460   126941637.829    24156196.100    98915588.000  
  21444294.220   112690553.307    21444291.900    87810828.863  
  22181488.940   116564559.198    22181491.660    90829528.921  
  21826458.080   114698843.729    21826461.400    89375737.191  
  25135583.360   132088369.279    25135585.300   102926015.937  
  23327600.020   122587401.985    23327603.320    95522676.644  
  20229536.200   106307009.038    20229535.420    82836659.443  
  21508340.020   113027139.020    21508343.520    88073144.431  
  19822768.860   105889727.836    19822773.820    82358721.302  
  23030667.580   122766425.212                                  
  19623286.740   104787315.163    19623290.880    81501286.006  
  23961679.280   128313706.301    23961684.860    99799578.577  
  23895844.800   127736993.217    23895852.060    99351034.649  
  19486106.960   103981611.404                                  
  20088943.620   107537720.426    20088947.600    83640480.384  
 21  8 31  1 28 30.0000000  0 17G 4G16G 1G22G32G 3G21G25G31G26R16R10
                                R 9R 8R 5R 6R 7
  24619507.060   129376370.662    24619508.800   100812777.296  
  24359699.240   128011093.868    24359700.860    99748866.736  
  24170880.300   127018828.795    24170885.180    98975736.766  
  21442420.880   112680708.290    21442418.580    87803157.416  
  22194209.700   116631406.944    22194212.380    90881618.057  
  21815837.520   114643031.054    21815840.700    89332246.809  
  25148433.240   132155895.357    25148434.900   102978633.632  
  23343997.620   122673574.098    23344001.340    95589823.718  
  20235114.520   106336322.485    20235113.680    82859501.092  
  21492612.180   112944488.960    21492615.720    88008741.828  
  19835232.900   105956307.472    19835237.600    82410505.482  
  23007533.020   122643105.671                                  
  19613188.620   104733392.027    19613192.900    81459345.805  
  23939604.180   128195493.545    23939609.880    99707635.459  
  23917282.620   127851591.747    23917290.060    99440166.813  
  19493580.540   104021490.842                                  
  20075395.660   107465196.897    20075399.560    83584073.218  
 21  8 31  1 29  0.0000000  0 17G 4G16G 1G22G32G 3G21G25G31G26R16R10
                                R 9R 8R 5R 6R 7
  24602115.020   129284979.917    24602118.580   100741563.893  
  24336393.940   127888623.908    24336395.540    99653435.658  
  24185617.340   127096271.320    24185622.240    99036081.509  
  21440652.220   112671413.858    21440649.820    87795914.998  
  22206977.300   116698501.482    22206980.120    90933899.494  
  21805313.300   114587724.565    21805316.320    89289150.860  
  25161291.580   132223465.013    25161293.400   103031285.275  
  23360472.020   122760149.279    23360476.400    95657284.818  
  20240767.560   106366029.114    20240766.620    82882649.119  
  21476962.940   112862251.543    21476966.560    87944660.779  
  19847801.460   106023447.014    19847806.200    82462725.118  
  22984442.700   122520018.975                                  
  19603211.560   104680115.017    19603215.760    81417908.141  
  23917521.240   128077239.852    23917526.700    99615660.438  
  23938755.200   127966374.194    23938762.240    99529442.044  
  19501165.980   104061968.566                                  
  20061922.860   107393075.979    20061926.740    83527979.187  
 21  8 31  1 29 30.0000000  0 17G 4G16G 1G22G32G 3G21G25G31G26R16R10
                                R 9R 8R 5R 6R 7
  24584723.120   129193581.904    24584726.520   100670344.683  
  24313094.540   127766185.231    24313096.080    99558029.022  
  24200400.620   127173959.150    24200405.780    99096617.402  
  21438987.800   112662667.443    21438985.480    87789099.603  
  22219791.280   116765839.609    22219794.220    90986370.756  
  21794885.200   114532923.423    21794887.840    89246448.684  
  25174157.220   132291072.952    25174159.160   103083966.782  
  23377022.880   122847121.679    23377026.200    95725055.530  
  20246494.520   106396124.402    20246493.520    82906099.997  
  21461392.240   112780426.403    21461395.860    87880900.969  
  19860473.860   106091140.065    19860478.460    82515375.268  
  22961395.760   122397164.984                                  
  19593354.940   104627482.156    19593359.280    81376971.496  
  23895430.260   127958943.850    23895435.560    99523652.497  
  23960260.860   128081335.509    23960268.360    99618856.394  
  19508863.000   104103042.223                                  
  20048525.220   107321357.912    20048529.260    83472198.491  
 21  8 31  1 30  0.0000000  0 17G 4G16G 1G22G32G 3G21G25G31G26R16R10
                                R 9R 8R 5R 6R 7
  24567330.560   129102179.588    24567333.400   100599122.047  
  24289801.980   127643783.027    24289803.740    99462650.799  
  24215230.500   127251891.531    24215235.900    99157343.937  
  21437428.180   112654471.868    21437426.040    87782713.437  
  22232652.060   116833423.506    22232655.000    91039033.512  
  21784554.000   114478632.170    21784556.600    89204143.819  
  25187029.900   132358718.982    25187031.180   103136677.913  
  23393649.300   122934490.945    23393650.980    95793135.557  
  20252295.660   106426609.268    20252294.620    82929854.436  
  21445900.940   112699018.544    21445904.560    87817466.314  
  19873249.660   106159385.956    19873254.320    82568455.389  
  22938393.700   122274548.774                                  
  19583619.680   104575496.992    19583623.960    81336538.600  
  23873332.140   127840610.390    23873337.580    99431615.474  
  23981800.220   128196476.259    23981807.960    99708410.292  
  19516672.240   104144713.563                                  
  20035203.820   107250048.183    20035208.060    83416735.385  
 21  8 31  1 30 30.0000000  0 17G 4G16G 1G22G32G 3G21G25G31G26R16R10
                                R 9R 8R 5R 6R 7
  24549937.420   129010775.224    24549939.840   100527897.801  
  24266517.200   127521421.528    24266518.660    99367304.236  
  24230106.960   127330066.816    24230112.000    99218259.680  
  21435973.860   112646829.423    21435971.720    87776758.275  
  22245559.960   116901254.326    22245562.840    91091888.687  
  21774320.340   114424854.362    21774322.960    89162239.059  
  25199909.560   132426402.018    25199910.720   103189417.869  
  23410350.660   123022255.841    23410352.060    95861523.780  
  20258170.800   106457483.373    20258169.840    82953912.180  
  21430489.620   112618031.931    21430493.220    87754359.906  
  19886128.340   106228182.245    19886133.120    82621963.595  
  22915436.200   122152174.256                                  
  19574006.220   104524161.775    19574010.500    81296611.223  
  23851227.560   127722243.416    23851232.540    99339552.322  
  24003373.120   128311796.161    24003380.860    99798103.565  
  19524593.700   104186984.559                                  
  20021959.780   107179151.676    20021963.900    83361593.675  
 21  8 31  1 31  0.0000000  0 17G 4G16G 1G22G32G 3G21G25G31G26R16R10
                                R 9R 8R 5R 6R 7
  24532544.200   128919372.264    24532546.440   100456674.649  
  24243241.360   127399106.715    24243242.940    99271994.107  
  24245029.220   127408484.439    24245034.100    99279364.247  
  21434625.440   112639742.440    21434623.140    87771235.953  
  22258515.180   116969334.580    22258518.120    91144938.213  
  21764185.280   114371594.730    21764187.960    89120738.061  
  25212796.180   132494121.858    25212797.580   103242186.565  
  23427126.240   123110416.235    23427129.480    95930220.153  
  20264120.160   106488747.942    20264119.300    82978274.190  
  21415159.460   112537471.801    21415163.060    87691585.819  
  19899109.820   106297528.169    19899114.780    82675899.323  
  22892524.700   122030047.304                                  
  19564515.200   104473480.469    19564519.580    81257192.446  
  23829117.800   127603847.825    23829122.420    99247466.833  
  24024980.160   128427296.155    24024987.360    99887936.875  
  19532628.360   104229857.420                                  
  20008794.000   107108674.247    20008797.880    83306777.919  
 21  8 31  1 31 30.0000000  0 17G 4G16G 1G22G32G 3G21G25G31G26R16R10
                                R 9R 8R 5R 6R 7
  24515149.800   128827967.691    24515150.900   100385450.171  
  24219974.200   127276837.526    24219975.640    99176719.542  
  24259996.240   127487137.437    24260000.880    99340652.272  
  21433382.120   112633207.990    21433379.680    87766144.177  
  22271517.160   117037660.170    22271520.060    91198178.926  
  21754148.440   114318851.600    21754151.080    89079639.532  
  25225688.580   132561872.403    25225690.480   103294979.177  
  23443975.920   123198965.534    23443980.400    95999219.505  
  20270142.900   106520397.641    20270142.020    83002936.299  
  21399910.160   112457336.911    21399913.860    87629143.095  
  19912192.880   106367416.946    19912198.260    82730257.264  
  22869660.100   121908166.916                                  
  19555146.080   104423449.653    19555150.440    81218279.602  
  23807002.840   127485421.883    23807007.500    99155357.702  
  24046619.420   128542970.524    24046625.900    99977905.833  
  19540774.620   104273328.625                                  
  19995706.300   107038615.516    19995710.340    83252287.805  
 21  8 31  1 32  0.0000000  0 17G 4G16G 1G22G32G 3G21G25G31G26R16R10
                                R 9R 8R 5R 6R 7
  24497755.120   128736563.012    24497758.240   100314225.857  
  24196716.580   127154617.580    24196717.900    99081483.281  
  24275007.800   127566023.326    24275012.100    99402121.750  
  21432244.080   112627227.271    21432241.540    87761483.881  
  22284565.780   117106231.520    22284568.740    91251611.118  
  21744210.480   114266627.714    21744212.860    89038945.604  
  25238586.480   132629651.766    25238588.440   103347794.198  
  23460899.960   123287901.487    23460903.620    96068520.219  
  20276238.880   106552431.593    20276237.820    83027897.817  
  21384742.520   112377630.441    21384746.160    87567034.204  
  19925377.200   106437845.065    19925382.580    82785034.677  
  22846842.480   121786535.544                                  
  19545899.020   104374071.122    19545903.520    81179874.101  
  23784882.200   127366968.694    23784887.000    99063227.438  
  24068291.440   128658818.210    24068298.120   100068009.566  
  19549033.480   104317398.614                                  
  19982697.800   106968979.256    19982701.900    83198126.280  
 21  8 31  1 32 30.0000000  0 17G 4G16G 1G22G32G 3G21G25G31G26R16R10
                                R 9R 8R 5R 6R 7
  24480361.000   128645154.019    24480363.960   100242998.043  
  24173467.880   127032444.561    24173469.120    98986283.624  
  24290062.200   127645133.728    24290066.480    99463766.175  
  21431210.380   112621795.262    21431207.920    87757251.150  
  22297660.200   117175043.182    22297663.160    91305230.565  
  21734370.880   114214919.883    21734373.060    88998653.802  
  25251488.580   132697452.636    25251489.400   103400625.985  
  23477896.360   123377216.119    23477899.400    96138116.073  
  20282406.640   106584842.724    20282405.420    83053153.243  
  21369655.840   112298349.713    21369659.420    87505257.065  
  19938660.940   106508804.131    19938666.200    82840225.052  
  22824071.160   121665151.085                                  
  19536773.360   104325340.500    19536777.600    81141972.516  
  23762756.100   127248484.816    23762761.500    98971073.419  
  24089994.120   128774832.068    24090001.420   100158242.592  
  19557403.520   104362061.900                                  
  19969767.800   106899763.391    19969771.820    83144291.731  
 21  8 31  1 33  0.0000000  0 17G 4G16G 1G22G32G 3G21G25G31G26R16R10
                                R 9R 8R 5R 6R 7
  24462967.140   128553745.502    24462969.700   100171770.658  
  24150229.240   126910325.634    24150230.420    98891126.103  
  24305159.280   127724469.480    24305163.760    99525586.212  
  21430281.880   112616916.482    21430279.580    87753449.508  
  22310801.120   117244099.049    22310803.960    91359040.325  
  21724630.760   114163734.325    21724632.960    88958768.978  
  25264395.280   132765276.296    25264396.360   103453475.568  
  23494965.080   123466910.846    23494967.880    96208008.101  
  20288646.520   106617633.709    20288645.240    83078704.656  
  21354651.400   112219501.392    21354654.900    87443816.850  
  19952044.460   106580295.221    19952049.720    82895829.235  
  22801347.300   121544020.622                                  
  19527769.980   104277262.726    19527774.120    81104578.713  
  23740626.060   127129977.722    23740631.060    98878901.207  
  24111727.940   128891014.109    24111735.700   100248606.453  
  19565885.300   104407322.298                                  
  19956917.600   106830975.762    19956921.820    83090790.263  
 21  8 31  1 33 30.0000000  0 16G 4G16G 1G22G32G 3G21G25G31G26R16R10
                                R 9R 8R 6R 7
  24445573.460   128462340.085    24445576.120   100100545.709  
  24127001.840   126788265.717    24127003.520    98796014.571  
  24320298.780   127804029.350    24320304.000    99587580.877  
  21429459.080   112612593.279    21429456.880    87750080.783  
  22323988.780   117313400.662    22323991.440    91413041.576  
  21714990.640   114113074.889    21714992.960    88919294.115  
  25277305.840   132833121.789    25277307.700   103506342.092  
  23512105.920   123556984.637    23512108.500    96278195.473  
  20294958.640   106650804.699    20294957.520    83104552.184  
  21339730.100   112141089.768    21339733.460    87382716.921  
  19965527.160   106652316.060    19965532.220    82951845.430  
  22778672.020   121423148.620                                  
  19518889.240   104229840.423    19518893.200    81067694.713  
  23718492.400   127011450.913    23718496.800    98786713.652  
  19574479.160   104453181.761                                  
  19944148.280   106762621.066    19944152.340    83037625.512  
 21  8 31  1 34  0.0000000  0 16G 4G16G 1G22G32G 3G21G25G31G26R16R10
                                R 9R 8R 6R 7
  24428180.120   128370938.449    24428183.120   100029323.684  
  24103786.240   126666267.165    24103788.180    98700950.837  
  24335480.500   127883810.003    24335485.860    99649747.636  
  21428742.080   112608825.524    21428740.020    87747144.874  
  22337223.100   117382947.575    22337225.820    91467233.967  
  21705450.880   114062943.388    21705453.220    88880230.635  
  25290219.920   132900986.662    25290221.840   103559223.914  
  23529317.600   123647434.513    23529320.220    96348675.879  
  20301342.640   106684354.048    20301341.760    83130694.543  
  21324892.380   112063117.183    21324895.800    87321959.100  
  19979108.280   106724863.172    19979112.780    83008270.960  
  22756045.560   121302537.674                                  
  19510131.420   104183074.331    19510135.380    81031321.101  
  23696355.240   126892906.500    23696359.820    98694512.375  
  19583185.320   104499639.891                                  
  19931460.420   106694702.416    19931464.640    82984799.918  
 21  8 31  1 34 30.0000000  0 17G29G 4G16G 1G22G32G 3G21G25G31G26R16
                                R10R 9R 8R 6R 7
  25363872.940   133288050.995    25363873.600   103860829.0331 
  24410787.220   128279541.944    24410791.000    99958105.714  
  24080583.060   126544333.860    24080584.680    98605937.961  
  24350703.840   127963808.759    24350709.080    99712084.290  
  21428130.860   112605614.085    21428128.880    87744642.458  
  22350504.220   117452740.109    22350507.040    91521617.729  
  21696012.060   114013342.362    21696014.560    88841580.507  
  25303137.520   132968868.888    25303139.060   103612119.113  
  23546600.200   123738258.218    23546603.380    96419447.550  
  20307798.480   106718280.568    20307797.760    83157130.798  
  21310138.800   111985586.631    21310142.280    87261545.718  
  19992787.240   106797933.678    19992791.540    83065103.564  
  22733468.520   121182190.455                                  
  19501496.720   104136965.520    19501500.700    80995458.711  
  23674215.300   126774347.329    23674220.280    98602299.807  
  19592003.900   104546696.969                                  
  19918854.780   106627223.671    19918858.960    82932316.472  
 21  8 31  1 35  0.0000000  0 17G29G 4G16G 1G22G32G 3G21G25G31G26R16
                                R10R 9R 8R 6R 7
  25352012.180   133225725.849    25352013.780   103812264.076  
  24393394.700   128188145.138    24393397.520    99886887.352  
  24057391.540   126422462.367    24057392.920    98510973.260  
  24365966.960   128044016.095    24365972.180    99774583.509  
  21427624.460   112602952.996    21427622.340    87742568.896  
  22363830.740   117522771.583    22363833.700    91576187.693  
  21686673.300   113964267.482    21686676.120    88803340.364  
  25316057.080   133036759.705    25316059.040   103665020.922  
  23563952.980   123829446.526    23563956.300    96490503.342  
  20314324.700   106752576.285    20314323.840    83183854.736  
  21295468.600   111908494.239    21295472.120    87201473.767  
  20006562.220   106871517.643    20006567.000    83122335.534  
  22710940.600   121062103.738                                  
  19492984.120   104091508.319    19492988.100    80960103.125  
  23652072.120   126655769.846    23652076.980    98510072.949  
  19600933.580   104594346.588                                  
  19906330.840   106560181.665    19906334.880    82880172.709  
 21  8 31  1 35 30.0000000  0 17G29G 4G16G 1G22G32G 3G21G25G31G26R16
                                R10R 9R 8R 6R 7
  25340207.360   133163692.995    25340209.740   103763926.781  
  24376004.240   128096756.322    24376005.700    99815675.244  
  24034213.960   126300662.941    24034215.280    98416064.703  
  24381270.600   128124436.096    24381275.460    99837248.404  
  21427224.220   112600849.726    21427222.080    87740929.998  
  22377204.080   117593049.043    22377207.020    91630949.323  
  21677436.400   113915727.931    21677439.420    88765517.359  
  25328978.780   133104663.642    25328980.060   103717933.080  
  23581376.540   123921003.803    23581379.260    96561846.721  
  20320922.260   106787246.744    20320921.340    83210870.678  
  21280883.520   111831849.730    21280887.120    87141750.810  
  20020434.080   106945618.827    20020438.920    83179969.784  
  22688463.340   120942287.475                                  
  19484594.940   104046710.640    19484599.000    80925260.525  
  23629926.440   126537183.207    23629931.820    98417838.953  
  19609975.500   104642595.688                                  
  19893890.460   106493586.954    19893894.620    82828376.839  
 21  8 31  1 36  0.0000000  0 17G29G 4G16G 1G22G32G 3G21G25G31G26R16
                                R10R 9R 8R 6R 7
  25328458.180   133101949.624    25328460.620   103715815.214  
  24358614.620   128005370.758    24358616.000    99744465.741  
  24011049.480   126178933.032    24011050.640    98321210.298  
  24396612.780   128205060.112    24396617.800    99900072.279  
  21426929.100   112599299.049    21426926.980    87739721.701  
  22390623.020   117663566.727    22390626.120    91685898.143  
  21668300.780   113867720.197    21668303.800    88728108.760  
  25341901.540   133172572.639    25341903.040   103770849.084  
  23598868.220   124012921.927    23598870.500    96633471.236  
  20327589.680   106822284.903    20327588.800    83238173.146  
  21266383.080   111755650.047    21266386.740    87082374.473  
  20034401.060   107020227.908    20034405.580    83237999.068  
  22666036.280   120822738.599                                  
  19476328.520   104002567.874    19476332.480    80890927.277  
  23607778.800   126418584.909    23607784.240    98325595.870  
  19619128.440   104691438.274                                  
  19881533.280   106427437.191    19881537.100    82776927.044  
 21  8 31  1 36 30.0000000  0 16G 4G16G 1G22G32G 3G21G25G31G26R16R10
                                R 9R 8R 6R 7
  24341227.260   127913998.036    24341229.020    99673266.256  
  23987900.380   126057284.426    23987901.500    98226419.266  
  24411995.260   128285893.577    24411999.440    99963059.393  
  21426740.840   112598309.859    21426738.700    87738950.921  
  22404089.360   117734332.950    22404092.520    91741040.636  
  21659268.440   113820254.872    21659271.380    88691122.823  
  25354826.200   133240493.100    25354827.920   103823774.049  
  23616428.680   124105206.772    23616431.700    96705381.441  
  20334328.320   106857697.986    20334327.680    83265767.762  
  21251969.440   111679906.284    21251973.020    87023353.391  
  20048464.220   107095350.875    20048468.800    83296428.040  
  22643661.420   120703468.388                                  
  19468186.400   103959089.135    19468190.420    80857110.505  
  23585630.100   126299985.659    23585636.600    98233352.071  
  19628394.380   104740882.823                                  
  19869261.400   106361744.450    19869264.980    82725832.704  
 21  8 31  1 37  0.0000000  0 16G29G 4G16G 1G22G32G 3G25G31G26R16R10
                                R 9R 8R 6R 7
  25305128.500   132979348.0201   25305131.560   103620283.7641 
  24323839.780   127822626.984    24323841.980    99602068.128  
  23964764.920   125935708.030    23964765.860    98131684.512  
  24427414.440   128366921.513    24427418.420   100026197.997  
  21426657.180   112597870.063    21426654.920    87738608.245  
  22417600.900   117805335.552    22417603.840    91796367.319  
  21650337.380   113773321.848    21650340.180    88654551.666  
  23634056.660   124197843.352    23634058.980    96777565.848  
  20341135.660   106893472.352    20341135.240    83293643.893  
  21237640.740   111604608.933    21237644.300    86964680.171  
  20062620.560   107170971.420    20062625.520    83355244.005  
  22621337.280   120584467.816                                  
  19460166.360   103916262.914    19460170.220    80823801.234  
  23563479.680   126181375.953    23563487.440    98141100.169  
  19637770.380   104790917.231                                  
  19857073.100   106296499.729    19857076.560    82675086.837  
 21  8 31  1 37 30.0000000  0 16G29G 4G16G 1G22G32G 3G25G31G26R16R10
                                R 9R 8R 6R 7
  25293550.560   132918503.372    25293553.460   103572872.456  
  24306454.500   127731268.949    24306457.340    99530880.114  
  23941645.840   125814217.094    23941646.960    98037016.336  
  24442871.800   128448150.929    24442875.600   100089493.700  
  21426680.200   112597990.540    21426677.780    87738702.137  
  22431159.020   117876584.503    22431162.080    91851885.975  
  21641510.040   113726933.577    21641512.640    88618404.984  
  23651753.100   124290839.263    23651755.700    96850030.242  
  20348013.580   106929616.859    20348013.320    83321808.460  
  21223399.540   111529770.698    21223402.880    86906364.692  
  20076871.320   107247096.972    20076876.540    83414452.765  
  22599066.040   120465749.779                                  
  19452270.520   103874100.524    19452274.600    80791008.281  
  23541330.560   126062768.908    23541338.460    98048850.285  
  19647259.100   104841551.284                                  
  19844970.940   106231716.925    19844974.720    82624700.235  
 21  8 31  1 38  0.0000000  0 16G29G 4G16G 1G22G32G 3G25G31G26R16R10
                                R 9R 8R 6R 7
  25282030.100   132857960.781    25282032.360   103525696.462  
  24289070.600   127639918.248    24289073.780    99459697.825  
  23918542.340   125692808.222    23918543.600    97942412.146  
  24458365.780   128529572.170    24458369.600   100152938.866  
  21426808.660   112598664.921    21426806.000    87739227.650  
  22444762.600   117948073.052    22444765.800    91907591.301  
  21632785.480   113681085.250    21632787.920    88582679.038  
  23669516.420   124384185.165    23669519.640    96922767.298  
  20354960.560   106966123.230    20354960.240    83350254.990  
  21209244.860   111455387.421    21209248.200    86848403.738  
  20091214.740   107323716.555    20091219.680    83474045.761  
  22576846.860   120347310.169                                  
  19444497.960   103832595.546    19444502.060    80758726.640  
  23519181.360   125944159.762    23519188.720    97956598.750  
  19656858.760   104892777.547                                  
  19832954.380   106167392.629    19832958.680    82574670.241  
 21  8 31  1 38 30.0000000  0 16G29G 4G16G 1G22G32G 3G25G31G26R16R10
                                R 9R 8R 6R 7
  25270567.360   132797723.599    25270568.660   103478758.278  
  24271688.580   127548576.727    24271691.580    99388522.657  
  23895455.400   125571485.379    23895456.480    97847874.960  
  24473895.880   128611182.992    24473900.300   100216531.687  
  21427042.540   112599894.047    21427039.840    87740185.429  
  22458412.140   118019801.753    22458415.360    91963483.773  
  21624164.060   113635779.724    21624166.520    88547376.049  
  23687345.460   124477879.081    23687349.420    96995775.540  
  20361976.400   107002990.846    20361975.960    83378983.014  
  21195177.480   111381462.433    21195180.820    86790799.884  
  20105650.240   107400828.178    20105655.080    83534021.464  
  22554680.440   120229152.665                                  
  19436848.940   103791749.771    19436853.000    80726957.727  
  23497032.000   125825552.749    23497039.620    97864348.916  
  19666570.220   104944597.159                                  
  19821024.460   106103531.264    19821028.860    82525000.306  
 21  8 31  1 39  0.0000000  0 16G29G 4G16G 1G22G32G 3G25G31G26R16R10
                                R 9R 8R 6R 7
  25259163.600   132737795.834    25259165.140   103432061.282  
  24254309.160   127457246.063    24254311.720    99317355.918  
  23872385.540   125450252.410    23872386.660    97753407.807  
  24489461.520   128692980.980    24489466.400   100280270.387  
  21427382.080   112601678.973    21427379.480    87741576.296  
  22472107.540   118091771.093    22472110.720    92019563.739  
  21615646.440   113591019.607    21615648.880    88512498.038  
  23705240.740   124571918.929    23705244.600    97069053.340  
  20369060.820   107040218.679    20369060.120    83407991.715  
  21181198.020   111307998.847    21181201.260    86733555.563  
  20120177.380   107478429.077    20120182.200    83594377.717  
  22532567.780   120111280.437                                  
  19429323.420   103751564.173    19429327.580    80695702.286  
  23474884.400   125706950.781    23474890.200    97772102.930  
  19676392.340   104997010.031                                  
  19809181.820   106040136.653    19809186.320    82475693.415  
 21  8 31  1 39 30.0000000  0 16G29G 4G16G 1G22G32G 3G25G31G26R16R10
                                R 9R 8R 6R 7
  25247819.220   132678179.486    25247820.360   103385606.984  
  24236931.820   127365926.481    24236933.840    99246197.770  
  23849333.160   125329111.325    23849334.280    97659012.263  
  24505062.020   128774962.145    24505067.140   100344151.806  
  21427827.280   112604018.814    21427824.920    87743399.561  
  22485848.660   118163979.991    22485851.580    92075830.387  
  21607232.940   113546805.933    21607235.220    88478045.822  
  23723200.860   124666301.187    23723204.440    97142597.919  
  20376213.300   107077804.053    20376212.440    83437279.020  
  21167306.500   111234998.204    21167309.620    86676671.977  
  20134795.120   107556514.647    20134799.700    83655110.940  
  22510509.020   119993695.622                                  
  19421921.540   103712038.571    19421925.740    80664960.164  
  23452738.240   125588355.188    23452742.480    97679861.888  
  19686325.520   105050015.295                                  
  19797426.940   105977211.142    19797431.480    82426751.366  
 21  8 31  1 40  0.0000000  0 16G29G 4G16G 1G22G32G 3G25G31G26R16R10
                                R 9R 8R 6R 7
  25236534.940   132618879.784    25236536.120   103339399.477  
  24219557.200   127274620.992    24219558.700    99175050.604  
  23826299.140   125208067.305    23826300.380    97564692.348  
  24520697.360   128857125.431    24520702.120   100408175.103  
  21428378.560   112606916.094    21428376.440    87745657.182  
  22499635.700   118236430.198    22499638.420    92132285.067  
  21598924.020   113503142.616    21598926.360    88444022.470  
  23741226.000   124761025.035    23741229.360    97216408.757  
  20383434.000   107115747.866    20383432.940    83466845.633  
  21153503.880   111162464.947    21153506.940    86620152.591  
  20149503.260   107635083.430    20149507.660    83716220.002  
  22488505.160   119876402.957                                  
  19414643.660   103673175.132    19414647.940    80634733.051  
  23430594.020   125469771.138    23430598.260    97587629.910  
  19696369.940   105103614.212                                  
  19785760.640   105914760.166    19785765.020    82378178.401  
 21  8 31  1 40 30.0000000  0 16G29G 4G16G 1G22G32G 3G25G31G26R16R10
                                R 9R 8R 6R 7
  25225310.840   132559897.229    25225312.220   103293439.076  
  24202184.800   127183328.295    24202186.580    99103913.465  
  23803283.940   125087121.392    23803284.940    97470448.857  
  24536365.760   128939465.483    24536370.940   100472336.158  
  21429035.520   112610367.919    21429033.340    87748346.920  
  22513468.060   118309119.226    22513470.800    92188925.845  
  21590719.720   113460029.288    21590722.200    88410427.661  
  23759315.140   124856085.411    23759318.840    97290481.833  
  20390722.140   107154046.192    20390721.000    83496688.493  
  21139790.180   111090399.224    21139793.320    86563997.511  
  20164300.900   107714129.799    20164305.500    83777700.513  
  22466556.400   119759402.855                                  
  19407489.580   103634972.541    19407493.760    80605019.937  
  23408451.840   125351198.488    23408456.000    97495406.744  
  19706524.920   105157804.660                                  
  19774183.160   105852784.811    19774187.060    82329975.364  
 21  8 31  1 41  0.0000000  0 16G29G 4G16G 1G22G32G 3G25G31G26R16R10
                                R 9R 8R 6R 7
  25214148.400   132501236.876    25214149.620   103247729.804  
  24184815.200   127092051.808    24184817.500    99032788.958  
  23780288.420   124966279.038    23780289.160    97376286.080  
  24552068.060   129021981.548    24552072.440   100536634.350  
  21429798.520   112614377.170    21429796.300    87751471.015  
  22527346.000   118382049.160    22527348.900    92245754.320  
  21582621.020   113417470.096    21582623.520    88377264.662  
  23777468.900   124951481.877    23777472.640    97364816.748  
  20398077.860   107192699.939    20398076.660    83526808.287  
  21126166.180   111018805.669    21126169.460    86508210.364  
  20179187.600   107793652.698    20179192.660    83839551.655  
  22444663.300   119642699.752                                  
  19400459.620   103597433.185    19400463.840    80575822.673  
  23386312.500   125232642.982    23386316.580    97403196.866  
  19716791.400   105212588.058                                  
  19762695.560   105791290.414    19762699.120    82282146.407  
 21  8 31  1 41 30.0000000  0 16G29G 4G16G 1G22G32G 3G25G31G26R16R10
                                R 9R 8R 6R 7
  25203046.900   132442900.002    25203048.140   103202272.549  
  24167448.280   127000790.474    24167451.300    98961676.300  
  23757312.780   124845540.964    23757313.600    97282204.548  
  24567802.720   129104668.478    24567807.220   100601065.688  
  21430667.300   112618942.190    21430665.120    87755028.170  
  22541269.560   118455217.675    22541272.420    92302768.725  
  21574627.620   113375464.850    21574630.240    88344533.310  
  23795685.820   125047209.634    23795688.720    97439409.787  
  20405500.600   107231705.439    20405499.340    83557202.184  
  21112632.180   110947684.674    21112635.360    86452791.443  
  20194162.480   107873646.650    20194167.720    83901769.190  
  22422825.900   119526294.530                                  
  19393553.560   103560555.586    19393557.760    80547140.121  
  23364176.480   125114104.554    23364180.480    97311000.317  
  19727168.480   105267962.012                                  
  19751297.980   105730278.691    19751301.660    82234692.855  
 21  8 31  1 42  0.0000000  0 16G29G 4G16G 1G22G32G 3G25G31G26R16R10
                                R 9R 8R 6R 7
  25192007.560   132384887.784    25192008.580   103157068.282  
  24150085.200   126909544.063    24150087.620    98890575.207  
  23734357.360   124724909.173    23734358.260    97188205.830  
  24583569.000   129187521.745    24583573.900   100665626.612  
  21431641.360   112624061.065    21431639.280    87759016.906  
  22555238.440   118528623.127    22555241.140    92359967.743  
  21566739.540   113334013.989    21566742.380    88312233.926  
  23813964.540   125143264.499    23813967.220    97514257.760  
  20412989.600   107271059.546    20412988.260    83587867.726  
  21099188.300   110877037.138    21099191.540    86397741.444  
  20209224.780   107954106.446    20209229.920    83964349.021  
  22401044.560   119410188.248                                  
  19386771.260   103524338.646    19386775.340    80518971.399  
  23342043.820   124995585.001    23342048.240    97218818.511  
  19737655.600   105323924.342                                  
  19739990.960   105669751.221    19739994.580    82187615.953  
 21  8 31  1 42 30.0000000  0 16G29G 4G16G 1G22G32G 3G25G31G26R16R10
                                R 9R 8R 6R 7
  25181030.160   132327207.144    25181032.680   103112122.414  
  24132725.700   126818317.749    24132727.780    98819489.779  
  23711423.440   124604390.770    23711424.240    97094295.458  
  24599367.600   129270542.411    24599372.780   100730318.012  
  21432721.660   112629738.006    21432719.480    87763440.484  
  22569253.060   118602269.390    22569255.740    92417354.420  
  21558958.280   113293123.484    21558961.220    88280371.192  
  23832305.300   125239647.901    23832308.860    97589361.685  
  20420545.400   107310764.952    20420544.000    83618806.999  
  21085835.740   110806869.566    21085839.220    86343065.451  
  20224374.520   108035032.631    20224379.660    84027291.609  
  22379320.720   119294388.417                                  
  19380113.580   103488787.169    19380117.540    80491320.267  
  23319916.000   124877090.713    23319920.480    97126656.312  
  19748254.120   105380478.896                                  
  19728775.780   105609715.361    19728779.380    82140921.418  
 21  8 31  1 43  0.0000000  0 16G29G 4G16G 1G22G32G 3G25G31G26R16R10
                                R 9R 8R 6R 7
  25170116.400   132269854.995    25170119.300   103067432.545  
  24115368.900   126727106.219    24115370.300    98748415.833  
  23688510.520   124483982.616    23688511.200    97000471.011  
  24615196.340   129353721.125    24615201.380   100795132.535  
  21433906.980   112635966.955    21433904.620    87768294.204  
  22583312.240   118676149.889    22583314.680    92474923.625  
  21551282.940   113252788.761    21551285.760    88248941.542  
  23850706.800   125336350.780    23850710.600    97664714.524  
  20428166.540   107350813.790    20428164.960    83650013.878  
  21072573.940   110737177.958    21072577.480    86288760.329  
  20239609.540   108116415.742    20239614.960    84090589.603  
  22357653.520   119178890.478                                  
  19373579.380   103453894.587    19373583.320    80464181.610  
  23297792.160   124758618.608    23297795.880    97034511.367  
  19758962.360   105437618.735                                  
  19717651.740   105550168.168    19717655.580    82094606.947  
 21  8 31  1 43 30.0000000  0 16G29G 4G16G 1G22G32G 3G25G31G26R16R10
                                R 9R 8R 6R 7
  25159267.200   132212841.709    25159269.980   103023006.674  
  24098016.100   126635917.585    24098016.880    98677359.727  
  23665620.520   124363694.964    23665621.040    96906740.450  
  24631055.140   129437061.810    24631060.420   100860073.218  
  21435198.540   112642755.165    21435196.240    87773583.709  
  22597417.100   118750271.379    22597419.580    92532680.600  
  21543715.080   113213018.613    21543717.700    88217951.825  
  23869170.640   125433377.222    23869173.720    97740319.607  
  20435853.960   107391211.536    20435852.320    83681492.645  
  21059404.520   110667971.632    21059408.020    86234833.352  
  20254930.900   108198259.090    20254935.960    84154245.553  
  22336045.020   119063704.741                                  
  19367169.940   103419668.514    19367173.760    80437561.339  
  23275673.660   124640177.952    23275677.100    96942390.905  
  19769781.120   105495349.986                                  
  19706621.020   105491120.146    19706624.980    82048680.712  
 21  8 31  1 44  0.0000000  0 16G29G 4G16G 1G22G32G 3G25G31G26R16R10
                                R 9R 8R 6R 7
  25148481.880   132156162.739    25148484.040   102978841.308  
  24080666.420   126544746.217    24080667.700    98606317.129  
  23642752.800   124243524.235    23642753.360    96813101.020  
  24646943.320   129520554.670    24646949.080   100925132.499  
  21436595.260   112650095.470    21436593.000    87779303.412  
  22611566.260   118824626.878    22611569.060    92590619.915  
  21536253.720   113173808.114    21536256.200    88187398.178  
  23887694.140   125530717.870    23887697.060    97816169.476  
  20443606.120   107431949.932    20443604.580    83713236.845  
  21046326.480   110599246.134    21046329.880    86181281.059  
  20270336.440   108280552.482    20270340.980    84218251.518  
  22314494.220   118948826.501                                  
  19360884.060   103386102.460    19360888.000    80411454.444  
  23253560.580   124521764.607    23253564.380    96850291.738  
  19780709.560   105553666.078                                  
  19695682.880   105432567.534    19695686.860    82003139.812  
 21  8 31  1 44 30.0000000  0 16G29G 4G16G 1G22G32G 3G25G31G26R16R10
                                R 9R 8R 6R 7
  25137761.660   132099826.523    25137763.380   102934943.021  
  24063321.260   126453598.413    24063323.280    98535292.910  
  23619908.680   124123478.593    23619909.480    96719559.063  
  24662860.720   129604201.673    24662866.800   100990311.902  
  21438098.060   112657993.100    21438095.680    87785457.401  
  22625760.880   118899221.292    22625763.840    92648745.412  
  21528900.000   113135164.175    21528902.660    88157286.029  
  23906277.840   125628375.000    23906280.280    97892265.982  
  20451423.840   107473032.746    20451422.380    83745249.432  
  21033341.380   110531009.007    21033344.620    86128109.296  
  20285826.340   108363297.659    20285830.900    84282608.882  
  22293002.520   118834263.788                                  
  19354722.800   103353201.924    19354726.820    80385865.158  
  23231454.160   124403387.221    23231457.580    96758220.498  
  19791748.240   105612570.950                                  
  19684838.940   105374518.980    19684842.800    81957990.941  
 21  8 31  1 45  0.0000000  0 16G29G 4G16G 1G22G32G 3G25G31G26R16R10
                                R 9R 8R 6R 7
  25127106.320   132043830.212    25127107.420   102891309.535  
  24045980.160   126362469.663    24045982.680    98464283.526  
  23597087.780   124003555.449    23597088.700    96626112.531  
  24678806.360   129687994.254    24678811.660   101055604.784  
  21439705.860   112666442.114    21439703.420    87792041.039  
  22639999.960   118974048.654    22640002.820    92707052.437  
  21521653.360   113097082.830    21521656.060    88127612.260  
  23924919.520   125726340.396    23924923.020    97968602.603  
  20459305.820   107514452.547    20459304.300    83777524.601  
  21020448.620   110463256.765    21020451.720    86075315.363  
  20301399.120   108446485.103    20301404.060    84347310.225  
  22271569.200   118720013.456                                  
  19348685.180   103320961.317    19348689.240    80360789.157  
  23209353.700   124285042.266    23209357.340    96666174.535  
  19802896.420   105672058.582                                  
  19674088.800   105316972.066    19674092.640    81913232.234  
 21  8 31  1 45 30.0000000  0 16G29G 4G16G 1G22G32G 3G25G31G26R16R10
                                R 9R 8R 6R 7
  25116517.020   131988181.607    25116517.260   102847947.016  
  24028643.800   126271365.845    24028646.240    98393293.571  
  23574291.840   123883762.904    23574292.800    96532767.786  
  24694779.760   129771934.060    24694784.720   101121012.429  
  21441419.640   112675447.610    21441417.140    87799058.294  
  22654284.240   119049113.522    22654287.340    92765544.523  
  21514515.140   113059570.618    21514517.660    88098381.971  
  23943620.600   125824615.884    23943624.700    98045180.925  
  20467252.680   107556212.926    20467251.000    83810065.165  
  21007649.340   110395996.522    21007652.400    86022904.816  
  20317055.220   108530116.666    20317060.480    84412356.992  
  22250195.940   118606083.091                                  
  19342772.000   103289385.567    19342776.100    80336230.270  
  23187260.960   124166737.346    23187265.280    96574159.690  
  19814154.440   105732132.952                                  
  19663433.840   105259935.038    19663437.800    81868870.122  
 21  8 31  1 46  0.0000000  0 16G29G 4G16G 1G22G32G 3G25G31G26R16R10
                                R 9R 8R 6R 7
  25105993.820   131932881.324    25105993.520   102804855.878  
  24011311.800   126180286.175    24011314.600    98322322.436  
  23551520.940   123764102.469    23551522.240    96439526.002  
  24710780.040   129856016.197    24710784.440   101186530.925  
  21443238.840   112685007.190    21443236.320    87806507.303  
  22668613.420   119124413.661    22668616.660    92824219.930  
  21507485.040   113022627.236    21507487.620    88069594.922  
  23962379.960   125923196.844    23962383.780    98121997.282  
  20475263.560   107598310.033    20475261.740    83842868.105  
  20994943.760   110329228.538    20994946.800    85970877.842  
  20332793.420   108614187.143    20332798.620    84477745.137  
  22228882.760   118492473.058                                  
  19336983.060   103258473.007    19336987.280    80312187.194  
  23165175.860   124048473.990    23165181.340    96482177.145  
  19825521.880   105792791.774                                  
  19652874.160   105203408.970    19652878.020    81824905.419  
 21  8 31  1 46 30.0000000  0 15G29G 4G16G22G32G 3G25G31G26R16R10R 9
                                R 8R 6R 7
  25095536.520   131877930.611    25095537.060   102762037.132  
  23993984.400   126089229.921    23993986.320    98251369.511  
  23528775.620   123644575.132    23528776.740    96346387.885  
  21445163.100   112695119.050    21445160.700    87814386.674  
  22682987.020   119199946.892    22682990.340    92883076.975  
  21500563.120   112986252.545    21500565.780    88041251.021  
  23981196.780   126022078.621    23981200.340    98199048.024  
  20483337.780   107640740.658    20483336.000    83875930.928  
  20982331.960   110262953.174    20982335.060    85919234.727  
  20348612.640   108698690.413    20348617.420    84543469.895  
  22207630.000   118379184.349                                  
  19331318.100   103228222.079    19331322.180    80288658.724  
  23143098.700   123930252.703    23143104.580    96390227.305  
  19836998.320   105854032.116                                  
  19642410.240   105147395.239    19642414.200    81781339.192  
 21  8 31  1 47  0.0000000  0 16G29G 4G16G 1G22G32G 3G25G31G26R16R10
                                R 9R 8R 6R 7
  25085147.580   131823338.725    25085149.060   102719498.019  
  23976662.840   125998204.598    23976664.180    98180440.694  
  23506057.440   123525190.319    23506058.500    96253360.844  
  24742859.180   130024602.8631   24742864.540   101317891.4941 
  21447193.720   112705789.481    21447191.320    87822701.286  
  22697406.060   119275719.320    22697409.460    92942120.396  
  21493751.020   112950454.516    21493753.640    88013356.465  
  24000070.700   126121264.977    24000074.620    98276336.073  
  20491476.240   107683509.305    20491474.540    83909257.144  
  20969815.580   110197179.027    20969818.740    85867982.168  
  20364513.480   108783629.855    20364517.880    84609533.909  
  22186439.500   118266226.159                                  
  19325778.120   103198638.825    19325782.180    80265649.543  
  23121031.080   123812082.639    23121038.080    96298317.363  
  19848584.540   105915859.961                                  
  19632043.700   105091903.318    19632047.740    81738178.826  
 21  8 31  1 47 30.0000000  0 16G29G 4G16G 1G22G32G 3G25G31G26R16R10
                                R 9R 8R 6R 7
  25074825.160   131769101.073    25074827.920   102677235.110  
  23959345.960   125907204.239    23959347.220    98109531.356  
  23483365.580   123405944.305    23483366.380    96160441.943  
  24758937.520   130109093.439    24758942.600   101383728.200  
  21449329.080   112717010.950    21449326.800    87831445.271  
  22711869.220   119351723.512    22711872.600    93001344.420  
  21487047.580   112915227.669    21487050.120    87985906.993  
  24019001.280   126220745.794    24019005.260    98353853.623  
  20499677.380   107726607.583    20499675.680    83942840.216  
  20957393.660   110131901.152    20957396.920    85817116.308  
  20380493.860   108868994.264    20380498.320    84675928.437  
  22165309.980   118153593.314                                  
  19320361.920   103169716.584    19320366.040    80243154.488  
  23098972.660   123693959.358    23098979.760    96206443.803  
  19860279.580   105978266.845                                  
  19621774.000   105036929.659    19621777.880    81695421.531  
 21  8 31  1 48  0.0000000  0 16G29G 4G16G 1G22G32G 3G25G31G26R16R10
                                R 9R 8R 6R 7
  25064571.560   131715220.480    25064574.660   102635250.355  
  23942034.240   125816229.431    23942036.020    98038641.926  
  23460700.620   123286839.788    23460701.300    96067633.309  
  24775039.840   130193710.853    24775045.040   101449663.839  
  21451569.200   112728782.768    21451567.000    87840618.104  
  22726376.280   119427958.577    22726379.620    93060748.340  
  21480453.020   112880573.056    21480455.500    87958903.417  
  24037987.360   126320517.892    24037991.620    98431598.075  
  20507940.760   107770033.320    20507939.180    83976678.460  
  20945066.280   110067121.137    20945069.780    85766638.411  
  20396553.060   108954780.208    20396557.820    84742650.833  
  22144241.780   118041287.940                                  
  19315069.280   103141454.460    19315073.520    80221172.858  
  23076923.280   123575885.662    23076930.340    96114608.824  
  19872082.920   106041251.620                                  
  19611601.860   104982476.904    19611605.660    81653069.399  
 21  8 31  1 48 30.0000000  0 16G29G 4G16G 1G22G32G 3G25G31G26R16R10
                                R 9R 8R 6R 7
  25054387.820   131661702.980    25054390.440   102593548.514  
  23924728.180   125725284.799    23924730.340    97967776.044  
  23438063.820   123167883.074    23438064.580    95974939.839  
  24791166.400   130278455.444    24791171.640   101515698.549  
  21453914.620   112741108.067    21453912.480    87850222.219  
  22740927.900   119504427.636    22740931.160    93120334.588  
  21473968.280   112846495.641    21473970.760    87932349.597  
  24057029.040   126420581.852    24057032.700    98509570.045  
  20516266.940   107813788.511    20516265.420    84010773.416  
  20932834.780   110002844.554    20932838.320    85716552.789  
  20412691.380   109040987.338    20412696.040    84809700.823  
  22123236.060   117929316.010                                  
  19309901.000   103113855.967    19309905.140    80199707.364  
  23054884.500   123457867.603    23054891.440    96022817.067  
  19883995.080   106104816.614                                  
  19601528.140   104928551.444    19601532.080    81611127.381  
 21  8 31  1 49  0.0000000  0 16G29G 4G16G 1G22G32G 3G25G31G26R16R10
                                R 9R 8R 6R 7
  25044273.660   131608548.756    25044275.820   102552129.726  
  23907427.320   125634368.970    23907429.960    97896932.615  
  23415455.440   123049074.962    23415456.180    95882362.171  
  24807315.900   130363321.824    24807321.140   101581828.144  
  21456364.860   112753984.415    21456362.840    87860255.726  
  22755523.560   119581127.884    22755526.740    93180101.008  
  21467593.300   112812994.522    21467595.800    87906244.855  
  24076125.320   126520932.517    24076128.740    98587765.382  
  20524655.140   107857869.078    20524653.720    84045121.914  
  20920699.040   109939071.091    20920702.580    85666859.218  
  20428907.380   109127609.658    20428911.880    84877073.750  
  22102292.980   117817677.851                                  
  19304856.380   103086918.814    19304860.780    80178756.265  
  23032855.820   123339905.488    23032862.520    95931068.833  
  19896015.280   106168959.035                                  
  19591553.000   104875153.999    19591556.980    81569596.043  
 21  8 31  1 49 30.0000000  0 16G29G 4G16G 1G22G32G 3G25G31G26R16R10
                                R 9R 8R 6R 7
  25034229.300   131555762.143    25034231.000   102510997.384  
  23890132.560   125543484.782    23890135.160    97826113.820  
  23392876.160   122930420.126    23392876.700    95789903.944  
  24823488.440   130448308.409    24823493.020   101648051.406  
  21458920.040   112767412.881    21458918.260    87870719.449  
  22770163.560   119658060.568    22770166.600    93240048.547  
  21461328.500   112780072.789    21461330.920    87880591.573  
  24095275.800   126621568.651    24095278.960    98666183.153  
  20533105.380   107902275.052    20533104.060    84079723.972  
  20908659.780   109875804.419    20908663.380    85617560.541  
  20445200.740   109214645.403    20445205.140    84944768.210  
  22081413.100   117706376.952                                  
  19299936.020   103060644.203    19299940.180    80158320.468  
  23010838.520   123222003.980    23010845.000    95839367.681  
  19908143.900   106233679.494                                  
  19581677.420   104822289.337    19581681.300    81528479.106  
 21  8 31  1 50  0.0000000  0 16G29G 4G16G 1G22G32G 3G25G31G26R16R10
                                R 9R 8R 6R 7
  25024255.180   131503346.152    25024256.640   102470153.820  
  23872844.040   125452633.711    23872846.740    97755320.851  
  23370326.640   122811922.243    23370327.060    95697568.002  
  24839683.240   130533412.471    24839687.340   101714366.208  
  21461580.480   112781393.495    21461578.640    87881613.422  
  22784847.740   119735225.691    22784850.620    93300177.183  
  21455174.320   112747732.344    21455176.540    87855391.247  
  24114480.100   126722487.844    24114483.480    98744821.451  
  20541617.340   107947005.144    20541616.080    84114578.588  
  20896717.560   109813046.951    20896721.020    85568658.646  
  20461570.680   109302091.280    20461575.320    85012781.667  
  22060597.160   117595416.550                                  
  19295139.760   103035032.568    19295143.780    80138400.323  
  22988833.080   123104166.067    22988838.920    95747716.027  
  19920380.440   106298977.471                                  
  19571902.020   104769961.224    19571906.140    81487779.476  
 21  8 31  1 50 30.0000000  0 16G29G 4G16G 1G22G32G 3G25G31G26R16R10
                                R 9R 8R 6R 7
  25014351.620   131451301.200    25014352.640   102429599.378  
  23855561.540   125361814.036    23855563.520    97684552.276  
  23347807.080   122693581.542    23347807.680    95605354.535  
  24855899.400   130618628.042    24855903.780   101780767.905  
  21464345.480   112795923.043    21464343.520    87892935.136  
  22799575.340   119812619.980    22799578.320    93360484.415  
  21449130.380   112715971.704    21449132.700    87830642.721  
  24133737.500   126823684.333    24133740.540    98823675.857  
  20550190.020   107992054.816    20550188.880    84149682.232  
  20884871.860   109750797.835    20884875.260    85520152.876  
  20478016.280   109389941.025    20478021.460    85081109.241  
  22039845.100   117484795.931                                  
  19290467.140   103010081.022    19290470.900    80118993.576  
  22966839.660   122986392.179    22966844.440    95656114.201  
  19932724.420   106364848.887                                  
  19562226.920   104718169.710    19562231.040    81447497.195  
 21  8 31  1 51  0.0000000  0 16G29G 4G16G 1G22G32G 3G25G31G26R16R10
                                R 9R 8R 6R 7
  25004519.580   131399633.994    25004520.620   102389339.243  
  23838286.220   125271031.698    23838288.020    97613812.853  
  23325318.840   122575405.643    23325319.460    95513269.496  
  24872137.040   130703956.862    24872141.560   101847257.818  
  21467215.780   112811005.985    21467213.740    87904688.076  
  22814347.340   119890247.910    22814350.420    93420973.663  
  21443197.860   112684797.117    21443200.380    87806350.854  
  24153047.780   126925160.190    24153050.240    98902748.013  
  20558824.060   108037427.452    20558823.140    84185037.529  
  20873124.100   109689063.875    20873127.460    85472048.524  
  20494537.700   109478195.830    20494543.060    85149751.875  
  22019158.180   117374523.047                                  
  19285918.980   102985794.013    19285922.620    80100103.694  
  22944859.840   122868689.950    22944862.960    95564568.017  
  19945176.860   106431297.677                                  
  19552653.580   104666922.968    19552657.720    81407638.618  
 21  8 31  1 51 30.0000000  0 16G29G 4G16G 1G22G32G 3G25G31G26R16R10
                                R 9R 8R 6R 7
  24994759.160   131348343.344    24994760.080   102349372.567  
  23821017.480   125180283.391    23821018.800    97543099.883  
  23302861.940   122457393.524    23302862.520    95421312.083  
  24888394.820   130789391.305    24888399.680   101913830.083  
  21470190.260   112826637.283    21470188.240    87916868.295  
  22829162.920   119968104.500    22829166.160    93481641.111  
  21437376.380   112654205.467    21437378.820    87782513.220  
  24172409.780   127026907.966    24172411.820    98982032.076  
  20567518.460   108083116.929    20567517.660    84220639.725  
  20861474.020   109627842.604    20861477.360    85424343.671  
  20511133.540   109566847.505    20511138.620    85218703.184  
  21998535.800   117264594.943                                  
  19281494.240   102962166.637    19281497.960    80081726.873  
  22922892.880   122751057.791    22922894.780    95473076.361  
  19957736.480   106498317.965                                  
  19543181.780   104616219.097    19543186.160    81368202.289  
 21  8 31  1 52  0.0000000  0 16G29G 4G16G 1G22G32G 3G25G31G26R16R10
                                R 9R 8R 6R 7
  24985071.300   131297434.602    24985072.520   102309703.506  
  23803756.100   125089573.486    23803757.880    97472416.873  
  23280437.320   122339551.421    23280438.020    95329487.127  
  24904672.560   130874931.572    24904677.500   101980484.818  
  21473269.720   112842819.657    21473267.500    87929477.940  
  22844022.820   120046192.583    22844025.800    93542488.939  
  21431666.780   112624201.345    21431669.040    87759133.418  
  24191823.100   127128928.357    24191826.180    99061528.450  
  20576273.560   108129124.768    20576272.720    84256490.001  
  20849922.420   109567139.169    20849925.940    85377042.336  
  20527803.560   109655896.003    20527808.340    85287963.119  
  21977979.200   117155017.697                                  
  19277193.800   102939202.236    19277197.540    80063865.679  
  22900939.740   122633501.814    22900940.700    95381643.962  
  19970403.660   106565912.561                                  
  19533812.620   104566064.766    19533816.820    81329193.371  
 21  8 31  1 52 30.0000000  0 16G29G 4G16G 1G22G32G 3G25G31G26R16R10
                                R 9R 8R 6R 7
  24975455.800   131246909.331    24975457.720   102270333.225  
  23786501.760   124998901.010    23786503.680    97401763.003  
  23258045.220   122221880.313    23258045.700    95237795.442  
  24920969.220   130960572.357    24920974.480   102047217.848  
  21476453.620   112859550.860    21476451.000    87942515.253  
  22858926.200   120124509.606    22858928.900    93603515.182  
  21426068.780   112594783.972    21426071.300    87736210.822  
  24211288.120   127231216.204    24211291.540    99141233.290  
  20585088.620   108175447.269    20585087.700    84292585.457  
  20838469.580   109506953.411    20838473.040    85330144.378  
  20544546.920   109745335.250    20544551.340    85357526.964  
  21957488.420   117045791.234                                  
  19273016.900   102916898.119    19273020.800    80046518.058  
  22879000.980   122516022.604    22879000.140    95290271.207  
  19983178.240   106634077.748                                  
  19524546.240   104516460.929    19524550.120    81290612.623  
 21  8 31  1 53  0.0000000  0 16G29G 4G16G 1G22G32G 3G25G31G26R16R10
                                R 9R 8R 6R 7
  24965914.060   131196770.961    24965915.880   102231264.389  
  23769254.660   124908268.580    23769257.140    97331140.410  
  23235686.560   122104384.900    23235686.860    95146240.633  
  24937284.920   131046312.104    24937290.220   102114028.012  
  21479741.960   112876831.495    21479739.260    87955980.683  
  22873873.240   120203056.629    22873875.940    93664720.630  
  21420583.020   112565956.127    21420585.780    87713747.589  
  24230803.540   127333770.149    24230806.660    99221145.474  
  20593963.480   108222084.443    20593962.560    84328926.109  
  20827115.920   109447288.710    20827119.220    85283652.438  
  20561363.020   109835163.717    20561367.300    85427393.536  
  21937064.280   116936919.530                                  
  19268963.840   102895255.317    19268967.820    80029684.780  
  22857077.640   122398624.989    22857078.040    95198961.936  
  19996059.660   106702814.707                                  
  19515383.500   104467411.914    19515387.560    81252463.398  
 21  8 31  1 53 30.0000000  0 16G29G 4G16G 1G22G32G 3G25G31G26R16R10
                                R 9R 8R 6R 7
  24956446.480   131147017.870    24956447.740   102192495.773  
  23752014.500   124817673.461    23752017.620    97260546.879  
  23213361.280   121987064.266    23213361.360    95054822.024  
  24953617.900   131132143.694    24953621.960   102180909.742  
  21483134.040   112894657.371    21483131.500    87969870.980  
  22888863.000   120281829.224    22888865.960    93726101.837  
  21415208.980   112537715.165    21415211.680    87691741.663  
  24250368.120   127436583.426    24250371.200    99301259.785  
  20602897.100   108269030.549    20602896.080    84365507.501  
  20815860.900   109388142.976    20815864.060    85237564.888  
  20578250.420   109925373.500    20578255.080    85497556.696  
  21916706.380   116828401.070                                  
  19265034.020   102874269.921    19265038.060    80013362.826  
  22835169.840   122281307.450    22835171.680    95107715.003  
  20009046.900   106772117.402                                  
  19506324.220   104418917.166    19506328.220    81214745.269  
 21  8 31  1 54  0.0000000  0 16G29G 4G16G 1G22G32G 3G25G31G26R16R10
                                R 9R 8R 6R 7
  24947053.460   131097654.896    24947054.240   102154031.161  
  23734782.600   124727119.181    23734785.440    97189985.114  
  23191070.200   121869923.555    23191070.300    94963543.610  
  24969968.520   131218066.399    24969972.560   102247862.540  
  21486630.160   112913029.997    21486627.700    87984187.310  
  22903896.020   120360829.279    22903899.080    93787660.292  
  21409947.160   112510064.655    21409949.920    87670195.836  
  24269981.340   127539655.568    24269984.900    99381575.785  
  20611889.640   108316286.340    20611888.420    84402330.195  
  20804705.340   109329520.430    20804708.360    85191885.013  
  20595209.080   110015963.223    20595214.020    85568015.371  
  21896415.820   116720240.362                                  
  19261227.460   102853943.360    19261231.400    79997553.286  
  22813278.040   122164075.555    22813280.680    95016534.684  
  20022140.720   106841987.723                                  
  19497369.460   104370981.575    19497373.220    81177462.048  
 21  8 31  1 54 30.0000000  0 16G29G 4G16G 1G22G32G 3G25G31G26R16R10
                                R 9R 8R 6R 7
  24937735.300   131048685.239    24937736.000   102115873.031  
  23717558.860   124636606.752    23717561.500    97119455.972  
  23168813.840   121752966.057    23168814.040    94872407.962  
  24986335.980   131304076.933    24986340.700   102314883.713  
  21490230.420   112931948.992    21490227.920    87998929.386  
  22918972.340   120440056.177    22918975.360    93849395.521  
  21404797.920   112483005.684    21404800.820    87649110.939  
  24289643.920   127642983.623    24289646.800    99462091.210  
  20620940.700   108363850.089    20620939.200    84439392.869  
  20793649.640   109271422.721    20793652.500    85146614.101  
  20612238.300   110106929.760    20612242.940    85638767.131  
  21876192.960   116612439.787                                  
  19257544.260   102834275.280    19257548.240    79982255.903  
  22791401.880   122046932.172    22791405.640    94925423.220  
  20035340.480   106912423.831                                  
  19488519.600   104323608.141    19488523.640    81140616.054  
 21  8 31  1 55  0.0000000  0 16G29G 4G16G 1G22G32G 3G25G31G26R16R10
                                R 9R 8R 6R 7
  24928491.840   131000109.465    24928492.700   102078021.842  
  23700342.640   124546135.105    23700344.660    97048958.560  
  23146592.480   121636192.721    23146592.760    94781415.832  
  25002719.040   131390170.003    25002723.920   102381969.234  
  21493933.920   112951411.095    21493931.500    88014094.655  
  22934091.500   120519507.179    22934094.500    93911305.370  
  21399761.160   112456537.229    21399764.000    87628486.184  
  24309354.760   127746562.432    24309357.580    99542802.025  
  20630049.520   108411717.776    20630047.920    84476692.372  
  20782693.680   109213849.491    20782696.560    85101751.872  
  20629336.880   110198266.931    20629341.120    85709807.142  
  21856037.320   116504999.199                                  
  19253983.800   102815262.967    19253987.940    79967468.567  
  22769542.880   121929878.233    22769547.220    94834381.297  
  20048645.540   106983422.378                                  
  19479774.940   104276797.428    19479779.100    81104207.734  
 21  8 31  1 55 30.0000000  0 16G29G 4G16G 1G22G32G 3G25G31G26R16R10
                                R 9R 8R 6R 7
  24919324.760   130951935.141    24919325.460   102040483.465  
  23683135.380   124455710.945    23683137.220    96978498.177  
  23124407.680   121519611.848    23124408.300    94690573.661  
  25019118.160   131476348.026    25019123.200   102449120.930  
  21497741.780   112971421.342    21497739.240    88029687.055  
  22949254.360   120599187.403    22949257.260    93973393.840  
  21394837.960   112430666.009    21394840.840    87608326.808  
  24329113.640   127850394.765    24329117.040    99623710.361  
  20639216.940   108459893.419    20639215.160    84514231.848  
  20771839.060   109156808.054    20771842.100    85057304.032  
  20646505.400   110289976.929    20646508.920    85781137.156  
  21835950.780   116397926.342                                  
  19250547.120   102796911.359    19250551.240    79953195.113  
  22747702.400   121812922.279    22747707.160    94743415.546  
  20062056.640   107054987.866                                  
  19471137.120   104230558.635    19471141.200    81068244.248  
 21  8 31  1 56  0.0000000  0 16G29G 4G16G 1G22G32G 3G25G31G26R16R10
                                R 9R 8R 6R 7
  24910233.800   130904162.522    24910234.660   102003258.141  
  23665936.940   124365333.103    23665939.120    96908073.899  
  23102259.740   121403224.449    23102260.340    94599882.251  
  25035532.520   131562605.534    25035537.780   102516334.519  
  21501653.400   112991976.713    21501650.820    88045704.225  
  22964460.180   120679093.873    22964462.940    94035658.609  
  21390028.260   112405390.720    21390031.200    87588631.794  
  24348919.440   127954475.325    24348922.820    99704812.137  
  20648442.240   108508373.042    20648440.400    84552008.194  
  20761085.540   109100297.770    20761088.800    85013270.081  
  20663742.260   110382053.665    20663746.060    85852752.384  
  21815932.880   116291221.101                                  
  19247233.760   102779217.817    19247237.740    79939433.488  
  22725880.400   121696064.856    22725885.720    94652526.466  
  20075573.840   107127116.610                                  
  19462606.260   104184891.586    19462610.100    81032725.452  
 21  8 31  1 56 30.0000000  0 16G29G 4G16G 1G22G32G 3G25G31G26R16R10
                                R 9R 8R 6R 7
  24901219.240   130856790.908    24901220.180   101966345.303  
  23648747.040   124274999.908    23648749.580    96837684.437  
  23080148.800   121287030.715    23080149.360    94509341.736  
  25051960.760   131648936.515    25051965.780   102583605.416  
  21505668.180   113013073.899    21505665.660    88062143.589  
  22979708.200   120759223.279    22979710.920    94098097.101  
  21385331.640   112380709.705    21385334.500    87569399.840  
  24368770.740   128058798.412    24368774.080    99786102.861  
  20657724.540   108557152.491    20657722.760    84590018.164  
  20750432.920   109044317.574    20750436.300    84969649.172  
  20681046.700   110474490.749    20681050.980    85924647.903  
  21795984.060   116184883.132                                  
  19244042.960   102762178.621    19244046.660    79926180.789  
  22704076.220   121579305.857    22704082.380    94561713.985  
  20089195.300   107199803.499                                  
  19454182.280   104139796.481    19454185.840    80997651.517  
 21  8 31  1 57  0.0000000  0 16G29G 4G16G 1G22G32G 3G25G31G26R16R10
                                R 9R 8R 6R 7
  24892281.500   130809825.553    24892283.120   101929748.983  
  23631566.540   124184715.017    23631569.340    96767332.617  
  23058075.680   121171035.938    23058076.160    94418956.251  
  25068403.080   131735340.381    25068406.960   102650933.081  
  21509786.180   113034714.351    21509783.960    88079006.272  
  22994999.080   120839577.582    22995001.760    94160710.836  
  21380748.760   112356626.516    21380751.600    87550633.740  
  24388668.460   128163363.757    24388671.100    99867582.344  
  20667064.020   108606232.099    20667062.360    84628262.030  
  20739881.800   108988871.632    20739885.260    84926444.579  
  20698418.320   110567286.940    20698423.160    85996822.713  
  21776105.080   116078916.734                                  
  19240974.920   102745795.966    19240978.720    79913438.732  
  22682291.420   121462650.814    22682298.340    94470982.399  
  20102921.840   107273050.858                                  
  19445866.020   104095278.812    19445869.480    80963026.693  
 21  8 31  1 57 30.0000000  0 16G29G 4G16G 1G22G32G 3G25G31G26R16R10
                                R 9R 8R 6R 7
  24883421.960   130763268.652    24883423.240   101893470.980  
  23614395.460   124094479.891    23614398.380    96697019.559  
  23036041.020   121055243.452    23036041.560    94328728.399  
  25084858.320   131821814.129    25084862.240   102718315.224  
  21514007.560   113056897.398    21514005.220    88096291.757  
  23010332.540   120920156.436    23010335.240    94223499.549  
  21376279.920   112333142.409    21376282.800    87532334.433  
  24408612.600   128268168.595    24408614.240    99949248.550  
  20676460.420   108655610.425    20676458.740    84666738.657  
  20729432.740   108933961.837    20729436.000    84883657.755  
  20715856.680   110660439.286    20715861.560    86069274.546  
  21756296.380   115973324.742                                  
  19238029.660   102730069.072    19238033.660    79901206.734  
  22660526.940   121346103.097    22660533.780    94380334.200  
  20116753.060   107346857.317                                  
  19437658.300   104051341.557    19437661.720    80928853.297  
 21  8 31  1 58  0.0000000  0 16G29G 4G16G 1G22G32G 3G25G31G26R16R10
                                R 9R 8R 6R 7
  24874640.020   130717120.316    24874641.320   101857511.290  
  23597233.700   124004292.878    23597235.920    96626743.960  
  23014044.820   120939653.850    23014045.600    94238658.641  
  25101325.900   131908351.993    25101330.620   102785747.250  
  21518331.340   113079619.816    21518329.160    88113997.528  
  23025707.940   121000956.421    23025710.960    94286460.550  
  21371924.820   112310255.579    21371927.520    87514500.544  
  24428600.980   128373207.268    24428603.020   100031096.906  
  20685912.800   108705283.083    20685911.220    84705444.629  
  20719085.560   108879587.047    20719088.620    84841287.809  
  20733360.220   110753941.027    20733365.280    86141998.117  
  21736557.700   115868105.895                                  
  19235206.760   102714994.701    19235210.600    79889482.231  
  22638782.800   121229663.128    22638788.760    94289769.759  
  20130688.260   107421218.564                                  
  19429558.840   104007984.973    19429562.360    80895131.535  
 21  8 31  1 58 30.0000000  0 16G29G 4G16G 1G22G32G 3G25G31G26R16R10
                                R 9R 8R 6R 7
  24865937.540   130671387.523    24865938.220   101821875.418  
  23580081.840   123914159.290    23580083.700    96556510.004  
  22992088.860   120824274.060    22992089.420    94148752.372  
  25117806.080   131994954.891    25117811.620   102853230.030  
  21522758.500   113102884.988    21522756.200    88132126.227  
  23041126.240   121081981.222    23041129.420    94349596.751  
  21367684.220   112287971.199    21367686.980    87497136.100  
  24448633.640   128478481.207    24448636.460   100113128.537  
  20695421.720   108755252.680    20695420.240    84744381.993  
  20708841.340   108825753.066    20708844.300    84799339.283  
  20750929.340   110847792.970    20750934.280    86214994.078  
  21716889.980   115763266.980                                  
  19232506.660   102700576.133    19232510.360    79878267.800  
  22617060.140   121113338.033    22617065.000    94199294.664  
  20144728.300   107496137.374                                  
  19421569.340   103965216.097    19421572.760    80861866.882  
 21  8 31  1 59  0.0000000  0 16G29G 4G16G 1G22G32G 3G25G31G26R16R10
                                R 9R 8R 6R 7
  24857313.840   130626068.920    24857314.280   101786562.247  
  23562939.380   123824076.970    23562941.520    96486316.004  
  22970172.700   120709103.712    22970173.240    94059009.295  
  25134297.320   132081616.337    25134302.700   102920758.381  
  21527288.140   113126688.452    21527285.760    88150674.376  
  23056586.640   121163226.764    23056590.020    94412904.961  
  21363557.780   112266286.839    21363560.680    87480239.204  
  24468710.480   128583984.011    24468713.660   100195338.501  
  20704986.200   108805514.256    20704984.900    84783546.872  
  20698699.600   108772458.110    20698702.480    84757810.766  
  20768562.860   110941987.917    20768567.460    86288256.827  
  21697293.380   115658806.968                                  
  19229928.560   102686809.298    19229932.240    79867560.272  
  22595358.340   120997127.221    22595363.160    94108908.564  
  20158871.640   107571608.842                                  
  19413689.260   103923033.966    19413692.780    80829058.583  
 21  8 31  1 59 30.0000000  0 16G29G 4G16G 1G22G32G 3G25G31G26R16R10
                                R 9R 8R 6R 7
  24848769.600   130581167.114    24848769.760   101751573.847  
  23545806.920   123734047.350    23545809.860    96416163.107  
  22948297.020   120594146.051    22948297.540    93969431.950  
  25150799.020   132168333.369    25150803.560   102988330.088  
  21531920.160   113151029.745    21531917.640    88169641.618  
  23072088.980   121244692.783    23072092.600    94476384.935  
  21359545.820   112245203.671    21359548.660    87463810.764  
  24488830.300   128689713.060    24488833.380   100277724.713  
  20714605.880   108856066.108    20714604.700    84822937.929  
  20688660.780   108719703.959    20688663.700    84716703.666  
  20786259.980   111036523.241    20786264.560    86361784.293  
  21677768.460   115554727.963                                  
  19227472.380   102673693.586    19227476.080    79857359.171  
  22573678.820   120881034.065    22573683.600    94018613.950  
  20173117.920   107647631.606                                  
  19405919.460   103881441.821    19405923.020    80796709.156  
 21  8 31  2  0  0.0000000  0 16G29G 4G16G 1G22G32G 3G25G31G26R16R10
                                R 9R 8R 6R 7
  24840305.540   130536688.137    24840305.660   101716914.916  
  23528685.700   123644075.152    23528688.920    96346054.975  
  22926463.080   120479407.743    22926463.380    93880025.532  
  25167311.000   132255106.586    25167314.680   103055945.558  
  21536654.980   113175911.247    21536652.440    88189029.801  
  23087633.960   121326382.196    23087637.600    94540038.992  
  21355649.020   112224726.180    21355651.800    87447854.279  
  24508993.240   128795669.100    24508995.320   100360287.911  
  20724281.140   108906910.302    20724280.060    84862556.786  
  20678725.800   108667495.784    20678728.900    84676022.000  
  20804020.900   111131398.263    20804025.320    86435575.987  
  21658316.060   115451035.399                                  
  19225138.640   102661231.897    19225142.440    79847666.744  
  22552022.700   120765065.347    22552027.300    93928416.106  
  20187468.060   107724207.545                                  
  19398260.980   103840446.227    19398264.780    80764823.725  
 21  8 31  2  0 30.0000000  0 16G29G 4G16G 1G22G32G 3G25G31G26R16R10
                                R 9R 8R 6R 7
  24831921.300   130492630.324    24831921.600   101682584.183  
  23511575.420   123554157.804    23511578.420    96275989.535  
  22904670.820   120364888.221    22904670.960    93790789.604  
  25183832.680   132341928.894    25183835.780   103123599.314  
  21541491.680   113201328.619    21541489.280    88208835.531  
  23103220.660   121408290.508    23103224.180    94603863.633  
  21351866.940   112204851.373    21351869.620    87432367.410  
  24529197.820   128901845.381    24529199.500   100443022.700  
  20734011.000   108958041.366    20734009.860    84902399.192  
  20668894.300   108615831.205    20668897.500    84635763.917  
  20821843.940   111226605.506    20821848.540    86509626.071  
  21638935.700   115347727.660                                  
  19222926.420   102649419.580    19222930.500    79838479.407  
  22530389.320   120649220.287    22530393.300    93838314.397  
  20201921.180   107801331.880                                  
  19390713.560   103800045.538    19390717.520    80733400.978  
 21  8 31  2  1  0.0000000  0 16G29G 4G16G 1G22G32G 3G25G31G26R16R10
                                R 9R 8R 6R 7
  24823617.860   130448999.394    24823619.280   101648586.132  
  23494476.460   123464299.861    23494478.800    96205970.379  
  22882921.340   120250593.843    22882921.440    93701729.093  
  25200364.060   132428800.669    25200369.100   103191291.546  
  21546430.880   113227283.935    21546428.420    88229060.453  
  23118849.640   121490420.559    23118852.940    94667861.021  
  21348200.400   112185583.436    21348203.000    87417353.446  
  24549444.080   129008242.415    24549446.260   100525929.451  
  20743795.740   109009460.803    20743794.620    84942466.290  
  20659167.260   108564715.123    20659170.380    84595933.224  
  20839729.280   111322145.250    20839734.020    86583934.755  
  21619628.520   115244810.163                                  
  19220836.500   102638258.960    19220840.480    79829798.928  
  22508779.960   120533505.330    22508782.980    93748313.902  
  20216477.160   107879005.982                                  
  19383278.680   103760246.314    19383282.660    80702446.054  
 21  8 31  2  1 30.0000000  0 16G29G 4G16G 1G22G32G 3G25G31G26R16R10
                                R 9R 8R 6R 7
  24815395.620   130405792.947    24815397.500   101614918.791  
  23477387.620   123374498.265    23477389.940    96135995.163  
  22861214.440   120136523.363    22861214.620    93612843.070  
  25216903.260   132515714.362    25216908.960   103259016.506  
  21551471.420   113253771.989    21551468.960    88249700.483  
  23134520.140   121572767.388    23134523.160    94732027.380  
  21344648.800   112166919.021    21344651.140    87402809.752  
  24569731.200   129114853.212    24569734.220   100609002.795  
  20753634.260   109061162.982    20753633.100    84982753.723  
  20649544.040   108514144.797    20649547.120    84556527.808  
  20857675.080   111418009.163    20857679.740    86658495.574  
  21600394.140   115142280.920                                  
  19218867.600   102627744.845    19218871.500    79821621.289  
  22487194.600   120417918.914    22487197.620    93658413.383  
  20231135.320   107957224.663                                  
  19375955.600   103721046.632    19375959.840    80671957.421  
 21  8 31  2  2  0.0000000  0 16G29G 4G16G 1G22G32G 3G25G31G26R16R10
                                R 9R 8R 6R 7
  24807255.440   130363016.036    24807257.340   101581586.155  
  23460310.100   123284755.972    23460312.320    96066066.151  
  22839551.000   120022681.315    22839551.120    93524135.024  
  25233450.320   132602668.788    25233456.000   103326773.140  
  21556613.520   113280793.625    21556611.140    88270756.307  
  23150231.940   121655332.146    23150234.600    94796363.528  
  21341212.440   112148860.620    21341214.660    87388738.267  
  24590059.080   129221676.459    24590062.900   100692241.734  
  20763526.580   109113147.816    20763525.400    85023261.396  
  20640025.320   108464123.370    20640028.320    84517550.096  
  20875681.420   111514195.781    20875686.020    86733307.394  
  21581233.360   115040143.343                                  
  19217019.900   102617878.161    19217023.880    79813947.222  
  22465634.780   120302466.542    22465638.300    93568617.144  
  20245895.980   108035987.182                                  
  19368745.560   103682451.240    19368749.820    80641938.818  
 21  8 31  2  2 30.0000000  0 15G29G 4G16G22G32G 3G25G31G26R16R10R 9
                                R 8R 6R 7
  24799197.940   130320670.222    24799199.440   101548589.433  
  23443243.900   123195073.448    23443246.140    95996183.738  
  22817931.340   119909069.781    22817931.560    93435606.613  
  21561856.700   113308347.158    21561854.460    88292226.585  
  23165984.880   121738113.411    23165987.600    94860868.373  
  21337891.340   112131408.224    21337893.340    87375139.003  
  24610426.900   129328708.593    24610431.140   100775643.432  
  20773472.240   109165412.707    20773471.040    85063987.299  
  20630611.120   108414651.620    20630614.160    84479000.709  
  20893747.460   111610700.555    20893751.800    86808366.681  
  21562146.220   114938398.799                                  
  19215292.920   102608657.014    19215296.980    79806775.244  
  22444100.480   120187150.232    22444104.040    93478926.758  
  20260757.520   108115291.439                                  
  19361648.700   103644461.904    19361653.080    80612391.557  
