     2.11           OBSERVATION DATA    M (MIXED)           RINEX VERSION / TYPE
CONVBIN 2.4.3                           20210901 012356 UTC PGM / RUN BY / DATE 
log: ngs/moip2420.21o                                       COMMENT             
format: RINEX                                               COMMENT             
MOIP                                                        MARKER NAME         
MOIP                                                        MARKER NUMBER       
                                                            OBSERVER / AGENCY   
5750R40067          TRIMBLE ALLOY       Nav 6.10 / Boot 5.50REC # / TYPE / VERS 
1431179213          TRM115000.00    NONE                    ANT # / TYPE        
  -379062.4570 -4940496.4220  4002992.1490                  APPROX POSITION XYZ 
        0.0000        0.0000        0.0000                  ANTENNA: DELTA H/E/N
     1     1                                                WAVELENGTH FACT L1/2
     4    C1    L1    P2    L2                              # / TYPES OF OBSERV 
    30.000                                                  INTERVAL            
  2021     8    30     0     0    0.0000000     GPS         TIME OF FIRST OBS   
  2021     8    30    23    59   30.0000000     GPS         TIME OF LAST OBS    
                                                            END OF HEADER       
 21  8 30  0  0  0.0000000  0 17G 1G 3G10G12G21G22G23G25G31G32R 4R 5
                                R14R15R16R20R21
  22478313.367   118124304.771    22478315.734    92044970.985  
  24680959.516   129699319.682    24680961.227   101064403.634  
  21985653.430   115535450.702    21985654.516    90027609.350  
  23977394.313   126002078.073    23977393.523    98183491.579  
  22923289.242   120462711.752    22923287.492    93867061.663  
  23074923.039   121259514.306    23074919.902    94487963.553  
  25029284.758   131529784.124    25029285.371   102490730.491  
  22588694.742   118704447.984    22588695.785    92496987.665  
  20457755.047   107506510.708    20457752.625    83771147.335  
  20941231.016   110046970.772    20941231.539    85750915.851  
  21194260.977   113494331.620    21194257.262    88273394.374  
  19838937.813   106050546.705    19838934.566    82483728.278  
  21047681.063   112196027.785    21047679.020    87263645.267  
  19826330.273   105945977.889    19826327.043    82402425.099  
  23012139.203   122926709.281    23012135.332    95609699.449  
  22843864.180   122156406.628    22843864.754    95010532.166  
  22678949.547   121359613.647    22678947.602    94390832.687  
 21  8 30  0  0 30.0000000  0 17G 1G 3G10G12G21G22G23G25G31G32R 4R 5
                                R14R15R16R20R21
  22474125.383   118102298.997    22474128.527    92027823.633  
  24661219.313   129595586.583    24661220.793   100983572.725  
  22000624.703   115614125.151    22000625.676    90088914.077  
  23982798.625   126030475.945    23982798.711    98205619.815  
  22925347.609   120473525.448    22925345.172    93875487.898  
  23058736.836   121174451.532    23058733.180    94421680.902  
  25049302.414   131634980.476    25049303.172   102572701.651  
  22585510.797   118687716.078    22585512.266    92483949.824  
  20448076.523   107455652.433    20448074.688    83731517.523  
  20947131.172   110077975.074    20947131.680    85775075.031  
  21204947.875   113551558.485    21204944.250    88317904.172  
  19834213.766   106025294.226    19834210.602    82464087.453  
  21060726.836   112265570.501    21060725.195    87317734.063  
  19816315.695   105892465.898    19816313.070    82360804.678  
  22986667.719   122790650.400    22986665.082    95503876.019  
  22863236.430   122259992.487    22863236.195    95091098.884  
  22680663.445   121368780.674    22680660.727    94397962.568  
 21  8 30  0  1  0.0000000  0 17G 1G 3G10G12G21G22G23G25G31G32R 4R 5
                                R14R15R16R20R21
  22470053.938   118080902.923    22470056.176    92011151.390  
  24641486.516   129491887.273    24641487.012   100902768.116  
  22015663.242   115693154.164    22015664.301    90150495.081  
  23988312.844   126059453.630    23988313.250    98228199.877  
  22927492.289   120484798.940    22927489.820    93884272.369  
  23042587.375   121089585.126    23042584.004    94355551.275  
  25069341.141   131740285.065    25069341.133   102654757.116  
  22582438.945   118671576.598    22582440.891    92471373.614  
  20438501.195   107405332.143    20438498.953    83692306.926  
  20953070.188   110109186.515    20953071.047    85799395.635  
  21215686.078   113609060.818    21215682.574    88362628.189  
  19829542.336   106000321.531    19829538.773    82444664.286  
  21073896.344   112335771.400    21073894.461    87372334.743  
  19806442.031   105839705.699    19806439.637    82319768.983  
  22961221.203   122654718.432    22961218.113    95398151.300  
  22882663.047   122363877.891    22882663.281    95171898.587  
  22682518.211   121378710.513    22682516.125    94405685.790  
 21  8 30  0  1 30.0000000  0 17G 1G 3G10G12G21G22G23G25G31G32R 4R 5
                                R14R15R16R20R21
  22466099.039   118060116.513    22466100.848    91994954.190  
  24621759.836   129388222.815    24621760.023   100821990.690  
  22030769.195   115772535.937    22030770.168    90212350.981  
  23993936.984   126089010.027    23993935.832    98251230.809  
  22929724.719   120496530.994    22929722.844    93893414.238  
  23026475.438   121004916.724    23026471.945    94289575.933  
  25089400.391   131845695.756    25089398.137   102736895.302  
  22579480.828   118656030.223    22579482.266    92459259.580  
  20429028.320   107355549.994    20429025.824    83653515.647  
  20959049.133   110140604.192    20959049.410    85823876.933  
  21226475.164   113666838.407    21226471.926    88407566.283  
  19824923.125   105975629.416    19824919.758    82425459.304  
  21087188.758   112406626.578    21087186.770    87427444.311  
  19796710.000   105787698.724    19796707.195    82279319.130  
  22935798.031   122518916.485    22935795.828    95292527.684  
  22902145.617   122468057.185    22902145.102    95252926.870  
  22684516.578   121389401.603    22684513.871    94414001.041  
 21  8 30  0  2  0.0000000  0 17G 1G 3G10G12G21G22G23G25G31G32R 4R 5
                                R14R15R16R20R21
  22462259.297   118039940.096    22462261.246    91979232.311  
  24602039.305   129284595.096    24602041.121   100741241.852  
  22045941.609   115852269.248    22045942.746    90274480.807  
  23999671.477   126119143.688    23999670.445    98274711.561  
  22932044.695   120508720.830    22932042.512    93902912.772  
  23010401.648   120920448.237    23010398.297    94223756.355  
  25109479.492   131951211.057    25109475.520   102819114.877  
  22576635.719   118641078.092    22576636.980    92447608.568  
  20419657.367   107306306.711    20419655.316    83615144.269  
  20965066.609   110172227.655    20965066.840    85848518.576  
  21237316.734   113724891.388    21237312.699    88452718.544  
  19820356.539   105951219.695    19820353.285    82406473.979  
  21100603.438   112478132.457    21100601.316    87483059.987  
  19787118.781   105736447.281    19787116.156    82239456.906  
  22910400.789   122383248.032    22910398.633    95187007.900  
  22921681.109   122572525.603    22921681.203    95334179.999  
  22686656.250   121400852.692    22686653.855    94422907.470  
 21  8 30  0  2 30.0000000  0 17G 1G 3G10G12G21G22G23G25G31G32R 4R 5
                                R14R15R16R20R21
  22458535.516   118020374.256    22458538.098    91963986.205  
  24582326.828   129181006.050    24582329.645   100660523.147  
  22061180.984   115932353.030    22061182.379    90336883.727  
  24005515.313   126149854.191    24005516.965    98298641.791  
  22934451.406   120521367.440    22934449.051    93912767.299  
  22994366.711   120836181.757    22994362.691    94158094.192  
  25129577.461   132056829.429    25129574.500   102901414.852  
  22573903.586   118626721.402    22573905.207    92436421.535  
  20410389.570   107257603.165    20410387.332    83577193.468  
  20971123.938   110204056.675    20971123.441    85873320.414  
  21248208.984   113783220.271    21248204.926    88498085.448  
  19815843.508   105927093.580    19815840.004    82387709.230  
  21114138.938   112550286.062    21114137.035    87539179.455  
  19777669.727   105685953.660    19777666.762    82200184.101  
  22885028.320   122247717.491    22885026.891    95081595.390  
  22941270.641   122677278.224    22941270.238    95415654.176  
  22688937.922   121413062.493    22688935.574    94432403.933  
 21  8 30  0  3  0.0000000  0 17G 1G 3G10G12G21G22G23G25G31G32R 4R 5
                                R14R15R16R20R21
  22454928.883   118001419.375    22454931.195    91949216.181  
  24562623.156   129077457.451    24562624.719   100579835.982  
  22076487.125   116012786.085    22076488.527    90399558.822  
  24011469.016   126181140.809    24011470.176    98323021.007  
  22936944.180   120534470.154    22936941.891    93922977.167  
  22978369.945   120752119.549    22978366.188    94092591.204  
  25149695.352   132162549.351    25149692.059   102983793.892  
  22571284.656   118612961.381    22571286.641    92425699.444  
  20401224.148   107209440.439    20401222.137    83539664.084  
  20977219.313   110236091.030    20977219.535    85898282.234  
  21259152.547   113841825.395    21259148.895    88543667.193  
  19811383.352   105903252.522    19811380.141    82369166.173  
  21127795.523   112623083.900    21127793.617    87595799.960  
  19768362.609   105636219.902    19768359.727    82161502.299  
  22859683.883   122112328.471    22859681.500    94976292.957  
  22960912.836   122782310.587    22960911.816    95497345.949  
  22691361.563   121426029.731    22691358.754    94442489.557  
 21  8 30  0  3 30.0000000  0 17G 1G 3G10G12G21G22G23G25G31G32R 4R 5
                                R14R15R16R20R21
  22451438.625   117983075.974    22451440.676    91934922.653  
  24542925.453   128973951.332    24542927.672   100499181.920  
  22091859.531   116093567.366    22091860.789    90462505.238  
  24017532.352   126213002.735    24017531.008    98347848.506  
  22939524.539   120548028.232    22939521.770    93933541.912  
  22962412.867   120668263.692    22962408.492    94027248.965  
  25169832.391   132268369.360    25169829.965   103066251.015  
  22568780.086   118599799.208    22568781.891    92415443.245  
  20392162.359   107161819.366    20392160.215    83502556.758  
  20983354.336   110268330.495    20983354.621    85923403.881  
  21270149.250   113900707.036    21270145.063    88589464.006  
  19806976.664   105879698.530    19806973.656    82350846.417  
  21141572.797   112696522.836    21141570.918    87652919.145  
  19759198.047   105587248.337    19759195.344    82123413.330  
  22834365.852   121977084.997    22834363.723    94871103.726  
  22980605.945   122887618.082    22980604.980    95579251.700  
  22693925.891   121439753.212    22693923.070    94453163.370  
 21  8 30  0  4  0.0000000  0 16G 1G 3G10G12G21G22G25G31G32R 4R 5R14
                                R15R16R20R21
  22448063.930   117965344.433    22448065.313    91921105.858  
  24523237.133   128870489.540    24523238.473   100418562.357  
  22107297.586   116174695.554    22107298.680    90525721.984  
  24023704.867   126245439.580    24023703.719    98373123.918  
  22942190.688   120562040.659    22942189.230    93944460.686  
  22946494.617   120584616.160    22946491.605    93962069.112  
  22566389.531   118587235.972    22566391.098    92405653.718  
  20383203.336   107114740.471    20383201.305    83465871.925  
  20989528.336   110300774.678    20989528.355    85948685.076  
  21281196.414   113959865.705    21281192.832    88635476.306  
  19802624.938   105856432.434    19802621.254    82332750.570  
  21155469.125   112770599.463    21155467.535    87710534.259  
  19750177.023   105539041.063    19750173.914    82085918.805  
  22809076.055   121841991.091    22809073.957    94766030.811  
  23000349.445   122993195.717    23000348.875    95661367.583  
  22696631.523   121454231.545    22696629.527    94464424.286  
 21  8 30  0  4 30.0000000  0 16G 1G 3G10G12G21G22G25G31G32R 4R 5R14
                                R15R16R20R21
  22444806.656   117948224.839    22444807.891    91907765.924  
  24503558.219   128767073.832    24503559.133   100337978.726  
  22122801.438   116256169.294    22122803.023    90589207.965  
  24029986.500   126278449.971    24029986.320    98398846.353  
  22944944.125   120576506.479    22944941.914    93955732.735  
  22930617.195   120501179.239    22930613.996    93897053.345  
  22564113.375   118575272.607    22564114.527    92396331.615  
  20374348.250   107068204.600    20374345.813    83429610.224  
  20995741.156   110333423.138    20995741.426    85974125.429  
  21292295.398   114019301.281    21292292.340    88681703.932  
  19798326.398   105833455.939    19798323.055    82314879.975  
  21169484.508   112845310.115    21169482.934    87768642.526  
  19741298.883   105491599.789    19741295.805    82049020.040  
  22783814.391   121707049.752    22783812.438    94661076.547  
  23020142.086   123099038.691    23020141.961    95743689.798  
  22699478.000   121469463.077    22699475.449    94476271.036  
 21  8 30  0  5  0.0000000  0 16G 1G 3G10G12G21G22G25G31G32R 4R 5R14
                                R15R16R20R21
  22441665.078   117931717.686    22441667.156    91894903.224  
  24483887.367   128663706.105    24483889.109   100257432.499  
  22138371.422   116337987.439    22138372.379    90652962.349  
  24036377.320   126312033.245    24036375.613    98425015.101  
  22947782.945   120591424.560    22947780.637    93967357.206  
  22914780.133   120417955.174    22914777.102    93832203.439  
  22561950.836   118563910.222    22561952.789    92387477.820  
  20365595.820   107022212.715    20365593.961    83393772.399  
  21001992.734   110366275.711    21001993.102    85999724.828  
  21303446.586   114079014.249    21303443.359    88728147.320  
  19794083.117   105810770.604    19794079.148    82297235.829  
  21183619.125   112920651.561    21183616.582    87827241.427  
  19732564.453   105444926.588    19732561.777    82012718.676  
  22758582.383   121572265.815    22758580.746    94556244.655  
  23039985.492   123205142.345    23039984.371    95826214.777  
  22702464.289   121485446.444    22702462.023    94488702.532  
 21  8 30  0  5 30.0000000  0 16G 1G 3G10G12G21G22G25G31G32R 4R 5R14
                                R15R16R20R21
  22438640.641   117915823.420    22438642.887    91882518.080  
  24464226.758   128560388.570    24464227.949   100176925.360  
  22154006.000   116420148.966    22154007.438    90716984.291  
  24042876.922   126346188.487    24042875.219    98451629.564  
  22950707.609   120606794.452    22950706.398    93979333.726  
  22898983.992   120334945.907    22898980.938    93767520.927  
  22559903.266   118553150.037    22559904.984    92379093.295  
  20356947.742   106976765.459    20356945.586    83358358.968  
  21008283.539   110399332.331    21008283.512    86025483.214  
  21314649.969   114139005.143    21314646.199    88774806.905  
  19789893.891   105788378.056    19789890.551    82279819.406  
  21197869.922   112996620.343    21197868.063    87886328.251  
  19723974.445   105399023.642    19723971.734    81977016.407  
  22733380.344   121437642.446    22733378.980    94451537.664  
  23059874.656   123311502.239    23059874.508    95908939.072  
  22705592.109   121502180.657    22705589.547    94501717.987  
 21  8 30  0  6  0.0000000  0 16G 1G 3G10G12G21G22G25G31G32R 4R 5R14
                                R15R16R20R21
  22435732.797   117900542.225    22435734.414    91870610.661  
  24444576.219   128457122.892    24444576.551   100096458.655  
  22169706.172   116502652.535    22169707.488    90781272.737  
  24049485.641   126380915.020    24049486.086    98478689.206  
  22953717.828   120622615.013    22953715.797    93991661.418  
  22883228.953   120252153.632    22883225.508    93703007.477  
  22557971.031   118542992.941    22557972.484    92371178.691  
  20348403.008   106931863.457    20348401.102    83323370.416  
  21014612.563   110432592.544    21014612.684    86051400.257  
  21325904.094   114199274.068    21325900.848    88821682.699  
  19785759.805   105766279.822    19785756.594    82262631.908  
  21212239.086   113073213.243    21212236.672    87945900.458  
  19715528.992   105353892.707    19715526.004    81941914.587  
  22708209.773   121303184.274    22708207.988    94346959.160  
  23079810.922   123418113.442    23079811.156    95991858.848  
  22708859.203   121519663.652    22708856.375    94515315.839  
 21  8 30  0  6 30.0000000  0 16G 1G 3G10G12G21G22G25G31G32R 4R 5R14
                                R15R16R20R21
  22432941.297   117885874.503    22432943.965    91859181.281  
  24424935.852   128353911.268    24424936.035   100016034.075  
  22185470.469   116585497.035    22185472.203    90845826.843  
  24056201.914   126416211.308    24056202.504    98506192.809  
  22956814.250   120638885.540    22956812.293    94004339.708  
  22867515.852   120169580.266    22867512.117    93638664.612  
  22556152.750   118533440.108    22556154.121    92363734.934  
  20339962.617   106887507.934    20339960.480    83288807.676  
  21020980.234   110466056.273    21020980.965    86077475.890  
  21337211.031   114259821.510    21337207.719    88868775.154  
  19781681.156   105744477.166    19781677.754    82245674.290  
  21226723.938   113150426.705    21226721.945    88005955.349  
  19707227.805   105309536.031    19707225.293    81907414.968  
  22683070.305   121168894.982    22683068.586    94242512.006  
  23099794.242   123524971.677    23099794.125    96074970.694  
  22712265.836   121537894.211    22712262.891    94529495.167  
 21  8 30  0  7  0.0000000  0 16G 1G 3G10G12G21G22G25G31G32R 4R 5R14
                                R15R16R20R21
  22430267.242   117871820.327    22430269.434    91848229.980  
  24405306.055   128250755.528    24405306.168    99935653.041  
  22201299.836   116668681.063    22201301.832    90910645.539  
  24063026.586   126452077.207    24063025.430    98534140.255  
  22959995.773   120655604.749    22959994.383    94017367.656  
  22851844.789   120087228.285    22851841.793    93574494.264  
  22554450.008   118524492.315    22554451.598    92356762.644  
  20331626.430   106843698.941    20331623.898    83254670.796  
  21027387.148   110499723.161    21027387.500    86103709.808  
  21348569.953   114320647.694    21348566.465    88916084.393  
  19777657.992   105722972.001    19777654.926    82228948.054  
  21241324.555   113228257.316    21241322.695    88066490.275  
  19699072.594   105265955.114    19699069.848    81873518.714  
  22657963.250   121034778.396    22657961.426    94138199.190  
  23119822.664   123632071.734    23119822.035    96158270.619  
  22715811.961   121556870.783    22715809.660    94544254.728  
 21  8 30  0  7 30.0000000  0 16G 1G 3G10G12G21G22G25G31G32R 4R 5R14
                                R15R16R20R21
  22427709.547   117858379.922    22427711.848    91837756.940  
  24385686.859   128147657.636    24385687.980    99855317.060  
  22217194.258   116752203.361    22217195.348    90975727.817  
  24069960.078   126488511.177    24069957.734    98562530.378  
  22963262.461   120672771.786    22963260.164    94030744.537  
  22836216.438   120005099.819    22836212.125    93510498.065  
  22552862.891   118516150.498    22552864.387    92350262.532  
  20323393.828   106800437.371    20323391.539    83220960.505  
  21033832.328   110533592.923    21033832.609    86130101.828  
  21359981.016   114381753.064    21359977.172    88963610.740  
  19773691.273   105701765.639    19773687.754    82212454.231  
  21256040.813   113306701.309    21256038.891    88127502.257  
  19691062.625   105223151.910    19691059.738    81840227.345  
  22632889.320   120900838.510    22632887.457    94034023.807  
  23139895.203   123739409.110    23139895.094    96241755.173  
  22719496.828   121576591.453    22719494.336    94559593.078  
 21  8 30  0  8  0.0000000  0 16G 1G 3G10G12G21G22G25G31G32R 4R 5R14
                                R15R16R20R21
  22425268.914   117845553.426    22425270.551    91827762.293  
  24366079.148   128044619.459    24366080.887    99775027.635  
  22233151.969   116836062.582    22233153.078    91041072.636  
  24077001.516   126525512.606    24077000.770    98591362.646  
  22966614.375   120690385.650    22966612.066    94044469.607  
  22820630.406   119923197.019    22820626.410    93446677.733  
  22551391.125   118508415.579    22551391.680    92344235.336  
  20315265.523   106757723.752    20315263.082    83187677.178  
  21040315.922   110567665.269    21040316.254    86156651.710  
  21371444.055   114443137.598    21371440.496    89011354.253  
  19769780.531   105680859.592    19769776.648    82196193.962  
  21270870.859   113385755.375    21270869.457    88188988.721  
  19683197.914   105181128.099    19683195.547    81807542.181  
  22607849.828   120767079.289    22607847.340    93929988.982  
  23160011.125   123846978.818    23160011.383    96325420.438  
  22723321.141   121597054.580    22723319.484    94575508.891  
 21  8 30  0  8 30.0000000  0 16G 1G 3G10G12G21G22G25G31G32R 4R 5R14
                                R15R16R20R21
  22422945.133   117833340.971    22422946.758    91818246.092  
  24346483.867   127941643.040    24346485.430    99694786.350  
  22249174.055   116920257.508    22249174.602    91106679.012  
  24084150.047   126563080.159    24084150.555    98620636.061  
  22970050.898   120708445.173    22970048.500    94058541.962  
  22805088.664   119841521.928    22805083.777    93383034.818  
  22550034.289   118501288.320    22550035.258    92338681.651  
  20307241.906   106715558.727    20307239.195    83154821.326  
  21046838.305   110601939.961    21046838.113    86183359.253  
  21382959.219   114504801.451    21382955.883    89059314.992  
  19765925.969   105660255.383    19765922.344    82180168.477  
  21285815.281   113465415.888    21285813.449    88250946.891  
  19675480.820   105139885.460    19675477.547    81775464.573  
  22582843.461   120633504.477    22582841.652    93826097.563  
  23180170.914   123954776.401    23180169.758    96409262.914  
  22727284.000   121618258.430    22727280.414    94592000.739  
 21  8 30  0  9  0.0000000  0 16G 1G 3G10G12G21G22G25G31G32R 4R 5R14
                                R15R16R20R21
  22420736.938   117821742.785    22420740.004    91809208.555  
  24326900.359   127838730.508    24326901.574    99614594.820  
  22265259.117   117004786.902    22265260.270    91172546.025  
  24091406.477   126601212.573    24091403.805    98650349.660  
  22973572.719   120726949.297    22973570.211    94072960.738  
  22789590.563   119760076.786    22789585.906    93319571.114  
  22548794.211   118494769.742    22548795.336    92333602.258  
  20299322.641   106673942.979    20299320.188    83122393.481  
  21053398.930   110636416.844    21053398.707    86210224.340  
  21394527.195   114566745.169    21394523.316    89107493.403  
  19762128.125   105639954.579    19762124.492    82164378.965  
  21300872.430   113545679.444    21300870.895    88313374.062  
  19667908.828   105099425.694    19667906.074    81743995.888  
  22557873.484   120500118.079    22557871.160    93722352.689  
  23200370.234   124062797.191    23200370.484    96493278.985  
  22731383.664   121640201.205    22731381.883    94609067.346  
 21  8 30  0  9 30.0000000  0 16G 1G 3G10G12G21G22G25G31G32R 4R 5R14
                                R15R16R20R21
  22418647.680   117810758.837    22418648.719    91800649.643  
  24307328.836   127735883.629    24307330.566    99534454.465  
  22281407.898   117089649.317    22281408.828    91238672.548  
  24098769.656   126639909.667    24098769.684    98680503.261  
  22977178.039   120745897.122    22977175.508    94087725.257  
  22774135.898   119678863.678    22774131.703    93256288.202  
  22547669.102   118488860.561    22547670.750    92328997.707  
  20291507.859   106632877.197    20291505.492    83090394.190  
  21059998.383   110671095.593    21059998.246    86237246.741  
  21406147.102   114628969.044    21406143.270    89155889.741  
  19758387.648   105619958.880    19758384.008    82148826.760  
  21316042.250   113626542.323    21316040.195    88376267.388  
  19660484.227   105059750.556    19660481.219    81713137.451  
  22532939.500   120366923.386    22532936.887    93618756.898  
  23220611.500   124171036.172    23220612.418    96577464.787  
  22735622.672   121662881.334    22735620.672    94626707.441  
 21  8 30  0 10  0.0000000  0 16G 1G 3G10G12G21G22G25G31G32R 4R 5R14
                                R15R16R20R21
  22416674.031   117800389.280    22416677.055    91792569.454  
  24287770.242   127633104.589    24287772.340    99454366.945  
  22297619.789   117174843.496    22297621.059    91305057.607  
  24106241.258   126679169.773    24106241.676    98711095.529  
  22980867.445   120765287.570    22980865.945    94102834.706  
  22758725.461   119597884.514    22758721.699    93193187.582  
  22546661.516   118483561.649    22546662.340    92324868.686  
  20283797.781   106592361.742    20283795.559    83058823.715  
  21066635.539   110705976.058    21066636.234    86264426.325  
  21417819.141   114691473.139    21417815.477    89204504.008  
  19754704.063   105600269.694    19754700.809    82133512.960  
  21331323.688   113708000.985    21331321.168    88439624.120  
  19653206.875   105020861.482    19653203.555    81682890.402  
  22508041.484   120233925.098    22508039.406    93515313.887  
  23240892.969   124279489.172    23240893.184    96661817.051  
  22739999.016   121686296.918    22739995.875    94644919.565  
 21  8 30  0 10 30.0000000  0 16G 1G 3G10G12G21G22G25G31G32R 4R 5R14
                                R15R16R20R21
  22414818.266   117790634.122    22414819.738    91784968.025  
  24268224.859   127530395.316    24268227.246    99374333.816  
  22313894.664   117260368.120    22313895.746    91371700.149  
  24113819.055   126718991.314    24113817.199    98742125.305  
  22984641.406   120785119.315    22984639.762    94118288.004  
  22743360.500   119517141.549    22743356.184    93130271.034  
  22545768.984   118478873.772    22545770.625    92321215.806  
  20276193.008   106552397.058    20276190.414    83027682.418  
  21073311.484   110741057.959    21073312.418    86291762.860  
  21429543.836   114754257.879    21429540.211    89253336.566  
  19751078.422   105580888.646    19751075.234    82118438.815  
  21346715.719   113790051.872    21346713.844    88503441.446  
  19646076.805   104982760.113    19646073.484    81653256.021  
  22483180.734   120101126.648    22483178.961    93412026.317  
  23261212.914   124388151.011    23261214.152    96746331.746  
  22744512.031   121710445.894    22744509.496    94663702.093  
 21  8 30  0 11  0.0000000  0 16G 1G 3G10G12G21G22G25G31G32R 4R 5R14
                                R15R16R20R21
  22413078.477   117781493.257    22413079.848    91777845.284  
  24248694.188   127427757.758    24248696.438    99294356.610  
  22330231.820   117346221.769    22330233.316    91438599.054  
  24121503.547   126759373.708    24121500.809    98773592.104  
  22988499.492   120805391.471    22988497.188    94134084.495  
  22728040.906   119436637.035    22728036.801    93067540.276  
  22544993.648   118474797.508    22544994.344    92318039.522  
  20268692.977   106512983.964    20268690.766    82996970.922  
  21080025.797   110776341.024    21080026.367    86319256.153  
  21441321.070   114817323.496    21441317.473    89302387.583  
  19747510.961   105561817.318    19747507.574    82103605.560  
  21362218.813   113872691.352    21362217.137    88567716.563  
  19639094.383   104945447.948    19639090.941    81624235.462  
  22458359.680   119968532.387    22458356.313    93308897.548  
  23281573.508   124497017.050    23281572.410    96831005.229  
  22749160.477   121735326.492    22749158.152    94683053.614  
 21  8 30  0 11 30.0000000  0 16G 1G 3G10G12G21G22G25G31G32R 4R 5R14
                                R15R16R20R21
  22411455.797   117772966.923    22411457.621    91771201.392  
  24229176.758   127325194.187    24229178.828    99214437.009  
  22346632.250   117432403.265    22346633.301    91505753.426  
  24129294.297   126800315.494    24129294.293    98805494.741  
  22992440.445   120826103.056    22992438.430    94150223.355  
  22712767.594   119356373.702    22712763.227    93004997.453  
  22544333.945   118471333.780    22544335.387    92315340.517  
  20261297.969   106474122.561    20261295.750    82966689.323  
  21086777.734   110811825.212    21086778.555    86346906.159  
  21453150.695   114880670.273    21453146.836    89351657.277  
  19744001.422   105543057.277    19743998.074    82089014.415  
  21377831.656   113955915.803    21377830.039    88632446.645  
  19632259.461   104908926.453    19632256.262    81595829.861  
  22433576.539   119836146.163    22433573.117    93205930.581  
  23301968.164   124606083.393    23301968.793    96915834.539  
  22753947.109   121760936.938    22753944.547    94702972.838  
 21  8 30  0 12  0.0000000  0 16G 1G 3G10G12G21G22G25G31G32R 4R 5R14
                                R15R16R20R21
  22409950.477   117765054.945    22409952.789    91765036.205  
  24209674.047   127222706.524    24209674.910    99134576.556  
  22363093.695   117518911.205    22363095.320    91573162.174  
  24137191.602   126841816.064    24137191.426    98837832.859  
  22996465.422   120847252.816    22996463.043    94166703.683  
  22697540.820   119276353.657    22697536.250    92942644.210  
  22543791.969   118468483.170    22543793.129    92313119.279  
  20254008.172   106435813.463    20254005.641    82936838.095  
  21093568.656   110847510.192    21093569.387    86374712.639  
  21465032.563   114944298.300    21465029.203    89401145.718  
  19740550.602   105524610.086    19740547.082    82074666.607  
  21393553.492   114039721.738    21393551.691    88697629.000  
  19625573.430   104873197.436    19625570.137    81568040.634  
  22408832.789   119703971.796    22408829.992    93103128.381  
  23322400.586   124715344.542    23322400.855    97000815.331  
  22758869.109   121787275.153    22758866.508    94723458.096  
 21  8 30  0 12 30.0000000  0 17G 1G 3G10G12G21G22G25G26G31G32R 4R 5
                                R14R15R16R20R21
  22408561.625   117757757.203    22408563.766    91759349.639  
  24190185.750   127120296.711    24190187.465    99054776.759  
  22379617.633   117605744.036    22379619.727    91640824.084  
  24145195.500   126883873.970    24145192.547    98870605.228  
  23000573.164   120868839.346    23000571.324    94183524.323  
  22682359.852   119196578.615    22682355.613    92880481.863  
  22543366.266   118466246.329    22543367.086    92311376.268  
  24436683.320   128415602.9651                                 
  20246823.023   106398057.349    20246821.051    82907417.753  
  21100397.359   110883395.706    21100397.805    86402675.361  
  21476967.203   115008207.885    21476963.738    89450853.168  
  19737158.438   105506477.155    19737154.602    82060563.202  
  21409383.750   114124105.129    21409382.238    88763260.513  
  19619035.930   104838261.811    19619032.527    81540868.488  
  22384129.820   119572013.206    22384127.555    93000493.989  
  23342868.750   124824796.064    23342869.324    97085944.213  
  22763925.969   121814338.892    22763923.816    94744507.614  
 21  8 30  0 13  0.0000000  0 17G 1G 3G10G12G21G22G25G26G31G32R 4R 5
                                R14R15R16R20R21
  22407289.586   117751073.687    22407291.230    91754141.705  
  24170713.258   127017966.940    24170714.820    98975039.334  
  22396203.133   117692900.512    22396204.770    91708738.192  
  24153304.156   126926487.525    24153303.070    98903810.578  
  23004763.648   120890861.489    23004761.781    94200684.422  
  22667225.867   119117050.605    22667221.629    92818512.024  
  22543056.961   118464623.901    22543058.152    92310112.074  
  24416284.570   128308408.522                                  
  20239743.797   106360854.437    20239741.164    82878428.486  
  21107264.680   110919481.592    21107264.926    86430794.248  
  21488953.922   115072399.126    21488950.910    89500779.664  
  19733825.414   105488660.135    19733821.836    82046705.548  
  21425321.281   114209062.599    21425320.191    88829338.539  
  19612646.719   104804121.321    19612643.500    81514314.792  
  22359468.109   119440274.303    22359465.902    92898030.463  
  23363371.422   124934433.352    23363371.766    97171217.563  
  22769119.023   121842126.388    22769116.539    94766120.076  
 21  8 30  0 13 30.0000000  0 17G 1G 3G10G12G21G22G25G26G31G32R 4R 5
                                R14R15R16R20R21
  22406134.680   117745004.151    22406136.957    91749412.193  
  24151256.281   126915719.209    24151258.359    98895365.773  
  22412849.469   117780379.136    22412851.547    91776903.330  
  24161518.977   126969656.006    24161519.770    98937448.365  
  23009037.063   120913318.116    23009035.273    94218183.080  
  22652139.617   119037771.887    22652136.047    92756736.440  
  22542865.547   118463616.420    22542867.133    92309327.048  
  24395878.836   128201174.312                                  
  20232769.281   106324205.026    20232767.336    82849870.516  
  21114169.266   110955767.630    21114170.238    86459069.073  
  21500993.922   115136872.124    21500990.746    89550925.310  
  19730551.328   105471160.576    19730548.145    82033094.763  
  21441366.297   114294590.275    21441364.660    88895860.040  
  19606406.547   104770776.944    19606403.637    81488380.293  
  22334848.086   119308759.007    22334845.789    92795740.850  
  23383908.219   125044251.590    23383908.762    97256631.678  
  22774446.281   121870635.382    22774443.988    94788293.736  
 21  8 30  0 14  0.0000000  0 17G 1G 3G10G12G21G22G25G26G31G32R 4R 5
                                R14R15R16R20R21
  22405096.523   117739548.343    22405098.793    91745160.915  
  24131814.672   126813555.480    24131817.207    98815757.720  
  22429556.961   117868178.462    22429559.047    91845318.342  
  24169838.625   127013377.722    24169838.535    98971517.223  
  23013393.328   120936207.869    23013391.074    94236019.242  
  22637101.656   118958744.789    22637097.500    92695156.917  
  22542791.133   118463224.342    22542792.063    92309021.545  
  24375465.477   128093902.874                                  
  20225901.070   106288109.814    20225898.477    82821744.378  
  21121112.219   110992253.471    21121113.039    86487499.582  
  21513086.875   115201627.287    21513083.195    89601290.405  
  19727337.938   105453979.873    19727334.141    82019732.012  
  21457517.141   114380684.382    21457515.355    88962822.087  
  19600316.094   104738230.123    19600312.941    81463066.102  
  22310269.852   119177471.192    22310268.520    92693628.135  
  23404477.359   125154246.132    23404478.512    97342182.889  
  22779908.586   121899863.655    22779905.930    94811026.842  
 21  8 30  0 14 30.0000000  0 17G 1G 3G10G12G21G22G25G26G31G32R 4R 5
                                R14R15R16R20R21
  22404176.039   117734706.292    22404176.910    91741387.887  
  24112389.828   126711477.959    24112392.168    98736216.865  
  22446325.930   117956297.155    22446327.016    91913982.222  
  24178263.945   127057651.207    24178262.473    99006016.052  
  23017830.961   120959529.927    23017829.375    94254192.265  
  22622111.141   118879971.631    22622107.301    92633775.257  
  22542833.594   118463448.422    22542834.832    92309196.140  
  24355046.539   127986597.2661                                 
  20219137.469   106252568.565    20219135.074    82794049.915  
  21128093.164   111028939.089    21128093.836    86516085.766  
  21525232.578   115266664.905    21525228.660    89651875.180  
  19724183.672   105437119.936    19724180.117    82006618.726  
  21473774.031   114467341.448    21473771.777    89030222.014  
  19594375.016   104706481.939    19594371.555    81438373.088  
  22285735.984   119046415.176    22285734.578    92591695.724  
  23425079.008   125264412.055    23425079.465    97427867.417  
  22785504.164   121929809.062    22785502.320    94834317.676  
 21  8 30  0 15  0.0000000  0 17G 1G 3G10G12G21G22G25G26G31G32R 4R 5
                                R14R15R16R20R21
  22403370.422   117730477.666    22403372.270    91738092.833  
  24092981.758   126609488.697    24092984.348    98656744.754  
  22463154.883   118044733.724    22463155.945    91982893.797  
  24186794.188   127102475.727    24186792.234    99040944.230  
  23022351.313   120983282.502    23022348.992    94272700.747  
  22607169.141   118801454.359    22607166.500    92572592.986  
  22542993.727   118464288.980    22542994.516    92309851.123  
  24334619.781   127879260.0331                                 
  20212479.789   106217581.935    20212477.484    82766787.607  
  21135112.500   111065824.138    21135112.895    86544827.354  
  21537430.461   115331984.920    21537426.863    89702679.618  
  19721089.633   105420582.028    19721086.418    81993755.909  
  21490135.734   114554557.520    21490133.691    89098056.713  
  19588583.367   104675533.850    19588580.035    81414302.362  
  22261246.523   118915594.108    22261244.211    92489946.066  
  23445712.484   125374745.333    23445712.965    97513682.083  
  22791233.969   121960469.548    22791232.188    94858164.672  
 21  8 30  0 15 30.0000000  0 17G 1G 3G10G12G21G22G25G26G31G32R 4R 5
                                R14R15R16R20R21
  22402682.805   117726862.391    22402684.363    91735275.763  
  24073592.078   126507590.041    24073594.363    98577343.223  
  22480043.680   118133486.981    22480045.367    92052052.133  
  24195427.797   127147849.705    24195429.180    99076300.583  
  23026952.805   121007464.618    23026951.137    94291543.937  
  22592277.438   118723195.176    22592274.344    92511611.844  
  22543271.258   118465746.788    22543271.816    92310987.082  
  24314189.359   127771894.335                                  
  20205927.859   106183150.173    20205925.293    82739957.680  
  21142169.281   111102908.697    21142169.781    86573724.399  
  21549680.969   115397587.854    21549678.152    89753704.091  
  19718056.898   105404368.019    19718052.883    81981145.017  
  21506601.102   114642329.089    21506599.371    89166323.480  
  19582941.578   104645387.167    19582938.504    81390854.963  
  22236801.047   118785012.622    22236798.875    92388382.772  
  23466375.883   125485241.104    23466376.563    97599623.138  
  22797097.328   121991842.794    22797095.094    94882566.098  
 21  8 30  0 16  0.0000000  0 17G 1G 3G10G12G21G22G25G26G31G32R 4R 5
                                R14R15R16R20R21
  22402111.414   117723859.961    22402112.613    91732936.193  
  24054218.063   126405783.759    24054220.711    98498013.667  
  22496992.961   118222555.115    22496994.605    92121455.828  
  24204165.930   127193771.849    24204167.242    99112084.029  
  23031635.813   121032074.840    23031633.504    94310720.707  
  22577434.672   118645196.586    22577431.215    92450833.747  
  22543665.492   118467821.969    22543667.141    92312604.119  
  24293752.484   127664502.629    24293755.109    99478863.5141 
  20199481.289   106149273.910    20199478.797    82713560.587  
  21149264.273   111140192.282    21149264.371    86602776.522  
  21561984.781   115463473.389    21561981.668    89804948.380  
  19715084.539   105388479.367    19715080.816    81968787.180  
  21523170.555   114730652.073    21523168.492    89235019.116  
  19577449.984   104616042.538    19577447.309    81368031.369  
  22212401.703   118654674.172    22212399.699    92287008.481  
  23487069.672   125595894.206    23487068.625    97685686.570  
  22803092.531   122023926.374    22803090.629    94907519.925  
 21  8 30  0 16 30.0000000  0 17G 1G 3G10G12G21G22G25G26G31G32R 4R 5
                                R14R15R16R20R21
  22401656.656   117721470.311    22401658.121    91731074.144  
  24034863.047   126304072.188    24034865.746    98418757.954  
  22514001.914   118311936.947    22514003.664    92191103.973  
  24213008.992   127240240.378    24213007.383    99148293.268  
  23036400.313   121057112.220    23036398.492    94330230.331  
  22562642.969   118567460.561    22562638.008    92390260.222  
  22544178.438   118470515.172    22544179.332    92314702.722  
  24273311.930   127557087.9561   24273315.949    99395163.8991 
  20193140.438   106115953.188    20193138.238    82687596.401  
  21156397.273   111177674.884    21156397.539    86631983.756  
  21574341.313   115529642.112    21574338.020    89856412.929  
  19712173.328   105372917.771    19712169.848    81956683.709  
  21539842.406   114819522.994    21539840.613    89304140.934  
  19572109.102   104587501.224    19572105.980    81345832.582  
  22188048.344   118524582.744    22188046.148    92185826.323  
  23507790.289   125706700.986    23507790.004    97771869.518  
  22809220.313   122056718.267    22809218.602    94933024.739  
 21  8 30  0 17  0.0000000  0 17G 1G 3G10G12G21G22G25G26G31G32R 4R 5
                                R14R15R16R20R21
  22401318.156   117719693.178    22401320.316    91729689.344  
  24015527.000   126202457.610    24015528.742    98339577.829  
  22531069.992   118401631.086    22531072.039    92260995.473  
  24221955.359   127287254.096    24221953.586    99184927.389  
  23041245.875   121082575.344    23041243.688    94350071.697  
  22547900.242   118489989.595    22547896.098    92329893.247  
  22544808.617   118473826.930    22544809.535    92317283.320  
  24252867.180   127449653.122    24252872.027    99311448.500  
  20186905.992   106083188.326    20186902.879    82662065.350  
  21163567.648   111215356.486    21163568.324    86661346.003  
  21586750.492   115596094.129    21586747.105    89908097.833  
  19709323.672   105357684.818    19709320.152    81944835.851  
  21556616.680   114908938.101    21556614.422    89373685.991  
  19566918.844   104559764.416    19566915.488    81324259.515  
  22163741.148   118394742.915    22163739.961    92084839.842  
  23528539.211   125817656.214    23528539.590    97858167.937  
  22815480.531   122090216.213    22815477.551    94959078.646  
 21  8 30  0 17 30.0000000  0 17G 1G 3G10G12G21G22G25G26G31G32R 4R 5
                                R14R15R16R20R21
  22401096.352   117718527.957    22401098.598    91728781.389  
  23996208.531   126100941.913    23996210.324    98260474.703  
  22548197.750   118491635.815    22548198.992    92331128.981  
  24231005.383   127334811.622    24231005.820    99221985.130  
  23046172.125   121108462.755    23046170.082    94370243.698  
  22533208.766   118412785.486    22533204.535    92269734.194  
  22545556.781   118477757.344    22545557.520    92320345.979  
  24232420.250   127342200.8551   24232424.414    99227719.5621 
  20180776.109   106050979.458    20180773.754    82636967.536  
  21170776.016   111253236.603    21170776.383    86690862.963  
  21599213.383   115662829.530    21599209.652    89960003.120  
  19706535.938   105342782.111    19706532.324    81933244.878  
  21573492.141   114998893.372    21573489.773    89443651.170  
  19561878.320   104532832.800    19561875.652    81303312.728  
  22139483.180   118265158.057    22139481.180    91984051.696  
  23549315.695   125928755.476    23549316.215    97944578.382  
  22821871.906   122124417.321    22821869.789    94985679.544  
 21  8 30  0 18  0.0000000  0 17G 1G 3G10G12G21G22G25G26G31G32R 4R 5
                                R14R15R16R20R21
  22400990.844   117717974.507    22400992.398    91728350.131  
  23976910.102   125999527.449    23976911.363    98181450.433  
  22565383.703   118581949.757    22565385.551    92401503.450  
  24240158.859   127382911.932    24240160.262    99259465.867  
  23051178.758   121134773.104    23051176.918    94390745.247  
  22518568.563   118335850.427    22518564.250    92209784.823  
  22546422.250   118482306.911    22546423.727    92323891.095  
  24211968.742   127234733.981    24211973.406    99143979.156  
  20174753.234   106019326.819    20174750.648    82612303.139  
  21178021.914   111291315.246    21178022.594    86720534.619  
  21611728.648   115729848.578    21611725.027    90012129.007  
  19703809.797   105328210.954    19703806.504    81921911.732  
  21590467.383   115089385.097    21590465.777    89514033.605  
  19556989.672   104506707.687    19556986.656    81282993.203  
  22115273.695   118135832.289    22115270.727    91883465.063  
  23570117.914   126039994.212    23570118.309    98031097.351  
  22828393.797   122159319.499    22828391.875    95012825.635  
 21  8 30  0 18 30.0000000  0 17G 1G 3G10G12G21G22G25G26G31G32R 4R 5
                                R14R15R16R20R21
  22401002.344   117718032.193    22401003.809    91728395.071  
  23957631.297   125898216.145    23957633.270    98102506.598  
  22582628.328   118672571.310    22582629.902    92472117.623  
  24249414.547   127431553.051    24249414.695    99297368.081  
  23056266.109   121161504.793    23056263.758    94411575.116  
  22503979.719   118259186.753    22503975.645    92150046.914  
  22547406.469   118487475.798    22547407.254    92327918.793  
  24191517.023   127127255.247    24191520.742    99060229.637  
  20168835.555   105988230.455    20168833.059    82588072.219  
  21185305.703   111329592.081    21185306.371    86750360.699  
  21624296.891   115797151.095    21624293.457    90064475.367  
  19701146.602   105313973.033    19701142.988    81910837.803  
  21607543.969   115180409.427    21607542.039    89584830.282  
  19552251.813   104481389.602    19552248.836    81263301.371  
  22091111.961   118006769.180    22091109.664    91783082.734  
  23590944.797   126151367.380    23590945.145    98117720.812  
  22835046.953   122194920.204    22835044.461    95040515.091  
 21  8 30  0 19  0.0000000  0 17G 1G 3G10G12G21G22G25G26G31G32R 4R 5
                                R14R15R16R20R21
  22401129.508   117718700.618    22401131.043    91728915.912  
  23938372.023   125797010.154    23938373.848    98023644.852  
  22599931.945   118763498.878    22599932.906    92542970.247  
  24258773.625   127480733.352    24258772.129    99335690.339  
  23061432.836   121188656.677    23061430.324    94432732.397  
  22489442.672   118182796.342    22489439.492    92090521.946  
  22548507.305   118493264.169    22548508.527    92332429.209  
  24171063.367   127019767.465    24171065.895    98976473.051  
  20163024.180   105957690.230    20163021.414    82564274.657  
  21192627.766   111368066.885    21192627.527    86780341.047  
  21636918.711   115864737.360    21636914.598    90117042.412  
  19698546.180   105300069.958    19698542.043    81900024.298  
  21624719.125   115271962.560    21624717.125    89656038.272  
  19547665.227   104456879.418    19547662.008    81244237.910  
  22067000.820   117877972.820    22066998.758    91682907.877  
  23611796.219   126262870.757    23611797.098    98204445.598  
  22841829.773   122231216.830    22841827.301    95068745.749  
 21  8 30  0 19 30.0000000  0 17G 1G 3G10G12G21G22G25G26G31G32R 4R 5
                                R14R15R16R20R21
  22401372.648   117719979.189    22401374.031    91729912.218  
  23919133.930   125695911.586    23919135.480    97944866.792  
  22617292.359   118854730.929    22617293.758    92614060.136  
  24268234.398   127530451.322    24268233.641    99374431.577  
  23066679.195   121216227.196    23066676.430    94454215.889  
  22474958.773   118106681.669    22474954.703    92031211.798  
  22549726.883   118499672.369    22549727.914    92337422.602  
  24150608.453   126912273.461    24150610.426    98892711.578  
  20157318.188   105927706.595    20157315.578    82540910.786  
  21199986.539   111406739.333    21199986.535    86810475.413  
  21649592.414   115932607.362    21649588.809    90169830.129  
  19696007.734   105286503.019    19696004.289    81889472.242  
  21641992.523   115364040.464    21641991.176    89727654.410  
  19543229.461   104433177.854    19543226.465    81225803.366  
  22042941.023   117749447.086    22042938.633    91582943.479  
  23632672.289   126374499.433    23632672.449    98291267.814  
  22848742.492   122268206.754    22848740.484    95097515.695  
 21  8 30  0 20  0.0000000  0 17G 1G 3G10G12G21G22G25G26G31G32R 4R 5
                                R14R15R16R20R21
  22401732.328   117721867.718    22401734.328    91731383.796  
  23899916.453   125594922.881    23899918.234    97866174.349  
  22634710.750   118946266.214    22634712.461    92685386.292  
  24277797.734   127580705.643    24277798.180    99413590.816  
  23072005.281   121244215.018    23072003.039    94476024.566  
  22460527.734   118030845.308    22460523.039    91972118.554  
  22551064.320   118506700.802    22551066.008    92342899.290  
  24130151.602   126804776.261    24130154.371    98808947.607  
  20151718.750   105898279.969    20151715.984    82517980.951  
  21207383.203   111445609.798    21207383.727    86840764.060  
  21662319.430   116000761.459    21662316.250    90222838.845  
  19693532.773   105273274.209    19693529.348    81879183.168  
  21659363.977   115456639.433    21659362.285    89799675.813  
  19538945.547   104410285.869    19538942.531    81207998.507  
  22018931.477   117621196.350    22018929.613    91483192.983  
  23653569.227   126486249.378    23653570.320    98378184.362  
  22855784.422   122305887.750    22855782.293    95126823.163  
 21  8 30  0 20 30.0000000  0 17G 1G 3G10G12G21G22G25G26G31G32R 4R 5
                                R14R15R16R20R21
  22402207.039   117724365.511    22402209.473    91733330.101  
  23880720.055   125494045.964    23880722.070    97787569.037  
  22652186.914   119038102.927    22652187.875    92756947.314  
  24287462.320   127631494.799    24287461.816    99453166.813  
  23077409.781   121272618.735    23077408.313    94498157.293  
  22446149.234   117955289.097    22446145.781    91913243.592  
  22552519.867   118514349.431    22552521.098    92348859.263  
  24109696.117   126697278.494    24109698.656    98725183.194  
  20146225.016   105869410.110    20146222.344    82495484.969  
  21214818.094   111484677.733    21214818.320    86871206.591  
  21675100.203   116069199.465    21675096.711    90276068.380  
  19691122.063   105260384.966    19691118.113    81869158.188  
  21676832.344   115549755.724    21676831.098    89872099.570  
  19534813.672   104388204.231    19534810.266    81190823.901  
  21994975.008   117493223.954    21994972.551    91383658.952  
  23674489.563   126598115.369    23674490.141    98465191.169  
  22862953.688   122344257.072    22862952.129    95156665.916  
 21  8 30  0 21  0.0000000  0 17G 1G 3G10G12G21G22G25G26G31G32R 4R 5
                                R14R15R16R20R21
  22402798.516   117727472.162    22402800.273    91735750.885  
  23861545.516   125393283.345    23861547.266    97709052.788  
  22669720.008   119130239.781    22669720.973    92828742.236  
  24297228.313   127682816.980    24297225.191    99493158.079  
  23082893.977   121301436.846    23082892.070    94520612.926  
  22431825.695   117880014.966    22431821.469    91854588.441  
  22554093.602   118522618.683    22554095.199    92355302.819  
  24089239.445   126589783.267    24089242.891    98641420.762  
  20140837.008   105841097.273    20140834.680    82473423.020  
  21222289.680   111523943.246    21222290.617    86901803.073  
  21687933.773   116137921.816    21687930.328    90329519.080  
  19688774.289   105247837.204    19688771.035    81859398.812  
  21694397.219   115643385.403    21694395.773    89944922.648  
  19530832.547   104366933.678    19530829.770    81174280.141  
  21971071.273   117365534.287    21971068.879    91284344.829  
  23695430.266   126710093.275    23695430.188    98552284.995  
  22870252.461   122383312.069    22870250.258    95187041.984  
 21  8 30  0 21 30.0000000  0 17G 1G 3G10G12G21G22G25G26G31G32R 4R 5
                                R14R15R16R20R21
  22403505.391   117731187.023    22403507.805    91738645.581  
  23842393.188   125292636.994    23842395.242    97630627.144  
  22687309.406   119222675.005    22687310.867    92900769.657  
  24307096.992   127734670.785    24307092.793    99533563.713  
  23088456.102   121330668.083    23088454.883    94543390.475  
  22417555.102   117805025.565    22417552.203    91796155.176  
  22555785.039   118531508.534    22555786.594    92362229.996  
  24068784.648   126482293.351    24068788.617    98557662.457  
  20135555.336   105813341.429    20135552.879    82451795.106  
  21229799.273   111563405.993    21229800.039    86932553.270  
  21700820.148   116206928.410    21700816.855    90383190.867  
  19686491.461   105235632.114    19686487.703    81849905.970  
  21712057.094   115737524.323    21712056.086    90018141.828  
  19527004.484   104346474.665    19527001.250    81158367.587  
  21947221.336   117238130.440    21947218.887    91185253.013  
  23716391.516   126822178.642    23716390.938    98639462.379  
  22877678.438   122423050.073    22877676.492    95217949.325  
 21  8 30  0 22  0.0000000  0 17G 1G 3G10G12G21G22G25G26G31G32R 4R 5
                                R14R15R16R20R21
  22404327.891   117735509.566    22404330.574    91742013.792  
  23823263.680   125192109.240    23823265.223    97552293.910  
  22704956.328   119315407.177    22704957.336    92973028.450  
  24317065.398   127787054.847    24317063.164    99574382.469  
  23094097.055   121360311.133    23094095.586    94566488.922  
  22403340.328   117730323.046    22403336.707    91737945.434  
  22557594.852   118541019.225    22557596.270    92369640.927  
  24048331.828   126374811.636    24048336.367    98473910.554  
  20130379.797   105786142.800    20130377.133    82430601.382  
  21237346.414   111603065.943    21237346.555    86963457.127  
  21713759.641   116276219.325    21713756.449    90437083.781  
  19684272.297   105223771.532    19684269.195    81840681.073  
  21729812.914   115832169.045    21729810.730    90091754.376  
  19523328.031   104326827.839    19523324.441    81143086.725  
  21923425.133   117111017.379    21923422.973    91086387.336  
  23737370.141   126934366.697    23737371.078    98726719.659  
  22885230.891   122463468.404    22885229.711    95249385.785  
 21  8 30  0 22 30.0000000  0 17G 1G 3G10G12G21G22G25G26G31G32R 4R 5
                                R14R15R16R20R21
  22405266.164   117740439.044    22405267.625    91745854.948  
  23804156.750   125091702.225    23804158.055    97474054.727  
  22722658.844   119408434.573    22722660.375    93045517.298  
  24327133.664   127839966.789    24327133.160    99615612.513  
  23099816.047   121390363.861    23099814.551    94589906.610  
  22389179.773   117655909.419    22389175.527    91679960.824  
  22559522.727   118551150.646    22559524.117    92377535.546  
  24027880.781   126267340.984    24027884.973    98390167.267  
  20125309.664   105759501.236    20125307.383    82409841.728  
  21244930.602   111642922.797    21244931.129    86994514.404  
  21726752.727   116345794.560    21726749.359    90491197.848  
  19682118.602   105212256.918    19682115.035    81831725.255  
  21747661.930   115927315.340    21747659.871    90165757.026  
  19519803.188   104307993.626    19519799.914    81128437.910  
  21899684.859   116984198.354    21899681.762    90987750.399  
  23758368.148   127046652.793    23758369.469    98814053.210  
  22892911.188   122504564.219    22892909.316    95281349.133  
 21  8 30  0 23  0.0000000  0 17G 1G 3G10G12G21G22G25G26G31G32R 4R 5
                                R14R15R16R20R21
  22406319.758   117745974.865    22406321.250    91750168.588  
  23785073.266   124991418.220    23785073.449    97395911.397  
  22740417.367   119501755.695    22740419.035    93118235.027  
  24337302.742   127893405.249    24337299.641    99657252.891  
  23105612.617   121420825.043    23105610.938    94613642.541  
  22375074.477   117581787.072    22375070.602    91622203.135  
  22561568.813   118561903.020    22561570.621    92385914.017  
  24007433.172   126159884.211    24007436.145    98306434.785  
  20120346.289   105733416.666    20120343.891    82389516.107  
  21252552.953   111682976.552    21252553.234    87025725.119  
  21739798.281   116415654.436    21739795.254    90545533.267  
  19680029.063   105201089.739    19680025.793    81823039.653  
  21765604.930   116022959.641    21765602.758    90240146.986  
  19516430.703   104289972.731    19516427.645    81114421.669  
  21875999.688   116857677.465    21875996.859    90889345.293  
  23779384.875   127159032.679    23779385.328    98901459.691  
  22900717.648   122546335.088    22900715.094    95313837.561  
 21  8 30  0 23 30.0000000  0 17G 1G 3G10G12G21G22G25G26G31G32R 4R 5
                                R14R15R16R20R21
  22407488.148   117752116.515    22407490.488    91754954.269  
  23766013.641   124891259.542    23766013.695    97317865.735  
  22758231.406   119595369.031    22758232.738    93191180.459  
  24347571.695   127947368.856    24347569.520    99699302.498  
  23111486.953   121451693.265    23111485.004    94637695.665  
  22361025.203   117507958.170    22361021.039    91564674.138  
  22563733.078   118573276.367    22563734.859    92394776.381  
  23986986.742   126052444.390    23986990.711    98222715.524  
  20115488.430   105707888.900    20115485.816    82369624.346  
  21260212.086   111723227.076    21260212.551    87057089.172  
  21752897.453   116485798.958    21752894.156    90600090.088  
  19678005.266   105190271.745    19678002.328    81814625.676  
  21783639.477   116119097.790    21783637.727    90314921.087  
  19513210.961   104272765.593    19513207.305    81101038.345  
  21852370.672   116731458.838    21852368.578    90791175.261  
  23800416.391   127271501.947    23800417.852    98988935.730  
  22908648.359   122588778.061    22908646.930    95346848.732  
 21  8 30  0 24  0.0000000  0 16G 1G 3G10G12G21G22G25G26G31G32R 4R 5
                                R14R15R16R21
  22408771.891   117758862.992    22408773.984    91760211.265  
  23746977.797   124791228.246    23746978.973    97239919.346  
  22776100.367   119689272.800    22776102.645    93264352.194  
  24357939.719   128001855.722    24357939.070    99741759.753  
  23117437.906   121482966.891    23117435.668    94662064.697  
  22347032.367   117434424.628    22347027.883    91507375.294  
  22566015.406   118585270.557    22566017.379    92404122.500  
  23966545.898   125945024.187    23966549.602    98139011.532  
  20110736.961   105682917.997    20110733.863    82350166.510  
  21267908.953   111763674.092    21267909.672    87088606.303  
  21766049.438   116556228.028    21766046.121    90654868.206  
  19676047.461   105179804.333    19676043.938    81806484.346  
  21801767.094   116215725.913    21801764.953    90390076.288  
  19510142.758   104256372.345    19510139.754    81088288.061  
  21828799.742   116605546.118    21828797.434    90693243.199  
  22916705.750   122631890.025    22916702.543    95380380.191  
 21  8 30  0 24 30.0000000  0 16G 1G 3G10G12G21G22G25G26G31G32R 4R 5
                                R14R15R16R21
  22410170.992   117766213.718    22410172.594    91765939.100  
  23727967.805   124691326.607    23727968.035    97162073.972  
  22794024.734   119783465.636    22794026.664    93337749.159  
  24368407.227   128056863.696    24368408.277    99784623.075  
  23123466.344   121514644.454    23123464.383    94686748.485  
  22333095.469   117361188.935    22333091.293    91450308.508  
  22568416.164   118597885.626    22568417.117    92413952.409  
  23946108.438   125837626.643    23946112.078    98055325.183  
  20106090.836   105658503.891    20106088.281    82331142.529  
  21275643.414   111804317.495    21275644.082    87120276.498  
  21779254.430   116626941.690    21779251.480    90709867.664  
  19674155.000   105169689.460    19674151.707    81798617.212  
  21819985.477   116312839.882    21819983.199    90465609.357  
  19507227.367   104240793.630    19507224.129    81076171.277  
  21805286.578   116479943.203    21805284.234    90595552.100  
  22924886.594   122675668.312    22924885.117    95414429.973  
 21  8 30  0 25  0.0000000  0 16G 1G 3G10G12G21G22G25G26G31G32R 4R 5
                                R14R15R16R21
  22411684.977   117774167.850    22411685.984    91772137.119  
  23708981.711   124591556.879    23708983.207    97084331.373  
  22812003.797   119877945.477    22812005.848    93411369.766  
  24378974.055   128112391.610    24378975.402    99827891.664  
  23129570.680   121546724.185    23129569.441    94711745.650  
  22319216.633   117288253.094    22319212.113    91393475.410  
  22570934.766   118611121.441    22570936.262    92424266.039  
  23925676.492   125730254.551    23925679.211    97971658.696  
  20101550.727   105634646.283    20101548.195    82312552.210  
  21283414.977   111845157.128    21283415.359    87152099.581  
  21792513.453   116697940.020    21792509.793    90765088.545  
  19672329.523   105159928.207    19672325.777    81791025.131  
  21838293.766   116410435.960    21838292.176    90541517.438  
  19504464.398   104226029.605    19504461.211    81064688.147  
  21781832.305   116354654.036    21781829.512    90498105.003  
  22933191.508   122720109.752    22933189.223    95448995.467  
 21  8 30  0 25 30.0000000  0 16G 1G 3G10G12G21G22G25G26G31G32R 4R 5
                                R14R15R16R21
  22413312.641   117782724.739    22413314.980    91778804.838  
  23690022.039   124491921.487    23690022.832    97006693.456  
  22830036.945   119972711.046    22830039.051    93485213.035  
  24389639.016   128168437.561    24389638.738    99871563.777  
  23135751.555   121579204.574    23135749.992    94737055.012  
  22305395.055   117215619.552    22305390.957    91336877.853  
  22573571.547   118624978.068    22573573.434    92435063.413  
  23905249.414   125622910.989    23905252.047    97888014.467  
  20097116.938   105611345.223    20097114.016    82294395.546  
  21291223.969   111886193.000    21291223.902    87184075.595  
  21805825.266   116769223.074    21805821.617    90820530.884  
  19670569.602   105150522.609    19670566.410    81783709.671  
  21856692.219   116508510.350    21856690.633    90617797.492  
  19501854.383   104212080.712    19501850.926    81053839.014  
  21758437.266   116229682.627    21758434.984    90400905.070  
  22941619.734   122765212.053    22941617.242    95484074.964  
 21  8 30  0 26  0.0000000  0 16G 1G 3G10G12G21G22G25G26G31G32R 4R 5
                                R14R15R16R21
  22415055.633   117791883.452    22415057.469    91785941.485  
  23671087.844   124392422.524    23671088.844    96929161.827  
  22848124.625   120067760.538    22848125.988    93559277.529  
  24400401.688   128224999.399    24400400.383    99915637.907  
  23142008.250   121612084.264    23142007.059    94762675.539  
  22291631.344   117143290.375    22291627.090    91280517.462  
  22576326.000   118639455.241    22576327.820    92446344.331  
  23884828.508   125515598.722    23884831.750    97804394.581  
  20092788.828   105588600.695    20092785.777    82276672.546  
  21299069.813   111927424.857    21299069.996    87216204.305  
  21819189.602   116840790.667    21819186.500    90876194.528  
  19668877.031   105141473.950    19668873.582    81776671.840  
  21875179.500   116607058.793    21875177.820    90694446.236  
  19499396.531   104198947.026    19499393.227    81043623.936  
  21735102.633   116105032.509    21735100.098    90303955.032  
  22950171.172   122810971.737    22950168.938    95519665.842  
 21  8 30  0 26 30.0000000  0 16G 1G 3G10G12G21G22G25G26G31G32R 4R 5
                                R14R15R16R21
  22416913.055   117801643.292    22416914.211    91793546.600  
  23652180.156   124293062.449    23652181.445    96851738.465  
  22866265.555   120163092.539    22866266.984    93633562.160  
  24411263.641   128282075.469    24411263.031    99960112.761  
  23148340.672   121645361.482    23148339.086    94788605.824  
  22277926.281   117071267.898    22277922.055    91224396.061  
  22579199.406   118654553.003    22579201.477    92458108.844  
  23864414.008   125408320.908    23864417.770    97720801.551  
  20088566.594   105566412.478    20088563.844    82259383.030  
  21306953.531   111968852.748    21306953.691    87248485.774  
  21832607.164   116912643.145    21832604.156    90932079.755  
  19667250.961   105132783.954    19667247.871    81769912.947  
  21893755.578   116706077.524    21893753.848    90771460.792  
  19497091.352   104186629.033    19497088.031    81034043.293  
  21711828.094   115980708.159    21711826.004    90207258.368  
  22958844.773   122857385.937    22958843.105    95555765.727  
 21  8 30  0 27  0.0000000  0 16G 1G 3G10G12G21G22G25G26G31G32R 4R 5
                                R14R15R16R21
  22418884.219   117812003.295    22418886.715    91801619.312  
  23633299.508   124193843.480    23633301.379    96774425.007  
  22884460.148   120258705.165    22884461.520    93708065.454  
  24422223.125   128339664.226    24422222.633   100004987.141  
  23154748.953   121679034.322    23154746.902    94814844.381  
  22264279.781   116999554.166    22264276.012    91168515.230  
  22582190.680   118670271.055    22582192.441    92470356.671  
  23844007.094   125301080.248    23844009.883    97637237.481  
  20084450.148   105544780.262    20084447.402    82242526.774  
  21314874.336   112010476.378    21314875.063    87280919.775  
  21846078.531   116984780.377    21846075.289    90988186.458  
  19665693.078   105124454.096    19665689.707    81763434.186  
  21912418.078   116805562.517    21912416.656    90848838.027  
  19494938.656   104175126.515    19494935.570    81025096.894  
  21688616.734   115856713.078    21688613.496    90110817.829  
  22967641.391   122904451.815    22967637.066    95592372.478  
 21  8 30  0 27 30.0000000  0 16G 1G 3G10G12G21G22G25G26G31G32R 4R 5
                                R14R15R16R21
  22420969.766   117822962.501    22420971.664    91810158.938  
  23614445.742   124094767.768    23614448.055    96697223.220  
  22902707.750   120354596.768    22902709.664    93782786.152  
  24433278.547   128397763.984    24433278.770   100050259.643  
  23161231.641   121713101.269    23161229.727    94841390.024  
  22250691.984   116928151.254    22250688.363    91112876.612  
  22585299.461   118686609.165    22585300.891    92483087.671  
  23823607.234   125193879.749    23823610.055    97553704.697  
  20080438.805   105523703.900    20080436.805    82226103.643  
  21322832.000   112052295.637    21322832.469    87313506.208  
  21859602.664   117057202.054    21859599.758    91044514.394  
  19664202.180   105116486.068    19664199.156    81757236.824  
  21931168.938   116905509.949    21931166.590    90926574.871  
  19492938.852   104164439.641    19492935.734    81016784.891  
  21665467.195   115733051.257    21665463.543    90014636.490  
  22976557.047   122952166.007    22976554.652    95629483.555  
 21  8 30  0 28  0.0000000  0 16G 1G 3G10G12G21G22G25G26G31G32R 4R 5
                                R14R15R16R21
  22423169.094   117834520.119    22423171.254    91819164.886  
  23595619.914   123995837.825    23595621.633    96620134.991  
  22921008.359   120450765.770    22921009.484    93857723.008  
  24444431.852   128456371.949    24444429.820   100095928.191  
  23167788.484   121747560.689    23167786.680    94868241.500  
  22237163.641   116857061.362    22237159.887    91057481.887  
  22588526.398   118703567.178    22588528.020    92496301.719  
  23803216.203   125086722.450    23803219.207    97470205.573  
  20076534.078   105503183.077    20076531.613    82210113.406  
  21330826.742   112094310.524    21330827.543    87346245.080  
  21873180.523   117129908.623    21873177.293    91101063.891  
  19662780.109   105108881.538    19662776.477    81751322.203  
  21950004.180   117005915.697    21950003.074    91004668.201  
  19491091.586   104154568.788    19491088.555    81009107.566  
  21642379.742   115609726.612    21642377.559    89918717.394  
  22985594.445   123000525.678    22985592.711    95667096.587  
 21  8 30  0 28 30.0000000  0 16G 1G 3G10G12G21G22G25G26G31G32R 4R 5
                                R14R15R16R21
  22425482.430   117846675.328    22425483.469    91828636.447  
  23576822.563   123897055.972    23576824.180    96543162.175  
  22939361.000   120547210.577    22939362.039    93932874.757  
  24455680.164   128515486.910    24455678.465   100141991.772  
  23174421.227   121782410.963    23174419.102    94895397.557  
  22223696.375   116786287.039    22223691.930    91002333.062  
  22591871.648   118721144.953    22591873.070    92509998.678  
  23782833.688   124979611.321    23782835.934    97386742.422  
  20072734.961   105483217.898    20072732.457    82194556.129  
  21338859.484   112136520.975    21338859.672    87379136.337  
  21886811.227   117202900.053    21886807.598    91157834.969  
  19661425.852   105101641.998    19661422.180    81745691.447  
  21968925.195   117106776.048    21968924.063    91083115.125  
  19489396.930   104145513.869    19489393.988    81002064.863  
  21619357.336   115486742.711    21619354.473    89823063.322  
  22994751.188   123049527.693    22994749.414    95705209.188  
 21  8 30  0 29  0.0000000  0 16G 1G 3G10G12G21G22G25G26G31G32R 4R 5
                                R14R15R16R21
  22427909.086   117859426.782    22427910.223    91838572.601  
  23558053.305   123798424.320    23558055.359    96466306.376  
  22957765.813   120643929.176    22957767.047    94008239.850  
  24467025.727   128575107.435    24467024.957   100188449.280  
  23181126.195   121817650.486    23181124.215    94922856.901  
  22210288.656   116715830.324    22210284.113    90947431.740  
  22595334.367   118739341.842    22595336.621    92524178.091  
  23762459.766   124872549.012    23762462.945    97303317.297  
  20069041.406   105463807.633    20069038.621    82179431.253  
  21346929.031   112178926.586    21346929.555    87412179.670  
  21900494.867   117276175.894    21900491.254    91214827.228  
  19660139.898   105094768.776    19660136.371    81740345.610  
  21987931.063   117208086.525    21987929.535    91161912.164  
  19487855.172   104137274.533    19487852.039    80995656.489  
  21596399.078   115364103.414    21596396.008    89727677.236  
  23004028.695   123099168.804    23004024.992    95743818.960  
 21  8 30  0 29 30.0000000  0 16G 1G 3G10G12G21G22G25G26G31G32R 4R 5
                                R14R15R16R21
  22430448.367   117872773.686    22430450.297    91848972.791  
  23539313.320   123699945.293    23539315.254    96389569.543  
  22976222.547   120740920.086    22976224.117    94083817.129  
  24478467.648   128635231.048    24478466.523   100235298.889  
  23187906.391   121853277.556    23187904.262    94950618.250  
  22196941.680   116645693.633    22196937.605    90892779.780  
  22598915.031   118758157.856    22598916.633    92538839.920  
  23742097.000   124765538.702    23742099.539    97219932.706  
  20065453.047   105444952.181    20065450.352    82164738.701  
  21355036.016   112221527.493    21355036.457    87445375.177  
  21914231.922   117349736.220    21914228.188    91272040.774  
  19658922.758   105088263.748    19658919.262    81735286.147  
  22007020.953   117309843.491    22007018.887    91241056.438  
  19486465.703   104129850.894    19486462.852    80989882.556  
  21573504.977   115241813.117    21573502.828    89632562.630  
  23013423.594   123149445.884    23013422.637    95782923.287  
 21  8 30  0 30  0.0000000  0 16G 1G 3G10G12G21G22G25G26G31G32R 4R 5
                                R14R15R16R21
  22433101.547   117886715.084    22433103.492    91859836.208  
  23520602.977   123601621.309    23520604.066    96312953.442  
  22994731.156   120838181.564    22994732.953    94159605.242  
  24490003.813   128695855.731    24490001.766   100282538.911  
  23194759.289   121889290.131    23194757.379    94978679.971  
  22183656.508   116575878.695    22183653.063    90838378.533  
  22602612.828   118777592.550    22602614.473    92553983.834  
  23721744.258   124658583.332    23721747.109    97136590.904  
  20061970.578   105426651.302    20061967.805    82150478.281  
  21363179.727   112264323.533    21363180.156    87478722.726  
  21928021.633   117423581.169    21928018.074    91329475.701  
  19657775.078   105082128.303    19657771.613    81730514.126  
  22026194.023   117412043.027    22026191.355    91320544.933  
  19485229.586   104123242.829    19485226.238    80984742.955  
  21550678.742   115119875.301    21550676.016    89537722.153  
  23022937.281   123200355.848    23022933.703    95822519.928  
 21  8 30  0 30 30.0000000  0 16G 1G 3G10G12G21G22G25G26G31G32R 4R 5
                                R14R15R16R21
  22435868.109   117901249.896    22435869.078    91871162.041  
  23501922.578   123503454.689    23501923.609    96236460.034  
  23013290.023   120935712.003    23013292.082    94235602.936  
  24501635.039   128756979.772    24501633.715   100330168.037  
  23201685.297   121925686.686    23201683.238    95007040.928  
  22170433.344   116506387.994    22170428.973    90784229.958  
  22606429.141   118797645.637    22606430.609    92569609.635  
  23701402.508   124551685.961    23701404.926    97053294.307  
  20058593.203   105408904.678    20058590.813    82136649.750  
  21371360.461   112307314.699    21371360.969    87512222.342  
  21941864.977   117497710.457    21941861.297    91387131.791  
  19656697.109   105076364.221    19656693.270    81726030.947  
  22045447.945   117514681.230    22045446.148    91400374.618  
  19484145.180   104117450.368    19484142.148    80980237.711  
  21527919.195   114998293.874    21527915.762    89443158.892  
  23032568.953   123251895.465    23032567.191    95862606.274  
 21  8 30  0 31  0.0000000  0 16G 1G 3G10G12G21G22G25G26G31G32R 4R 5
                                R14R15R16R21
  22438746.078   117916377.080    22438747.473    91882949.419  
  23483271.977   123405447.773    23483273.441    96160091.029  
  23031900.406   121033509.561    23031902.297    94311808.784  
  24513361.398   128818601.128    24513361.414   100378184.672  
  23208684.211   121962465.609    23208681.664    95035699.845  
  22157271.766   116437223.741    22157267.320    90730335.735  
  22610362.680   118818316.694    22610363.473    92585716.947  
  23681071.398   124444849.479    23681074.465    96970045.134  
  20055321.570   105391711.828    20055319.273    82123252.733  
  21379578.711   112350500.855    21379578.527    87545873.884  
  21955761.547   117572124.228    21955757.355    91445009.146  
  19655688.391   105070972.958    19655684.816    81721837.753  
  22064783.781   117617753.827    22064781.871    91480542.194  
  19483213.906   104112473.177    19483210.730    80976366.568  
  21505225.859   114877072.582    21505222.566    89348875.724  
  23042317.148   123304061.319    23042314.914    95903179.693  
 21  8 30  0 31 30.0000000  0 16G 1G 3G10G12G21G22G25G26G31G32R 4R 5
                                R14R15R16R21
  22441736.977   117932095.417    22441738.934    91895197.449  
  23464652.883   123307602.842    23464654.184    96083848.303  
  23050561.781   121131572.563    23050562.988    94388221.457  
  24525182.070   128880717.584    24525180.535   100426587.127  
  23215754.859   121999624.924    23215753.121    95064655.133  
  22144172.164   116368387.956    22144168.641    90676697.463  
  22614413.773   118839605.286    22614414.891    92602305.455  
  23660753.188   124338076.936    23660756.301    96886845.808  
  20052155.102   105375072.366    20052153.016    82110286.923  
  21387834.125   112393881.844    21387833.809    87579677.242  
  21969711.266   117646822.393    21969707.238    91503107.713  
  19654749.305   105065955.920    19654746.277    81717935.612  
  22084199.852   117721256.944    22084199.117    91561044.630  
  19482434.734   104108310.884    19482431.852    80973129.244  
  21482600.797   114756215.339    21482597.883    89254875.722  
  23052182.633   123356850.272    23052179.246    95944237.715  
 21  8 30  0 32  0.0000000  0 16G 1G 3G10G12G21G22G25G26G31G32R 4R 5
                                R14R15R16R21
  22444840.375   117948403.760    22444842.117    91907905.260  
  23446064.813   123209922.212    23446065.539    96007733.556  
  23069272.547   121229899.143    23069273.961    94464839.509  
  24537096.008   128943326.929    24537092.391   100475373.667  
  23222898.328   122037162.792    23222896.000    95093905.405  
  22131136.086   116299882.733    22131132.520    90623316.783  
  22618582.609   118861510.848    22618583.797    92619374.731  
  23640447.508   124231371.130    23640450.441    96803698.463  
  20049094.477   105358985.890    20049091.797    82097752.012  
  21396125.609   112437457.542    21396126.496    87613632.321  
  21983712.938   117721804.559    21983709.441    91561427.132  
  19653881.781   105061314.886    19653878.191    81714325.917  
  22103698.016   117825186.537    22103696.250    91641878.730  
  19481808.367   104104963.266    19481805.441    80970525.543  
  21460044.984   114635725.829    21460042.203    89161161.719  
  23062162.563   123410258.863    23062161.027    95985777.677  
 21  8 30  0 32 30.0000000  0 16G 1G 3G10G12G21G22G25G26G31G32R 4R 5
                                R14R15R16R21
  22448056.234   117965301.108    22448058.398    91921071.997  
  23427508.953   123112408.413    23427509.797    95931748.777  
  23088033.234   121328487.674    23088034.875    94541661.717  
  24549103.930   129006428.190    24549102.617   100524543.479  
  23230113.047   122075077.671    23230110.805    95123449.433  
  22118162.945   116231710.564    22118159.680    90570195.626  
  22622868.570   118884033.023    22622869.367    92636924.482  
  23620155.484   124124735.234    23620157.645    96720605.628  
  20046138.391   105343451.978    20046135.867    82085647.671  
  21404455.281   112481227.928    21404455.445    87647739.107  
  21997768.523   117797070.749    21997765.422    91619967.491  
  19653084.156   105057051.292    19653080.457    81711009.798  
  22123274.141   117929538.482    22123272.465    91723041.341  
  19481334.477   104102429.890    19481331.469    80968555.149  
  21437557.891   114515607.985    21437555.664    89067736.788  
  23072258.797   123464283.967    23072257.023    96027797.197  
 21  8 30  0 33  0.0000000  0 17G 1G 3G10G12G21G22G25G26G31G32R 4R 5
                                R 6R14R15R16R21
  22451383.469   117982786.177    22451385.066    91934696.699  
  23408985.055   123015063.751    23408986.637    95855895.811  
  23106843.367   121427336.385    23106844.574    94618686.672  
  24561204.813   129070018.787    24561205.000   100574094.540  
  23237399.742   122113367.584    23237397.875    95153285.721  
  22105254.594   116163873.197    22105250.234    90517335.359  
  22627270.523   118907171.295    22627272.527    92654954.315  
  23599877.297   124018172.195    23599878.852    96637569.561  
  20043287.180   105328470.177    20043284.730    82073973.546  
  21412821.602   112525192.958    21412821.668    87681997.555  
  22011877.000   117872621.051    22011873.996    91678728.809  
  19652357.117   105053166.832    19652353.852    81707988.557  
  21930830.398   117027116.5071                                 
  22142927.680   118034309.083    22142926.930    91804529.566  
  19481012.789   104100710.681    19481009.688    80967217.993  
  21415142.961   114395865.731    21415139.121    88974603.962  
  23082469.484   123518922.114    23082467.734    96070293.404  
 21  8 30  0 33 30.0000000  0 17G 1G 3G10G12G21G22G25G26G31G32R 4R 5
                                R 6R14R15R16R21
  22454822.352   118000857.596    22454823.727    91948778.279  
  23390493.398   122917890.380    23390494.055    95780176.319  
  23125703.328   121526443.275    23125704.703    94695912.782  
  24573397.742   129134096.146    24573399.266   100624024.969  
  23244757.313   122152030.593    23244755.516    95183412.705  
  22092409.438   116096373.088    22092405.250    90464737.896  
  22631791.266   118930924.893    22631793.078    92673463.621  
  23579612.820   123911684.801    23579615.652    96554592.424  
  20040541.281   105314039.943    20040538.758    82062729.213  
  21421224.781   112569352.283    21421224.836    87716407.415  
  22026038.148   117948455.029    22026035.688    91737710.788  
  19651701.602   105049662.531    19651698.289    81705262.971  
  21913487.664   116934570.884                                  
  22162660.805   118139493.937    22162658.848    91886339.938  
  19480843.438   104099804.731    19480839.984    80966513.366  
  21392796.891   114276502.506    21392794.035    88881765.943  
  23092793.188   123574169.646    23092791.336    96113263.717  
 21  8 30  0 34  0.0000000  0 17G 1G 3G10G12G21G22G25G26G31G32R 4R 5
                                R 6R14R15R16R21
  22458372.852   118019514.490    22458374.336    91963316.103  
  23372034.508   122820891.039    23372036.230    95704592.422  
  23144611.531   121625806.968    23144612.383    94773338.977  
  24585683.695   129198658.384    24585683.059   100674333.174  
  23252184.914   122191065.113    23252183.617    95213829.185  
  22079629.430   116029212.542    22079624.867    90412405.026  
  22636428.789   118955293.639    22636430.082    92692452.255  
  23559364.500   123805276.374    23559366.965    96471676.854  
  20037900.172   105300161.142    20037897.598    82051914.573  
  21429664.586   112613706.190    21429664.996    87750968.894  
  22040252.914   118024572.734    22040249.957    91796913.405  
  19651117.570   105046540.396    19651114.148    81702834.645  
  21896155.164   116842080.437                                  
  22182470.734   118245089.335    22182468.043    91968469.669  
  19480826.359   104099711.944    19480822.781    80966441.204  
  21370523.859   114157522.567    21370520.824    88789226.029  
  23103231.305   123630023.618    23103229.719    96156705.641  
 21  8 30  0 34 30.0000000  0 17G 1G 3G10G12G21G22G25G26G31G32R 4R 5
                                R 6R14R15R16R21
  22462034.523   118038755.295    22462036.051    91978308.960  
  23353609.797   122724067.930    23353611.238    95629145.908  
  23163568.688   121725425.380    23163569.777    94850963.659  
  24598061.727   129263703.945    24598058.680   100725018.091  
  23259683.313   122230469.220    23259681.527    95244533.665  
  22066914.227   115962393.410    22066909.516    90360338.198  
  22641182.875   118980276.690    22641184.078    92711919.582  
  23539131.094   123698949.725    23539133.777    96388824.978  
  20035363.828   105286833.146    20035361.301    82041529.127  
  21438142.141   112658254.339    21438142.410    87785681.730  
  22054520.281   118100973.980    22054517.543    91856336.562  
  19650605.258   105043801.848    19650601.863    81700704.670  
  21878832.305   116749645.741                                  
  22202356.750   118351091.260    22202353.734    92050915.625  
  19480960.703   104100431.724    19480957.516    80967001.041  
  21348322.336   114038929.704    21348320.012    88696987.198  
  23113782.172   123686480.395    23113778.641    96200616.411  
 21  8 30  0 35  0.0000000  0 17G 1G 3G10G12G21G22G25G26G31G32R 4R 5
                                R 6R14R15R16R21
  22465806.414   118058579.164    22465808.219    91993756.108  
  23335219.742   122627423.715    23335219.801    95553838.782  
  23182573.320   121825297.128    23182574.492    94928785.753  
  24610531.422   129329230.822    24610527.172   100776077.977  
  23267251.969   122270241.253    23267250.402    95275524.848  
  22054263.914   115895918.367    22054260.137    90308539.485  
  22646053.305   119005873.720    22646054.875    92731865.328  
  23518914.242   123592708.145    23518916.520    96306039.383  
  20032932.750   105274055.406    20032929.922    82031572.445  
  21446656.281   112702997.023    21446656.727    87820546.145  
  22068840.602   118177658.879    22068838.066    91915980.335  
  19650165.789   105041448.705    19650161.637    81698874.442  
  21861521.969   116657268.951                                  
  22222318.039   118457495.918    22222314.520    92133674.819  
  19481247.531   104101963.752    19481244.133    80968192.630  
  21326195.461   113920727.471    21326192.211    88605052.188  
  23124444.133   123743536.707    23124442.656    96244993.512  
 21  8 30  0 35 30.0000000  0 17G 1G 3G10G12G21G22G25G26G31G32R 4R 5
                                R 6R14R15R16R21
  22469689.031   118078984.208    22469691.293    92009656.176  
  23316862.961   122530960.376    23316862.895    95478672.529  
  23201626.203   121925419.827    23201627.504    95006803.387  
  24623090.969   129395236.149    24623092.105   100827510.653  
  23274889.664   122310378.902    23274887.980    95306800.892  
  22041680.250   115829788.809    22041675.785    90257010.021  
  22651040.898   119032083.708    22651043.352    92752288.667  
  23498713.117   123486554.192    23498715.703    96223322.070  
  20030605.547   105261826.980    20030602.844    82022043.815  
  21455207.586   112747933.616    21455208.086    87855561.669  
  22083214.633   118254626.770    22083211.324    91975844.197  
  19649797.250   105039481.939    19649793.750    81697344.752  
  21844221.766   116564951.690                                  
  22242353.078   118564298.583    22242351.398    92216743.534  
  19481685.844   104104306.834    19481682.555    80970015.034  
  21304141.523   113802919.771    21304138.473    88513424.024  
  23135217.492   123801188.532    23135215.188    96289833.861  
 21  8 30  0 36  0.0000000  0 17G 1G 3G10G12G21G22G25G26G31G32R 4R 5
                                R 6R14R15R16R21
  22473682.828   118099969.410    22473684.445    92026008.236  
  23298541.281   122434680.504    23298542.266    95403649.290  
  23220726.102   122025792.011    23220727.480    95085015.429  
  24635742.086   129461717.912    24635745.066   100879314.646  
  23282596.711   122350880.566    23282595.121    95338360.582  
  22029161.953   115764007.515    22029158.555    90205751.892  
  22656145.469   119058906.112    22656147.801    92773189.262  
  23478530.344   123380491.108    23478532.805    96140675.555  
  20028382.594   105250147.659    20028380.195    82012943.042  
  21463795.828   112793064.345    21463796.215    87890728.467  
  22097639.984   118331877.783    22097636.949    92035928.263  
  19649501.578   105037903.482    19649498.570    81696117.066  
  21826933.250   116472695.967                                  
  22262463.367   118671495.720    22262461.547    92300119.026  
  19482276.125   104107460.669    19482272.781    80972468.033  
  21282162.242   113685510.411    21282159.031    88422105.699  
  23146103.195   123859432.859    23146100.230    96335134.959  
 21  8 30  0 36 30.0000000  0 16G 1G 3G10G12G21G22G25G26G31G32R 4R 5
                                R 6R14R15R16
  22477786.531   118121533.408    22477788.316    92042811.327  
  23280255.969   122338586.512    23280255.492    95328770.932  
  23239873.109   122126411.830    23239874.953    95163420.425  
  24648484.305   129528673.927    24648485.781   100931488.206  
  23290373.109   122391744.537    23290370.977    95370202.617  
  22016711.273   115698576.301    22016706.672    90154766.574  
  22661364.930   119086340.239    22661367.906    92794566.503  
  23458365.023   123274521.930    23458367.270    96058102.218  
  20026264.680   105239016.457    20026262.234    82004269.393  
  21472420.805   112838389.115    21472421.273    87926046.469  
  22112118.602   118409411.647    22112115.844    92096232.363  
  19649279.891   105036714.635    19649276.117    81695192.391  
  21809656.391   116380503.575                                  
  22282646.805   118779083.381    22282644.859    92383798.248  
  19483017.305   104111424.676    19483014.523    80975551.153  
  21260257.781   113568503.037    21260254.703    88331100.012  
 21  8 30  0 37  0.0000000  0 17G 1G 3G10G12G21G22G25G26G31G32R 4R 5
                                R 6R14R15R16R21
  22481999.969   118143674.476    22482002.246    92060064.124  
  23262004.844   122242680.651    23262005.641    95254039.112  
  23259067.352   122227277.208    23259068.871    95242016.748  
  24661314.242   129596102.141    24661313.539   100984029.659  
  23298217.852   122432968.124    23298215.605    95402324.856  
  22004327.055   115633497.235    22004322.770    90104055.649  
  22666702.563   119114385.205    22666704.398    92816419.735  
  23438218.297   123168649.426    23438220.227    95975604.215  
  20024250.984   105228433.106    20024248.559    81996022.630  
  21481082.500   112883907.627    21481083.137    87961515.426  
  22126650.625   118487228.226    22126647.125    92156756.335  
  19649130.086   105035916.740    19649126.836    81694571.816  
  21792392.141   116288375.919                                  
  22302902.641   118887057.052    22302900.945    92467777.753  
  19483910.719   104116197.856    19483907.777    80979263.633  
  21238429.836   113451900.910    21238426.563    88240409.524  
  23168202.500   123977675.4741   23168198.270    96427109.7731 
 21  8 30  0 37 30.0000000  0 16G 1G 3G10G12G21G22G25G26G31G32R 4R 5
                                R 6R14R15R16
  22486323.086   118166391.407    22486324.609    92077765.629  
  23243791.445   122146965.415    23243792.035    95179455.834  
  23278307.969   122328386.454    23278309.262    95320803.109  
  24674235.930   129664000.899    24674233.145   101036937.680  
  23306129.859   122474549.803    23306128.996    95434726.138  
  21992010.711   115568772.413    21992006.066    90053620.741  
  22672155.383   119143040.310    22672157.098    92838748.410  
  23418090.156   123062876.745    23418092.441    95893183.992  
  20022341.203   105218397.251    20022338.664    81988202.486  
  21489781.578   112929619.932    21489781.547    87997135.396  
  22141234.805   118565326.989    22141231.801    92217499.786  
  19649054.320   105035511.452    19649051.051    81694256.606  
  21775139.156   116196314.646                                  
  22323229.484   118995413.083    22323227.699    92552054.705  
  19484955.297   104121779.468    19484952.242    80983604.884  
  21216678.281   113335708.548    21216675.605    88150037.725  
 21  8 30  0 38  0.0000000  0 16G 1G 3G10G12G21G22G25G26G31G32R 4R 5
                                R 6R14R15R16
  22490754.750   118189683.205    22490756.469    92095915.053  
  23225614.148   122051443.675    23225614.805    95105023.360  
  23297594.672   122429738.170    23297596.332    95399778.426  
  24687245.875   129732367.591    24687242.297   101090210.438  
  23314111.133   122516487.845    23314109.355    95467405.103  
  21979761.906   115504404.776    21979757.891    90003464.161  
  22677725.148   119172305.219    22677725.531    92861552.243  
  23397981.766   122957207.361    23397984.488    95810844.234  
  20020535.445   105208908.335    20020532.926    81980808.527  
  21498517.094   112975526.350    21498517.742    88032906.636  
  22155872.594   118643708.465    22155869.117    92278463.151  
  19649052.492   105035500.730    19649049.094    81694248.263  
  21757900.727   116104321.984                                  
  22343627.938   119104147.924    22343625.855    92636626.226  
  19486151.484   104128169.254    19486148.105    80988574.725  
  21195004.094   113219929.516    21195001.453    88059987.411  
 21  8 30  0 38 30.0000000  0 16G 1G 3G10G12G21G22G25G26G31G32R 4R 5
                                R 6R14R15R16
  22495295.820   118213548.167    22495297.008    92114511.114  
  23207474.227   121956117.659    23207474.332    95030743.407  
  23316927.289   122531330.329    23316928.832    95478941.095  
  24700344.367   129801199.751    24700342.230   101143845.940  
  23322158.930   122558780.437    23322157.324    95500360.347  
  21967580.992   115440395.866    21967577.750    89953587.106  
  22683409.250   119202178.973    22683410.465    92884830.477  
  23377893.734   122851644.067    23377896.582    95728587.176  
  20018833.859   105199965.269    20018830.559    81973839.894  
  21507289.789   113021626.686    21507290.094    88068828.965  
  22170562.422   118722372.018    22170558.895    92339645.874  
  19649124.617   105035885.926    19649121.164    81694547.862  
  21740673.492   116012400.457                                  
  22364096.836   119213257.282    22364094.895    92721489.012  
  19487498.227   104135365.940    19487494.895    80994172.146  
  21173407.992   113104567.604    21173405.043    87970261.538  
 21  8 30  0 39  0.0000000  0 17G 1G 3G10G12G21G22G25G26G31G32R 4R 5
                                R 6R14R15R16R21
  22499946.859   118237984.780    22499947.855    92133552.644  
  23189371.602   121860989.772    23189372.273    94956617.814  
  23336304.938   122633160.970    23336307.355    95558289.609  
  24713530.742   129870495.711    24713531.742   101197842.759  
  23330274.086   122601425.418    23330272.230    95533590.178  
  21955469.141   115376747.986    21955465.469    89903991.372  
  22689209.234   119232660.570    22689211.195    92908582.388  
  23357826.313   122746189.931    23357829.586    95646415.145  
  20017235.805   105191567.545    20017232.387    81967296.230  
  21516099.320   113067920.808    21516099.391    88104902.281  
  22185304.781   118801317.547    22185301.055    92401047.901  
  19649270.852   105036668.376    19649267.559    81695156.446  
  21723461.148   115920550.672                                  
  22384636.117   119322737.120    22384633.262    92806639.926  
  19488995.773   104143368.953    19488992.484    81000396.720  
  21151890.883   112989626.549    21151887.492    87880863.006  
  23213691.594   124221143.7571   23213693.809    96616458.4791 
 21  8 30  0 39 30.0000000  0 17G 1G 3G10G12G21G22G25G26G31G32R 4R 5
                                R 6R14R15R16R21
  22504704.531   118262991.632    22504706.703    92153038.465  
  23171307.406   121766062.501    23171308.156    94882648.534  
  23355727.594   122735228.352    23355730.316    95637822.606  
  24726805.250   129940253.155    24726805.238   101252199.212  
  23338455.852   122644421.023    23338454.164    95567093.211  
  21943426.875   115313463.548    21943422.941    89854678.856  
  22695125.266   119263749.266    22695127.059    92932807.372  
  23337780.414   122640847.935    23337783.230    95564330.514  
  20015741.141   105183714.233    20015738.348    81961176.777  
  21524945.031   113114408.673    21524945.926    88141126.589  
  22200099.703   118880544.645    22200096.633    92462668.984  
  19649492.141   105037849.761    19649488.391    81696075.310  
  21706262.492   115828775.341                                  
  22405242.797   119432583.472    22405239.891    92892075.923  
  19490643.867   104152176.991    19490640.805    81007247.410  
  21130453.328   112875109.841    21130450.000    87791794.508  
  23225334.672   124283433.989    23225334.516    96664906.301  
 21  8 30  0 40  0.0000000  0 16G 1G 3G10G12G21G22G25G26G31G32R 4R 5
                                R 6R14R15R16
  22509571.789   118288566.911    22509573.063    92172967.273  
  23153282.141   121671338.135    23153282.902    94808837.382  
  23375195.633   122837530.413    23375197.344    95717538.445  
  24740167.133   130010469.820    24740164.215   101306913.414  
  23346703.813   122687764.853    23346701.809    95600867.599  
  21931453.242   115250543.960    21931449.422    89805650.617  
  22701156.547   119295444.015    22701158.500    92957504.595  
  23317756.789   122535621.038    23317759.375    95482335.588  
  20014350.359   105176404.706    20014347.648    81955481.054  
  21533828.953   113161090.065    21533829.273    88177501.703  
  22214947.859   118960053.214    22214943.922    92524508.900  
  19649787.438   105039431.335    19649784.219    81697305.428  
  21689077.695   115737075.932                                  
  22425916.742   119542791.956    22425914.637    92977793.621  
  19492442.680   104161789.072    19492439.281    81014723.479  
  21109095.320   112761020.967    21109091.984    87703058.767  
 21  8 30  0 40 30.0000000  0 17G 1G 3G10G12G21G22G25G26G31G32R 4R 5
                                R 6R14R15R16R21
  22514546.719   118314709.060    22514547.184    92193337.767  
  23135295.406   121576819.066    23135296.141    94735186.204  
  23394707.000   122940065.266    23394708.957    95797435.705  
  24753615.719   130081142.880    24753612.648   101361983.314  
  23355017.922   122731455.070    23355016.273    95634911.910  
  21919549.945   115187991.834    21919545.953    89756908.702  
  22707303.250   119327743.881    22707304.445    92982673.316  
  23297755.039   122430512.271    23297757.863    95400432.703  
  20013062.523   105169638.278    20013059.965    81950208.505  
  21542748.797   113207964.897    21542748.961    88214027.541  
  22229847.719   119039842.648    22229844.258    92586567.342  
  19650158.641   105041414.355    19650155.031    81698847.779  
  21671908.391   115645453.940                                  
  22446658.203   119653358.792    22446656.797    93063790.045  
  19494391.250   104172204.244    19494388.508    81022824.166  
  21087818.406   112647363.916    21087815.379    87614658.870  
  23248935.727   124409765.0961                                 
 21  8 30  0 41  0.0000000  0 17G 1G 3G10G12G21G22G25G26G31G32R 4R 5
                                R 6R14R15R16R21
  22519628.898   118341416.581    22519630.012    92214148.816  
  23117348.586   121482507.809    23117349.945    94661696.939  
  23414262.359   123042831.036    23414263.961    95877512.875  
  24767150.102   130152270.179    24767150.070   101417407.189  
  23363397.508   122775489.380    23363395.359    95669224.351  
  21907717.219   115125808.691    21907712.938    89708454.315  
  22713564.648   119360647.916    22713566.625    93008312.822  
  23277776.422   122325524.644    23277779.023    95318624.234  
  20011878.484   105163414.308    20011875.570    81945358.661  
  21551705.742   113255033.116    21551705.609    88250704.076  
  22244800.617   119119912.795    22244796.930    92648844.110  
  19650605.148   105043800.456    19650601.516    81700703.634  
  21654753.234   115553911.544                                  
  22467467.258   119764279.805    22467465.156    93150061.920  
  19496490.438   104183421.356    19496487.699    81031548.594  
  21066623.320   112534142.208    21066620.211    87526597.609  
  23260889.859   124473733.722                                  
 21  8 30  0 41 30.0000000  0 16G 1G 3G10G12G21G22G25G26G31G32R 4R 5
                                R 6R14R15R16
  22524818.063   118368688.091    22524819.738    92235399.324  
  23099441.672   121388407.135    23099442.941    94588371.742  
  23433862.250   123145826.139    23433863.535    95957768.725  
  24780772.063   130223849.792    24780773.504   101473183.516  
  23371842.156   122819866.256    23371840.391    95703803.705  
  21895954.703   115063997.245    21895950.438    89660289.551  
  22719941.469   119394155.414    22719942.816    93034422.554  
  23257821.664   122220661.491    23257823.977    95236912.779  
  20010796.906   105157732.219    20010794.172    81940931.057  
  21560699.297   113302294.977    21560699.824    88287531.475  
  22259805.344   119200263.673    22259802.090    92711339.229  
  19651126.992   105046591.293    19651123.766    81702874.292  
  21637613.414   115462450.908                                  
  22488342.094   119875551.522    22488339.211    93236606.553  
  19498740.227   104195439.475    19498736.688    81040896.022  
  21045510.266   112421359.734    21045506.926    87438877.936  
 21  8 30  0 42  0.0000000  0 16G 1G 3G10G12G21G22G25G26G31G32R 4R 5
                                R 6R14R15R16
  22530114.281   118396522.050    22530116.082    92257088.146  
  23081576.227   121294519.531    23081577.344    94515212.589  
  23453504.383   123249048.744    23453506.586    96038201.881  
  24794478.461   130295879.205    24794481.473   101529310.427  
  23380351.766   122864583.960    23380349.809    95738648.666  
  21884263.578   115002559.720    21884259.301    89612416.174  
  22726431.758   119428265.493    22726433.801    93061001.839  
  23237890.922   122115926.004    23237893.492    95155300.782  
  20009818.477   105152590.787    20009815.559    81936924.755  
  21569729.828   113349750.461    21569730.180    88324509.784  
  22274862.711   119280895.199    22274859.254    92774052.600  
  19651725.656   105049788.399    19651721.730    81705360.923  
  21620489.641   115371073.688                                  
  22509281.297   119987169.796    22509279.004    93323420.693  
  19501138.813   104208257.610    19501135.355    81050865.681  
  21024479.609   112309020.373    21024476.762    87351502.939  
 21  8 30  0 42 30.0000000  0 16G 1G 3G10G12G21G22G25G26G31G32R 4R 5
                                R 6R14R15R16
  22535518.305   118424916.440    22535519.555    92279213.626  
  23063750.766   121200847.153    23063751.352    94442221.141  
  23473190.102   123352496.554    23473192.480    96118810.499  
  24808270.445   130368356.345    24808269.324   101585786.153  
  23388925.266   122909639.735    23388923.734    95773757.056  
  21872643.766   114941497.901    21872639.777    89564835.546  
  22733036.914   119462976.734    22733038.016    93088049.585  
  23217985.734   122011320.789    23217987.793    95073790.291  
  20008943.023   105147989.153    20008939.980    81933339.077  
  21578796.742   113397399.220    21578796.941    88361638.674  
  22289972.563   119361806.336    22289969.367    92836983.476  
  19652399.625   105053393.006    19652396.195    81708164.503  
  21603380.742   115279782.318                                  
  22530284.859   120099130.219    22530282.359    93410500.988  
  19503686.789   104221874.259    19503683.613    81061456.416  
  21003533.344   112197127.309    21003529.820    87264475.019  
 21  8 30  0 43  0.0000000  0 16G 1G 3G10G12G21G22G25G26G31G32R 4R 5
                                R 6R14R15R16
  22541027.547   118453869.707    22541030.305    92301774.609  
  23045966.492   121107392.585    23045966.711    94369399.425  
  23492918.234   123456167.817    23492920.977    96199593.237  
  24822147.180   130441278.407    24822145.438   101642608.500  
  23397563.422   122955032.039    23397561.719    95809127.667  
  21861095.906   114880813.681    21861092.031    89517549.147  
  22739756.727   119498288.258    22739756.633    93115565.051  
  23198104.766   121906849.069    23198107.656    94992383.826  
  20008169.953   105143926.513    20008167.172    81930173.387  
  21587900.648   113445241.285    21587901.590    88398918.190  
  22305134.141   119442997.275    22305130.852    92900131.930  
  19653150.148   105057406.733    19653147.008    81711286.296  
  21586289.188   115188577.921                                  
  22551351.516   120211429.137    22551349.844    93497844.542  
  19506384.344   104236288.321    19506380.980    81072667.360  
  20982671.031   112085684.075    20982667.414    87177796.999  
 21  8 30  0 43 30.0000000  0 17G 1G 3G10G12G21G22G25G26G31G32R 4R 5
                                R 6R14R15R16R21
  22546643.852   118483380.078    22546646.035    92324769.691  
  23028224.164   121014158.240    23028225.230    94296749.293  
  23512688.914   123560060.544    23512690.605    96280548.555  
  24836107.555   130514643.398    24836107.117   101699775.982  
  23406264.289   123000758.109    23406263.492    95844758.352  
  21849620.219   114820509.364    21849616.660    89470558.767  
  22746590.625   119534198.849    22746590.688    93143547.341  
  23178250.633   121802513.799    23178253.742    94911083.675  
  20007499.641   105140402.243    20007496.566    81927427.204  
  21597041.602   113493276.505    21597042.137    88436348.239  
  22320348.445   119524467.402    22320345.035    92963497.550  
  19653977.945   105061830.891    19653974.824    81714727.307  
  21569214.531   115097463.133                                  
  22572480.836   120324062.313    22572480.168    93585448.103  
  19509230.305   104251498.336    19509227.344    81084497.373  
  20961893.711   111974694.667    20961890.047    87091471.940  
  23322192.633   124801588.0451   23322191.691    97068032.9971 
 21  8 30  0 44  0.0000000  0 17G 1G 3G10G12G21G22G25G26G31G32R 4R 5
                                R 6R14R15R16R21
  22552364.719   118513445.895    22552366.199    92348197.576  
  23010524.539   120921146.704    23010526.520    94224272.792  
  23532500.008   123664172.938    23532503.191    96361675.043  
  24850152.688   130588448.858    24850153.332   101757286.692  
  23415029.352   123046816.057    23415027.734    95880647.649  
  21838217.977   114760587.326    21838213.855    89423866.296  
  22753538.219   119570707.558    22753539.129    93171995.698  
  23158423.039   121698318.136    23158425.184    94829892.307  
  20006930.961   105137415.376    20006928.438    81925099.776  
  21606219.086   113541504.998    21606219.805    88473928.870  
  22335614.063   119606216.574    22335611.168    93027080.190  
  19654882.484   105066666.634    19654879.359    81718488.438  
  21552156.211   115006439.704                                  
  22593672.500   120437026.160    22593671.941    93673308.893  
  19512225.586   104267503.222    19512222.477    81096945.620  
  20941201.094   111864162.307    20941197.957    87005502.371  
  23334754.047   124868811.9811                                 
 21  8 30  0 44 30.0000000  0 16G 1G 3G10G12G21G22G25G26G31G32R 4R 5
                                R 6R14R15R16
  22558191.547   118544065.722    22558194.180    92372057.186  
  22992868.289   120828360.823    22992869.777    94151972.113  
  23552354.234   123768503.363    23552356.609    96442971.430  
  24864281.680   130662692.748    24864283.199   101815139.117  
  23423856.766   123093204.341    23423854.836    95916794.335  
  21826888.180   114701049.643    21826884.449    89377473.299  
  22760598.547   119607813.626    22760599.934    93200909.513  
  23138622.234   121594265.478    23138624.660    94748812.386  
  20006464.555   105134965.160    20006461.789    81923190.515  
  21615433.609   113589927.028    21615434.223    88511660.298  
  22350932.508   119688244.603    22350928.891    93090879.695  
  19655865.031   105071916.211    19655861.461    81722571.436  
  21535116.430   114915509.613                                  
  22614925.836   120550316.660    22614924.309    93761423.706  
  19515369.195   104284301.777    19515366.129    81110011.166  
  20920596.063   111754091.484    20920592.492    86919891.767  
 21  8 30  0 45  0.0000000  0 16G 1G 3G10G12G21G22G25G26G31G32R 4R 5
                                R 6R14R15R16
  22564123.648   118575237.428    22564124.891    92396346.806  
  22975255.414   120735802.628    22975256.352    94079848.871  
  23572248.766   123873049.479    23572250.973    96524435.871  
  24878492.500   130737372.199    24878494.043   101873330.941  
  23432746.688   123139920.542    23432745.430    95953196.552  
  21815632.102   114641898.034    21815627.949    89331381.150  
  22767773.133   119645515.412    22767775.402    93230287.518  
  23118848.914   121490358.491    23118851.457    94667845.957  
  20006099.984   105133050.367    20006097.168    81921698.476  
  21624684.797   113638542.073    21624684.863    88549542.154  
  22366302.164   119770551.009    22366299.609    93154895.728  
  19656924.500   105077580.555    19656920.887    81726977.038  
  21518094.422   114824674.610                                  
  22636239.273   120663929.578    22636237.723    93849789.273  
  19518661.352   104301892.362    19518657.902    81123692.731  
  20900077.211   111644484.468    20900074.055    86834641.901  
 21  8 30  0 45 30.0000000  0 17G 1G 3G10G12G21G22G25G26G31G32R 4R 5
                                R 6R14R15R16R21
  22570159.430   118606959.286    22570161.621    92421065.110  
  22957686.039   120643474.769    22957686.555    94007905.128  
  23592183.469   123977809.430    23592185.840    96606066.929  
  24892785.148   130812485.060    24892781.438   101931860.447  
  23441698.828   123186962.441    23441696.277    95989852.548  
  21804449.469   114583134.656    21804445.352    89285591.518  
  22775060.266   119683811.870    22775062.484    93260128.929  
  23099104.273   121386600.312    23099106.352    94586995.491  
  20005837.648   105131670.313    20005834.707    81920623.116  
  21633972.398   113687350.255    21633973.117    88587574.490  
  22381724.414   119853135.224    22381721.754    93219127.854  
  19658061.672   105083661.062    19658058.238    81731706.325  
  21501089.789   114733937.250                                  
  22657613.508   120777861.109    22657610.555    93938402.654  
  19522100.711   104320273.564    19522097.773    81137989.236  
  20879646.516   111535345.771    20879643.141    86749756.281  
  23373031.133   125073651.8201                                 
 21  8 30  0 46  0.0000000  0 16G 1G 3G10G12G21G22G25G26G31G32R 4R 5
                                R 6R14R15R16
  22576300.602   118639229.502    22576302.676    92446210.772  
  22940160.281   120551379.741    22940161.125    93936142.792  
  23612158.898   124082781.339    23612161.371    96687863.190  
  24907160.313   130888028.804    24907155.672   101990725.707  
  23450712.227   123234328.155    23450709.941    96026760.856  
  21793341.633   114524761.342    21793337.289    89240105.829  
  22782461.352   119722701.853    22782462.520    93290432.831  
  23079388.688   121282994.103    23079390.730    94506263.420  
  20005676.070   105130823.790    20005673.793    81919963.487  
  21643297.539   113736351.552    21643297.809    88625757.323  
  22397198.734   119935996.956    22397195.398    93283575.865  
  19659277.523   105090158.901    19659273.785    81736760.186  
  21484104.258   114643299.195                                  
  22679045.813   120892107.000    22679042.680    94027260.547  
  19525688.406   104339444.031    19525685.285    81152899.600  
  20859302.648   111426678.851    20859300.277    86665237.599  
 21  8 30  0 46 30.0000000  0 16G 1G 3G10G12G21G22G25G26G31G32R 4R 5
                                R 6R14R15R16
  22582545.742   118672046.310    22582546.461    92471782.292  
  22922679.820   120459520.201    22922680.648    93864563.946  
  23632174.750   124187963.340    23632177.520    96769823.141  
  24921616.805   130964001.129    24921614.117   102049924.936  
  23459786.359   123282015.462    23459784.559    96063919.795  
  21782307.977   114466780.492    21782304.090    89194925.964  
  22789974.773   119762184.149    22789976.250    93321198.269  
  23059702.688   121179542.983    23059704.543    94425652.225  
  20005616.781   105130510.093    20005614.242    81919719.042  
  21652658.781   113785545.997    21652659.457    88664090.650  
  22412724.820   120019135.899    22412721.273    93348239.458  
  19660571.352   105097075.759    19660567.871    81742139.958  
  21467137.828   114552762.016                                  
  22700536.297   121006663.506    22700533.289    94116360.009  
  19529423.344   104359402.183    19529419.934    81168422.603  
  20839049.461   111318487.143    20839046.406    86581088.542  
 21  8 30  0 47  0.0000000  0 16G 1G 3G10G12G21G22G25G26G31G32R 4R 5
                                R 6R14R15R16
  22588894.133   118705407.573    22588896.234    92497778.091  
  22905244.852   120367898.281    22905245.199    93793170.262  
  23652229.867   124293353.108    23652232.336    96851944.979  
  24936156.813   131040399.150    24936157.426   102109455.900  
  23468922.281   123330022.076    23468919.223    96101327.502  
  21771349.875   114409194.396    21771345.461    89150053.709  
  22797600.398   119802257.311    22797602.078    93352424.107  
  23040046.742   121076249.635    23040048.781    94345163.978  
  20005658.617   105130727.777    20005655.363    81919888.684  
  21662056.656   113834933.196    21662057.742    88702574.182  
  22428302.016   120102551.524    22428298.617    93413118.235  
  19661944.367   105104412.758    19661940.285    81747846.505  
  21450190.633   114462328.247                                  
  22722083.859   121121526.447    22722081.645    94205697.846  
  19533305.320   104380146.187    19533301.887    81184556.843  
  20818885.156   111210773.675    20818882.520    86497311.423  
 21  8 30  0 47 30.0000000  0 17G 1G 3G10G12G21G22G25G26G31G32R 4R 5
                                R 6R14R15R16R21
  22595345.977   118739311.825    22595347.934    92524196.986  
  22887855.930   120276516.945    22887855.773    93721964.077  
  23672324.438   124398949.132    23672326.125    96934227.520  
  24950776.016   131117221.036    24950780.523   102169317.045  
  23478117.766   123378345.793    23478115.277    96138982.305  
  21760466.977   114352004.393    21760462.707    89105490.082  
  22805338.156   119842920.449    22805339.684    93384109.665  
  23020421.383   120973117.677    23020423.922    94264801.480  
  20005800.805   105131476.507    20005797.887    81920472.096  
  21671491.547   113884513.636    21671492.008    88741208.275  
  22443931.078   120186243.655    22443927.473    93478212.113  
  19663394.992   105112171.465    19663391.695    81753881.061  
  21433263.453   114371999.993                                  
  22743688.445   121236692.209    22743686.660    94295271.150  
  19537334.148   104401674.789    19537330.746    81201301.305  
  20798811.547   111103542.824    20798808.457    86413909.702  
  23425427.023   125354254.6701                                 
 21  8 30  0 48  0.0000000  0 17G 1G 3G10G12G21G22G25G26G31G32R 4R 5
                                R 6R14R15R16R21
  22601899.734   118773756.759    22601903.168    92551037.187  
  22870513.000   120185378.345    22870513.387    93650947.001  
  23692457.469   124504749.126    23692459.039    97016669.004  
  24965472.469   131194463.621    24965480.234   102229506.085  
  23487372.867   123426984.407    23487370.047    96176882.462  
  21749659.531   114295212.717    21749655.652    89061236.849  
  22813187.977   119884171.829    22813188.805    93416253.600  
  23000827.211   120870149.807    23000829.758    94184566.830  
  20006044.219   105132755.118    20006041.246    81921468.435  
  21680963.063   113934286.836    21680963.656    88779992.576  
  22459611.250   120270211.531    22459607.777    93543520.460  
  19664925.805   105120353.409    19664922.465    81760244.808  
  21416355.773   114281779.674                                  
  22765349.734   121352156.673    22765347.688    94385076.802  
  19541509.406   104423986.172    19541506.066    81218654.608  
  20778829.125   110996797.275    20778825.313    86330885.438  
  23438756.938   125425600.476                                  
 21  8 30  0 48 30.0000000  0 16G 1G 3G10G12G21G22G25G26G31G32R 4R 5
                                R 6R14R15R16
  22608557.688   118808740.899    22608560.141    92578297.551  
  22853216.023   120094485.430    22853218.531    93580121.383  
  23712628.109   124610751.484    23712631.313    97099268.150  
  24980251.227   131272125.153    24980250.613   102290021.520  
  23496688.516   123475936.043    23496686.027    96215026.541  
  21738929.430   114238821.752    21738924.945    89017295.845  
  22821149.148   119926010.587    22821151.023    93448855.223  
  22981265.172   120767349.419    22981267.766    94104462.675  
  20006388.148   105134562.574    20006385.219    81922876.850  
  21690471.336   113984253.128    21690471.926    88818927.362  
  22475343.055   120354455.251    22475339.738    93609043.312  
  19666535.867   105128959.659    19666532.547    81766938.561  
  21399468.727   114191668.961                                  
  22787066.672   121467915.889    22787063.043    94475111.746  
  19545830.109   104447078.942    19545827.551    81236615.667  
  20758937.102   110890540.999    20758933.648    86248241.735  
 21  8 30  0 49  0.0000000  0 16G 1G 3G10G12G21G22G25G26G31G32R 4R 5
                                R 6R14R15R16
  22615317.672   118844262.200    22615318.266    92605976.495  
  22835966.969   120003840.685    22835968.512    93509489.136  
  23732838.750   124716954.252    23732840.188    97182023.481  
  24995109.031   131350202.981    24995104.324   102350861.334  
  23506063.141   123525198.460    23506060.520    96253412.817  
  21728274.891   114182833.498    21728270.301    88973668.638  
  22829222.914   119968435.353    22829225.504    93481913.499  
  22961735.102   120664719.672    22961738.316    94024491.485  
  20006832.180   105136897.492    20006829.445    81924696.273  
  21700016.820   114034412.546    21700016.547    88858012.617  
  22491125.453   120438974.167    22491123.480    93674780.188  
  19668224.859   105137991.948    19668222.199    81773963.689  
  21382602.539   114101670.178                                  
  22808836.430   121583966.240    22808834.379    94565373.079  
  19550299.078   104470951.560    19550295.000    81255183.256  
  20739137.492   110784777.563    20739134.250    86165981.329  
 21  8 30  0 49 30.0000000  0 16G 1G 3G10G12G21G22G25G26G31G32R 4R 5
                                R 6R14R15R16
  22622178.063   118880318.692    22622180.445    92634072.393  
  22818765.422   119913446.452    22818766.793    93439052.118  
  23753086.047   124823355.205    23753088.164    97264933.252  
  25010044.508   131428694.4331   25010043.211   102412023.5931 
  23515495.398   123574769.479    23515494.055    96292039.532  
  21717697.516   114127249.647    21717693.559    88930356.545  
  22837407.422   120011444.560    22837409.031    93515427.179  
  22942238.109   120562263.450    22942241.242    93944655.526  
  20007376.836   105139758.711    20007374.035    81926925.798  
  21709598.664   114084764.861    21709598.789    88897248.182  
  22506960.586   120523767.727    22506957.719    93740730.671  
  19669995.430   105147451.645    19669991.867    81781321.223  
  21365758.789   114011785.048                                  
  22830661.148   121700303.322    22830659.059    94655857.466  
  19554911.313   104495601.861    19554907.898    81274355.733  
  20719431.688   110679510.500    20719428.270    86084106.998  
 21  8 30  0 50  0.0000000  0 16G 1G 3G10G12G21G22G25G26G31G32R 4R 5
                                R 6R14R15R16
  22629140.391   118916908.299    22629142.934    92662583.731  
  22801612.648   119823305.410    22801612.742    93368812.380  
  23773370.680   124929952.492    23773372.633    97347996.015  
  25025060.375   131507597.262    25025070.953   102473506.244  
  23524987.398   123624646.856    23524985.871    96330905.003  
  21707197.492   114072072.564    21707193.598    88887361.428  
  22845702.328   120055036.959    22845703.770    93549395.272  
  22922774.391   120459983.906    22922778.023    93864957.249  
  20008021.023   105143145.579    20008018.375    81929564.925  
  21719216.906   114135310.120    21719217.371    88936634.098  
  22522846.625   120608835.498    22522843.883    93806894.451  
  19671845.414   105157339.798    19671841.609    81789012.026  
  21348936.391   113922015.778                                  
  22852538.273   121816923.551    22852536.250    94746562.123  
  19559669.172   104521028.379    19559666.164    81294131.917  
  20699819.039   110574743.151    20699815.820    86002621.337  
 21  8 30  0 50 30.0000000  0 17G 1G 3G10G12G21G22G25G26G31G32R 4R 5
                                R 6R14R15R16R21
  22636205.492   118954028.769    22636207.211    92691508.766  
  22784508.023   119733419.828    22784507.516    93298771.691  
  23793691.922   125036743.877    23793695.777    97431209.999  
  25040152.852   131586908.505    25040169.691   102535307.284  
  23534536.016   123674828.122    23534534.918    96370007.235  
  21696775.406   114017303.923    21696771.676    88844684.591  
  22854108.367   120099210.869    22854109.645    93583816.494  
  22903345.930   120357883.897    22903348.793    93785398.866  
  20008765.625   105147056.788    20008762.742    81932612.635  
  21728872.078   114186048.081    21728872.203    88976170.166  
  22538783.578   120694176.683    22538780.457    93873270.854  
  19673775.109   105167657.524    19673771.551    81797036.940  
  21332135.586   113832365.019                                  
  22874468.422   121933822.662    22874467.109    94837483.617  
  19564572.477   104547228.966    19564569.328    81314510.144  
  20680300.641   110470478.540    20680297.305    85921526.692  
  23506797.156   125789629.7761                                 
 21  8 30  0 51  0.0000000  0 15G 1G 3G10G21G22G25G26G31G32R 4R 5R 6
                                R14R15R16
  22643370.773   118991678.213    22643371.055    92720845.987  
  22767452.883   119643792.359    22767453.484    93228932.101  
  23814051.328   125143727.444    23814053.941    97514573.768  
  23544142.797   123725311.030    23544141.766    96409344.513  
  21686431.547   113962945.843    21686427.648    88802327.668  
  22862625.008   120143964.958    22862626.875    93618689.799  
  22883951.594   120255966.599    22883954.773    93705982.866  
  20009609.320   105151491.078    20009606.750    81936067.928  
  21738563.586   114236978.786    21738564.504    89015856.422  
  22554771.602   120779791.192    22554768.930    93939859.879  
  19675785.938   105178406.344    19675782.223    81805397.126  
  21315358.086   113742834.349                                  
  22896450.266   122050996.893    22896448.414    94928619.135  
  19569620.289   104574201.723    19569616.824    81335488.971  
  20660876.625   110366720.397    20660873.316    85840825.939  
 21  8 30  0 51 30.0000000  0 15G 1G 3G10G21G22G25G26G31G32R 4R 5R 6
                                R14R15R16
  22650634.445   119029854.944    22650635.969    92750594.069  
  22750446.711   119554425.898    22750448.418    93159295.913  
  23834445.695   125250901.580    23834447.988    97598086.006  
  23553806.523   123776093.819    23553805.277    96448915.459  
  21676166.109   113909000.503    21676161.918    88760292.361  
  22871251.578   120189298.073    22871253.406    93654014.304  
  22864593.273   120154235.447    22864595.656    93626711.897  
  20010552.523   105156447.712    20010549.590    81939930.255  
  21748291.875   114288102.585    21748292.688    89055693.138  
  22570810.266   120865678.790    22570807.160    94006661.282  
  19677877.781   105189587.888    19677874.109    81814093.881  
  21298602.156   113653426.194                                  
  22918482.664   122168442.689    22918480.973    95019965.827  
  19574812.039   104601945.174    19574808.605    81357067.211  
  20641548.477   110263472.083    20641544.840    85760521.737  
 21  8 30  0 52  0.0000000  0 15G 1G 3G10G21G22G25G26G31G32R 4R 5R 6
                                R14R15R16
  22657998.961   119068556.813    22658001.039    92780751.329  
  22733490.594   119465322.852    22733492.078    93089865.005  
  23854876.258   125358264.100    23854877.297    97681745.044  
  23563526.859   123827174.033    23563525.559    96488718.191  
  21665979.281   113855469.693    21665974.906    88718580.053  
  22879988.375   120235208.662    22879989.410    93689788.764  
  22845270.023   120052693.391    22845272.668    93547588.253  
  20011594.859   105161925.307    20011591.926    81944198.514  
  21758057.563   114339419.292    21758057.789    89095680.194  
  22586900.266   120951838.711    22586897.070    94073674.531  
  19680050.969   105201203.278    19680046.867    81823128.074  
  21281871.750   113564143.014                                  
  22940565.797   122286155.902    22940563.672    95111520.514  
  19580147.586   104630457.456    19580144.219    81379243.431  
  20622315.836   110160737.004    20622312.375    85680616.719  
 21  8 30  0 52 30.0000000  0 15G 1G 3G10G21G22G25G26G31G32R 4R 5R 6
                                R14R15R16
  22665463.258   119107781.565    22665466.055    92811316.002  
  22716585.828   119376485.719    22716585.824    93020641.279  
  23875341.516   125465812.961    23875344.129    97765549.317  
  23573303.594   123878549.709    23573302.094    96528751.162  
  21655872.016   113802355.254    21655867.961    88677192.186  
  22888833.945   120281695.123    22888836.004    93726012.007  
  22825983.828   119951343.487    22825986.246    93468614.366  
  20012736.250   105167922.578    20012733.352    81948871.731  
  21767859.133   114390928.869    21767860.242    89135817.520  
  22603040.813   121038270.417    22603037.383    94140899.147  
  19682305.180   105213253.975    19682301.258    81832500.859  
  21265163.148   113474986.853                                  
  22962697.688   122404132.652    22962695.918    95203280.174  
  19585626.906   104659736.184    19585623.469    81402015.781  
  20603180.195   110058518.453    20603177.145    85601113.433  
 21  8 30  0 53  0.0000000  0 16G 1G 3G10G21G22G25G26G31G32R 4R 5R 6
                                R14R15R16R21
  22673028.008   119147526.929    22673029.164    92842286.431  
  22699731.430   119287916.867    22699731.055    92951626.632  
  23895842.648   125573545.968    23895845.215    97849497.040  
  23583135.828   123930218.228    23583133.543    96569012.305  
  21645844.375   113749659.081    21645840.387    88636130.262  
  22897789.633   120328755.688    22897791.879    93762682.594  
  22806734.797   119850188.559    22806737.297    93389792.425  
  20013976.469   105174438.620    20013973.219    81953949.161  
  21777698.109   114442631.081    21777698.703    89176104.947  
  22619232.883   121124973.293    22619228.938    94208334.690  
  19684641.172   105225740.676    19684637.230    81842212.738  
  21248479.930   113385959.692                                  
  22984878.961   122522368.924    22984876.602    95295241.652  
  19591248.852   104689779.554    19591245.652    81425382.852  
  20584142.320   109956819.739    20584138.801    85522014.470  
  23577063.930   126165658.7151   23577065.301    98128830.3491 
 21  8 30  0 53 30.0000000  0 16G 1G 3G10G21G22G25G26G31G32R 4R 5R 6
                                R14R15R16R21
  22680688.648   119187790.815    22680689.598    92873660.853  
  22682929.000   119199618.931    22682928.805    92882823.056  
  23916378.414   125681461.085    23916380.551    97933586.682  
  23593022.859   123982176.909    23593021.809    96609499.572  
  21635896.352   113697383.014    21635892.672    88595395.684  
  22906854.203   120376388.940    22906855.375    93799799.419  
  22787523.008   119749231.767    22787525.684    93311124.852  
  20015314.289   105181471.873    20015311.746    81959429.635  
  21787573.461   114494525.930    21787574.023    89216542.486  
  22635473.141   121211946.554    22635470.266    94275980.504  
  19687058.461   105238664.895    19687055.160    81852264.925  
  21231820.492   113297063.681                                  
  23007107.414   122640860.846    23007105.766    95387401.944  
  19597013.609   104720585.262    19597010.516    81449342.843  
  20565202.188   109855644.074    20565198.578    85443322.321  
  23591376.625   126242248.610                                  
 21  8 30  0 54  0.0000000  0 16G 1G 3G10G21G22G25G26G31G32R 4R 5R 6
                                R14R15R16R21
  22688449.656   119228571.248    22688450.406    92905437.822  
  22666178.086   119111594.590    22666178.605    92814232.677  
  23936948.703   125789556.434    23936949.730    98017816.753  
  23602965.938   124034423.930    23602964.035    96650211.504  
  21626029.641   113645529.507    21626024.973    88554990.383  
  22916027.008   120424593.447    22916027.324    93837361.344  
  22768349.844   119648476.441    22768352.430    93232614.279  
  20016750.945   105189021.187    20016748.230    81965312.227  
  21797485.023   114546613.576    21797485.336    89257130.244  
  22651765.672   121299190.058    22651762.578    94343836.545  
  19689558.578   105252028.139    19689555.203    81862658.550  
  21215186.516   113208301.494                                  
  23029384.000   122759604.522    23029381.578    95479758.100  
  19602920.977   104752151.648    19602917.770    81473894.482  
  20546359.648   109754995.002    20546356.637    85365039.752  
  23605774.102   126319290.1691                                 
 21  8 30  0 54 30.0000000  0 16G 1G 3G10G21G22G25G26G31G32R 4R 5R 6
                                R14R15R16R21
  22696307.625   119269866.229    22696309.043    92937615.695  
  22649480.313   119023846.529    22649480.840    92745857.610  
  23957552.750   125897830.210    23957553.508    98102185.852  
  23612962.461   124086957.120    23612960.543    96691146.439  
  21616242.453   113594100.578    21616238.578    88514915.897  
  22925308.250   120473367.781    22925309.883    93875367.315  
  22749216.109   119547925.813    22749217.984    93154263.191  
  20018285.609   105197085.747    20018282.777    81971596.305  
  21807433.727   114598894.190    21807433.961    89297868.382  
  22668107.891   121386703.572    22668105.059    94411902.592  
  19692140.453   105265831.718    19692137.254    81873394.681  
  21198578.281   113119675.296                                  
  23051706.430   122878596.317    23051704.516    95572307.224  
  19608970.250   104784476.494    19608966.969    81499036.031  
  20527617.773   109654876.166    20527613.859    85287169.591  
  23620252.945   126396779.5351                                 
 21  8 30  0 55  0.0000000  0 15G 1G 3G10G21G22G25G26G31G32R 4R 5R 6
                                R14R15R16
  22704263.242   119311673.251    22704264.848    92970192.548  
  22632835.430   118936377.155    22632836.926    92677699.672  
  23978189.063   126006280.097    23978190.715    98186692.183  
  23623012.906   124139774.122    23623011.691    96732302.521  
  21606537.086   113543097.754    21606532.984    88475173.448  
  22934697.391   120522709.981    22934699.434    93913815.774  
  22730121.117   119447582.599    22730123.359    93076073.743  
  20019918.195   105205663.879    20019915.098    81978280.576  
  21817419.344   114651367.431    21817419.305    89338756.615  
  22684501.156   121474486.054    22684498.547    94480177.842  
  19694805.469   105280076.756    19694802.008    81884474.166  
  21181994.977   113031186.677                                  
  23074075.516   122997832.108    23074073.543    95665046.123  
  19615160.797   104817557.568    19615157.480    81524765.750  
  20508975.844   109555290.489    20508971.250    85209714.108  
 21  8 30  0 55 30.0000000  0 15G 1G 3G10G21G22G25G26G31G32R 4R 5R 6
                                R14R15R16
  22712315.609   119353990.363    22712316.820    93003166.872  
  22616244.203   118849189.200    22616245.375    92609761.029  
  23998859.578   126114904.302    23998861.609    98271334.311  
  23633117.852   124192872.494    23633115.992    96773677.851  
  21596913.156   113492522.853    21596908.648    88435764.448  
  22944195.477   120572618.673    22944196.457    93952705.668  
  22711065.961   119347450.212    22711068.949    92998048.555  
  20021647.906   105214754.404    20021645.152    81985364.113  
  21827441.383   114704033.546    21827441.137    89379795.147  
  22700943.695   121562536.955    22700940.957    94548661.880  
  19697553.313   105294764.759    19697549.535    81895898.154  
  21165438.633   112942838.708                                  
  23096488.617   123117308.270    23096486.664    95757972.031  
  19621492.445   104851392.863    19621489.473    81551082.087  
  20490432.953   109456241.359    20490429.277    85132675.938  
 21  8 30  0 56  0.0000000  0 15G 1G 3G10G21G22G25G26G31G32R 4R 5R 6
                                R14R15R16
  22720464.781   119396814.999    22720466.359    93036536.747  
  22599707.672   118762284.975    22599707.559    92542043.477  
  24019563.438   126223700.487    24019564.609    98356110.482  
  23643275.125   124246250.032    23643273.582    96815270.707  
  21587370.398   113442378.092    21587366.480    88396690.629  
  22953800.016   120623091.963    22953801.637    93992035.494  
  22692052.445   119247531.488    22692055.086    92920189.861  
  20023474.898   105224355.921    20023472.086    81992845.821  
  21837500.102   114756892.261    21837500.066    89420983.759  
  22717436.477   121650855.764    22717434.375    94617354.260  
  19700383.711   105309895.983    19700380.297    81907666.901  
  21148908.977   112854633.316                                  
  23118945.688   123237020.877    23118944.625    95851081.870  
  19627965.148   104885979.970    19627961.980    81577983.183  
  20471992.164   109357731.788    20471988.016    85056057.441  
 21  8 30  0 56 30.0000000  0 15G 1G 3G10G21G22G25G26G31G32R 4R 5R 6
                                R14R15R16
  22728710.523   119440145.165    22728712.063    93070300.500  
  22583224.023   118675667.214    22583225.078    92474549.144  
  24040298.875   126332666.760    24040300.203    98441019.196  
  23653484.859   124299904.675    23653483.578    96857079.458  
  21577910.469   113392665.323    21577906.512    88357953.422  
  22963511.773   120674128.237    22963514.324    94031804.021  
  22673079.563   119147829.573    22673082.215    92842500.110  
  20025398.891   105234467.347    20025396.121    82000724.852  
  21847595.297   114809943.715    21847596.043    89462322.533  
  22733978.922   121739441.702    22733977.152    94686254.404  
  19703298.008   105325472.649    19703294.215    81919782.078  
  21132406.227   112766573.233                                  
  23141446.602   123356965.990    23141445.578    95944372.529  
  19634578.078   104921316.811    19634574.813    81605467.387  
  20453651.773   109259764.903    20453648.355    84979861.029  
 21  8 30  0 57  0.0000000  0 15G 1G 3G10G21G22G25G26G31G32R 4R 5R 6
                                R14R15R16
  22737051.711   119483978.832    22737054.113    93104456.552  
  22566796.039   118589338.728    22566796.820    92407280.234  
  24061066.875   126441801.353    24061067.879    98526059.063  
  23663747.734   124353833.847    23663746.109    96899102.150  
  21568533.234   113343386.408    21568529.145    88319554.283  
  22973329.758   120725726.208    22973332.641    94072010.209  
  22654148.852   119048347.903    22654151.266    92764981.987  
  20027419.805   105245087.502    20027417.160    82009000.311  
  21857727.133   114863188.137    21857727.996    89503811.686  
  22750572.648   121828294.743    22750569.797    94755362.307  
  19706295.156   105341495.737    19706291.313    81932244.479  
  21115932.031   112678660.638                                  
  23163990.758   123477140.165    23163990.070    96037841.306  
  19641330.305   104957401.321    19641327.434    81633533.126  
  20435414.789   109162344.292    20435410.656    84904089.467  
 21  8 30  0 57 30.0000000  0 15G 1G 3G10G21G22G25G26G31G32R 4R 5R 6
                                R14R15R16
  22745488.180   119528313.541    22745490.449    93139003.037  
  22550423.898   118503302.013    22550424.480    92340238.669  
  24081866.156   126551102.104    24081867.832    98611228.407  
  23674061.641   124408035.325    23674060.453    96941337.024  
  21559238.594   113294543.219    21559234.367    88281494.658  
  22983255.922   120777883.898    22983256.637    94112652.566  
  22635260.602   118949089.379    22635263.559    92687637.743  
  20029537.422   105256214.836    20029534.469    82017670.971  
  21867896.242   114916625.418    21867896.586    89545451.101  
  22767214.813   121917413.965    22767211.422    94824677.214  
  19709376.664   105357966.422    19709372.457    81945055.019  
  21099484.672   112590897.748                                  
  23186576.719   123597539.418    23186576.285    96131485.139  
  19648222.906   104994231.184    19648219.695    81662178.587  
  20417280.828   109065473.292    20417276.438    84828745.379  
 21  8 30  0 58  0.0000000  0 15G 1G 3G10G21G22G25G26G31G32R 4R 5R 6
                                R14R15R16
  22754019.648   119573146.702    22754020.355    93173937.974  
  22534107.469   118417559.288    22534108.141    92273426.211  
  24102696.438   126660566.594    24102698.316    98696525.369  
  23684427.008   124462506.292    23684425.676    96983781.893  
  21550027.086   113246137.719    21550022.863    88243776.103  
  22993287.094   120830599.270    22993287.461    94153729.486  
  22616414.984   118850056.842    22616417.574    92610469.591  
  20031751.195   105267847.748    20031748.395    82026735.584  
  21878101.406   114970255.220    21878102.078    89587240.569  
  22783906.609   122006798.464    22783903.789    94894198.467  
  19712541.180   105374885.664    19712537.871    81958214.432  
  21083066.367   112503286.756                                  
  23209205.383   123718159.778    23209204.199    96225300.965  
  19655253.711   105031803.538    19655250.813    81691401.529  
  20399249.383   108969154.241    20399245.551    84753830.602  
 21  8 30  0 58 30.0000000  0 15G 1G 3G10G21G22G25G26G31G32R 4R 5R 6
                                R14R15R16
  22762645.117   119618476.241    22762648.223    93209259.647  
  22517847.641   118332113.384    22517848.121    92206845.033  
  24123557.648   126770193.040    24123560.445    98781948.502  
  23694843.508   124517244.758    23694841.594    97026435.162  
  21540899.586   113198171.164    21540895.309    88206399.579  
  23003424.531   120883870.812    23003425.938    94195239.781  
  22597613.609   118751253.573    22597616.055    92533480.081  
  20034060.859   105279985.206    20034058.016    82036193.346  
  21888343.695   115024077.732    21888344.043    89629180.197  
  22800648.313   122096447.802    22800645.121    94963925.657  
  19715790.695   105392254.754    19715787.246    81971723.730  
  21066677.578   112415830.086                                  
  23231875.078   123838997.647    23231872.934    96319285.892  
  19662423.867   105070116.341    19662420.520    81721200.389  
  20381321.711   108873391.010    20381318.598    84679348.135  
 21  8 30  0 59  0.0000000  0 16G 1G 3G10G21G22G25G26G31G32R 4R 5R 6
                                R14R15R16R21
  22771365.453   119664299.563    22771367.473    93244966.105  
  22501644.602   118246966.688    22501644.953    92140497.004  
  24144449.289   126879979.170    24144451.699    98867496.072  
  23705310.547   124572248.166    23705308.805    97069294.891  
  21531856.016   113150645.745    21531851.281    88169366.791  
  23013667.172   120937696.567    23013668.000    94237181.883  
  22578855.844   118652682.444    22578858.887    92456671.468  
  20036466.195   105292625.595    20036463.262    82046043.004  
  21898622.531   115078092.786    21898622.715    89671269.844  
  22817438.430   122186361.214    22817436.035    95033858.239  
  19719124.047   105410074.474    19719120.785    81985583.497  
  21050317.172   112328530.127                                  
  23254584.828   123960048.798    23254581.957    96413436.758  
  19669731.703   105109167.031    19669728.262    81751573.129  
  20363499.117   108778186.310    20363495.781    84605300.078  
  23754213.617   127113601.0511                                 
 21  8 30  0 59 30.0000000  0 16G 1G 3G10G21G22G25G26G31G32R 4R 5R 6
                                R14R15R16R21
  22780178.523   119710614.420    22780181.191    93281055.588  
  22485499.734   118162121.827    22485499.539    92074384.177  
  24165370.680   126989922.897    24165372.926    98953166.472  
  23715826.852   124627514.101    23715826.539    97112359.217  
  21522895.844   113103563.400    21522891.953    88132679.249  
  23024014.813   120992074.678    23024016.781    94279554.440  
  22560143.758   118554346.664    22560146.309    92380046.225  
  20038967.164   105305767.860    20038964.289    82056283.737  
  21908937.906   115132300.409    21908938.297    89713509.535  
  22834278.813   122276537.919    22834275.813    95103995.643  
  19722542.281   105428346.337    19722538.629    81999794.955  
  21033987.297   112241389.306                                  
  23277332.656   124081309.684    23277330.563    96507750.762  
  19677176.867   105148953.161    19677173.676    81782517.897  
  20345781.922   108683543.120    20345778.254    84531688.754  
  23769486.656   127195332.231                                  
 21  8 30  1  0  0.0000000  0 16G 1G 3G10G21G22G25G26G31G32R 4R 5R 6
                                R14R15R16R21
  22789085.656   119757418.592    22789086.980    93317526.325  
  22469412.102   118077581.590    22469412.523    92008508.719  
  24186321.898   127100022.435    24186324.605    99038958.322  
  23726393.352   124683040.516    23726391.953    97155626.504  
  21514021.375   113056925.863    21514017.492    88096338.319  
  23034467.398   121047003.664    23034469.859    94322356.237  
  22541475.961   118456249.455    22541478.668    92303606.894  
  20041562.992   105319410.345    20041560.355    82066914.247  
  21919290.133   115186700.819    21919290.215    89755899.443  
  22851167.852   122366977.441    22851164.395    95174337.401  
  19726045.188   105447071.629    19726041.777    82014359.077  
  21017686.344   112154410.040                                  
  23300120.641   124202776.882    23300117.461    96602225.277  
  19684759.500   105189472.394    19684756.141    81814032.856  
  20328170.203   108589465.365    20328166.676    84458517.213  
  23784834.250   127277463.9831                                 
 21  8 30  1  0 30.0000000  0 15G 1G 3G10G21G22G25G26G31G32R 4R 5R 6
                                R14R15R16
  22798084.500   119804709.754    22798087.418    93354376.573  
  22453383.008   117993348.599    22453383.488    91942872.670  
  24207303.203   127210275.735    24207305.773    99124869.946  
  23737009.008   124738825.167    23737007.711    97199094.989  
  21505231.727   113010735.111    21505227.855    88060345.544  
  23045024.453   121102481.595    23045026.336    94365585.822  
  22522854.586   118358393.974    22522856.836    92227355.917  
  20044254.063   105333551.987    20044251.234    82077933.721  
  21929678.703   115241294.041    21929678.922    89798439.616  
  22868105.406   122457679.419    22868102.852    95244883.339  
  19729633.258   105466251.440    19729629.668    82029276.703  
  21001417.539   112067594.611                                  
  23322945.016   124324446.440    23322942.648    96696857.148  
  19692478.891   105230722.384    19692475.602    81846116.197  
  20310665.266   108495955.902    20310661.445    84385787.689  
 21  8 30  1  1  0.0000000  0 15G 1G 3G10G21G22G25G26G31G32R 4R 5R 6
                                R14R15R16
  22807175.875   119852484.798    22807177.840    93391603.869  
  22437412.445   117909424.703    22437413.414    91877477.469  
  24228312.258   127320680.006    24228314.625    99210899.210  
  23747672.844   124794864.757    23747671.816    97242762.158  
  21496526.898   112964992.308    21496522.793    88024701.799  
  23055685.961   121158505.921    23055686.965    94409241.125  
  22504279.750   118260782.541    22504281.930    92151295.124  
  20047039.703   105348190.304    20047036.637    82089340.201  
  21940104.023   115296079.335    21940104.273    89841129.438  
  22885092.641   122548642.148    22885089.219    95315632.089  
  19733306.258   105485885.972    19733302.910    82044548.016  
  20985179.750   111980945.115                                  
  23345806.516   124446313.888    23345804.195    96791642.929  
  19700334.180   105272699.811    19700331.051    81878765.308  
  20293266.820   108403016.519    20293263.086    84313501.533  
 21  8 30  1  1 30.0000000  0 15G 1G 3G10G21G22G25G26G31G32R 4R 5R 6
                                R14R15R16
  22816358.930   119900741.824    22816360.469    93429206.722  
  22421501.688   117825813.102    22421502.590    91812325.612  
  24249350.102   127431233.756    24249352.801    99297044.926  
  23758384.836   124851157.495    23758384.211    97286626.573  
  21487908.156   112919699.792    21487904.184    87989408.920  
  23066450.547   121215075.402    23066451.820    94453321.205  
  22485752.367   118163418.901    22485754.738    92075427.389  
  20049919.555   105363324.498    20049916.688    82101133.084  
  21950565.766   115351057.309    21950566.184    89883969.412  
  22902127.750   122639865.603    22902124.602    95386583.653  
  19737064.891   105505977.301    19737061.211    82060174.608  
  20968973.523   111894464.176                                  
  23368704.711   124568376.089    23368703.344    96886580.163  
  19708325.656   105315402.777    19708322.133    81911978.737  
  20275975.680   108310651.100    20275972.141    84241661.797  
 21  8 30  1  2  0.0000000  0 15G 1G 3G10G21G22G25G26G31G32R 4R 5R 6
                                R14R15R16
  22825633.297   119949478.432    22825635.406    93467183.281  
  22405650.516   117742516.318    22405651.891    91747419.054  
  24270415.859   127541934.842    24270418.383    99383305.472  
  23769145.156   124907700.648    23769144.160    97330686.117  
  21479375.367   112874859.643    21479371.129    87954468.546  
  23077319.141   121272188.059    23077319.297    94497824.589  
  22467272.594   118066306.073    22467274.617    91999755.113  
  20052893.727   105378953.258    20052890.969    82113311.350  
  21961064.609   115406227.931    21961065.027    89926959.495  
  22919212.188   122731349.061    22919209.172    95457737.437  
  19740908.414   105526526.221    19740905.223    82076157.087  
  20952799.367   111808154.637                                  
  23391639.445   124690629.380    23391637.855    96981665.948  
  19716452.195   105358828.599    19716448.656    81945754.366  
  20258793.102   108218862.950    20258789.223    84170271.038  
 21  8 30  1  2 30.0000000  0 15G 1G 3G10G21G22G25G26G31G32R 4R 5R 6
                                R14R15R16
  22834998.477   119998692.391    22835000.102    93505531.819  
  22389860.547   117659537.210    22389861.586    91682760.079  
  24291509.078   127652781.493    24291512.109    99469679.442  
  23779952.219   124964492.652    23779952.246    97374939.589  
  21470929.148   112830473.121    21470924.551    87919881.662  
  23088290.633   121329842.197    23088290.969    94542749.892  
  22448840.633   117969447.365    22448842.762    91924280.852  
  20055961.719   105395075.408    20055959.125    82125874.074  
  21971600.234   115461591.423    21971600.566    89970099.885  
  22936343.828   122823091.952    22936341.707    95529092.975  
  19744838.688   105547534.171    19744835.215    82092496.616  
  20936657.156   111722018.893                                  
  23414608.914   124813070.108    23414607.383    97076897.641  
  19724713.516   105402974.926    19724710.156    81980090.406  
  20241718.766   108127655.027    20241714.449    84099331.579  
 21  8 30  1  3  0.0000000  0 15G 1G 3G10G21G22G25G26G31G32R 4R 5R 6
                                R14R15R16
  22844453.836   120048381.059    22844456.074    93544250.218  
  22374131.133   117576878.218    22374132.086    91618350.502  
  24312630.250   127763771.360    24312633.402    99556165.023  
  23790806.602   125021530.667    23790805.691    97419384.764  
  21462569.375   112786542.310    21462565.148    87885649.850  
  23099363.414   121388035.794    23099365.129    94588095.518  
  22430457.656   117872845.668    22430459.887    91849006.869  
  20059122.797   105411689.091    20059120.363    82138819.792  
  21982171.500   115517147.625    21982172.543    90013390.427  
  22953524.242   122915093.398    22953522.531    95600649.654  
  19748854.320   105569001.821    19748851.445    82109193.671  
  20920548.164   111636059.049                                  
  23437613.180   124935694.662    23437611.316    97172272.274  
  19733109.344   105447839.062    19733105.855    82014984.716  
  20224753.227   108037030.059    20224749.223    84028845.537  
 21  8 30  1  3 30.0000000  0 15G 1G 3G10G21G22G25G26G31G32R 4R 5R 6
                                R14R15R16
  22853998.953   120098541.810    22854000.926    93583336.495  
  22358463.422   117494541.748    22358463.930    91554192.264  
  24333777.508   127874902.246    24333781.523    99642760.463  
  23801706.813   125078811.970    23801705.902    97464019.505  
  21454296.586   112743068.838    21454291.883    87851774.415  
  23110540.297   121446766.685    23110542.051    94633859.836  
  22412124.672   117776503.977    22412126.691    91773935.478  
  20062377.945   105428792.785    20062375.020    82152147.359  
  21992779.930   115572896.421    21992781.625    90056831.033  
  22970753.586   123007352.818    22970751.246    95672406.933  
  19752957.016   105590930.300    19752953.328    82126249.146  
  20904473.102   111550278.212                                  
  23460650.414   125058498.950    23460648.617    97267786.740  
  19741638.750   105493418.089    19741635.324    82050435.075  
  20207897.617   107946990.928    20207893.457    83958815.136  
 21  8 30  1  4  0.0000000  0 15G 1G 3G10G21G22G25G26G31G32R 4R 5R 6
                                R14R15R16
  22863633.859   120149172.221    22863636.004    93622788.750  
  22342856.805   117412530.565    22342856.758    91490287.479  
  24354952.000   127986172.163    24354955.746    99729464.315  
  23812652.508   125136334.469    23812651.785    97508842.154  
  21446110.648   112700054.466    21446106.859    87818256.718  
  23121817.898   121506033.021    23121819.801    94680041.385  
  22393841.461   117680425.445    22393843.777    91699069.159  
  20065725.820   105446385.147    20065722.988    82165855.701  
  22003425.938   115628837.891    22003426.125    90100421.783  
  22988029.891   123099869.132    22988027.883    95744364.023  
  19757145.930   105613320.776    19757141.863    82143663.951  
  20888431.703   111464678.689                                  
  23483720.797   125181479.602    23483719.527    97363438.368  
  19750301.797   105539709.225    19750298.355    82086439.289  
  20191152.609   107857540.758    20191148.590    83889242.815  
 21  8 30  1  4 30.0000000  0 15G 1G 3G10G21G22G25G26G31G32R 4R 5R 6
                                R14R15R16
  22873357.336   120200269.879    22873359.582    93662605.105  
  22327312.742   117330847.278    22327312.875    91426638.178  
  24376151.320   128097579.135    24376154.902    99816274.941  
  23823644.555   125194095.807    23823643.398    97553850.961  
  21438013.055   112657500.989    21438009.387    87785098.166  
  23133197.297   121565832.845    23133198.988    94726638.649  
  22375609.117   117584613.257    22375611.051    91624410.352  
  20069166.453   105464464.750    20069163.406    82179943.708  
  22014107.570   115684972.180    22014108.129    90144162.749  
  23005355.563   123192641.848    23005353.059    95816520.551  
  19761420.398   105636174.373    19761417.340    82161438.985  
  20872424.875   111379262.652                                  
  23506824.297   125304632.947    23506822.391    97459224.257  
  19759097.398   105586710.012    19759093.773    82122995.461  
  20174518.641   107768682.444    20174514.145    83820130.831  
 21  8 30  1  5  0.0000000  0 15G 1G 3G10G21G22G25G26G31G32R 4R 5R 6
                                R14R15R16
  22883169.195   120251832.022    22883171.113    93702783.367  
  22311831.609   117249494.277    22311832.359    91363246.249  
  24397376.352   128209120.881    24397379.273    99903190.566  
  23834680.953   125252093.312    23834679.656    97599043.730  
  21430003.531   112615409.941    21429999.684    87752299.944  
  23144678.375   121626164.018    23144679.387    94773649.924  
  22357427.664   117489070.245    22357429.605    91549961.298  
  20072698.797   105483029.698    20072695.910    82194409.911  
  22024826.531   115741298.970    22024826.645    90188053.764  
  23022727.063   123285670.148    23022724.633    95888875.817  
  19765782.766   105659491.717    19765779.379    82179574.696  
  20856452.305   111294033.137                                  
  23529958.898   125427955.044    23529956.984    97555141.451  
  19768025.133   105634417.431    19768021.531    82160101.227  
  20157994.961   107680418.802    20157990.773    83751481.380  
 21  8 30  1  5 30.0000000  0 15G 1G 3G10G21G22G25G26G31G32R 4R 5R 6
                                R14R15R16
  22893069.180   120303855.940    22893071.875    93743321.451  
  22296414.250   117168474.027    22296413.969    91300113.615  
  24418628.992   128320795.088    24418629.980    99990209.388  
  23845761.852   125310324.553    23845760.680    97644418.691  
  21422082.039   112573782.919    21422077.934    87719863.294  
  23156259.672   121687024.287    23156260.508    94821073.485  
  22339298.719   117393799.302    22339300.543    91475724.252  
  20076323.539   105502078.534    20076320.770    82209253.165  
  22035581.516   115797818.194    22035581.660    90232094.706  
  23040147.422   123378952.781    23040144.496    95961428.957  
  19770231.797   105683273.809    19770228.199    82198071.873  
  20840516.031   111208991.627                                  
  23553125.180   125551442.132    23553123.910    97651186.918  
  19777084.406   105682828.758    19777081.152    82197754.496  
  20141583.563   107592752.440    20141579.488    83683296.452  
 21  8 30  1  6  0.0000000  0 15G 1G 3G10G21G22G25G26G31G32R 4R 5R 6
                                R14R15R16
  22903056.688   120356339.392    22903058.117    93784217.630  
  22281060.539   117087789.442    22281060.285    91237242.519  
  24439903.961   128432600.028    24439905.363   100077330.118  
  23856886.727   125368786.844    23856885.922    97689973.655  
  21414249.813   112532621.529    21414245.242    87687789.496  
  23167940.922   121748412.010    23167942.340    94868908.049  
  22321221.219   117298803.885    22321223.270    91401701.893  
  20080040.094   105521609.821    20080037.539    82224472.350  
  22046373.461   115854530.153    22046373.965    90276285.829  
  23057615.500   123472489.360    23057611.621    96034179.567  
  19774767.656   105707521.760    19774764.445    82216931.415  
  20824614.906   111124141.429                                  
  23576321.008   125675091.195    23576321.234    97747358.367  
  19786275.273   105731941.215    19786271.887    82235953.082  
  20125284.250   107505686.584    20125280.551    83615578.609  
 21  8 30  1  6 30.0000000  0 15G 1G 3G10G21G22G25G26G31G32R 4R 5R 6
                                R14R15R16
  22913130.758   120409279.962    22913132.652    93825469.986  
  22265770.703   117007443.239    22265771.324    91174635.092  
  24461203.875   128544533.665    24461206.250   100164551.070  
  23868055.570   125427477.953    23868055.016    97735706.929  
  21406506.063   112491927.871    21406501.609    87656080.163  
  23179722.891   121810325.138    23179724.715    94917152.033  
  22303197.273   117204087.118    22303199.316    91327896.677  
  20083848.320   105541622.076    20083845.555    82240066.323  
  22057202.305   115911434.991    22057202.789    90320627.247  
  23075129.398   123566279.161    23075125.422    96107127.113  
  19779391.070   105732237.059    19779387.891    82236154.420  
  20808750.266   111039485.278                                  
  23599547.609   125798898.264    23599547.059    97843652.695  
  19795596.195   105781752.172    19795593.492    82274694.948  
  20109098.641   107419223.849    20109094.688    83548329.848  
 21  8 30  1  7  0.0000000  0 15G 1G 3G10G21G22G25G26G31G32R 4R 5R 6
                                R14R15R16
  22923291.680   120462674.879    22923293.574    93867076.401  
  22250546.945   116927437.804    22250546.703    91112293.249  
  24482528.547   128656593.758    24482530.680   100251870.596  
  23879267.125   125486395.676    23879266.660    97781616.781  
  21398851.414   112451703.584    21398846.887    87624736.556  
  23191604.531   121872761.504    23191606.098    94965803.772  
  22285226.438   117109651.938    22285228.969    91254310.894  
  20087747.742   105562113.389    20087745.234    82256033.585  
  22068067.148   115968532.554    22068068.426    90365118.855  
  23092691.633   123660321.467    23092687.563    96180271.106  
  19784102.477   105757420.047    19784098.750    82255741.195  
  20792922.789   110955025.716                                  
  23622802.547   125922859.807    23622801.703    97940067.229  
  19805048.148   105832258.781    19805044.926    82313977.864  
  20093026.523   107333367.068    20093022.148    83481552.378  
 21  8 30  1  7 30.0000000  0 15G 1G 3G10G21G22G25G26G31G32R 4R 5R 6
                                R14R15R16
  22933538.008   120516521.186    22933540.109    93909034.532  
  22235387.141   116847775.477    22235388.141    91050218.699  
  24503876.484   128768777.879    24503879.680   100339286.743  
  23890521.867   125545537.073    23890521.004    97827700.928  
  21391286.500   112411949.816    21391282.316    87593759.606  
  23203584.133   121935718.688    23203587.293    95014861.327  
  22267309.828   117015501.071    22267312.313    91180946.623  
  20091738.172   105583082.207    20091735.379    82272372.934  
  22078969.727   116025822.476    22078970.250    90409760.336  
  23110299.859   123754614.838    23110296.305    96253610.364  
  19788901.031   105783071.781    19788897.434    82275692.534  
  20777132.125   110870764.799                                  
  23646085.789   126046971.887    23646083.875    98036598.852  
  19814629.367   105883457.479    19814626.027    82353799.074  
  20077067.234   107248118.527    20077063.418    83415247.999  
 21  8 30  1  8  0.0000000  0 15G 1G 3G10G21G22G25G26G31G32R 4R 5R 6
                                R14R15R16
  22943870.195   120570816.416    22943872.066    93951342.491  
  22220293.508   116768458.940    22220294.105    90988413.616  
  24525246.617   128881084.0521   24525250.293   100426798.0721 
  23901818.578   125604899.950    23901816.844    97873957.676  
  21383811.633   112372668.632    21383807.633    87563150.891  
  23215662.961   121999194.752    23215666.031    95064323.162  
  22249448.352   116921637.708    22249450.340    91107806.397  
  20095819.141   105604527.065    20095816.254    82289083.208  
  22089908.266   116083304.959    22089908.711    90454551.887  
  23127955.328   123849158.852    23127951.371    96327144.616  
  19793787.281   105809193.052    19793783.867    82296009.068  
  20761379.875   110786705.393                                  
  23669395.430   126171231.023    23669394.520    98133244.899  
  19824339.828   105935345.850    19824336.375    82394156.684  
  20061223.188   107163481.707    20061218.957    83349419.395  
 21  8 30  1  8 30.0000000  0 15G 1G 3G10G21G22G25G26G31G32R 4R 5R 6
                                R14R15R16
  22954286.906   120625558.158    22954289.184    93993998.351  
  22205266.461   116689491.022    22205266.734    90926880.167  
  24546641.563   128993510.3331   24546644.422   100514402.9601 
  23913156.438   125664482.387    23913155.254    97920385.492  
  21376427.078   112333861.691    21376423.098    87532911.733  
  23227841.250   122063187.647    23227842.332    95114187.774  
  22231642.781   116828065.074    22231644.000    91034892.708  
  20099989.789   105626446.384    20099987.262    82306163.197  
  22100883.359   116140980.218    22100883.668    90499493.641  
  23145657.125   123943952.603    23145653.742    96400873.064  
  19798762.055   105835785.032    19798758.344    82316691.738  
  20745665.555   110702850.552                                  
  23692733.813   126295633.659    23692732.051    98230002.433  
  19834178.422   105987921.024    19834175.105    82435048.494  
  20045493.711   107079458.901    20045489.676    83284068.353  
 21  8 30  1  9  0.0000000  0 15G 1G 3G10G21G22G25G26G31G32R 4R 5R 6
                                R14R15R16
  22964789.164   120680743.631    22964791.203    94036999.993  
  22190305.984   116610874.149    22190306.461    90865620.290  
  24568059.219   129106054.5631                                 
  23924535.625   125724281.125    23924534.766    97966981.873  
  21369132.469   112295530.463    21369128.328    87503043.261  
  23240116.391   122127695.252    23240118.723    95164453.411  
  22213891.875   116734786.173    22213893.473    90962207.903  
  20104251.039   105648838.644    20104248.484    82323611.724  
  22111894.695   116198848.121    22111895.363    90544585.493  
  23163406.070   124038995.257    23163402.551    96474795.124  
  19803824.867   105862848.506    19803821.246    82337741.107  
  20729989.547   110619202.035                                  
  23716097.898   126420176.273    23716095.527    98326868.942  
  19844145.000   106041179.811    19844141.633    82476471.999  
  20029879.938   106996052.809    20029875.891    83219196.974  
 21  8 30  1  9 30.0000000  0 15G 1G 3G10G21G22G25G26G31G32R 4R 5R 6
                                R14R15R16
  22975374.055   120736369.992    22975376.301    94080345.174  
  22175412.945   116532610.744    22175413.824    90804635.840  
  24589496.633   129218714.4721                                 
  23935955.078   125784293.321    23935953.234    98013744.569  
  21361929.234   112257676.275    21361924.605    87473546.505  
  23252489.438   122192715.176    23252491.141    95215118.227  
  22196197.953   116641803.799    22196199.125    90889754.148  
  20108601.711   105671701.779    20108598.941    82341427.154  
  22122944.086   116256908.544    22122943.969    90589827.358  
  23181200.906   124134285.705    23181197.773    96548909.851  
  19808976.063   105890384.312    19808972.438    82359157.837  
  20714352.945   110535763.321                                  
  23739486.656   126544855.385    23739484.559    98423841.597  
  19854238.953   106095119.158    19854235.609    82518424.821  
  20014381.867   106913266.086    20014377.910    83154807.350  
 21  8 30  1 10  0.0000000  0 15G 1G 3G10G21G22G25G26G31G32R 4R 5R 6
                                R14R15R16
  22986042.891   120792434.723    22986045.633    94124031.973  
  22160587.609   116454703.625    22160588.387    90743929.012  
  24610956.992   129331487.9971   24610963.270   100777774.9981 
  23947415.602   125844517.533    23947414.438    98060672.482  
  21354817.406   112220301.341    21354812.672    87444423.192  
  23264959.789   122258245.374    23264960.699    95266180.728  
  22178561.156   116549121.255    22178562.570    90817534.034  
  20113041.875   105695035.043    20113039.289    82359608.917  
  22134028.906   116315161.639    22134029.141    90635219.358  
  23199041.852   124229823.285    23199038.945    96623216.825  
  19814215.797   105918393.425    19814212.211    82380942.716  
  20698756.344   110452536.121                                  
  23762901.539   126669667.246    23762898.641    98520917.504  
  19864459.750   106149736.231    19864456.500    82560904.798  
  19999000.828   106831101.372    19998996.367    83090901.491  
 21  8 30  1 10 30.0000000  0 15G 1G 3G10G21G22G25G26G31G32R 4R 5R 6
                                R14R15R16
  22996794.414   120848935.139    22996796.902    94168058.223  
  22145830.828   116377155.202    22145831.727    90683501.695  
                                                                
  23958916.102   125904950.166    23958914.648    98107762.850  
  21347796.234   112183406.657    21347791.715    87415674.106  
  23277526.109   122324283.630    23277527.383    95317639.113  
  22160981.531   116456741.443    22160983.371    90745549.826  
  20117571.188   105718835.614    20117568.395    82378154.818  
  22145150.789   116373607.268    22145151.520    90680761.404  
  23216928.992   124325607.039    23216926.145    96697715.262  
  19819544.266   105946876.516    19819540.637    82403096.231  
  20683200.813   110369523.719                                  
  23786339.422   126794608.515    23786337.570    98618094.011  
  19874806.914   106205027.792    19874803.473    82603909.339  
  19983736.281   106749561.327    19983732.098    83027481.490  
 21  8 30  1 11  0.0000000  0 15G 1G 3G10G21G22G25G26G31G32R 4R 5R 6
                                R14R15R16
  23007628.953   120905868.695    23007630.816    94212422.016  
  22131142.828   116299968.398    22131143.766    90623356.172  
  24653940.313   129557367.8641   24653946.012   100953785.1551 
  23970455.547   125965589.808    23970453.996    98155014.459  
  21340867.203   112146994.055    21340863.059    87387300.687  
  23290188.875   122390828.027    23290191.598    95369491.850  
  22143460.258   116364667.700    22143462.223    90673804.092  
  20122189.102   105743102.567    20122186.246    82397064.139  
  22156309.469   116432245.821    22156310.422    90726453.762  
  23234861.367   124421636.156    23234859.574    96772404.535  
  19824961.555   105975834.909    19824957.902    82425619.429  
  20667684.797   110286729.291                                  
  23809802.273   126919675.856    23809800.945    98715368.599  
  19885279.398   106260991.274    19885276.449    82647436.499  
  19968589.328   106668648.936    19968585.031    82964549.667  
 21  8 30  1 11 30.0000000  0 15G 1G 3G10G21G22G25G26G31G32R 4R 5R 6
                                R14R15R16
  23018544.492   120963232.289    23018546.637    94257120.888  
  22116524.133   116223145.354    22116524.367    90563494.064  
  24675462.156   129670469.674    24675466.953   101041916.5661 
  23982033.539   126026433.401    23982032.809    98202425.013  
  21334029.922   112111065.026    21334025.836    87359304.061  
  23302947.609   122457875.791    23302950.348    95421736.873  
  22125998.289   116272902.617    22125999.957    90602298.895  
  20126895.086   105767833.707    20126892.750    82416335.158  
  22167504.484   116491076.839    22167505.680    90772296.095  
  23252840.047   124517909.670    23252837.539    96847283.851  
  19830467.227   106005268.994    19830464.000    82448512.614  
  20652210.117   110204154.649                                  
  23833287.727   127044865.232    23833286.648    98812738.062  
  19895877.508   106317622.998    19895874.191    82691483.391  
  19953559.922   106588365.789    19953555.922    82902107.254  
 21  8 30  1 12  0.0000000  0 15G 1G 3G10G21G22G25G26G31G32R 4R 5R 6
                                R14R15R16
  23029541.617   121021023.339    23029543.941    94302152.838  
  22101974.461   116146688.719    22101975.777    90503917.459  
  24697003.492   129783676.5511                                 
  23993649.781   126087478.340    23993648.648    98249992.427  
  21327285.242   112075621.015    21327281.012    87331685.364  
  23315802.164   122525424.961    23315804.277    95474372.568  
  22108595.297   116181449.269    22108597.234    90531036.605  
  20131689.289   105793027.692    20131686.883    82435966.833  
  22178736.602   116550100.385    22178737.129    90818288.475  
  23270863.641   124614426.452    23270861.262    96922352.415  
  19836063.133   106035179.600    19836059.637    82471776.405  
  20636777.023   110121802.536                                  
  23856796.188   127170173.330    23856794.410    98910199.900  
  19906599.813   106374919.990    19906596.664    82736047.718  
  19938648.844   106508715.161    19938644.973    82840156.804  
 21  8 30  1 12 30.0000000  0 15G 1G 3G10G21G22G25G26G31G32R 4R 5R 6
                                R14R15R16
  23040619.734   121079239.052    23040622.563    94347515.711  
  22087496.211   116070601.071    22087496.336    90444628.399  
  24718566.805   129896986.417                                  
  24005304.344   126148721.980    24005303.539    98297714.701  
  21320632.805   112040663.520    21320628.496    87304445.787  
  23328750.930   122593473.183    23328753.930    95527397.128  
  22091251.953   116090310.753    22091253.988    90460019.631  
  20136571.211   105818682.494    20136568.422    82455957.587  
  22190004.281   116609316.530    22190005.734    90864430.911  
  23288932.570   124711185.729    23288930.633    96997609.580  
  19841748.000   106065567.424    19841744.133    82495411.380  
  20621385.367   110039675.402                                  
  23880324.547   127295596.824    23880324.051    99007751.470  
  19917446.195   106432879.172    19917442.680    82781127.078  
  19923856.680   106429699.084    19923853.031    82778699.886  
 21  8 30  1 13  0.0000000  0 14G 1G 3G21G22G25G26G31G32R 4R 5R 6R14
                                R15R16
  23051777.906   121137876.253    23051780.320    94393207.011  
  22073087.781   115994884.572    22073087.648    90385628.550  
  24016996.055   126210161.571    24016994.766    98345589.648  
  21314073.398   112006193.615    21314069.156    87277586.137  
  23341794.633   122662017.756    23341797.098    95580808.465  
  22073969.328   115999489.614    22073971.129    90389249.953  
  20141540.727   105844796.233    20141537.594    82476305.948  
  22201309.711   116668724.837    22201310.199    90910723.082  
  23307046.891   124808186.073    23307044.352    97073054.253  
  19847521.422   106096433.304    19847518.270    82519418.171  
  20606038.273   109957776.224                                  
  23903875.094   127421131.747    23903873.445    99105389.656  
  19928415.273   106491496.735    19928412.352    82826718.509  
  19909184.063   106351319.874    19909180.422    82717738.306  
 21  8 30  1 13 30.0000000  0 14G 1G 3G21G22G25G26G31G32R 4R 5R 6R14
                                R15R16
  23063016.656   121196932.365    23063018.758    94439224.763  
  22058750.508   115919541.954    22058750.387    90326920.038  
  24028723.969   126271794.676    24028723.328    98393615.373  
  21307607.227   111972212.976    21307603.043    87251107.746  
  23354932.156   122731056.610    23354934.426    95634604.976  
  22056747.430   115908989.081    22056749.289    90318730.093  
  20146597.055   105871367.540    20146593.832    82497010.864  
  22212651.641   116728325.492    22212651.641    90957165.119  
  23325206.156   124905426.728    23325203.457    97148685.828  
  19853385.398   106127777.770    19853381.789    82543797.198  
  20590733.750   109876107.559                                  
  23927445.000   127546774.639    23927444.125    99203111.882  
  19939508.133   106550769.968    19939504.402    82872819.922  
  19894631.148   106273580.144    19894627.422    82657274.092  
 21  8 30  1 14  0.0000000  0 15G 1G 3G10G21G22G25G26G31G32R 4R 5R 6
                                R14R15R16
  23074333.164   121256404.963    23074336.027    94485567.014  
  22044484.695   115844576.116    22044484.516    90268505.110  
  24783367.898   130237501.0771                                 
  24040489.234   126333619.376    24040487.727    98441790.390  
  21301234.594   111938723.423    21301230.117    87225012.004  
  23368163.453   122800587.671    23368165.840    95688785.041  
  22039587.672   115818812.321    22039589.574    90248462.524  
  20151740.313   105898394.640    20151737.426    82518070.953  
  22224030.016   116788118.792    22224029.602    91003757.274  
  23343410.000   125002907.259    23343406.793    97224504.013  
  19859339.086   106159601.929    19859335.145    82568549.320  
  20575473.531   109794672.455                                  
  23951034.602   127672522.580    23951033.273    99300915.882  
  19950722.336   106610695.936    19950718.566    82919429.009  
  19880198.367   106196482.506    19880194.648    82597309.310  
 21  8 30  1 14 30.0000000  0 15G 1G 3G10G21G22G25G26G31G32R 4R 5R 6
                                R14R15R16
  23085729.508   121316291.063    23085731.543    94532231.507  
  22030291.211   115769989.460    22030291.414    90210385.634  
  24805003.320   130351200.971                                  
  24052290.266   126395632.719    24052288.840    98490112.383  
  21294955.422   111905726.162    21294950.977    87199299.876  
  23381488.125   122870608.579    23381490.363    95743346.787  
  22022488.906   115728962.424    22022491.516    90178449.650  
  20156969.383   105925875.928    20156967.039    82539484.944  
  22235444.797   116848104.624    22235444.793    91050499.446  
  23361658.750   125100626.209    23361655.367    97300507.603  
  19865381.953   106191906.604    19865378.344    82593675.175  
  20560255.781   109713473.411                                  
  23974644.813   127798371.999    23974642.414    99398798.766  
  19962057.930   106671271.111    19962054.551    82966543.032  
  19865886.633   106120029.525    19865882.277    82537845.899  
 21  8 30  1 15  0.0000000  0 15G 1G 3G10G21G22G25G26G31G32R 4R 5R 6
                                R14R15R16
  23097203.766   121376588.286    23097206.883    94579216.314  
  22016170.805   115695784.901    22016170.852    90152563.930  
  24826657.695   130464993.507                                  
  24064126.133   126457832.797    24064125.418    98538579.905  
  21288769.922   111873223.172    21288765.105    87173972.886  
  23394905.656   122941117.394    23394907.750    95798288.681  
  22005454.586   115639442.661    22005456.020    90108694.032  
  20162284.883   105953809.756    20162282.598    82561251.557  
  22246896.289   116908283.324    22246896.086    91097391.942  
  23379951.492   125198583.263    23379948.023    97376696.366  
  19871515.148   106224692.571    19871511.824    82619175.367  
  20545084.922   109632513.726                                  
  23998271.281   127924319.922    23998269.617    99496758.370  
  19973514.461   106732493.019    19973511.484    83014160.071  
  19851695.648   106044223.914    19851691.039    82478886.017  
 21  8 30  1 15 30.0000000  0 15G 1G 3G10G21G22G25G26G31G32R 4R 5R 6
                                R14R15R16
  23108755.898   121437293.358    23108758.090    94626518.944  
  22002122.563   115621964.555    22002123.277    90095041.607  
  24848328.383   130578876.0481                                 
  24075997.453   126520216.502    24075997.531    98587190.537  
  21282679.117   111841215.422    21282674.664    87149031.793  
  23408415.742   123012111.298    23408416.418    95853608.632  
  21988482.383   115550255.568    21988484.465    90039197.634  
  20167686.531   105982194.137    20167683.605    82583369.270  
  22258384.789   116968654.538    22258384.652    91144434.438  
  23398287.117   125296776.776    23398285.336    97453069.072  
  19877739.234   106257960.409    19877735.227    82645050.339  
  20529957.164   109551795.995                                  
  24021916.938   128050362.504    24021915.820    99594791.443  
  19985091.617   106794357.638    19985088.711    83062276.985  
  19837625.867   105969067.124    19837621.613    82420430.761  
 21  8 30  1 16  0.0000000  0 15G 1G 3G10G21G22G25G26G31G32R 4R 5R 6
                                R14R15R16
  23120384.195   121498403.316    23120387.008    94674137.032  
  21988148.859   115548530.843    21988149.105    90037820.555  
  24870016.781   130692846.411                                  
  24087903.273   126582781.071    24087902.777    98635942.093  
  21276682.742   111809704.031    21276678.031    87124477.480  
  23422016.781   123083587.783    23422019.938    95909304.588  
  21971574.859   115461403.992    21971576.840    89969962.701  
  20173173.539   106011027.103    20173170.246    82605836.508  
  22269909.359   117029218.090    22269910.113    91191626.815  
  23416668.609   125395205.646    23416666.203    97529624.813  
  19884052.281   106291710.707    19884049.004    82671300.567  
  20514876.703   109471322.559                                  
  24045578.820   128176496.121    24045577.977    99692895.393  
  19996788.445   106856861.308    19996785.387    83110890.950  
  19823678.227   105894561.884    19823674.109    82362482.280  
 21  8 30  1 16 30.0000000  0 15G 1G 3G10G21G22G25G26G31G32R 4R 5R 6
                                R14R15R16
  23132090.273   121559915.265    23132092.602    94722068.430  
  21974249.375   115475486.327    21974249.234    89980902.747  
  24891721.477   130806902.463                                  
  24099843.188   126645524.067    24099842.262    98684832.694  
  21270781.297   111778690.647    21270776.578    87100311.215  
  23435709.750   123155544.549    23435712.465    95965374.745  
  21954731.023   115372890.908    21954733.137    89900991.501  
  20178744.813   106040306.933    20178742.410    82628651.966  
  22281470.992   117089973.960    22281471.555    91238969.040  
  23435094.016   125493868.905    23435090.832    97606362.831  
  19890456.719   106325944.232    19890453.090    82697926.632  
  20499843.031   109391096.362                                  
  24069258.094   128302717.593    24069256.480    99791067.573  
  20008604.758   106920001.316    20008601.090    83159999.838  
  19809853.469   105820710.127    19809848.918    82305042.049  
 21  8 30  1 17  0.0000000  0 15G 1G 3G10G21G22G25G26G31G32R 4R 5R 6
                                R14R15R16
  23143870.961   121621826.548    23143873.207    94770310.948  
  21960423.695   115402833.621    21960423.691    89924290.256  
  24913442.289   130921042.254                                  
  24111816.359   126708442.959    24111815.637    98733860.374  
  21264974.836   111748176.924    21264970.270    87076534.286  
  23449493.281   123227979.235    23449495.707    96021817.333  
  21937952.875   115284719.391    21937954.188    89832286.458  
  20184401.617   106070031.916    20184399.055    82651814.292  
  22293069.031   117150922.282    22293069.879    91286461.232  
  23453561.836   125592765.823    23453558.773    97683282.584  
  19896951.367   106360661.360    19896947.711    82724928.849  
  20484855.266   109311119.821                                  
  24092953.109   128429023.161    24092950.563    99889305.291  
  20020539.016   106983774.150    20020535.395    83209600.931  
  19796150.844   105747514.430    19796146.352    82248112.102  
 21  8 30  1 17 30.0000000  0 15G 1G 3G10G21G22G25G26G31G32R 4R 5R 6
                                R14R15R16
  23155727.781   121684133.993    23155730.934    94818862.200  
  21946673.672   115330575.035    21946673.555    89867984.867  
  24935177.531   131035263.3981                                 
  24123822.047   126771535.244    24123821.563    98783023.129  
  21259262.906   111718163.678    21259258.980    87053147.361  
  23463367.945   123300889.211    23463370.777    96078630.297  
  21921239.453   115196892.143    21921241.313    89763849.686  
  20190142.320   106100200.045    20190139.668    82675321.919  
  22304703.711   117212062.812    22304704.996    91334103.162  
  23472074.258   125691894.655    23472070.668    97760382.726  
  19903536.094   106395862.845    19903532.898    82752307.777  
  20469915.805   109231395.821                                  
  24116662.461   128555410.036    24116660.473    99987606.283  
  20032590.773   107048176.277    20032587.344    83259691.468  
  19782571.219   105674976.746    19782567.207    82191693.927  
 21  8 30  1 18  0.0000000  0 15G 1G 3G10G21G22G25G26G31G32R 4R 5R 6
                                R14R15R16
  23167660.148   121746835.126    23167662.242    94867720.159  
  21932998.711   115258713.428    21932998.941    89811988.825  
  24956928.234   131149564.0591                                 
  24135860.648   126834798.542    24135860.199    98832319.146  
  21253647.797   111688652.961    21253643.074    87030152.006  
  23477332.164   123374272.418    23477334.496    96135812.004  
  21904592.969   115109412.507    21904594.805    89695683.781  
  20195966.945   106130809.786    20195964.371    82699173.677  
  22316374.992   117273395.909    22316375.945    91381895.167  
  23490628.375   125791255.059    23490626.070    97837663.053  
  19910212.320   106431549.388    19910208.781    82780063.970  
  20455021.891   109151927.296                                  
  24140385.984   128681874.658    24140377.637   100085967.725  
  20044759.578   107113204.843    20044756.332    83310269.247  
  19769115.305   105603099.713    19769111.918    82135789.593  
 21  8 30  1 18 30.0000000  0 13G 1G 3G21G22G25G26G31G32R 4R 5R 6R15
                                R16
  23179665.047   121809926.982    23179668.410    94916882.576  
  21919399.844   115187251.265    21919400.281    89756304.039  
  24147931.500   126898230.085    24147930.891    98881746.273  
  21248128.000   111659645.197    21248122.668    87007548.549  
  23491386.469   123448126.417    23491387.191    96193360.583  
  21888012.328   115022283.278    21888014.477    89627790.918  
  20201875.352   106161859.304    20201872.879    82723368.106  
  22328082.750   117334921.443    22328083.707    91429837.121  
  23509226.188   125890845.893    23509224.215    97915122.539  
  19916978.883   106467721.601    19916975.563    82808197.912  
  20440178.352   109072717.351                                  
  20057045.164   107178856.074    20057042.258    83361331.311  
  19755784.039   105531884.896    19755780.297    82080400.317  
 21  8 30  1 19  0.0000000  0 14G 1G 3G21G22G25G26G31G32R 4R 5R 6R 9
                                R15R16
  23191745.281   121873406.777    23191747.340    94966347.310  
  21905877.664   115116191.195    21905878.438    89700932.550  
  24160034.156   126961827.777    24160033.262    98931302.882  
  21242703.367   111631142.318    21242699.098    86985338.515  
  23505529.773   123522448.798    23505529.855    96251274.114  
  21871499.859   114935507.558    21871501.516    89560173.527  
  20207867.805   106193347.181    20207864.848    82747904.110  
  22339827.445   117396639.580    22339828.016    91477929.162  
  23527867.703   125990666.055    23527864.898    97992760.449  
  19923836.719   106504380.445    19923833.297    82836710.349  
  20425384.539   108993768.723                                  
  23493867.625   125455942.4081   23493864.805    97577399.1161 
  20069447.156   107245127.045    20069444.105    83412875.401  
  19742576.781   105461335.403    19742573.027    82025528.518  
 21  8 30  1 19 30.0000000  0 15G 1G 3G 4G21G22G25G26G31G32R 4R 5R 6
                                R 9R15R16
  23203897.773   121937270.594    23203900.109    95016111.284  
  21892431.945   115045534.720    21892432.742    89645875.559  
  24598936.977   129268227.0931                                 
  24172167.219   127025587.691    24172166.172    98980985.847  
  21237375.273   111603144.854    21237371.508    86963522.323  
  23519760.617   123597236.183    23519762.148    96309550.012  
  21855054.258   114849087.326    21855056.059    89492833.132  
  20213942.430   106225270.346    20213939.926    82772779.306  
  22351608.391   117458549.270    22351608.551    91526170.478  
  23546549.688   126090713.609    23546548.484    98070575.166  
  19930785.313   106541525.381    19930781.922    82865600.848  
  20410638.156   108915083.415                                  
  23469762.070   125327222.040    23469759.973    97477283.347  
  20081964.148   107312013.033    20081960.891    83464897.831  
  19729494.844   105391451.638    19729490.598    81971174.503  
 21  8 30  1 20  0.0000000  0 15G 1G 3G 4G21G22G25G26G31G32R 4R 5R 6
                                R 9R15R16
  23216124.047   122001516.092    23216126.313    95066172.727  
  21879063.578   114975284.929    21879064.344    89591135.484  
  24582912.773   129184024.1381                                 
  24184330.625   127089507.703    24184329.633    99030793.591  
  21232144.422   111575655.006    21232140.027    86942101.671  
  23534081.117   123672486.657    23534082.715    96368186.749  
  21838677.648   114763026.021    21838679.199    89425772.414  
  20220099.711   106257627.509    20220097.258    82797992.693  
  22363426.063   117520651.103    22363426.477    91574561.524  
  23565275.563   126190987.877    23565273.328    98148566.241  
  19937825.266   106579157.578    19937821.684    82894870.319  
  20395942.398   108836664.865                                  
  23445684.117   125198651.450    23445681.859    97377284.167  
  20094595.242   107379511.299    20094592.176    83517396.484  
  19716537.094   105322236.567    19716533.406    81917340.583  
 21  8 30  1 20 30.0000000  0 15G 1G 3G 4G21G22G25G26G31G32R 4R 5R 6
                                R 9R15R16
  23228421.367   122066141.325    23228423.301    95116530.009  
  21865773.422   114905445.271    21865774.063    89536714.993  
  24566888.891   129099823.241                                  
  24196524.281   127153586.570    24196523.449    99080725.115  
  21227010.414   111548674.145    21227006.027    86921077.629  
  23548488.656   123748198.751    23548489.945    96427183.167  
  21822369.805   114677327.542    21822371.352    89358994.413  
  20226339.820   106290417.947    20226336.785    82823543.682  
  22375280.594   117582946.075    22375280.406    91623103.055  
  23584043.891   126291489.103    23584042.004    98226733.806  
  19944956.742   106617278.388    19944952.977    82924519.835  
  20381297.523   108758516.880                                  
  23421635.711   125070234.571    23421633.352    97277404.610  
  20107340.813   107447619.548    20107337.762    83570369.558  
  19703705.430   105253692.907    19703701.914    81864028.879  
 21  8 30  1 21  0.0000000  0 15G 1G 3G 4G21G22G25G26G31G32R 4R 5R 6
                                R 9R15R16
  23240790.891   122131142.373    23240793.465    95167180.171  
  21852562.344   114836017.237    21852561.645    89482615.260  
  24550867.430   129015623.816    24550868.633   100531705.2751 
  24208748.078   127217820.971    24208746.824    99130777.835  
  21221972.750   111522202.667    21221968.992    86900450.503  
  23562983.211   123824368.881    23562983.555    96486536.530  
  21806131.453   114591993.773    21806132.801    89292500.602  
  20232661.328   106323638.708    20232658.262    82849429.999  
  22387171.422   117645433.116    22387171.539    91671794.234  
  23602852.586   126392214.907    23602852.070    98305076.091  
  19952179.266   106655887.426    19952175.715    82954549.083  
  20366703.266   108680640.898                                  
  23397616.359   124941973.600    23397614.945    97177646.243  
  20120199.781   107516333.115    20120196.379    83623813.444  
  19691000.125   105185822.066    19690996.223    81811240.473  
 21  8 30  1 21 30.0000000  0 15G 1G 3G 4G21G22G25G26G31G32R 4R 5R 6
                                R 9R15R16
  23253230.891   122196516.429    23253233.367    95218120.952  
  21839429.516   114767003.497    21839429.203    89428838.329  
                                                                
  24221000.711   127282208.171    24220999.406    99180949.606  
  21217032.992   111496242.422    21217028.629    86880221.756  
  23577564.063   123900994.791    23577566.395    96546244.989  
  21789962.672   114507027.784    21789964.164    89226293.376  
  20239064.203   106357287.978    20239061.547    82875650.197  
  22399098.711   117708112.365    22399099.047    91720635.214  
  23621704.805   126493164.374    23621702.750    98383592.312  
  19959493.008   106694985.375    19959489.938    82984958.595  
  20352160.875   108603040.578                                  
  23373627.195   124813871.609    23373625.832    97078011.507  
  20133171.039   107585648.895    20133168.020    83677725.713  
  19678420.914   105118626.009    19678416.801    81758976.888  
 21  8 30  1 22  0.0000000  0 15G 1G 3G 4G21G22G25G26G31G32R 4R 5R 6
                                R 9R15R16
  23265742.414   122262260.456    23265743.438    95269350.022  
  21826376.234   114698406.467    21826376.000    89375386.104  
  24518822.078   128847231.3381   24518822.613   100400490.5531 
  24233281.609   127346745.821    24233280.625    99231238.611  
  21212190.141   111470794.763    21212186.008    86860392.411  
  23592232.367   123978073.862    23592234.141    96606306.565  
  21773865.031   114422432.365    21773866.234    89160374.910  
  20245548.984   106391363.952    20245546.055    82902202.913  
  22411062.711   117770983.746    22411063.504    91769625.886  
  23640598.695   126594336.274    23640596.309    98462281.515  
  19966899.109   106734572.752    19966895.648    83015748.766  
  20337671.305   108525718.507                                  
  23349667.586   124685931.647    23349667.023    96978502.859  
  20146254.484   107655563.032    20146251.469    83732103.374  
  19665968.492   105052106.611    19665964.254    81707239.600  
 21  8 30  1 22 30.0000000  0 15G 1G 3G 4G21G22G25G26G31G32R 4R 5R 6
                                R 9R15R16
  23278321.969   122328371.375    23278323.684    95320864.979  
  21813402.047   114630228.464    21813402.199    89322260.409  
  24502801.781   128763039.0291   24502800.836   100334886.1381 
  24245590.523   127411430.759    24245589.395    99281642.385  
  21207445.563   111445860.027    21207441.059    86840962.749  
  23606985.547   124055603.393    23606986.656    96666719.226  
  21757837.711   114338210.337    21757839.625    89094747.381  
  20252114.367   106425864.722    20252111.266    82929086.631  
  22423063.289   117834047.140    22423064.227    91818766.166  
  23659532.016   126695729.320    23659530.605    98541142.752  
  19974396.719   106774649.887    19974392.793    83046919.874  
  20323233.695   108448677.614                                  
  23325738.664   124558156.657    23325738.309    96879122.423  
  20159449.234   107726072.105    20159446.340    83786943.751  
  19653642.711   104986265.896    19653638.695    81656030.164  
 21  8 30  1 23  0.0000000  0 14G 1G 3G21G22G25G26G31G32R 4R 5R 6R 9
                                R15R16
  23290972.281   122394846.428    23290973.711    95372663.702  
  21800508.563   114562472.141    21800508.809    89269463.305  
  24257927.406   127476260.910    24257926.270    99332159.319  
  21202798.430   111421439.772    21202793.996    86821933.980  
  23621824.094   124133581.209    23621825.914    96727481.122  
  21741882.664   114254364.730    21741884.180    89029413.188  
  20258759.984   106460788.650    20258757.270    82956300.088  
  22435100.844   117897302.704    22435101.059    91868056.201  
  23678507.586   126797342.356    23678505.043    98620175.138  
  19981985.133   106815217.435    19981982.027    83078472.411  
  20308850.070   108371920.355                                  
  23301841.781   124430549.908    23301841.105    96779872.852  
  20172755.273   107797172.626    20172751.625    83842244.154  
  19641444.758   104921105.778    19641440.598    81605350.100  
 21  8 30  1 23 30.0000000  0 14G 1G 3G21G22G25G26G31G32R 4R 5R 6R 9
                                R15R16
  23303690.398   122461682.553    23303692.934    95424743.788  
  21787695.305   114495139.981    21787695.930    89216996.698  
  24270291.875   127541233.505    24270291.262    99382787.283  
  21198249.805   111397535.235    21198245.199    86803307.078  
  23636747.461   124212004.618    23636748.313    96788590.230  
  21725999.086   114170898.369    21726001.125    88964374.510  
  20265485.578   106496133.592    20265483.363    82983841.607  
  22447174.523   117960750.367    22447174.938    91917495.934  
  23697524.695   126899174.631    23697522.707    98699378.036  
  19989666.680   106856275.959    19989662.938    83110406.821  
  20294519.219   108295450.289                                  
  23277977.352   124303114.392    23277976.039    96680756.544  
  20186170.758   107868861.273    20186167.004    83898001.978  
  19629374.789   104856628.193    19629370.230    81555200.887  
 21  8 30  1 24  0.0000000  0 16G 1G 3G 4G16G21G22G25G26G31G32R 4R 5
                                R 6R 9R15R16
  23316477.156   122528876.668    23316479.516    95477102.847  
  21774963.367   114428234.273    21774964.137    89164862.410  
  24454739.516   128510486.9071   24454739.801   100138068.2391 
  24461101.578   128543731.6221                                 
  24282681.953   127606345.858    24282682.055    99433524.114  
  21193799.031   111374147.633    21193794.500    86785082.975  
  23651755.695   124290870.902    23651755.801    96850044.481  
  21710188.906   114087813.996    21710190.625    88899633.477  
  20272291.727   106531897.540    20272289.066    83011709.616  
  22459284.516   118024390.012    22459285.336    91967085.250  
  23716581.547   127001224.606    23716579.434    98778750.206  
  19997439.438   106897825.611    19997435.625    83142723.223  
  20280242.688   108219269.880                                  
  23254145.867   124175852.869    23254143.613    96581775.520  
  20199695.539   107941134.176    20199692.281    83954214.233  
  19617431.891   104792834.960    19617427.922    81505583.952  
 21  8 30  1 24 30.0000000  0 16G 1G 3G 4G16G21G22G25G26G31G32R 4R 5
                                R 6R 9R15R16
  23329331.461   122596425.798    23329334.160    95529738.514  
  21762313.391   114361757.478    21762314.223    89113062.344  
  24438721.648   128426309.7251   24438721.594   100072475.6251 
  24438382.961   128424343.596                                  
  24295098.984   127671595.473    24295098.000    99484367.924  
  21189446.773   111351277.747    21189442.816    86767262.289  
  23666846.188   124370177.550    23666846.961    96911841.894  
  21694452.063   114005114.445    21694453.137    88835192.296  
  20279176.852   106568078.811    20279173.844    83039902.811  
  22471431.352   118088221.622    22471431.965    92016824.153  
  23735678.758   127103490.989    23735676.621    98858290.699  
  20005303.281   106939866.808    20005300.184    83175421.921  
  20266022.102   108143382.166                                  
  23230346.773   124048768.596    23230344.746    96482932.378  
  20213328.719   108013987.921    20213325.793    84010878.248  
  19605618.188   104729727.325    19605614.160    81456500.252  
 21  8 30  1 25  0.0000000  0 16G 1G 3G 4G16G21G22G25G26G31G32R 4R 5
                                R 6R 9R15R16
  23342252.773   122664326.575    23342254.539    95582648.194  
  21749745.195   114295711.691    21749745.328    89061598.127  
  24422705.492   128342136.9161   24422704.676   100006886.4941 
  24415662.055   128304947.105                                  
  24307541.133   127736979.454    24307539.633    99535316.410  
  21185193.836   111328926.785    21185189.438    86749845.952  
  23682021.344   124449921.806    23682022.898    96973980.236  
  21678787.625   113922802.271    21678789.676    88771052.974  
  20286140.578   106604675.058    20286137.906    83068419.380  
  22483614.320   118152244.864    22483615.156    92066712.363  
  23754816.859   127205972.530    23754814.570    98937998.537  
  20013259.813   106982399.483    20013256.688    83208502.872  
  20251855.758   108067789.821                                  
  23206581.984   123921863.914    23206579.340    96384228.898  
  20227070.594   108087418.469    20227067.543    84067990.899  
  19593932.734   104667307.306    19593929.313    81407951.389  
 21  8 30  1 25 30.0000000  0 16G 1G 3G 4G16G21G22G25G26G31G32R 4R 5
                                R 6R 9R15R16
  23355239.719   122732576.226    23355242.309    95635829.713  
  21737259.477   114230099.614    21737259.746    89010471.859  
  24406689.398   128257969.1711   24406689.750    99941301.3141 
  24392940.734   128185545.545                                  
  24320008.945   127802494.959    24320006.480    99586367.383  
  21181039.477   111307095.652    21181035.367    86732834.678  
  23697279.336   124530101.142    23697281.832    97036457.659  
  21663198.883   113840880.482    21663200.434    88707217.850  
  20293183.555   106641684.432    20293180.566    83097257.850  
  22495834.273   118216459.915    22495834.813    92116750.054  
  23773994.961   127308668.126    23773992.582    99017872.866  
  20021308.813   107025424.310    20021304.996    83241966.624  
  20237745.922   107992495.930                                  
  23182850.484   123795142.317    23182848.926    96285667.782  
  20240919.492   108161422.513    20240916.305    84125549.591  
  19582376.883   104605576.687    19582372.832    81359938.716  
 21  8 30  1 26  0.0000000  0 16G 1G 3G 4G16G21G22G25G26G31G32R 4R 5
                                R 6R 9R15R16
  23368293.273   122801171.800    23368295.781    95689280.808  
  21724857.063   114164923.647    21724857.051    88959685.434  
  24390674.414   128173807.113    24390674.086    99875720.513  
  24370219.484   128066141.887    24370220.027    99791979.5071 
  24332500.063   127868139.897    24332499.332    99637519.245  
  21176984.375   111285785.769    21176980.133    86716229.580  
  23712619.320   124610712.977    23712621.070    97099272.053  
  21647684.563   113759351.948    21647686.117    88643689.155  
  20300304.148   106679105.391    20300301.379    83126417.044  
  22508090.375   118280866.759    22508090.883    92166937.184  
  23793212.188   127411576.614    23793210.098    99097912.769  
  20029449.500   107068941.931    20029446.105    83275813.651  
  20223692.117   107917503.460                                  
  23159154.547   123668606.973    23159153.195    96187251.477  
  20254874.633   108235996.588    20254871.891    84183551.667  
  19570950.438   104544537.077    19570945.973    81312463.489  
 21  8 30  1 26 30.0000000  0 16G 1G 3G 4G16G21G22G25G26G31G32R 4R 5
                                R 6R 9R15R16
  23381411.570   122870110.095    23381413.996    95742998.915  
  21712537.680   114100186.121    21712537.984    88909240.639  
  24374658.625   128089650.996    24374658.027    99810144.341  
  24347497.633   127946739.119    24347497.309    99698938.403  
  24345015.563   127933912.167    24345015.793    99688770.291  
  21173028.703   111264998.123    21173024.359    86700031.422  
  23728040.898   124691754.643    23728041.504    97162421.391  
  21632245.242   113678219.352    21632247.160    88580468.979  
  20307503.539   106716936.009    20307500.297    83155895.448  
  22520383.344   118345465.322    22520383.910    92217273.684  
  23812468.914   127514696.786    23812467.352    99178117.303  
  20037682.680   107112952.612    20037679.297    83310044.164  
  20209695.820   107842815.132                                  
  23135493.602   123542260.537    23135492.391    96088982.117  
  20268936.547   108311136.656    20268933.340    84241993.922  
  19559653.188   104484190.316    19559649.070    81265527.129  
 21  8 30  1 27  0.0000000  0 16G 1G 3G 4G16G21G22G25G26G31G32R 4R 5
                                R 6R 9R15R16
  23394595.531   122939388.721    23394597.867    95796982.246  
  21700302.438   114035890.097    21700303.254    88859139.864  
  24358645.305   128005501.797    24358646.125    99744573.632  
  24324776.539   127827340.730    24324775.590    99605900.741  
  24357555.969   127999808.880    24357555.117    99740118.326  
  21169172.664   111244734.426    21169168.523    86684241.531  
  23743544.469   124773224.146    23743544.184    97225904.099  
  21616882.141   113597486.158    21616884.023    88517560.026  
  20314779.648   106755174.822    20314777.027    83185691.930  
  22532712.383   118410256.143    22532713.371    92267760.031  
  23831766.148   127618027.718    23831763.168    99258485.819  
  20046008.297   107157456.699    20046004.703    83344658.440  
  20195756.719   107768434.371                                  
  23111869.453   123416106.710    23111867.504    95990862.537  
  20283103.305   108386840.010    20283100.266    84300874.313  
  19548486.711   104424538.594    19548482.352    81219131.378  
 21  8 30  1 27 30.0000000  0 16G 1G 3G 4G16G21G22G25G26G31G32R 4R 5
                                R 6R 9R15R16
  23407843.141   123009004.094    23407844.758    95851227.980  
  21688151.922   113972037.420    21688152.828    88809384.569  
  24342633.727   127921359.612    24342633.414    99679008.370  
  24302057.438   127707949.091    24302056.113    99512868.421  
  24370118.938   128065827.131    24370117.512    99791561.053  
  21165416.352   111224994.780    21165412.020    86668859.996  
  23759127.852   124855118.361    23759128.098    97289717.784  
  21601595.531   113517154.568    21601597.629    88454964.029  
  20322133.570   106793819.149    20322130.996    83215804.387  
  22545078.367   118475238.662    22545078.879    92318395.725  
  23851100.906   127721567.932    23851098.781    99339017.003  
  20054426.242   107202454.827    20054422.609    83379656.978  
  20181875.555   107694364.414                                  
  23088281.477   123290148.070    23088279.250    95892894.806  
  20297375.125   108463102.417    20297371.809    84360189.519  
  19537450.336   104365582.905    19537445.414    81173276.981  
 21  8 30  1 28  0.0000000  0 16G 1G 3G 4G16G21G22G25G26G31G32R 4R 5
                                R 6R 9R15R16
  23421153.781   123078953.033    23421156.332    95905733.612  
  21676085.875   113908630.330    21676086.426    88759976.496  
  24326624.055   127837224.701    24326622.434    99613448.729  
  24279338.938   127588567.173    24279337.930    99419843.576  
  24382704.711   128131964.470    24382703.590    99843096.590  
  21161759.914   111205780.206    21161755.164    86653887.605  
  23774792.672   124937434.494    23774794.395    97353860.221  
  21586385.719   113437227.257    21586387.813    88392683.048  
  20329564.125   106832867.028    20329561.359    83246231.306  
  22557480.563   118540412.726    22557480.918    92369180.700  
  23870475.531   127825316.052    23870473.773    99419709.938  
  20062936.164   107247946.506    20062932.996    83415039.387  
  20168053.281   107620607.226                                  
  23064729.945   123164387.704    23064728.406    95795081.249  
  20311749.398   108539920.142    20311746.859    84419936.628  
  19526543.555   104307324.735    19526539.262    81127965.095  
 21  8 30  1 28 30.0000000  0 16G 1G 3G 4G16G21G22G25G26G31G32R 4R 5
                                R 6R 9R15R16
  23434527.117   123149232.495    23434529.516    95960496.814  
  21664105.258   113845671.263    21664105.582    88710917.504  
  24310614.578   127753097.501    24310612.953    99547895.117  
  24256623.781   127469198.060    24256622.852    99326828.817  
  24395312.242   128198218.079    24395311.570    99894722.699  
  21158203.813   111187092.035    21158199.219    86639325.396  
  23790536.156   125020169.921    23790538.953    97418329.434  
  21571253.141   113357707.017    21571255.797    88330719.260  
  20337071.203   106872316.712    20337068.332    83276971.325  
  22569918.961   118605778.318    22569920.039    92420114.907  
  23889888.375   127929270.819    23889886.289    99500563.592  
  20071538.523   107293932.283    20071535.543    83450806.108  
  20154290.648   107547166.059                                  
  23041216.359   123038828.372    23041214.684    95697424.050  
  20326228.766   108617289.223    20326225.313    84480112.560  
  19515767.648   104249765.590    19515764.082    81083196.885  
 21  8 30  1 29  0.0000000  0 16G 1G 3G 4G16G21G22G25G26G31G32R 4R 5
                                R 6R 9R15R16
  23447962.930   123219839.392    23447965.742    96015515.125  
  21652210.281   113783162.502    21652211.039    88662209.406  
  24294607.359   127668978.398    24294607.738    99482347.850  
  24233911.641   127349844.618    24233910.766    99233826.247  
  24407941.172   128264585.316    24407941.121    99946437.332  
  21154747.422   111168930.995    21154743.188    86625173.930  
  23806359.688   125103321.969    23806362.285    97483123.238  
  21556199.266   113278596.503    21556201.223    88269074.742  
  20344654.164   106912166.102    20344651.609    83308022.800  
  22582394.281   118671335.309    22582394.984    92471198.272  
  23909339.070   128033430.818    23909336.801    99581576.960  
  20080233.727   107340412.146    20080230.430    83486957.115  
  20140588.156   107474043.696                                  
  23017741.523   122913472.960    23017739.453    95599925.507  
  20340809.250   108695206.219    20340806.367    84540714.660  
  19505124.234   104192906.962    19505120.195    81038973.537  
 21  8 30  1 29 30.0000000  0 16G 1G 3G 4G16G21G22G25G26G31G32R 4R 5
                                R 6R 9R15R16
  23461461.070   123290770.665    23461462.816    96070786.241  
  21640401.305   113721106.483    21640401.563    88613854.094  
  24278600.875   127584867.999    24278602.316    99416807.381  
  24211202.836   127230509.777    24211201.984    99140838.256  
  24420592.453   128331063.792    24420591.258    99998238.656  
  21151392.086   111151298.150    21151387.738    86611434.044  
  23822261.984   125186888.008    23822262.773    97548239.620  
  21541223.547   113199898.535    21541225.301    88207751.677  
  20352313.172   106952413.336    20352310.246    83339384.276  
  22594905.727   118737083.740    22594906.660    92522430.789  
  23928828.625   128137794.799    23928826.105    99662748.983  
  20089021.328   107387386.651    20089017.973    83523492.836  
  20126945.086   107401243.753                                  
  22994305.172   122788324.610    22994303.020    95502588.005  
  20355492.578   108773667.559    20355489.613    84601740.137  
  19494611.406   104136750.378    19494607.160    80995296.205  
 21  8 30  1 30  0.0000000  0 16G 1G 3G 4G16G21G22G25G26G31G32R 4R 5
                                R 6R 9R15R16
  23475019.992   123362023.274    23475022.180    96126307.732  
  21628678.859   113659505.607    21628679.051    88565853.435  
  24262597.609   127500766.808    24262596.449    99351274.044  
  24188498.102   127111196.780    24188496.742    99047867.188  
  24433262.594   128397650.931    24433262.617   100050124.646  
  21148137.484   111134194.108    21148132.840    86598106.232  
  23838242.000   125270865.364    23838243.289    97613676.528  
  21526327.203   113121615.921    21526328.676    88146752.262  
  20360047.102   106993056.381    20360044.098    83371054.186  
  22607453.578   118803023.630    22607454.477    92573812.490  
  23948356.070   128242361.574    23948353.168    99744078.682  
  20097901.703   107434855.949    20097898.223    83560413.398  
  20113362.438   107328768.905                                  
  22970908.414   122663386.344    22970906.008    95405413.943  
  20370277.195   108852669.637    20370273.816    84663186.197  
  19484230.641   104081297.259    19484226.273    80952166.025  
 21  8 30  1 30 30.0000000  0 16G 1G 3G 4G16G21G22G25G26G31G32R 4R 5
                                R 6R 9R15R16
  23488639.438   123433594.062    23488641.301    96182077.147  
  21617043.914   113598362.114    21617044.172    88518209.182  
  24246595.750   127416675.360    24246595.148    99285748.307  
  24165798.000   126991908.429    24165797.344    98954915.349  
  24445953.945   128464343.792    24445954.105   100102093.043  
  21144982.922   111117620.052    21144979.012    86585191.383  
  23854299.930   125355251.282    23854303.871    97679431.783  
  21511509.898   113043751.290    21511511.469    88086078.549  
  20367856.047   107034093.224    20367853.461    83403030.948  
  22620038.227   118869154.809    22620038.379    92625343.264  
  23967920.750   128347129.789    23967918.383    99825565.044  
  20106873.945   107482819.993    20106870.711    83597718.753  
  20099842.844   107256621.992                                  
  22947551.422   122538661.157    22947549.078    95308405.613  
  20385161.641   108932208.453    20385158.359    84725049.733  
  19473981.477   104026549.079    19473977.492    80909584.118  
 21  8 30  1 31  0.0000000  0 16G 1G 3G 4G16G21G22G25G26G31G32R 4R 5
                                R 6R 9R15R16
  23502318.688   123505480.003    23502320.617    96238092.127  
  21605495.906   113537678.418    21605496.859    88470923.207  
  24230594.789   127332594.010    24230595.953    99220230.418  
  24143103.672   126872648.003    24143102.512    98861985.278  
  24458664.914   128531140.080    24458665.188   100154142.074  
  21141930.516   111101576.961    21141925.996    86572690.280  
  23870435.547   125440043.226    23870439.027    97745503.401  
  21496772.797   112966307.368    21496774.180    88025732.685  
  20375740.047   107075522.204    20375737.254    83435313.268  
  22632658.805   118935477.305    22632659.438    92677023.093  
  23987522.938   128452098.138    23987520.605    99907207.076  
  20115939.570   107531279.270    20115935.805    83635409.292  
  20086384.148   107184806.147                                  
  22924234.461   122414151.983    22924232.305    95211565.284  
  20400146.195   109012280.435    20400142.863    84787327.938  
  19463864.898   103972507.169    19463860.758    80867551.546  
 21  8 30  1 31 30.0000000  0 16G 1G 3G 4G16G21G22G25G26G31G32R 4R 5
                                R 6R 9R15R16
  23516057.914   123577677.912    23516060.648    96294350.204  
  21594036.305   113477456.736    21594036.477    88423997.228  
  24214597.266   127248523.147    24214596.734    99154720.727  
  24120414.523   126753418.345    24120413.555    98769079.208  
  24471395.547   128598036.750    24471395.035   100206269.242  
  21138978.797   111086065.077    21138974.609    86560603.108  
  23886647.008   125525238.349    23886651.020    97811889.178  
  21482116.227   112889286.774    21482117.629    87965716.665  
  20383697.938   107117341.091    20383695.109    83467899.419  
  22645316.000   119001990.964    22645316.508    92728851.870  
  24007162.430   128557265.331    24007159.715    99989003.757  
  20125097.492   107580233.766    20125093.816    83673485.004  
  20072989.313   107113324.277                                  
  22900958.594   122289861.606    22900956.270    95114895.163  
  20415229.500   109092881.728    20415226.320    84850017.808  
  19453880.742   103919172.930    19453876.324    80826069.384  
 21  8 30  1 32  0.0000000  0 16G 1G 3G 4G16G21G22G25G26G31G32R 4R 5
                                R 6R 9R15R16
  23529855.523   123650184.607    23529857.910    96350848.844  
  21582664.758   113417699.284    21582665.270    88377432.986  
  24198601.063   127164463.380    24198599.625    99089219.630  
  24097732.328   126634222.501    24097730.555    98676199.484  
  24484143.688   128665031.650    24484143.797   100258472.975  
  21136128.422   111071085.603    21136124.094    86548930.789  
  23902935.602   125610833.839    23902937.270    97878586.924  
  21467540.531   112812692.125    21467542.316    87906032.551  
  20391729.531   107159547.786    20391726.828    83500787.763  
  22658009.484   119068695.650    22658009.840    92780829.514  
  24026837.539   128662629.881    24026835.508   100070953.920  
  20134347.688   107629683.675    20134344.363    83711946.028  
  20059656.734   107042179.332                                  
  22877724.875   122165793.148    22877722.441    95018397.617  
  20430411.313   109174008.664    20430407.938    84913116.533  
  19444028.508   103866547.249    19444024.570    80785138.300  
 21  8 30  1 32 30.0000000  0 17G 1G 3G 4G16G21G22G25G26G31G32R 4R 5
                                R 6R 7R 9R15R16
  23543710.906   123722996.836    23543713.203    96407585.573  
  21571381.969   113358408.311    21571382.648    88331232.230  
  24182606.539   127080415.026    24182606.852    99023727.525  
  24075057.242   126515063.294    24075055.031    98583348.270  
  24496910.914   128732122.002    24496911.098   100310751.099  
  21133379.414   111056639.490    21133374.926    86537674.080  
  23919300.180   125696826.909    23919300.563    97945594.524  
  21453047.211   112736526.002    21453048.344    87846682.352  
  20399834.250   107202140.372    20399832.063    83533976.799  
  22670739.398   119135591.221    22670739.691    92832955.924  
  24046550.461   128768190.478    24046548.938   100153056.584  
  20143691.508   107679628.870    20143687.707    83750792.284  
  20046388.031   106971373.872                                  
  24032535.203   128648050.6681   24032534.813   100059642.3191 
  22854532.508   122041949.296    22854530.730    94922074.742  
  20445690.297   109255657.370    20445687.426    84976621.075  
  19434310.008   103814631.569    19434306.004    80744759.478  
 21  8 30  1 33  0.0000000  0 17G 1G 3G 4G16G21G22G25G26G31G32R 4R 5
                                R 6R 7R 9R15R16
  23557624.188   123796112.053    23557626.793    96464558.386  
  21560188.734   113299586.598    21560188.895    88285397.128  
  24166615.375   126996379.175    24166614.438    98958245.105  
  24052389.383   126395944.280    24052387.328    98490528.402  
  24509695.492   128799305.884    24509695.109   100363102.062  
  21130731.961   111042728.249    21130727.570    86526834.157  
  23935739.602   125783215.427    23935739.711    98012910.281  
  21438635.000   112660791.575    21438636.602    87787668.547  
  20408012.695   107245117.121    20408010.039    83567465.171  
  22683505.063   119202678.130    22683506.254    92885231.426  
  24066299.875   128873946.224    24066297.711   100235310.999  
  20153127.141   107730069.868    20153123.875    83790024.153  
  20033183.352   106900912.433                                  
  24011562.805   128535781.226    24011561.508    99972321.682  
  22831383.609   121918333.772    22831381.387    94825929.445  
  20461067.172   109337824.352    20461063.965    85040528.717  
  19424724.359   103763427.330    19424720.172    80704933.974  
 21  8 30  1 33 30.0000000  0 17G 1G 3G 4G16G21G22G25G26G31G32R 4R 5
                                R 6R 7R 9R15R16
  23571594.242   123869526.681    23571596.828    96521764.495  
  21549084.570   113241236.032    21549085.348    88239929.168  
  24150625.953   126912355.901    24150625.969    98892772.432  
  24029730.063   126276868.518    24029728.234    98397742.192  
  24522497.391   128866579.566    24522497.074   100415523.021  
  21128186.813   111029351.720    21128182.277    86516410.893  
  23952252.820   125869996.228    23952255.215    98080531.658  
  21424306.047   112585491.063    21424307.508    87728992.852  
  20416263.398   107288476.082    20416260.707    83601251.378  
  22696307.938   119269955.856    22696308.469    92937655.606  
  24086085.367   128979895.303    24086082.980   100317715.740  
  20162655.969   107781006.280    20162652.742    83829641.354  
  20020043.570   106830796.650                                  
  23990574.828   128423431.315    23990573.285    99884938.520  
  22808277.336   121794948.710    22808275.188    94729963.382  
  20476539.578   109420505.616    20476536.766    85104836.355  
  19415272.406   103712935.806    19415268.176    80665662.816  
 21  8 30  1 34  0.0000000  0 17G 1G 3G 4G16G21G22G25G26G31G32R 4R 5
                                R 6R 7R 9R15R16
  23585621.578   123943237.406    23585623.348    96579201.363  
  21538070.766   113183358.688    21538071.543    88194829.945  
  24134639.477   126828345.541    24134639.715    98827309.867  
  24007078.836   126157838.288    24007078.012    98304991.482  
  24535316.227   128933940.476    24535315.711   100468011.974  
  21125742.938   111016510.598    21125738.758    86506404.816  
  23968840.844   125957166.377    23968843.332    98148456.421  
  21410059.875   112510626.969    21410061.313    87670657.230  
  20424586.836   107332214.635    20424583.859    83635333.368  
  22709146.828   119337424.208    22709147.734    92990228.355  
  24105906.414   129086036.353    24105904.195   100400269.819  
  20172277.195   107832438.409    20172274.184    83869644.113  
  20006969.273   106761029.898                                  
  23969572.820   128311002.801    23969570.863    99797494.189  
  22785214.805   121671797.258    22785212.617    94634179.020  
  20492107.570   109503697.385    20492104.980    85169541.045  
  19405953.773   103663157.599    19405949.570    80626946.450  
 21  8 30  1 34 30.0000000  0 16G 1G 3G 4G16G21G22G25G26G31G32R 5R 6
                                R 7R 9R15R16
  23599703.906   124017241.275    23599707.238    96636866.661  
  21527147.977   113125957.007    21527148.668    88150101.352  
  24118655.500   126744348.879    24118655.063    98761857.978  
  23984437.141   126038857.090    23984436.508    98212278.989  
  24548150.984   129001386.889    24548150.992   100520567.588  
  21123401.133   111004205.592    21123397.266    86496816.510  
  23985502.258   126044723.318    23985504.301    98216682.605  
  21395896.922   112436202.051    21395898.574    87612663.820  
  20432982.094   107376331.235    20432979.125    83669709.944  
  22722022.016   119405083.283    22722023.188    93042949.715  
  20181991.898   107884366.240    20181988.613    83910032.424  
  19993960.703   106691614.992                                  
  23948555.859   128198497.395    23948553.078    99709990.093  
  22762196.469   121548882.467    22762194.695    94538578.691  
  20507771.211   109587395.940    20507767.813    85234639.899  
  19396769.633   103614094.294    19396764.953    80588786.115  
 21  8 30  1 35  0.0000000  0 16G 1G 3G 4G16G21G22G25G26G31G32R 5R 6
                                R 7R 9R15R16
  23613841.766   124091535.073    23613843.977    96694757.848  
  21516316.078   113069033.110    21516316.355    88105745.069  
  24102674.234   126660366.199    24102672.688    98696416.992  
  23961806.320   125919927.982    23961805.102    98119607.023  
  24561000.734   129068915.857    24561000.695   100573187.470  
  21121162.281   110992437.765    21121157.926    86487646.782  
  24002236.648   126132664.077    24002238.570    98285207.902  
  21381818.414   112362218.791    21381820.016    87555014.545  
  20441448.359   107420823.804    20441445.941    83704379.477  
  22734933.906   119472932.860    22734934.426    93095819.520  
  20191798.406   107936789.630    20191795.555    83950806.170  
  19981019.102   106622555.219                                  
  23927524.063   128085916.543    23927521.844    99622427.299  
  22739223.586   121426206.901    22739221.473    94443164.433  
  20523527.805   109671597.282    20523524.949    85300129.829  
  19387718.609   103565746.653    19387714.152    80551182.426  
 21  8 30  1 35 30.0000000  0 16G 1G 3G 4G16G21G22G25G26G31G32R 5R 6
                                R 7R 9R15R16
  23628034.055   124166115.721    23628036.938    96752872.554  
  21505574.781   113012589.311    21505575.332    88061762.883  
  24086695.703   126576398.200    24086695.055    98630987.474  
  23939185.109   125801054.025    23939184.438    98026978.057  
  24573866.516   129136524.256    24573865.918   100625869.223  
  21119025.289   110981207.540    21119020.156    86478895.949  
  24019043.953   126220986.086    24019046.496    98354030.246  
  21367824.469   112288679.868    21367825.773    87497711.524  
  20449986.383   107465690.219    20449983.773    83739340.328  
  22747880.797   119540972.991    22747882.344    93148837.785  
  20201697.977   107989708.555    20201695.102    83991965.324  
  19968144.430   106553853.786                                  
  23906478.617   127973262.477    23906477.703    99534807.539  
  22716295.867   121303773.753    22716293.121    94347938.769  
  20539378.625   109756297.857    20539375.406    85366008.049  
  19378801.547   103518115.930    19378797.609    80514136.322  
 21  8 30  1 36  0.0000000  0 16G 1G 3G 4G16G21G22G25G26G31G32R 5R 6
                                R 7R 9R15R16
  23642280.492   124240980.063    23642282.410    96811208.306  
  21494925.586   112956627.812    21494925.504    88018156.506  
  24070719.984   126492445.564    24070720.453    98565569.834  
  23916575.008   125682238.291    23916574.414    97934394.455  
  24586746.469   129204210.073    24586746.809   100678611.348  
  21116990.570   110970515.830    21116986.188    86470564.742  
  24035922.969   126309686.622    24035924.938    98423147.520  
  21353915.641   112215587.861    21353916.609    87440756.736  
  20458594.797   107510928.412    20458592.363    83774590.865  
  22760865.070   119609203.546    22760865.883    93202004.437  
  20211690.523   108043123.198    20211687.168    84033510.054  
  19955337.125   106485512.960                                  
  23885421.555   127860536.814    23885419.305    99447132.081  
  22693413.758   121181586.019    22693411.129    94252903.992  
  20555322.156   109841493.979    20555318.816    85432271.693  
  19370019.414   103471202.923    19370015.211    80477648.441  
 21  8 30  1 36 30.0000000  0 16G 1G 3G 4G16G21G22G25G26G31G32R 5R 6
                                R 7R 9R15R16
  23656580.305   124316124.800    23656582.508    96869762.568  
  21484368.750   112901150.720    21484369.387    87974927.622  
  24054746.828   126408508.597    24054746.648    98500164.428  
  23893976.602   125563483.729    23893975.918    97841858.549  
  24599641.242   129271970.254    24599640.465   100731411.453  
  21115058.188   110960363.211    21115053.840    86462653.617  
  24052873.641   126398762.720    24052874.434    98492557.503  
  21340091.938   112142945.218    21340093.500    87384152.105  
  20467274.031   107556536.769    20467271.195    83810129.848  
  22773885.531   119677624.342    22773885.520    93255319.323  
  20221774.992   108097033.312    20221772.180    84075440.144  
  19942598.352   106417536.325                                  
  23864350.773   127747741.171    23864347.773    99359402.160  
  22670577.414   121059646.523    22670575.895    94158062.250  
  20571357.352   109927181.673    20571354.563    85498917.669  
  19361372.469   103425008.766    19361367.773    80441719.678  
 21  8 30  1 37  0.0000000  0 16G 1G 3G 4G16G21G22G25G26G31G32R 5R 6
                                R 7R 9R15R16
  23670932.477   124391546.848    23670935.168    96928532.927  
  21473904.313   112846160.259    21473904.879    87932077.923  
  24038777.430   126324587.912    24038776.762    98434771.766  
  23871390.523   125444793.806    23871389.707    97749372.995  
  24612549.227   129339802.325    24612548.402   100784267.496  
  21113229.422   110950750.242    21113225.094    86455162.981  
  24069895.719   126488211.700    24069897.215    98562258.016  
  21326354.859   112070754.526    21326356.203    87327899.638  
  20476023.242   107602513.150    20476020.582    83845955.605  
  22786941.289   119746235.339    22786941.793    93308782.406  
  20231952.625   108151439.091    20231949.891    84117755.734  
  19929928.602   106349927.123                                  
  23843266.719   127634877.594    23843264.191    99271619.438  
  22647790.141   120937958.202    22647787.637    94063415.852  
  20587483.875   110013357.142    20587480.887    85565943.005  
  19352859.109   103379534.318    19352854.727    80406350.681  
 21  8 30  1 37 30.0000000  0 16G 1G 3G 4G16G21G22G25G26G31G32R 5R 6
                                R 7R 9R15R16
  23685337.398   124467243.064    23685339.703    96987516.956  
  21463532.813   112791658.684    21463533.594    87889609.171  
  24022810.922   126240684.154    24022810.305    98369392.278  
  23848817.563   125326171.298    23848816.621    97656939.971  
  24625470.773   129407703.657    24625470.164   100837177.543  
  21111502.461   110941678.112    21111498.617    86448093.786  
  24086987.398   126578030.842    24086988.434    98632246.934  
  21312703.719   111999018.360    21312705.215    87272001.362  
  20484841.039   107648855.329    20484839.086    83882066.390  
  22800033.398   119815036.507    22800033.965    93362393.629  
  20242223.664   108206340.112    20242220.008    84160456.518  
  19917328.508   106282688.216                                  
  23822169.977   127521947.854    23822168.004    99183785.217  
  22625048.758   120816524.112    22625046.898    93968967.225  
  20603700.961   110100016.356    20603697.867    85633344.609  
  19344481.164   103334780.618    19344476.703    80371542.270  
 21  8 30  1 38  0.0000000  0 16G 1G 3G 4G16G21G22G25G26G31G32R 5R 6
                                R 7R 9R15R16
  23699793.680   124543210.285    23699795.777    97046712.169  
  21453255.414   112737648.149    21453255.816    87847523.056  
  24006847.992   126156797.945    24006847.160    98304026.434  
  23826257.523   125207619.526    23826256.570    97564562.050  
  24638404.742   129475671.869    24638404.074   100890139.706  
  21109879.570   110933146.634    21109874.980    86441445.875  
  24104149.445   126668217.379    24104151.492    98702522.121  
  21299139.281   111927739.278    21299141.176    87216459.243  
  20493729.250   107695561.125    20493726.891    83918460.518  
  22813162.398   119884027.685    22813162.688    93416152.978  
  20252586.789   108261736.718    20252583.148    84203542.758  
  19904798.188   106215822.337                                  
  23801061.797   127408954.106    23801059.195    99095901.157  
  22602356.273   120695346.964    22602354.160    93874718.449  
  20620007.719   110187155.739    20620004.738    85701119.680  
  19336238.000   103290748.263    19336233.625    80337294.904  
 21  8 30  1 38 30.0000000  0 16G 1G 3G 4G16G21G22G25G26G31G32R 5R 6
                                R 7R 9R15R16
  23714300.180   124619445.308    23714302.520    97106116.007  
  21443071.578   112684130.713    21443071.926    87805821.154  
  23990888.133   126072929.675    23990887.879    98238674.633  
  23803711.836   125089141.431    23803710.906    97472241.582  
  24651350.672   129543704.278    24651350.547   100943151.888  
  21108358.852   110925156.642    21108354.430    86435219.905  
  24121381.203   126758768.264    24121382.336    98773081.282  
  21285662.742   111856919.622    21285664.473    87161275.150  
  20502685.914   107742628.766    20502683.453    83955136.606  
  22826326.961   119953208.735    22826327.605    93470060.235  
  20263042.258   108317628.484    20263038.777    84247014.135  
  19892337.273   106149332.776                                  
  23779942.086   127295897.729    23779939.434    99007968.456  
  22579712.656   120574429.548    22579710.211    93780671.673  
  20636404.164   110274771.311    20636401.078    85769265.128  
  19328130.398   103247438.310    19328125.863    80303609.395  
 21  8 30  1 39  0.0000000  0 16G 1G 3G 4G16G21G22G25G26G31G32R 5R 6
                                R 7R 9R15R16
  23728857.906   124695944.812    23728860.473    97165726.013  
  21432981.672   112631108.518    21432981.477    87764505.169  
  23974931.945   125989080.010    23974932.500    98173337.259  
  23781180.641   124970740.119    23781179.797    97379980.945  
  24664308.492   129611797.940    24664308.500   100996211.808  
  21106941.352   110917708.715    21106937.246    86429416.323  
  24138681.516   126849680.769    24138681.949    98843922.253  
  21272274.203   111786561.940    21272275.684    87106451.007  
  20511711.008   107790056.304    20511708.629    83992093.125  
  22839527.820   120022579.519    22839528.348    93524115.367  
  20273590.992   108374015.144    20273587.121    84290870.414  
  19879947.180   106083222.408                                  
  23758810.398   127182780.641    23758808.199    98919988.556  
  22557117.750   120453774.791    22557115.293    93686829.194  
  20652888.914   110362859.532    20652885.559    85837778.156  
  19320157.750   103204851.476    19320153.672    80270486.327  
 21  8 30  1 39 30.0000000  0 16G 1G 3G 4G16G21G22G25G26G31G32R 5R 6
                                R 7R 9R15R16
  23743465.156   124772705.634    23743467.234    97225539.601  
  21422986.211   112578583.594    21422986.391    87723576.664  
  23958979.508   125905249.410    23958979.531    98108014.776  
  23758665.031   124852418.610    23758663.445    97287782.446  
  24677277.781   129679950.303    24677277.188   101049317.467  
  21105627.617   110910803.231    21105623.313    86424035.440  
  24156049.758   126940952.168    24156049.711    98915042.787  
  21258974.008   111716668.580    21258975.609    87051988.693  
  20520804.203   107837841.461    20520801.820    84029328.310  
  22852764.828   120092139.875    22852765.570    93578318.244  
  20284231.352   108430896.622    20284228.148    84335111.566  
  19867630.883   106017494.239                                  
  23737668.477   127069605.011    23737667.000    98831963.085  
  22534571.961   120333385.597    22534569.934    93593193.277  
  20669460.688   110451416.032    20669457.449    85906655.428  
  19312320.555   103162988.688    19312316.906    80237926.402  
 21  8 30  1 40  0.0000000  0 16G 1G 3G 4G16G21G22G25G26G31G32R 5R 6
                                R 7R 9R15R16
  23758120.672   124849724.637    23758124.465    97285554.323  
  21413085.828   112526558.084    21413086.051    87683037.326  
  23943031.000   125821438.516    23943030.922    98042707.657  
  23736165.031   124734179.959    23736163.309    97195648.532  
  24690257.219   129748158.9301   24690256.902   101102467.0041 
  21104416.844   110904440.873    21104412.727    86419077.756  
  24173485.289   127032579.479    24173485.629    98986440.669  
  21245762.867   111647242.062    21245764.059    86997890.147  
  20529965.148   107885982.323    20529962.625    84066840.669  
  22866037.469   120161889.724    22866038.793    93632668.760  
  20294964.422   108488272.968    20294961.750    84379737.592  
  19855386.063   105952151.582                                  
  23716515.484   126956372.441    23716514.250    98743893.317  
  22512078.078   120213264.749    22512075.379    93499766.030  
  20686119.609   110540437.337    20686116.539    85975894.215  
  19304619.547   103121850.691    19304615.637    80205930.194  
 21  8 30  1 40 30.0000000  0 16G 1G 3G 4G16G21G22G25G26G31G32R 5R 6
                                R 7R 9R15R16
  23772826.195   124926998.437    23772829.035    97345767.637  
  21403281.563   112475034.028    21403281.289    87642888.714  
  23927086.078   125737647.902    23927085.574    97977416.327  
  23713681.719   124616027.382    23713679.574    97103581.665  
  24703247.711   129816421.128    24703247.152   101155658.281  
  21103310.156   110898622.454    21103305.754    86414543.924  
  24190988.281   127124559.899    24190988.379    99058113.653  
  21232640.289   111578284.730    21232641.871    86944157.188  
  20539193.461   107934476.739    20539190.840    84104628.525  
  22879346.758   120231828.847    22879346.996    93687166.753  
  20305790.961   108546143.630    20305787.563    84424748.104  
  19843213.438   105887197.162                                  
  23695352.438   126843084.961    23695350.832    98655780.825  
  22489633.680   120093415.077    22489631.195    93406549.695  
  20702864.930   110629919.423    20702862.219    86045491.390  
  19297054.633   103081437.577    19297050.270    80174497.779  
 21  8 30  1 41  0.0000000  0 16G 1G 3G 4G16G21G22G25G26G31G32R 5R 6
                                R 7R 9R15R16
  23787578.555   125004523.915    23787581.828    97406177.033  
  21393572.469   112424013.515    21393572.352    87603132.464  
  23911145.141   125653878.084    23911145.316    97912141.210  
  23691214.078   124497963.904    23691212.648    97011584.245  
  24716247.156   129884734.211    24716246.191   101208889.164  
  21102306.055   110893347.786    21102301.699    86410433.776  
  24208558.492   127216890.580    24208558.410    99130059.608  
  21219608.234   111509798.986    21219609.477    86890791.715  
  20548488.320   107983322.607    20548485.574    84142690.225  
  22892691.633   120301957.132    22892692.125    93741812.160  
  20316709.398   108604508.626    20316706.027    84470143.100  
  19831114.273   105822634.266                                  
  23674179.414   126729744.265    23674177.996    98567626.942  
  22467240.555   119973839.413    22467238.660    93313546.457  
  20719696.234   110719858.597    20719693.063    86115444.065  
  19289624.922   103041750.414    19289620.766    80143630.011  
 21  8 30  1 41 30.0000000  0 16G 1G 3G 4G16G21G22G25G26G31G32R 5R 6
                                R 7R 9R15R16
  23802379.148   125082297.904    23802381.898    97466780.107  
  21383959.797   112373498.598    21383960.070    87563770.221  
  23895208.297   125570129.862    23895208.734    97846882.851  
  23668765.109   124379992.598    23668763.449    96919658.618  
  24729255.180   129953095.732    24729254.414   101262157.787  
  21101405.742   110888617.383    21101401.363    86406747.742  
  24226194.758   127309568.622    24226196.352    99202276.333  
  21206665.891   111441787.336    21206667.238    86837795.654  
  20557849.961   108032518.094    20557847.391    84181024.369  
  22906072.531   120372274.494    22906072.988    93796604.895  
  20327719.813   108663367.343    20327716.852    84515922.081  
  19819088.953   105758465.573                                  
  23652996.945   126616352.684    23652995.590    98479433.497  
  22444900.414   119854540.520    22444897.680    93220758.493  
  20736611.828   110810250.878    20736608.840    86185749.157  
  19282331.469   103002789.801    19282327.043    80113327.321  
 21  8 30  1 42  0.0000000  0 16G 1G 3G 4G16G21G22G25G26G31G32R 5R 6
                                R 7R 9R15R16
  23817225.969   125160317.414    23817228.633    97527574.465  
  21374444.047   112323491.605    21374444.414    87524803.757  
  23879275.305   125486403.943    23879275.535    97781641.912  
  23646333.836   124262117.225    23646332.746    96827807.747  
  24742273.172   130021502.965    24742273.121   101315462.017  
  21100608.969   110884431.925    21100604.793    86403486.336  
  24243896.344   127402591.653    24243901.199    99274761.840  
  21193814.398   111374252.342    21193815.828    86785171.016  
  20567277.977   108082061.398    20567275.281    84219629.546  
  22919489.563   120442781.048    22919489.941    93851545.057  
  20338823.273   108722720.146    20338820.051    84562085.369  
  19807138.180   105694694.900                                  
  23631805.500   126502912.080    23631803.184    98391201.950  
  22422612.016   119735521.790    22422609.469    93128188.426  
  20753611.602   110901092.451    20753608.398    86256403.700  
  19275174.648   102964556.352    19275169.910    80083590.211  
 21  8 30  1 42 30.0000000  0 16G 1G 3G 4G16G21G22G25G26G31G32R 5R 6
                                R 7R 9R15R16
  23832117.805   125238579.131    23832121.492    97588557.572  
  21365024.813   112273994.467    21365025.422    87486234.575  
  23863347.992   125402700.953    23863347.359    97716418.864  
  23623921.508   124144340.414    23623920.898    96736033.705  
  24755299.094   130089954.077    24755299.402   101368800.471  
  21099916.578   110880792.115    21099912.238    86400650.128  
  24261662.734   127495956.619    24261667.945    99347513.791  
  21181054.055   111307196.318    21181055.320    86732919.595  
  20576771.398   108131950.464    20576768.879    84258504.146  
  22932942.813   120513476.570    22932943.145    93906632.462  
  20350018.766   108782566.426    20350015.305    84608632.462  
  19795262.531   105631324.902                                  
  23610604.930   126389424.537    23610603.449    98302933.951  
  22400376.055   119616785.793    22400373.301    93035838.296  
  20770694.602   110992379.804    20770691.668    86327404.952  
  19268153.156   102927050.661    19268148.621    80054419.137  
 21  8 30  1 43  0.0000000  0 16G 1G 3G 4G16G21G22G25G26G31G32R 5R 6
                                R 7R 9R15R16
  23847056.000   125317079.720    23847058.832    97649726.755  
  21355703.414   112225009.006    21355703.445    87448064.076  
  23847424.000   125319021.250    23847422.879    97651213.914  
  23601529.406   124026665.284    23601528.254    96644338.863  
  24768333.164   130158445.717    24768332.242   101422170.567  
  21099327.656   110877698.530    21099323.520    86398239.531  
  24279494.336   127589660.484    24279498.023    99420529.758  
  21168384.828   111240621.397    21168386.441    86681043.068  
  20586329.852   108182182.850    20586327.520    84297646.260  
  22946431.563   120584360.667    22946432.043    93961866.805  
  20361306.398   108842905.796    20361303.227    84655563.086  
  19783463.180   105568358.527                                  
  23589395.711   126275891.791    23589393.914    98214630.746  
  22378194.328   119498335.108    22378191.383    92943710.072  
  20787860.273   111084108.480    20787857.297    86398749.467  
  19261268.344   102890272.955    19261263.668    80025814.259  
 21  8 30  1 43 30.0000000  0 16G 1G 3G 4G16G21G22G25G26G31G32R 5R 6
                                R 7R 9R15R16
  23862039.172   125395816.080    23862042.133    97711079.682  
  21346479.328   112176537.400    21346479.242    87410294.004  
  23831505.594   125235365.706    23831504.449    97586027.829  
  23579156.266   123909095.246    23579155.094    96552725.903  
  24781373.625   130226975.178    24781372.402   101475570.005  
  21098842.922   110875150.814    21098839.113    86396254.311  
  24297389.164   127683700.644    24297391.086    99493807.762  
  21155808.180   111174530.131    21155809.449    86629543.409  
  20595954.594   108232756.926    20595951.520    84337054.639  
  22959956.102   120655433.471    22959956.820    94017248.178  
  20372686.344   108903738.094    20372683.188    84702877.081  
  19771739.289   105505798.969                                  
  23568178.570   126162315.924    23568177.551    98126294.047  
  22356066.359   119380172.850    22356063.152    92851806.179  
  20805108.266   111176275.160    20805105.230    86470434.675  
  19254520.297   102854224.174    19254515.344    79997776.351  
 21  8 30  1 44  0.0000000  0 16G 1G 3G 4G16G21G22G25G26G31G32R 5R 6
                                R 7R 9R15R16
  23877065.891   125474784.944    23877069.324    97772613.813  
  21337354.273   112128581.590    21337353.582    87372925.866  
  23815590.422   125151734.971    23815590.031    97520861.042  
  23556804.234   123791633.359    23556802.441    96461197.209  
  24794421.625   130295540.102    24794421.301   101528997.150  
  21098462.016   110873149.545    21098458.395    86394694.873  
  24315347.961   127778074.094    24315348.934    99567345.462  
  21143323.844   111108924.795    21143325.148    86578422.408  
  20605642.852   108283670.339    20605640.215    84376727.428  
  22973517.141   120726694.739    22973517.426    94072776.434  
  20384158.500   108965063.019    20384155.070    84750574.215  
  19760092.008   105443649.349                                  
  23546954.008   126048699.123    23546952.535    98037925.475  
  22333992.789   119262301.479    22333989.430    92760128.563  
  20822436.969   111268875.697    20822434.359    86542457.315  
  19247908.211   102818904.399    19247903.430    79970305.426  
 21  8 30  1 44 30.0000000  0 16G 1G 3G 4G16G21G22G25G26G31G32R 5R 6
                                R 7R 9R15R16
  23892137.016   125553983.101    23892140.188    97834326.592  
  21328326.664   112081143.551    21328326.664    87335961.177  
  23799680.648   125068129.568    23799680.918    97455714.007  
  23534472.539   123674282.689    23534471.063    96369755.201  
  24807474.750   130364137.846    24807474.680   101582449.871  
  21098185.672   110871695.091    21098181.645    86393561.544  
  24333369.711   127872778.052    24333370.293    99641140.699  
  21130932.484   111043807.643    21130933.887    86527681.805  
  20615395.375   108334921.169    20615392.398    84416663.142  
  22987113.063   120798144.291    22987114.223    94128451.388  
  20395722.758   109026880.211    20395719.250    84798654.255  
  19748522.688   105381912.625                                  
  23525721.742   125935043.641    23525720.879    97949526.788  
  22311973.891   119144724.098    22311971.125    92668679.610  
  20839846.297   111361906.370    20839843.449    86614814.497  
  19241432.000   102784314.434    19241428.066    79943402.139  
 21  8 30  1 45  0.0000000  0 16G 1G 3G 4G16G21G22G25G26G31G32R 5R 6
                                R 7R 9R15R16
  23907251.672   125633407.478    23907254.715    97896215.650  
  21319398.305   112034225.376    21319398.625    87299401.563  
  23783775.867   124984550.360    23783775.965    97390587.400  
  23512162.938   123557046.659    23512162.188    96278402.523  
  24820534.000   130432765.796    24820534.488   101635926.026  
  21098012.727   110870787.798    21098007.949    86392854.552  
  24351453.922   127967809.723    24351454.602    99715191.347  
  21118634.672   110979181.163    21118635.766    86477323.539  
  20625211.820   108386507.584    20625208.879    84456860.335  
  23000745.703   120869782.124    23000746.387    94184273.071  
  20407378.891   109089189.177    20407375.512    84847116.775  
  19737031.031   105320592.016                                  
  23504483.750   125821351.127    23504481.777    97861099.315  
  22290011.391   119027443.807    22290008.578    92577461.685  
  20857335.578   111455363.558    20857332.512    86687503.422  
  19235093.898   102750454.466    19235089.168    79917066.632  
 21  8 30  1 45 30.0000000  0 16G 1G 3G 4G16G21G22G25G26G31G32R 5R 6
                                R 7R 9R15R16
  23922408.227   125713054.830    23922410.410    97958278.436  
  21310569.609   111987828.931    21310570.051    87263248.496  
  23767876.609   124900997.954    23767875.285    97325481.616  
  23489876.805   123439928.424    23489875.406    96187141.610  
  24833599.211   130501421.646    24833599.414   101689424.076  
  21097944.742   110870427.939    21097939.816    86392574.133  
  24369600.125   128063166.136    24369601.785    99789495.125  
  21106430.281   110915047.497    21106431.531    86427349.279  
  20635091.961   108438427.535    20635089.398    84497317.453  
  23014413.242   120941608.030    23014415.035    94240241.273  
  20419126.758   109151989.651    20419123.566    84895961.561  
  19725618.531   105259690.332                                  
  23483238.383   125707624.157    23483236.820    97772645.041  
  22268104.602   118910462.788    22268101.488    92486476.540  
  20874904.078   111549242.986    20874900.965    86760520.747  
  19228892.008   102717324.657    19228887.270    79891299.011  
 21  8 30  1 46  0.0000000  0 16G 1G 3G 4G16G21G22G25G26G31G32R 5R 6
                                R 7R 9R15R16
  23937606.180   125792921.808    23937608.746    98020512.370  
  21301840.188   111941956.089    21301840.121    87227503.432  
  23751982.688   124817472.926    23751981.906    97260397.215  
  23467612.500   123322930.699    23467611.895    96095974.629  
  24846669.031   130570102.572    24846669.359   101742941.657  
  21097980.172   110870615.905    21097975.449    86392720.613  
  24387807.477   128158844.620    24387809.625    99864049.752  
  21094320.258   110851408.893    21094321.645    86377760.785  
  20645035.352   108490678.813    20645032.566    84538032.736  
  23028116.852   121013621.800    23028118.848    94296355.868  
  20430966.953   109215281.076    20430963.594    84945188.218  
  19714284.516   105199210.725                                  
  23461988.281   125593864.254    23461985.969    97684165.197  
  22246254.234   118793784.112    22246251.098    92395726.563  
  20892550.352   111643541.042    20892547.676    86833863.665  
  19222826.570   102684925.425    19222822.000    79866099.631  
 21  8 30  1 46 30.0000000  0 16G 1G 3G 4G16G21G22G25G26G31G32R 5R 6
                                R 7R 9R15R16
  23952845.320   125873005.220    23952848.898    98082914.952  
  21293210.664   111896608.771    21293210.520    87192167.868  
  23736093.461   124733976.051    23736093.484    97195334.738  
  23445372.047   123206057.030    23445371.414    96004904.305  
  24859742.813   130638805.902    24859743.277   101796476.674  
  21098120.250   110871351.700    21098115.852    86393293.958  
  24406074.844   128254842.103    24406077.512    99938852.984  
  21082304.781   110788267.603    21082306.102    86328559.804  
  20655040.961   108543259.275    20655038.414    84579004.537  
  23041857.063   121085823.260    23041857.508    94352616.734  
  20442898.789   109279063.181    20442895.445    84994796.509  
  19703030.719   105139155.931                                  
  23440730.828   125480073.910    23440728.660    97595661.694  
  22224460.898   118677410.661    22224458.254    92305213.981  
  20910274.883   111738253.718    20910271.586    86907529.064  
  19216898.211   102653257.008    19216893.496    79841468.664  
 21  8 30  1 47  0.0000000  0 16G 1G 3G 4G16G21G22G25G26G31G32R 5R 6
                                R 7R 9R15R16
  23968125.430   125953301.781    23968128.715    98145483.675  
  21284681.852   111851788.844    21284681.973    87157243.259  
  23720209.617   124650507.953    23720209.070    97130294.673  
  23423156.391   123089310.462    23423155.047    95913933.039  
  24872820.156   130707529.183    24872820.152   101850027.135  
  21098364.297   110872635.339    21098360.004    86394294.196  
  24424402.234   128351155.782    24424404.238   100013902.577  
  21070384.422   110725625.789    21070385.840    86279748.022  
  20665109.234   108596167.050    20665106.582    84620231.388  
  23055631.875   121158212.180    23055632.484    94409023.671  
  20454922.758   109343335.422    20454919.051    85044786.019  
  19691856.172   105079529.396                                  
  23419468.828   125366254.990    23419465.199    97507135.917  
  22202725.547   118561344.959    22202722.805    92214940.744  
  20928075.859   111833377.297    20928072.734    86981514.063  
  19211107.016   102622319.248    19211101.988    79817405.965  
 21  8 30  1 47 30.0000000  0 16G 1G 3G 4G16G21G22G25G26G31G32R 5R 6
                                R 7R 9R15R16
  23983445.625   126033808.410    23983448.703    98208216.064  
  21276253.547   111807498.279    21276254.039    87122731.134  
  23704332.313   124567069.335    23704331.316    97065277.557  
  23400964.641   122972694.340    23400964.234    95823063.422  
  24885901.430   130776269.892    24885901.016   101903591.271  
  21098713.500   110874467.627    21098708.617    86395721.952  
  24442790.047   128447782.818    24442790.465   100089196.374  
  21058559.539   110663485.716    21058560.863    86231327.222  
  20675238.836   108649399.946    20675236.680    84661711.557  
  23069442.609   121230788.561    23069443.480    94465576.642  
  20467037.523   109408097.475    20467034.258    85095156.481  
  19680763.203   105020333.918                                  
  23398200.781   125252409.774    23398197.840    97418589.724  
  22181048.164   118445589.728    22181045.348    92124908.970  
  20945953.141   111928907.690    20945950.035    87055815.448  
  19205451.547   102592112.750    19205447.223    79793912.052  
 21  8 30  1 48  0.0000000  0 16G 1G 3G 4G16G21G22G25G26G31G32R 5R 6
                                R 7R 9R15R16
  23998804.711   126114521.803    23998807.430    98271109.525  
  21267926.227   111763738.888    21267926.938    87088632.925  
  23688460.492   124483660.991    23688460.164    97000284.075  
  23378798.664   122856211.700    23378798.363    95732297.818  
  24898985.078   130845025.722    24898985.070   101957167.205  
  21099166.063   110876848.385    21099161.887    86397577.088  
  24461236.242   128544720.396    24461237.387   100164732.164  
  21046830.430   110601849.617    21046831.988    86183299.104  
  20685430.297   108702956.389    20685427.980    84703443.867  
  23083288.797   121303552.140    23083289.777    94522275.505  
  20479244.023   109473348.497    20479240.488    85145907.265  
  19669751.359   104961572.836                                  
  23376928.445   125138540.465    23376926.234    97330024.736  
  22159430.031   118330147.648    22159426.719    92035120.770  
  20963905.680   112024841.319    20963902.645    87130430.502  
  19199933.883   102562637.574    19199929.305    79770986.924  
 21  8 30  1 48 30.0000000  0 16G 1G 3G 4G16G21G22G25G26G31G32R 5R 6
                                R 7R 9R15R16
  24014202.492   126195438.724    24014205.590    98334161.637  
  21259701.125   111720512.500    21259700.531    87054950.026  
  23672593.930   124400283.514    23672594.313    96935314.623  
  23356658.391   122739865.718    23356658.137    95641638.675  
  24912070.750   130913793.487                                  
  21099723.883   110879777.723    21099718.945    86399859.692  
  24479742.008   128641965.524    24479742.887   100240507.609  
  21035197.672   110540719.542    21035199.418    86135665.315  
  20695682.961   108756833.635    20695680.430    84745426.128  
  23097171.172   121376502.659    23097171.832    94579120.026  
  20491542.102   109539088.052    20491538.480    85197038.036  
  19658821.313   104903248.938                                  
  23355652.977   125024649.070    23355650.344    97241442.584  
  22137869.930   118215021.822    22137867.281    91945578.492  
  20981932.922   112121174.059    20981930.113    87205355.962  
  19194553.492   102533894.031    19194548.457    79748630.852  
 21  8 30  1 49  0.0000000  0 16G 1G 3G 4G16G21G22G25G26G31G32R 5R 6
                                R 7R 9R15R16
  24029638.828   126276555.876    24029642.070    98397369.782  
  21251576.758   111677820.880    21251577.004    87021683.835  
  23656733.547   124316937.581    23656732.711    96870369.737  
  23334545.422   122623659.662    23334544.281    95551088.594  
  24925159.281   130982570.768                                  
  21100385.719   110883255.677    21100380.996    86402569.779  
  24498304.906   128739515.191    24498306.461   100316520.369  
  21023661.922   110480097.613    21023663.359    86088427.479  
  20705995.922   108811030.101    20705993.414    84787657.148  
  23111088.883   121449639.910    23111089.645    94636110.071  
  20503930.898   109605315.635    20503927.801    85248548.380  
  19647973.938   104845365.490                                  
  23334373.367   124910737.614    23334370.883    97152844.880  
  22116370.313   118100214.621    22116367.277    91856284.083  
  21000034.359   112217902.127    21000031.504    87280588.898  
  19189309.406   102505881.608    19189304.535    79726843.436  
 21  8 30  1 49 30.0000000  0 16G 1G 3G 4G16G21G22G25G26G31G32R 5R 6
                                R 7R 9R15R16
  24045113.367   126357870.671    24045115.922    98460731.912  
  21243554.992   111635666.462    21243555.035    86988836.251  
  23640879.563   124233624.494    23640878.520    96805450.504  
  23312459.367   122507597.244    23312457.188    95460650.427  
  24938249.078   131051355.708                                  
  21101151.734   110887282.934    21101147.395    86405707.894  
  24516925.180   128837367.389    24516924.656   100392768.840  
  21012222.867   110419986.610    21012224.465    86041587.773  
  20716369.281   108865544.107    20716366.352    84830135.596  
  23125041.547   121522964.368    23125042.598    94693245.992  
  20516411.469   109672031.336    20516408.180    85300438.351  
  19637209.906   104787925.577                                  
  23313090.555   124796809.132    23313088.203    97064233.935  
  22094930.750   117985729.309    22094927.945    91767240.024  
  21018209.227   112315022.297    21018206.145    87356126.811  
  19184202.461   102478601.573    19184197.617    79705625.646  
 21  8 30  1 50  0.0000000  0 16G 1G 3G 4G16G21G22G25G26G31G32R 5R 6
                                R 7R 9R15R16
  24060623.055   126439378.524    24060626.602    98524244.474  
  21235635.328   111594049.656    21235635.770    86956407.566  
  23625032.164   124150343.705    23625032.145    96740556.412  
  23290401.328   122391680.124    23290399.191    95370325.489  
  24951339.266   131120144.208                                  
  21102022.734   110891858.548    21102018.230    86409273.308  
  24535602.805   128935517.674    24535602.125   100469249.633  
  21000881.828   110360387.217    21000882.938    85995146.711  
  20726803.094   108920372.549    20726799.906    84872859.046  
  23139030.383   121596474.436    23139031.242    94750526.538  
  20528982.570   109739233.203    20528979.648    85352706.471  
  19626528.922   104730931.648                                  
  23291804.766   124682864.479    23291803.031    96975610.401  
  22073551.227   117871567.490    22073548.832    91678447.557  
  21036456.805   112412529.392    21036453.426    87431965.648  
  19179232.141   102452052.159    19179227.426    79684976.124  
 21  8 30  1 50 30.0000000  0 16G 1G 3G 4G16G21G22G25G26G31G32R 5R 6
                                R 7R 9R15R16
  24076169.969   126521077.065    24076173.602    98587905.621  
  21227819.203   111552973.189    21227819.117    86924399.928  
  23609190.797   124067096.846    23609190.473    96675688.794  
  23268371.555   122275912.619    23268369.605    95280117.079  
  24964430.148   131188934.528                                  
  21102997.422   110896983.311    21102993.270    86413266.622  
  24554336.180   129033964.161    24554336.809   100545961.178  
  20989638.594   110301302.508    20989639.563    85949106.704  
  20737296.156   108975513.951    20737293.500    84915826.384  
  23153054.180   121670170.852    23153055.148    94807952.282  
  20541645.641   109806921.406    20541642.254    85405352.826  
  19615933.133   104674387.090                                  
  23270516.211   124568906.584    23270514.180    96886976.555  
  22052233.703   117757732.579    22052230.727    91589909.355  
  21054775.680   112510420.360    21054772.266    87508103.051  
  19174398.852   102426234.186    19174394.266    79664895.494  
 21  8 30  1 51  0.0000000  0 16G 1G 3G 4G16G21G22G25G26G31G32R 5R 6
                                R 7R 9R15R16
  24091752.000   126602962.847    24091755.492    98651712.733  
  21220105.352   111512438.585    21220105.727    86892814.526  
  23593356.016   123983884.416    23593354.668    96610847.956  
  23246370.523   122160297.743    23246369.039    95190027.644  
  24977520.000   131257724.134                                  
  21104077.102   110902656.825    21104072.988    86417687.551  
  24573125.070   129132703.724    24573127.566   100622901.051  
  20978493.125   110242734.311    20978494.211    85903469.168  
  20747848.031   109030966.243    20747846.055    84959035.958  
  23167113.391   121744053.191    23167114.563    94865522.935  
  20554398.961   109875095.369    20554395.707    85458377.004  
  19605421.273   104618294.808                                  
  23249226.086   124454937.788    23249223.773    96798334.184  
  22030978.547   117644226.926    22030974.922    91501627.275  
  21073165.539   112608691.309    21073162.410    87584536.025  
  19169702.805   102401147.527    19169698.063    79645383.657  
 21  8 30  1 51 30.0000000  0 16G 1G 3G 4G16G21G22G25G26G31G32R 5R 6
                                R 7R 9R15R16
  24107369.984   126685032.917    24107372.977    98715663.393  
  21212495.602   111472447.829    21212495.523    86861652.900  
  23577527.539   123900707.395    23577527.055    96546034.692  
  23224399.305   122044838.851    23224398.289    95100059.731  
  24990609.594   131326510.912                                  
  21105261.523   110908879.621    21105257.242    86422536.472  
  24591970.102   129231733.719    24591972.996   100700067.249  
  20967446.742   110184684.897    20967447.887    85858235.886  
  20758459.250   109086727.658    20758456.844    85002486.396  
  23181208.320   121818121.466    23181209.012    94923238.448  
  20567243.242   109943754.460    20567239.477    85511778.502  
  19594994.656   104562657.860                                  
  23227933.688   124340960.385    23227931.160    96709685.110  
  22009783.703   117531053.698    22009781.180    91413603.722  
  21091625.648   112707338.363    21091622.957    87661261.501  
  19165143.109   102376792.235    19165138.664    79626440.673  
 21  8 30  1 52  0.0000000  0 16G 1G 3G 4G16G21G22G25G26G31G32R 5R 6
                                R 7R 9R15R16
  24123021.766   126767283.805    24123024.730    98779754.933  
  21204989.367   111433002.382    21204989.145    86830916.198  
  23561706.578   123817566.307    23561705.711    96481249.419  
  23202458.289   121929538.948    23202457.195    95010215.716  
  25003697.664   131395291.664                                  
  21106550.406   110915651.455    21106545.879    86427813.222  
  24610870.445   129331051.040    24610873.316   100777457.439  
  20956499.148   110127156.088    20956500.246    85813408.271  
  20769128.703   109142795.950    20769126.547    85046175.986  
  23195338.078   121892375.275    23195338.973    94981098.543  
  20580178.133   110012898.280    20580174.449    85565557.002  
  19584654.438   104507479.250                                  
  23206640.438   124226976.261    23206638.074    96621030.830  
  21988653.039   117418215.160    21988649.969    91325840.460  
  21110156.320   112806357.789    21110153.285    87738276.598  
  19160720.648   102353168.300    19160716.266    79608066.501  
 21  8 30  1 52 30.0000000  0 16G 1G 3G 4G16G21G22G25G26G31G32R 5R 6
                                R 7R 9R15R16
  24138707.219   126849712.638    24138710.207    98843985.155  
  21197587.648   111394104.342    21197587.324    86800606.046  
  23545892.172   123734462.238    23545891.813    96416493.093  
  23180548.469   121814401.360    23180547.477    94920498.192  
  25016785.148   131464064.1591                                 
  21107943.445   110922972.548    21107938.922    86433517.976  
  24629823.734   129430653.078    24629829.934   100855069.494  
  20945651.617   110070150.261    20945652.668    85768988.168  
  20779856.711   109199169.315    20779854.055    85090103.276  
  23209503.523   121966814.756    23209504.883    95039103.314  
  20593203.359   110082525.801    20593199.883    85619711.705  
  19574400.438   104452762.368                                  
  23185347.141   124112988.400    23185344.820    96532373.606  
  21967585.344   117305714.431    21967582.383    91238339.945  
  21128754.922   112905745.754    21128752.348    87815578.337  
  19156435.695   102330275.356    19156430.652    79590260.901  
 21  8 30  1 53  0.0000000  0 16G 1G 3G 4G16G21G22G25G26G31G32R 5R 6
                                R 7R 9R15R16
  24154425.922   126932315.885    24154429.363    98908351.276  
  21190289.516   111355755.124    21190290.184    86770723.527  
  23530084.453   123651395.778    23530084.668    96351766.027  
  23158669.742   121699429.129    23158668.371    94830909.510  
  25029869.781   131532825.8561                                 
  21109440.969   110930842.374    21109436.563    86439650.302  
  24648830.844   129530536.930    24648834.922   100932901.038  
  20934903.680   110013669.147    20934904.543    85724976.922  
  20790641.250   109255845.687    20790639.188    85134266.679  
  23223705.016   122041439.403    23223705.488    95097252.374  
  20606319.055   110152636.429    20606315.258    85674242.168  
  19564232.961   104398510.028                                  
  23164052.383   123998998.688    23164050.742    96443714.998  
  21946581.070   117193553.683    21946578.172    91151103.873  
  21147422.859   113005498.414    21147419.637    87893163.740  
  19152286.438   102308113.090    19152281.734    79573023.604  
 21  8 30  1 53 30.0000000  0 16G 1G 3G 4G16G21G22G25G26G31G32R 5R 6
                                R 7R 9R15R16
  24170177.219   127015090.242    24170180.832    98972850.747  
  21183096.703   111317956.296    21183097.066    86741269.901  
  23514285.258   123568367.569    23514284.125    96287068.733  
  23136823.438   121584625.956    23136821.566    94741452.559  
  25042952.641   131601574.556                                  
  21111042.781   110939261.175    21111038.918    86446210.418  
  24667891.070   129630699.428    24667891.539   101010949.741  
  20924255.930   109957714.671    20924256.996    85681376.049  
  20801483.867   109312822.759    20801481.195    85178664.406  
  23237940.453   122116248.884    23237941.492    95155545.479  
  20619524.805   110223229.495    20619521.191    85729147.858  
  19554153.578   104344725.141                                  
  23142758.242   123885009.443    23142756.602    96355056.704  
  21925640.734   117081735.717    21925638.660    91064134.369  
  21166157.070   113105611.681    21166154.340    87971029.604  
  19148274.422   102286681.172    19148269.707    79556354.349  
 21  8 30  1 54  0.0000000  0 16G 1G 3G 4G16G21G22G25G26G31G32R 5R 6
                                R 7R 9R15R16
  24185960.438   127098032.516    24185963.961    99037481.059  
  21176008.883   111280709.524    21176009.367    86712246.443  
  23498493.133   123485378.442    23498493.520    96222401.899  
  23115010.023   121469994.475    23115007.977    94652129.422  
  25056031.250   131670306.8341                                 
  21112749.422   110948228.678    21112745.160    86453198.073  
  24687003.836   129731137.680    24687002.996   101089213.332  
  20913708.703   109902288.700    20913709.816    85638187.016  
  20812383.039   109370098.550    20812380.719    85223294.890  
  23252211.539   122191243.007    23252212.918    95213982.444  
  20632820.961   110294303.962    20632817.066    85784427.998  
  19544163.336   104291409.840                                  
  23121464.711   123771023.056    23121462.324    96266400.614  
  21904766.172   116970263.060    21904763.223    90977433.438  
  21184958.836   113206081.858    21184955.887    88049173.039  
  19144398.773   102265979.220    19144394.238    79540252.841  
 21  8 30  1 54 30.0000000  0 15G 1G 3G 4G16G22G25G26G31G32R 5R 6R 7
                                R 9R15R16
  24201775.320   127181139.751    24201779.395    99102239.895  
  21169026.531   111244016.744    21169026.777    86683654.680  
  23482708.555   123402429.474    23482707.770    96157766.348  
  23093229.484   121355538.200    23093226.766    94562942.778  
  21114560.156   110957744.980    21114556.293    86460613.383  
  24706168.938   129831849.211    24706167.949   101167689.881  
  20903262.172   109847393.602    20903263.629    85595411.632  
  20823339.195   109427671.378    20823336.195    85268156.842  
  23266517.328   122266421.871    23266518.438    95272563.366  
  20646206.867   110365859.561    20646203.531    85840082.339  
  19534260.641   104238568.560                                  
  23100171.859   123657042.095    23100169.758    96177748.776  
  21883955.242   116859138.675    21883952.984    90891003.443  
  21203826.930   113306905.257    21203823.570    88127591.250  
  19140659.922   102246007.524    19140655.508    79524719.313  
 21  8 30  1 55  0.0000000  0 15G 1G 3G 4G16G22G25G26G31G32R 5R 6R 7
                                R 9R15R16
  24217621.367   127264408.450    24217624.891    99167124.585  
  21162149.805   111207879.270    21162149.809    86655495.621  
  23466931.508   123319521.187    23466930.039    96093162.483  
  23071482.492   121241260.307    23071480.723    94473895.141  
  21116475.625   110967809.850    21116471.492    86468456.137  
  24725384.805   129932830.734    24725384.344   101246376.843  
  20892916.914   109793030.913    20892918.645    85553051.108  
  20834350.891   109485539.114    20834348.020    85313248.587  
  23280858.281   122341784.932    23280859.465    95331287.828  
  20659682.594   110437895.207    20659679.316    85896110.053  
  19524447.234   104186203.609                                  
  23078880.750   123543068.549    23078878.426    96089102.717  
  21863211.547   116748364.966    21863208.641    90804846.168  
  21222759.898   113408077.937    21222756.809    88206281.126  
  19137057.961   102226765.041    19137053.273    79509752.950  
 21  8 30  1 55 30.0000000  0 16G 1G 3G 4G16G21G22G25G26G31G32R 5R 6
                                R 7R 9R15R16
  24233497.313   127347835.458    24233500.328    99232132.598  
  21155378.906   111172298.744    21155379.164    86627770.543  
  23451162.656   123236654.349    23451161.375    96028590.962  
  23049770.656   121127163.840    23049769.184    94384988.906  
  25095249.508   131876397.7731                                 
  21118495.219   110978423.309    21118491.258    86476726.359  
  24744651.922   130034079.433    24744653.762   101325272.028  
  20882674.406   109739202.651    20882675.402    85511107.019  
  20845418.281   109543699.444    20845415.906    85358568.320  
  23295234.594   122417332.001    23295235.570    95390155.669  
  20673247.750   110510410.142    20673244.945    85952510.551  
  19514724.453   104134317.998                                  
  23057591.477   123429104.817    23057588.648    96000464.315  
  21842533.227   116637944.157    21842530.285    90718963.373  
  21241757.359   113509596.139    21241754.648    88285239.737  
  19133592.133   102208251.413    19133587.523    79495353.477  
 21  8 30  1 56  0.0000000  0 16G 1G 3G 4G16G21G22G25G26G31G32R 5R 6
                                R 7R 9R15R16
  24249402.367   127431417.483    24249404.824    99297261.409  
  21148714.547   111137276.703    21148714.973    86600480.636  
  23435401.438   123153829.824    23435400.727    95964052.403  
  23028094.289   121013252.038    23028092.586    94296226.510  
  25108309.695   131945040.8121                                 
  21120619.672   110989584.577    21120615.352    86485423.461  
  24763968.563   130135592.493    24763972.578   101404373.159  
  20872532.797   109685910.568    20872534.277    85469580.757  
  20856541.188   109602150.545    20856538.578    85404114.623  
  23309645.414   122493062.754    23309646.586    95449166.640  
  20686902.445   110583403.378    20686899.848    86009283.076  
  19505090.984   104082914.777                                  
  23036304.102   123315153.429    23036302.055    95911835.504  
  21821921.609   116527879.222    21821918.707    90633357.372  
  21260818.984   113611455.992    21260816.660    88364464.064  
  19130262.086   102190466.484    19130258.035    79481520.774  
 21  8 30  1 56 30.0000000  0 15G 1G 3G 4G16G22G25G26G31G32R 5R 6R 7
                                R 9R15R16
  24265336.469   127515151.488    24265339.555    99362508.679  
  21142156.906   111102814.903    21142156.938    86573627.299  
  23419648.656   123071048.705    23419648.813    95899547.634  
  23006453.305   120899528.542    23006451.461    94207610.862  
  21122847.313   111001293.956    21122843.293    86494547.645  
  24783334.859   130237367.259    24783341.223   101483678.214  
  20862493.977   109633156.835    20862495.473    85428473.957  
  20867719.484   109660890.625    20867716.258    85449886.122  
  23324091.617   122568977.235    23324092.879    95508320.770  
  20700646.813   110656874.534    20700643.832    86066427.296  
  19495549.281   104031996.835                                  
  23015020.297   123201216.922    23015017.750    95823218.245  
  21801376.781   116418172.797    21801374.207    90548030.187  
  21279944.492   113713653.727    21279941.520    88443951.169  
  19127069.398   102173410.179    19127065.293    79468254.760  
 21  8 30  1 57  0.0000000  0 15G 1G 3G 4G16G22G25G26G31G32R 5R 6R 7
                                R 9R15R16
  24281298.609   127599034.112    24281301.762    99427871.717  
  21135705.773   111068914.742    21135706.242    86547211.584  
  23403904.508   122988311.512    23403903.930    95835077.156  
  22984849.203   120785996.421    22984847.000    94119144.331  
  21125179.617   111013551.160    21125175.727    86504098.726  
  24802751.156   130339400.487    24802758.238   101563184.725  
  20852558.391   109580943.024    20852559.406    85387787.892  
  20878951.359   109719917.248    20878948.301    85495880.878  
  23338572.758   122645074.978    23338573.473    95567617.697  
  20714480.742   110730822.560    20714477.348    86123942.421  
  19486098.820   103981567.285                                  
  22993739.102   123087297.574    22993736.531    95734614.330  
  21780899.992   116308827.269    21780897.016    90462983.726  
  21299131.875   113816185.548    21299128.625    88523698.134  
  19124013.070   102157081.377    19124008.137    79455554.604  
 21  8 30  1 57 30.0000000  0 15G 1G 3G 4G16G22G25G26G31G32R 5R 6R 7
                                R 9R15R16
  24297288.758   127683062.223    24297292.766    99493348.133  
  21129361.758   111035577.705    21129362.324    86521234.706  
  23388168.039   122905619.250    23388168.332    95770641.669  
  22963281.383   120672658.773    22963279.781    94030829.345  
  21127616.250   111026356.020    21127612.156    86514076.548  
  24822217.414   130441689.449    24822223.234   101642890.451  
  20842725.586   109529271.072    20842726.707    85347524.061  
  20890237.906   109779228.803    20890235.102    85542097.677  
  23353088.594   122721355.818    23353089.594    95627057.293  
  20728402.820   110805246.488    20728400.082    86181827.675  
  19476741.008   103931628.876                                  
  22972461.641   122973398.046    22972458.816    95646025.798  
  21760491.133   116199845.214    21760487.934    90378219.964  
  21318381.250   113919047.978    21318377.918    88603702.257  
  19121091.969   102141479.697    19121087.734    79443419.984  
 21  8 30  1 58  0.0000000  0 15G 1G 3G 4G16G22G25G26G31G32R 5R 6R 7
                                R 9R15R16
  24313305.164   127767232.595    24313309.531    99558935.384  
  21123125.281   111002805.403    21123125.906    86495697.844  
  23372440.969   122822972.713    23372441.059    95706241.820  
  22941751.383   120559518.771    22941750.039    93942668.366  
  21130157.453   111039708.144    21130153.461    86524480.805  
  24841725.805   130544231.3571   24841732.969   101722793.2401 
  20832995.766   109478142.757    20832997.234    85307683.834  
  20901578.258   109838823.142    20901575.777    85588534.814  
  23367638.844   122797819.487    23367639.852    95686639.358  
  20742414.789   110880145.662    20742411.633    86240082.582  
  19467474.859   103882184.697                                  
  22951188.336   122859520.971    22951186.195    95557454.784  
  21740151.000   116091229.241    21740147.664    90293740.941  
  21337691.320   114022236.823    21337688.211    88683960.259  
  19118307.445   102126604.765    19118303.102    79431850.607  
 21  8 30  1 58 30.0000000  0 14G 1G 3G 4G16G22G26G31G32R 5R 6R 7R 9
                                R15R16
  24329349.273   127851542.291    24329351.992    99624631.225  
  21116997.094   110970599.583    21116997.203    86470602.409  
  23356723.211   122740373.193    23356722.508    95641878.555  
  22920259.664   120446579.973    22920257.715    93854664.160  
  21132802.445   111053607.563    21132798.277    86535311.527  
  20823370.695   109427560.158    20823371.543    85268268.850  
  20912972.742   109898698.635    20912969.980    85635191.037  
  23382223.945   122874466.040    23382224.734    95746363.927  
  20756514.516   110955519.372    20756511.730    86298706.551  
  19458302.070   103833238.048                                  
  22929919.789   122745668.677    22929917.523    95468903.040  
  21719879.508   115982982.164    21719876.387    90209548.844  
  21357062.055   114125748.770    21357059.191    88764469.552  
  19115659.328   102112455.989    19115654.332    79420846.007  
 21  8 30  1 59  0.0000000  0 14G 1G 3G 4G16G22G26G31G32R 5R 6R 7R 9
                                R15R16
  24345418.555   127935987.673    24345421.359    99690432.775  
  21110976.547   110938961.179    21110976.520    86445949.110  
  23341013.742   122657820.970    23341012.918    95577552.166  
  22898807.328   120333845.262    22898805.000    93766818.997  
  21135551.547   111068053.506    21135547.195    86546568.106  
  20813848.492   109377524.584    20813849.957    85229280.121  
  20924419.180   109958852.797    20924416.773    85682064.397  
  23396844.102   122951294.678    23396845.004    95806230.399  
  20770703.523   111031366.036    20770700.090    86357698.377  
  19449222.609   103784791.070                                  
  22908656.109   122631843.410    22908654.023    95380372.338  
  21699677.758   115875105.862    21699674.316    90125645.136  
  21376492.625   114229579.521    21376489.852    88845226.768  
  19113145.375   102099032.352    19113141.340    79410405.428  
 21  8 30  1 59 30.0000000  0 15G 1G 3G 4G16G22G25G26G31G32R 5R 6R 7
                                R 9R15R16
  24361513.305   128020564.929    24361516.004    99756337.080  
  21105063.961   110907891.106    21105064.211    86421738.677  
  23325313.297   122575316.308    23325312.684    95513262.865  
  22877393.961   120221317.365    22877391.688    93679134.966  
  21138403.938   111083045.146    21138399.859    86558249.916  
  24900554.414   130853226.4021   24900550.926   101963571.4691 
  20804431.633   109328037.187    20804432.793    85190718.512  
  20935918.438   110019283.123    20935916.371    85729152.962  
  23411499.289   123028304.627    23411499.168    95866238.127  
  20784980.453   111107684.259    20784976.785    86417056.975  
  19440237.828   103736846.614                                  
  22887398.125   122518047.166    22887395.336    95291864.201  
  21679546.156   115767602.596    21679542.777    90042031.560  
  21395981.883   114333724.795    21395979.027    88926228.637  
  19110768.383   102086332.667    19110763.926    79400527.894  
 21  8 30  2  0  0.0000000  0 15G 1G 3G 4G16G22G25G26G31G32R 5R 6R 7
                                R 9R15R16
  24377632.641   128105271.421    24377635.590    99822342.069  
  21099259.828   110877391.307    21099260.266    86397972.600  
  23309622.367   122492860.683    23309622.191    95449011.799  
  22856020.586   120108999.875    22856018.668    93591614.893  
  21141360.742   111098582.613    21141356.418    86570357.030  
  24920253.797   130956750.421    24920254.211   102044239.438  
  20795119.859   109279100.163    20795120.367    85152585.817  
  20947470.719   110079988.151    20947468.258    85776455.580  
  23426187.750   123105496.167    23426188.512    95926387.367  
  20799345.633   111184473.636    20799341.898    86476782.035  
  19431347.969   103689407.917                                  
  22866145.797   122404282.786    22866143.855    95203380.887  
  21659483.984   115660475.037    21659481.305    89958710.164  
  21415529.875   114438181.422    21415526.762    89007472.662  
  19108526.766   102074356.799    19108522.148    79391213.345  
 21  8 30  2  0 30.0000000  0 15G 1G 3G 4G16G22G25G26G31G32R 5R 6R 7
                                R 9R15R16
  24393775.523   128190104.492    24393778.898    99888445.710  
  21093565.117   110847463.727    21093565.074    86374652.412  
  23293941.805   122410455.527    23293940.602    95384800.020  
  22834687.633   119996896.598    22834686.348    93504261.772  
  21144421.219   111114666.153    21144416.934    86582889.662  
  24939998.734   131060513.294    24940002.117   102125093.602  
  20785911.594   109230715.822    20785913.359    85114883.736  
  20959074.398   110140966.286    20959072.160    85823971.001  
  23440911.742   123182869.533    23440912.777    95986678.242  
  20813798.555   111261733.881    20813795.395    86536873.318  
  19422553.781   103642478.097                                  
  22844899.719   122290553.579    22844897.891    95114924.923  
  21639493.336   115553726.392    21639490.773    89875683.497  
  21435134.555   114542946.095    21435132.164    89088956.310  
  19106419.844   102063104.369    19106415.527    79382461.458  
 21  8 30  2  1  0.0000000  0 15G 1G 3G 4G16G22G25G26G31G32R 5R 6R 7
                                R 9R15R16
  24409941.523   128275060.887    24409945.441    99954645.447  
  21087978.883   110818109.688    21087979.145    86351779.145  
  23278270.367   122328101.718    23278269.078    95320628.252  
  22813396.336   119885010.801    22813395.301    93417078.101  
  21147586.219   111131295.037    21147581.398    86595847.235  
  24959788.297   131164512.104    24959799.273   102206131.647  
  20776810.805   109182885.758    20776811.418    85077613.585  
  20970729.305   110202215.827    20970727.348    85871697.904  
  23455669.758   123260424.319    23455670.652    96047110.527  
  20828339.398   111339463.648    20828336.391    86597329.785  
  19413854.773   103596060.159                                  
  22823661.680   122176862.064    22823658.508    95026498.238  
  21619574.344   115447359.090    21619571.625    89792953.416  
  21454797.617   114648014.900    21454794.254    89170676.478  
  19104448.836   102052574.900    19104444.430    79374271.882  
 21  8 30  2  1 30.0000000  0 15G 1G 3G 4G16G22G25G26G31G32R 5R 6R 7
                                R 9R15R16
  24426131.383   128360137.045    24426134.816   100020938.493  
  21082502.500   110789330.232    21082503.016    86329353.596  
  23262609.516   122245799.850    23262608.629    95256496.978  
  22792147.523   119773345.192    22792146.059    93330065.999  
  21150854.016   111148468.745    21150849.410    86609229.340  
  24979622.500   131268743.759    24979637.883   102287351.170  
  20767814.430   109135611.322    20767815.117    85040776.393  
  20982436.617   110263734.143    20982433.723    85919634.251  
  23470462.094   123338160.067    23470463.926    96107683.816  
  20842967.828   111417661.982    20842965.113    86658150.720  
  19405252.922   103550156.968                                  
  22802430.281   122063210.465    22802427.305    94938102.560  
  21599727.078   115341374.993    21599724.242    89710521.396  
  21474515.391   114753384.033    21474512.449    89252630.239  
  19102613.352   102042766.978    19102608.445    79366643.509  
 21  8 30  2  2  0.0000000  0 14G 1G 3G 4G16G22G26G31G32R 5R 6R 7R 9
                                R15R16
  24442343.672   128445329.936    24442346.848   100087322.542  
  21077135.703   110761126.767    21077135.730    86307376.876  
  23246957.242   122163550.900    23246956.828    95192406.896  
  22770940.844   119661903.348    22770939.238    93243228.235  
  21154225.438   111166186.917    21154221.004    86623035.708  
  20758924.250   109088894.220    20758925.191    85004373.463  
  20994193.563   110325519.368    20994191.133    85967778.591  
  23485289.727   123416076.472    23485290.094    96168397.882  
  20857684.047   111496327.664    20857681.238    86719335.115  
  19396747.203   103504771.381                                  
  22781207.297   121949601.289    22781204.793    94849739.931  
  21579951.898   115235777.016    21579948.859    89628389.694  
  21494289.508   114859049.940    21494286.293    89334814.823  
  19100911.469   102033680.005    19100907.340    79359575.869  
 21  8 30  2  2 30.0000000  0 14G 1G 3G 4G16G22G26G31G32R 5R 6R 7R 9
                                R15R16
  24458577.266   128530636.299    24458581.031   100153795.000  
  21071878.234   110733500.560    21071878.523    86285849.965  
  23231315.633   122081355.661    23231315.262    95128358.710  
  22749777.148   119550688.515    22749775.695    93156567.380  
  21157700.234   111184448.955    21157696.309    86637265.883  
  20750140.805   109042735.937    20750141.590    84968406.010  
  21006001.344   110387569.770    21005998.832    86016129.555  
  23500151.031   123494173.207    23500152.137    96229252.466  
  20872487.367   111575459.605    20872484.461    86780882.178  
  19388340.500   103459906.031                                  
  22759993.156   121836037.256    22759990.113    94761412.363  
  21560249.484   115130567.323    21560246.012    89546560.007  
  21514118.422   114965008.577    21514115.105    89417227.088  
  19099345.398   102025312.538    19099340.957    79353067.848  
 21  8 30  2  3  0.0000000  0 14G 1G 3G 4G16G22G26G31G32R 5R 6R 7R 9
                                R15R16
  24474831.039   128616053.194    24474834.637   100220353.539  
  21066731.797   110706453.143    21066731.793    86264774.084  
  23215685.414   121999215.446    23215684.148    95064353.353  
  22728657.047   119439704.115    22728656.055    93070086.078  
  21161279.125   111203254.915    21161274.781    86651919.880  
  20741463.398   108997138.428    20741464.609    84932875.490  
  21017859.523   110449883.347    21017856.496    86064685.592  
  23515046.602   123572450.252    23515047.594    96290247.560  
  20887377.789   111655057.034    20887374.781    86842791.254  
  19380030.352   103415563.877                                  
  22738787.109   121722521.290    22738784.203    94673122.240  
  21540620.086   115025748.659    21540616.879    89465034.440  
  21534001.133   115071256.578    21533997.953    89499864.418  
  19097913.531   102017664.675    19097909.254    79347119.519  
 21  8 30  2  3 30.0000000  0 14G 1G 3G 4G16G22G26G31G32R 5R 6R 7R 9
                                R15R16
  24491105.586   128701577.007    24491109.953   100286995.398  
  21061695.234   110679985.448    21061695.184    86244149.916  
  23200065.016   121917130.753    23200063.992    95000391.259  
  22707581.961   119328952.874    22707580.430    92983786.455  
  21164961.164   111222603.507    21164956.852    86666996.709  
  20732893.836   108952102.812    20732894.445    84897782.817  
  21029767.258   110512458.000    21029764.223    86113445.056  
  23529976.844   123650906.849    23529977.855    96351382.557  
  20902355.422   111735118.400    20902351.813    86905061.172  
  19371819.000   103371748.193                                  
  22717590.109   121609055.489    22717588.473    94584871.125  
  21521064.055   114921323.118    21521061.359    89383814.641  
  21553936.805   115177789.905    21553934.203    89582723.661  
  19096616.031   102010734.618    19096611.828    79341729.483  
 21  8 30  2  4  0.0000000  0 14G 1G 3G 4G16G22G26G31G32R 5R 6R 7R 9
                                R15R16
  24507400.188   128787204.352    24507403.242   100353718.003  
  21056768.781   110654098.407    21056769.168    86223978.203  
  23184455.648   121835102.272    23184454.816    94936473.004  
  22686551.641   119218437.708    22686550.086    92897670.794  
  21168746.391   111242494.113    21168741.848    86682495.871  
  20724430.805   108907630.350    20724431.723    84863128.973  
  21041723.836   110575291.480    21041720.977    86162406.206  
  23544940.508   123729542.488    23544941.633    96412657.095  
  20917418.898   111815642.546    20917415.375    86967691.029  
  19363707.008   103328461.178                                  
  22696403.391   121495642.359    22696401.254    94496660.941  
  21501583.148   114817292.618    21501579.809    89302902.084  
  21573926.266   115284604.466    21573923.211    89665801.660  
  19095452.773   102004521.094    19095448.496    79336896.754  
 21  8 30  2  4 30.0000000  0 14G 1G 3G 4G16G22G26G31G32R 5R 6R 7R 9
                                R15R16
  24523713.891   128872932.025    24523716.516   100420518.723  
  21051953.414   110628793.237    21051953.555    86204259.903  
  23168856.953   121753130.896    23168855.887    94872599.209  
  22665566.867   119108162.084    22665565.094    92811741.788  
  21172634.547   111262926.125    21172629.910    86698416.906  
  20716075.578   108863722.526    20716076.469    84828915.115  
  21053729.305   110638381.709    21053726.434    86211567.416  
  23559938.578   123808356.825    23559938.879    96474070.846  
  20932568.188   111896628.265    20932565.414    87030679.897  
  19355694.219   103285705.141                                  
  22675227.617   121382284.650    22675225.531    94408493.835  
  21482175.695   114713659.581    21482172.395    89222298.679  
  21593966.586   115391696.800    21593964.391    89749095.675  
  19094423.672   101999023.236    19094419.395    79332620.649  
 21  8 30  2  5  0.0000000  0 14G 1G 3G 4G16G22G26G31G32R 5R 6R 7R 9
                                R15R16
  24540045.883   128958757.051    24540049.020   100487395.330  
  21047248.734   110604071.386    21047248.887    86184996.139  
  23153269.156   121671217.798    23153268.602    94808770.842  
  22644628.508   118998129.367    22644626.320    92726002.054  
  21176625.398   111283899.250    21176620.906    86714759.621  
  20707827.820   108820381.116    20707828.875    84795142.598  
  21065783.594   110701727.195    21065780.902    86260927.536  
  23574969.977   123887349.792    23574970.813    96535623.803  
  20947804.898   111978074.247    20947801.570    87094026.747  
  19347782.047   103243483.440                                  
  22654062.594   121268985.058    22654059.926    94320371.965  
  21462843.555   114610426.841    21462840.324    89142006.590  
  21614059.383   115499063.316    21614056.441    89832602.973  
  19093528.281   101994239.982    19093523.727    79328900.358  
 21  8 30  2  5 30.0000000  0 14G 1G 3G 4G16G22G26G31G32R 5R 6R 7R 9
                                R15R16
  24556395.445   129044676.274    24556398.773   100554345.336  
  21042655.578   110579933.993    21042656.004    86166187.786  
  23137692.891   121589363.987    23137692.797    94744988.667  
  22623736.703   118888342.861    22623734.715    92640454.178  
  21180719.359   111305412.889    21180715.008    86731523.496  
  20699688.617   108777607.511    20699689.348    84761812.545  
  21077885.766   110765325.602    21077883.297    86310484.739  
  23590035.789   123966521.000    23590036.496    96597315.659  
  20963127.273   112059979.734    20963123.809    87157731.002  
  19339970.492   103201798.620                                  
  22632908.406   121155746.525    22632906.547    94232297.544  
  21443586.492   114507596.383    21443583.570    89062027.403  
  21634201.680   115606700.217    21634199.523    89916320.550  
  19092766.813   101990170.415    19092762.090    79325735.135  
 21  8 30  2  6  0.0000000  0 14G 1G 3G 4G16G22G26G31G32R 5R 6R 7R 9
                                R15R16
  24572763.539   129130686.615    24572765.902   100621366.292  
  21038173.664   110556382.319    21038174.281    86147835.837  
  23122127.984   121507570.517    23122126.730    94681253.497  
  22602892.570   118778805.945    22602890.590    92555100.763  
  21184915.984   111327466.486    21184911.754    86748708.103  
  20691657.039   108735403.251    20691658.113    84728926.126  
  21090035.883   110829175.280    21090033.680    86360237.748  
  23605135.227   124045870.188    23605136.129    96659146.169  
  20978534.719   112142343.500    20978531.547    87221791.676  
  19332259.992   103160654.134                                  
  22611766.555   121042571.721    22611763.473    94144272.698  
  21424405.539   114405170.729    21424402.578    88982363.025  
  21654395.203   115714604.127    21654392.168    90000245.820  
  19092138.141   101986813.659    19092133.766    79323124.337  
 21  8 30  2  6 30.0000000  0 14G 1G 3G 4G16G22G26G31G32R 5R 6R 7R 9
                                R15R16
  24589147.164   129216784.925    24589150.078   100688455.822  
  21033803.969   110533417.517    21033804.105    86129941.211  
  23106574.898   121425838.393    23106573.789    94617566.146  
  22582095.953   118669521.648    22582094.332    92469944.190  
  21189215.250   111350059.224    21189211.031    86766312.839  
  20683734.539   108693769.857    20683735.410    84696484.542  
  21102233.508   110893274.420    21102231.316    86410185.135  
  23620268.664   124125397.153    23620268.934    96721115.164  
  20994028.320   112225164.459    20994025.121    87286207.963  
  19324651.055   103120052.386                                  
  22590636.477   120929463.183    22590634.359    94056299.424  
  21405301.016   114303152.199    21405297.633    88903015.308  
  21674637.258   115822771.180    21674633.715    90084375.760  
  19091643.125   101984168.198    19091638.523    79321066.759  
 21  8 30  2  7  0.0000000  0 14G 1G 3G 4G16G22G26G31G32R 5R 6R 7R 9
                                R15R16
  24605546.922   129302967.991    24605550.063   100755611.434  
  21029545.672   110511040.709    21029546.035    86112504.745  
  23091033.438   121344168.627    23091033.332    94553927.393  
  22561348.945   118560492.908    22561346.707    92384986.797  
  21193616.531   111373190.500    21193612.719    86784337.205  
  20675920.836   108652708.620    20675921.855    84664488.801  
  21114478.531   110957620.918    21114475.836    86460325.275  
  23635435.586   124205101.444    23635436.520    96783222.408  
  21009606.852   112308441.372    21009603.445    87350978.868  
  19317144.313   103079996.096                                  
  22569520.297   120816423.914    22569517.430    93968380.045  
  21386272.617   114201543.194    21386269.652    88823986.124  
  21694927.742   115931197.845    21694924.457    90168707.606  
  19091280.758   101982233.290    19091276.227    79319561.845  
 21  8 30  2  7 30.0000000  0 14G 1G 3G 4G16G22G26G31G32R 5R 6R 7R 9
                                R15R16
  24621962.828   129389232.759    24621966.277   100822830.642  
  21025399.563   110489252.941    21025399.430    86095527.265  
  23075504.367   121262562.165    23075503.500    94490337.971  
  22540650.414   118451723.584    22540648.559    92300231.513  
  21198120.953   111396859.933    21198116.730    86802780.921  
  20668216.117   108612220.969    20668217.324    84632940.000  
  21126769.820   111022212.923    21126767.531    86510656.710  
  23650636.781   124284982.740    23650637.438    96845467.554  
  21025270.492   112392172.679    21025267.566    87416103.229  
  19309741.086   103040488.298                                  
  22548416.734   120703456.830    22548413.801    93880516.761  
  21367321.961   114100345.889    21367318.430    88745277.145  
  21715266.023   116039880.504    21715262.914    90253238.534  
  19091051.383   101981007.585    19091046.867    79318608.511  
 21  8 30  2  8  0.0000000  0 14G 1G 3G 4G16G22G26G31G32R 5R 6R 7R 9
                                R15R16
  24638392.859   129475576.014    24638397.172   100890111.031  
  21021366.078   110468055.342    21021366.105    86079009.675  
  23059987.617   121181020.065    23059986.012    94426798.704  
  22520001.859   118343216.434    22520000.445    92215680.565  
  21202727.500   111421067.123    21202723.199    86821643.661  
  20660621.297   108572308.288    20660622.262    84601839.236  
  21139107.445   111087048.726    21139105.543    86561178.110  
  23665871.359   124365040.748    23665871.809    96907850.372  
  21041019.672   112476357.492    21041016.395    87481580.293  
  19302440.359   103001531.269                                  
  22527327.680   120590564.499    22527324.625    93792711.715  
  21348448.305   113999562.656    21348444.863    88666890.234  
  21735651.867   116148815.741    21735648.488    90337965.933  
  19090954.867   101980489.443    19090949.938    79318205.524  
 21  8 30  2  8 30.0000000  0 14G 1G 3G 4G16G22G26G31G32R 5R 6R 7R 9
                                R15R16
  24654838.172   129561994.551    24654841.340   100957450.081  
  21017444.438   110447448.891    21017444.938    86062952.721  
  23044483.039   121099543.332    23044482.320    94363310.349  
  22499404.477   118234975.080    22499402.332    92131336.686  
  21207435.953   111445810.415    21207431.914    86840924.143  
  20653135.672   108532971.831    20653136.652    84571187.470  
  21151491.383   111152126.127    21151488.852    86611887.782  
  23681139.203   124445275.051    23681139.910    96970370.600  
  21056852.102   112560994.431    21056849.465    87547409.011  
  19295244.219   102963128.195                                  
  22506252.367   120477749.525    22506249.816    93704966.748  
  21329652.906   113899195.692    21329649.020    88588827.085  
  21756083.922   116257999.617    21756080.770    90422886.685  
  19090989.750   101980678.190    19090985.125    79318352.333  
 21  8 30  2  9  0.0000000  0 14G 1G 3G 4G16G22G26G31G32R 5R 6R 7R 9
                                R15R16
  24671297.102   129648485.274    24671299.762   101024845.415  
  21013635.945   110427434.606    21013636.301    86047357.182  
  23028990.859   121018132.898    23028990.359    94299873.662  
  22478858.039   118127002.577    22478855.391    92047202.336  
  21212246.289   111471089.411    21212242.258    86860622.052  
  20645760.148   108494212.916    20645761.055    84540985.727  
  21163921.063   111217443.416    21163918.289    86662784.390  
  23696441.250   124525685.271    23696441.164    97033027.909  
  21072769.914   112646082.074    21072767.012    87613588.262  
  19288151.211   102925281.427                                  
  22485192.961   120365014.950    22485189.691    93617284.339  
  21310935.383   113799247.509    21310931.949    88511089.638  
  21776561.867   116367428.592    21776558.758    90507998.090  
  19091156.836   101981571.978    19091152.352    79319047.504  
 21  8 30  2  9 30.0000000  0 14G 1G 3G 4G16G22G26G31G32R 5R 6R 7R 9
                                R15R16
  24687768.883   129735045.029    24687771.797   101092294.506  
  21009939.977   110408013.439    21009940.340    86032223.807  
  23013512.078   120936789.788    23013512.078    94236489.474  
  22458363.398   118019301.805    22458360.797    91963279.691  
  21217158.758   111496903.479    21217154.223    86880736.915  
  20638494.391   108456032.763    20638495.676    84511234.972  
  21176395.492   111282998.469    21176393.285    86713866.253  
  23711775.242   124606270.999    23711775.953    97095821.985  
  21088771.242   112731619.200    21088768.234    87680117.103  
  19281163.555   102887994.152                                  
  22464148.992   120252363.622    22464146.297    93529666.680  
  21292297.359   113699719.848    21292293.652    88433679.271  
  21797084.984   116477098.994    21797082.539    90593297.311  
  19091455.602   101983169.599    19091451.594    79320290.115  
 21  8 30  2 10  0.0000000  0 14G 1G 3G 4G16G22G26G31G32R 5R 6R 7R 9
                                R15R16
  24704253.539   129821670.688    24704256.539   101159794.956  
  21006357.477   110389186.414    21006357.582    86017553.414  
  22998045.602   120855515.163    22998045.105    94173158.601  
  22437920.805   117911876.399    22437918.672    91879571.630  
  21222172.727   111523251.710    21222168.199    86901267.991  
  20631339.703   108418432.678    20631340.578    84481936.233  
  21188915.172   111348789.416    21188912.910    86765131.933  
  23727144.570   124687031.963    23727145.035    97158752.541  
  21104856.656   112817604.334    21104853.387    87746994.416  
  19274281.500   102851268.867                                  
  22443120.203   120139798.148    22443118.117    93442115.800  
  21273737.797   113600615.251    21273734.555    88356597.955  
  21817652.539   116587007.431    21817650.441    90678781.641  
  19091886.547   101985470.167    19091882.121    79322079.449  
 21  8 30  2 10 30.0000000  0 14G 1G 3G 4G16G22G26G31G32R 5R 6R 7R 9
                                R15R16
  24720750.172   129908359.174    24720753.195   101227344.365  
  21002887.961   110370954.603    21002888.313    86003346.816  
  22982593.078   120774310.070    22982591.652    94109881.900  
  22417531.320   117804729.653    22417529.168    91796080.722  
  21227287.820   111550133.271    21227283.383    86922214.666  
  20624295.172   108381413.970    20624296.324    84453090.515  
  21201479.617   111414814.470    21201476.969    86816580.037  
  23742546.055   124767967.775    23742546.898    97221819.435  
  21121025.492   112904036.463    21121022.328    87814219.404  
  19267504.586   102815108.205                                  
  22422109.148   120027321.623    22422106.688    93354634.125  
  21255258.750   113501935.658    21255254.766    88279847.217  
  21838265.008   116697150.195    21838262.406    90764448.225  
  19092448.406   101988471.944    19092443.895    79324414.177  
