     2.11           OBSERVATION DATA    M (MIXED)           RINEX VERSION / TYPE
CONVBIN 2.4.3                           20210831 165843 UTC PGM / RUN BY / DATE 
log: ngs/momf2420.21o                                       COMMENT             
format: RINEX                                               COMMENT             
MOMF                                                        MARKER NAME         
MOMF                                                        MARKER NUMBER       
                                                            OBSERVER / AGENCY   
4920K61920          TRIMBLE NETR5       Nav 48.01 / Boot 48.REC # / TYPE / VERS 
1440904874          TRM57971.00     NONE                    ANT # / TYPE        
  -261330.9690 -5070389.4580  3848246.6620                  APPROX POSITION XYZ 
        0.0000        0.0000        0.0000                  ANTENNA: DELTA H/E/N
     1     1                                                WAVELENGTH FACT L1/2
     4    C1    L1    P2    L2                              # / TYPES OF OBSERV 
    30.000                                                  INTERVAL            
  2021     8    30     0     0    0.0000000     GPS         TIME OF FIRST OBS   
  2021     8    30    23    59   30.0000000     GPS         TIME OF LAST OBS    
                                                            END OF HEADER       
 21  8 30  0  0  0.0000000  0 18G 1G 3G10G12G21G22G23G25G26G31G32R 4
                                R 5R14R15R16R20R21
  22658741.406   119072440.635    22658748.762    92783804.040  
  24904726.852   130875208.934    24904733.824   101980730.889  
  21814384.672   114635413.253    21814391.355    89326336.867  
  24007513.188   126160306.727    24007517.734    98306807.463  
  23043471.109   121094373.397    23043474.555    94359180.310  
  23271651.297   122293364.743    23271652.879    95293557.648  
  24804365.438   130347824.586    24804375.508   101569763.103  
  22510422.242   118293142.504    22510429.207    92176506.561  
  24734675.156   129981772.0441   24734685.656   101284408.2371 
  20404109.383   107224408.214    20404112.688    83551524.370  
  20970035.297   110198348.779    20970042.016    85868906.526  
  21114207.445   113065671.581    21114210.832    87939977.051  
  19941856.766   106600690.619    19941859.777    82911718.020  
  21090910.938   112426479.655    21090914.875    87442852.567  
  19714332.914   105347228.970    19714336.430    81936978.813  
  22835274.063   121982874.710    22835276.297    94874869.300  
  22880490.719   122352394.014    22880498.207    95162887.012  
  22885800.367   122466610.917    22885804.648    95251783.118  
 21  8 30  0  0 30.0000000  0 18G 1G 3G10G12G21G22G23G25G26G31G32R 4
                                R 5R14R15R16R20R21
  22654033.727   119047701.447    22654040.965    92764526.741  
  24884922.563   130771137.632    24884929.484   101899636.359  
  21828669.773   114710480.622    21828676.500    89384830.890  
  24013733.508   126192993.914    24013737.500    98332277.989  
  23044890.523   121101833.866    23044894.047    94364993.630  
  23255077.305   122206270.393    23255079.262    95225691.948  
  24824188.523   130451994.0291   24824197.313   101650934.0791 
  22508132.438   118281109.887    22508139.480    92167130.494  
  24714560.500   129876068.6071   24714570.754   101202041.9811 
  20395097.336   107177049.307    20395100.703    83514621.344  
  20975330.539   110226174.448    20975336.750    85890588.852  
  21123857.977   113117349.673    21123861.504    87980171.109  
  19936237.398   106570655.948    19936240.957    82888357.730  
  21104790.227   112500462.528    21104794.305    87500394.795  
  19705319.688   105299066.799    19705323.738    81899519.366  
  22810058.383   121848186.381    22810060.617    94770111.832  
  22899163.922   122452249.014    22899171.492    95240551.946  
  22887168.156   122473930.413    22887172.039    95257476.057  
 21  8 30  0  1  0.0000000  0 18G 1G 3G10G12G21G22G23G25G26G31G32R 4
                                R 5R14R15R16R20R21
  22649439.789   119023560.491    22649446.988    92745715.605  
  24865120.727   130667081.565    24865128.590   101818553.717  
  21843025.656   114785921.202    21843032.301    89443615.720  
  24020061.844   126226249.733    24020066.609    98358191.626  
  23046396.922   121109748.824    23046400.156    94371161.114  
  23238537.656   122119353.521    23238539.266    95157964.548  
  24844035.125   130556289.792    24844040.000   101732203.226  
  22505955.828   118269672.783    22505963.055    92158218.504  
  24694430.266   129770275.870    24694438.840   101119606.187  
  20386187.953   107130227.436    20386191.039    83478136.778  
  20980661.570   110254190.240    20980667.844    85912419.330  
  21133561.148   113169310.611    21133564.566    88020585.168  
  19930666.797   106540875.955    19930670.605    82865195.519  
  21118787.578   112575077.499    21118791.840    87558428.645  
  19696450.320   105251668.857    19696453.617    81862654.302  
  22784873.836   121713650.941    22784877.305    94665473.267  
  22917895.688   122552405.956    22917901.496    95318451.718  
  22888676.063   122481997.290    22888679.574    95263750.300  
 21  8 30  0  1 30.0000000  0 18G 1G 3G10G12G21G22G23G25G26G31G32R 4
                                R 5R14R15R16R20R21
  22644959.766   119000018.029    22644966.688    92727370.810  
  24845322.188   130563042.074    24845329.824   101737484.036  
  21857452.211   114861733.633    21857458.898    89502690.314  
  24026498.258   126260073.156    24026503.281    98384547.526  
  23047989.234   121118117.637    23047992.750    94377682.231  
  23222031.891   122032616.070    23222033.820    95090376.959  
  24863906.969   130660710.112    24863910.594   101813569.588  
  22503894.086   118258832.078    22503900.383    92149771.199  
  24674282.023   129664396.178    24674289.645   101037102.566  
  20377379.836   107083942.926    20377382.941    83442070.945  
  20986028.883   110282395.738    20986034.852    85934397.637  
  21143317.758   113221554.832    21143321.309    88061219.554  
  19925143.625   106511351.891    19925146.734    82842232.356  
  21132903.688   112650320.970    21132907.395    87616951.328  
  19687723.297   105205036.601    19687726.770    81826384.788  
  22759717.102   121579271.803    22759720.957    94560956.283  
  22936681.023   122652859.816    22936686.484    95396582.427  
  22890322.211   122490810.215    22890327.363    95270604.744  
 21  8 30  0  2  0.0000000  0 18G 1G 3G10G12G21G22G23G25G26G31G32R 4
                                R 5R14R15R16R20R21
  22640593.461   118977074.864    22640601.082    92709493.032  
  24825528.195   130459021.348    24825536.191   101656429.065  
  21871949.383   114937917.117    21871956.145    89562054.050  
  24033042.258   126294463.080    24033046.570    98411344.882  
  23049668.234   121126939.824    23049671.352    94384556.646  
  23205560.961   121946060.382    23205562.996    95022931.005  
  24883800.867   130765253.590    24883807.258   101895031.887  
  22501943.938   118248589.051    22501951.027    92141789.627  
  24654117.531   129558432.580    24654126.332   100954533.5761 
  20368674.570   107038196.742    20368678.195    83406424.582  
  20991432.523   110310790.995    20991438.703    85956523.809  
  21153127.227   113274083.011    21153130.168    88102074.793  
  19919668.539   106482086.152    19919671.836    82819470.118  
  21147136.180   112726189.545    21147139.738    87675960.224  
  19679141.063   105159172.521    19679143.727    81790712.733  
  22734591.328   121445052.915    22734594.680    94456563.936  
  22955521.164   122753606.045    22955526.211    95474940.533  
  22892109.453   122500368.399    22892112.844    95278038.906  
 21  8 30  0  2 30.0000000  0 18G 1G 3G10G12G21G22G23G25G26G31G32R 4
                                R 5R14R15R16R20R21
  22636342.172   118954731.611    22636349.340    92692082.737  
  24805737.891   130355021.319    24805745.711   101575390.148  
  21886517.172   115014470.656    21886523.859    89621706.105  
  24039693.992   126329418.823    24039699.395    98438583.133  
  23051433.883   121136214.444    23051436.777    94391783.581  
  23189124.883   121859688.525    23189126.363    94955628.298  
  24903717.648   130869918.615    24903725.672   101976589.017  
  22500108.594   118238944.745    22500115.676    92134274.609  
  24633935.797   129452387.702    24633947.113   100871901.399  
  20360071.969   106992989.481    20360075.117    83371198.159  
  20996871.961   110339375.855    20996878.289    85978797.723  
  21162989.422   113326895.835    21162992.477    88143151.411  
  19914242.484   106453080.027    19914245.402    82796909.811  
  21161485.281   112802680.100    21161489.445    87735452.851  
  19670701.828   105114078.561    19670705.285    81755639.667  
  22709494.078   121310998.622    22709499.473    94352299.618  
  22974415.047   122854639.894    22974419.734    95553522.328  
  22894034.758   122510670.604    22894038.191    95286051.714  
 21  8 30  0  3  0.0000000  0 18G 1G 3G10G12G21G22G23G25G26G31G32R 4
                                R 5R14R15R16R20R21
  22632204.953   118932988.952    22632211.813    92675140.403  
  24785951.773   130251044.018    24785959.160   101494368.907  
  21901155.625   115091393.242    21901161.660    89681645.763  
  24046453.703   126364939.825    24046457.723    98466261.803  
  23053283.703   121145941.015    23053287.766    94399362.723  
  23172724.781   121773503.005    23172725.879    94888470.769  
  24923654.836   130974703.767    24923667.457   102058239.854  
  22498388.016   118229900.405    22498394.785    92127227.067  
  24613743.680   129346264.583    24613751.645   100789208.279  
  20351572.156   106948322.306    20351575.316    83336392.572  
  21002347.430   110368150.354    21002353.762    86001219.409  
  21172905.438   113379993.976    21172907.938    88184449.957  
  19908865.281   106424335.341    19908868.754    82774552.832  
  21175951.320   112879789.154    21175955.129    87795426.542  
  19662407.563   105069756.705    19662411.285    81721167.121  
  22684432.117   121177112.777    22684435.715    94248166.245  
  22993361.930   122955957.027    22993368.121    95632324.471  
  22896097.813   122521715.715    22896101.836    95294642.391  
 21  8 30  0  3 30.0000000  0 18G 1G 3G10G12G21G22G23G25G26G31G32R 4
                                R 5R14R15R16R20R21
  22628181.063   118911847.055    22628188.699    92658666.206  
  24766170.578   130147090.839    24766177.086   101413366.442  
  21915862.648   115168683.491    21915869.664    89741871.895  
  24053320.250   126401024.747    24053325.238    98494379.935  
  23055220.789   121156118.565    23055223.965    94407293.230  
  23156359.328   121687505.472    23156361.332    94821459.741  
  24943619.570   131079607.550    24943629.832   102139983.004  
  22496781.422   118221456.627    22496787.789    92120647.506  
  24593532.531   129240065.303    24593542.914   100706455.755  
  20343175.281   106904195.391    20343178.363    83302007.978  
  21007859.469   110397114.057    21007865.305    86023788.510  
  21182875.289   113433377.552    21182877.484    88225970.494  
  19903536.320   106395853.864    19903540.895    82752400.582  
  21190532.125   112957513.074    21190535.676    87855878.463  
  19654257.633   105026208.619    19654261.480    81687296.408  
  22659400.109   121043398.993    22659403.746    94144166.762  
  23012358.148   123057552.347    23012366.430    95711342.978  
  22898300.883   122533502.327    22898304.637    95303809.757  
 21  8 30  0  4  0.0000000  0 18G 1G 3G10G12G21G22G23G25G26G31G32R 4
                                R 5R14R15R16R20R21
  22624272.469   118891306.079    22624279.992    92642660.272  
  24746393.180   130043163.579    24746400.645   101332384.198  
  21930640.766   115246339.930    21930647.336    89802383.372  
  24060294.148   126437672.588    24060298.563    98522936.697  
  23057243.055   121166745.797    23057246.348    94415574.157  
  23140031.422   121601697.699    23140032.609    94754596.573  
  24963606.961   131184627.896    24963613.086   102221816.930  
  22495289.008   118213614.074    22495294.965    92114536.445  
  24573309.258   129133792.213    24573319.738   100623645.646  
  20334880.602   106860608.867    20334884.082    83268044.469  
  21013406.695   110426266.413    21013412.828    86046504.617  
  21192896.688   113487046.993    21192900.023    88267713.373  
  19898258.328   106367636.302    19898262.063    82730453.595  
  21205227.305   113035847.988    21205231.277    87916805.605  
  19646253.547   104983435.854    19646257.020    81654028.715  
  22634401.859   120909861.116    22634405.105    94040304.066  
  23031408.516   123159420.8611   23031416.066    95790573.9531 
  22900642.109   122546028.679    22900645.406    95313552.463  
 21  8 30  0  4 30.0000000  0 18G 1G 3G10G12G21G22G23G25G26G31G32R 4
                                R 5R14R15R16R20R21
  22620478.219   118871366.685    22620485.695    92627123.098  
  24726622.000   129939264.252    24726629.125   101251423.740  
  21945487.281   115324361.691    21945493.965    89863179.529  
  24067376.172   126474882.648    24067379.660    98551931.503  
  23059351.141   121177822.323    23059354.594    94424205.183  
  23123739.164   121516082.470    23123741.211    94687883.423  
  24983614.188   131289763.512    24983616.664   102303740.524  
  22493911.289   118206373.951    22493917.137    92108894.783  
  24553073.086   129027448.146    24553083.309   100540780.308  
  20326689.789   106817563.893    20326692.668    83234502.941  
  21018989.992   110455607.500    21018996.277    86069367.802  
  21202973.883   113541002.826    21202975.219    88309678.994  
  19893029.516   106339684.999    19893033.043    82708713.690  
  21220037.180   113114790.599    21220040.914    87978205.396  
  19638394.813   104941440.293    19638398.496    81621365.517  
  22609436.594   120776502.651    22609441.113    93936580.925  
  23050509.977   123261558.075    23050516.777    95870013.930  
  22903121.156   122559293.664    22903124.352    95323869.643  
 21  8 30  0  5  0.0000000  0 18G 1G 3G10G12G21G22G23G25G26G31G32R 4
                                R 5R14R15R16R20R21
  22616798.781   118852029.569    22616805.551    92612055.248  
  24706856.305   129835395.097    24706864.047   101170486.802  
  21960403.680   115402747.936    21960410.465    89924259.680  
  24074562.484   126512654.011    24074567.270    98581363.758  
  23061544.023   121189347.293    23061547.434    94433185.654  
  23107483.836   121430662.229    23107485.770    94621322.219  
  25003643.656   131395013.114    25003645.102   102385752.975  
  22492648.258   118199737.396    22492654.855    92103723.464  
  24532823.359   128921036.213    24532833.156   100457862.049  
  20318601.500   106775061.383    20318604.508    83201384.118  
  21024609.711   110485137.556    21024615.934    86092378.220  
  21213101.320   113595245.974    21213104.406    88351868.104  
  19887850.383   106312001.854    19887854.102    82687182.374  
  21234959.805   113194337.816    21234963.664    88040075.428  
  19630681.914   104900223.987    19630685.078    81589308.408  
  22584505.336   120643328.597    22584510.473    93833001.236  
  23069660.734   123363959.625    23069665.816    95949659.529  
  22905737.703   122573296.231    22905742.250    95334760.524  
 21  8 30  0  5 30.0000000  0 18G 1G 3G10G12G21G22G23G25G26G31G32R 4
                                R 5R14R15R16R20R21
  22613233.586   118833294.986    22613240.355    92597456.869  
  24687096.570   129731557.934    24687104.305   101089574.786  
  21975389.602   115481497.292    21975395.922    89985622.778  
  24081857.070   126550985.439    24081862.477    98611232.378  
  23063822.375   121201319.905    23063825.340    94442514.921  
  23091266.016   121345438.611    23091268.105    94554914.234  
  25023690.000   131500374.969    25023697.742   102467852.919  
  22491500.227   118193705.221    22491507.254    92099023.064  
  24512561.273   128814558.965    24512571.211   100374892.882  
  20310616.781   106733101.469    20310619.914    83168688.094  
  21030265.047   110514856.223    21030270.836    86115535.609  
  21223285.586   113649776.837    21223288.570    88394280.970  
  19882722.984   106284588.351    19882726.219    82665860.769  
  21249994.539   113274485.668    21249999.141    88102412.624  
  19623114.992   104859788.446    19623118.004    81557858.548  
  22559610.039   120510341.924    22559614.953    93729567.253  
  23088858.445   123466620.687    23088864.953    96029506.944  
  22908491.008   122588034.892    22908496.133    95346223.963  
 21  8 30  0  6  0.0000000  0 17G 1G 3G10G12G21G22G25G26G31G32R 4R 5
                                R14R15R16R20R21
  22609783.078   118815163.591    22609790.520    92583328.522  
  24667341.578   129627754.835    24667350.984   101008689.382  
  21990444.414   115560608.952    21990450.609    90047268.176  
  24089257.664   126589876.627    24089261.516    98641537.233  
  23066186.219   121213739.605    23066189.434    94452192.592  
  23075086.531   121260414.318    23075088.219    94488661.565  
  22490467.602   118188278.483    22490473.895    92094794.447  
  24492287.992   128708019.389    24492296.930   100291875.127  
  20302735.555   106691685.139    20302738.625    83136415.631  
  21035955.672   110544763.699    21035961.891    86138840.135  
  21233522.383   113704596.144    21233525.648    88436918.181  
  19877645.500   106257446.659    19877649.223    82644750.564  
  21265142.414   113355231.191    21265146.988    88165214.679  
  19615693.766   104820135.678    19615697.891    81527017.529  
  22534750.016   120377547.542    22534755.055    93626282.857  
  23108103.742   123569536.889    23108110.242    96109552.811  
  22911382.531   122603508.344    22911387.398    95358258.843  
 21  8 30  0  6 30.0000000  0 17G 1G 3G10G12G21G22G25G26G31G32R 4R 5
                                R14R15R16R20R21
  22606447.406   118797635.303    22606454.391    92569670.132  
  24647595.813   129523987.431    24647605.023   100927831.696  
  22005567.117   115640081.251    22005573.625    90109194.625  
  24096764.250   126629325.219    24096768.496    98672276.407  
  23068634.188   121226605.168    23068637.891    94462217.688  
  23058945.063   121175590.721    23058946.934    94422565.285  
  22489549.984   118183457.625    22489556.438    92091037.936  
  24472002.977   128601419.734    24472011.250   100208810.552  
  20294957.914   106650812.777    20294960.871    83104567.046  
  21041683.305   110574859.415    21041688.902    86162291.333  
  21243812.891   113759704.048    21243815.559    88479779.869  
  19872618.547   106230577.605    19872622.727    82623852.423  
  21280401.359   113436570.270    21280406.309    88228478.385  
  19608420.734   104781267.044    19608423.656    81496786.383  
  22509928.148   120244948.755    22509932.695    93523150.598  
  23127398.508   123672703.417    23127403.297    96189793.290  
  22914410.461   122619714.730    22914415.195    95370863.832  
 21  8 30  0  7  0.0000000  0 18G 1G 3G10G12G21G22G23G25G26G31G32R 4
                                R 5R14R15R16R20R21
  22603226.891   118780710.235    22603233.742    92556481.769  
  24627857.961   129420257.509    24627865.266   100847003.324  
  22020758.391   115719912.818    22020764.770    90171401.010  
  24104378.086   126669330.905    24104382.234    98703449.654  
  23071167.180   121239915.335    23071170.641    94472589.212  
  23042842.648   121090970.208    23042844.375    94356627.248  
  25083975.039   131817117.8781                                 
  22488748.125   118179243.244    22488754.852    92087754.023  
  24451706.383   128494762.604    24451715.352   100125701.203  
  20287283.422   106610484.202    20287286.477    83073142.205  
  21047446.344   110605143.070    21047451.996    86185888.977  
  21254157.625   113815100.857    21254161.941    88522866.248  
  19867643.680   106203983.206    19867646.969    82603167.895  
  21295771.875   113518499.234    21295775.242    88292200.882  
  19601293.086   104743183.648    19601296.867    81467165.976  
  22485143.758   120112549.178    22485146.156    93420173.242  
  23146736.531   123776115.003    23146742.105    96270224.433  
  22917576.422   122636652.534    22917580.438    95384037.662  
 21  8 30  0  7 30.0000000  0 18G 1G 3G10G12G21G22G23G25G26G31G32R 4
                                R 5R14R15R16R20R21
  22600120.969   118764388.722    22600128.500    92543763.708  
  24608126.781   129316567.034    24608134.465   100766205.582  
  22036018.125   115800102.481    22036024.910    90233886.433  
  24112096.570   126709892.112    24112101.031    98735055.762  
  23073784.586   121253669.291    23073788.160    94483306.566  
  23026778.500   121006555.008    23026780.293    94290849.205  
  25104100.602   131922912.976                                  
  22488061.055   118175636.086    22488068.141    92084943.257  
  24431399.398   128388050.661    24431408.621   100042549.174  
  20279712.953   106570700.207    20279715.766    83042141.694  
  21053244.586   110635614.540    21053250.422    86209632.970  
  21264557.883   113870787.181    21264560.391    88566177.819  
  19862720.266   106177664.980    19862723.891    82582698.163  
  21311251.758   113601014.165    21311255.414    88356379.152  
  19594314.188   104705887.271    19594317.387    81438157.692  
  22460394.625   119980352.856    22460399.043    93317353.991  
  23166119.672   123879767.168    23166124.305    96350842.663  
  22920878.313   122654319.839    22920882.539    95397778.864  
 21  8 30  0  8  0.0000000  0 18G 1G 3G10G12G21G22G23G25G26G31G32R 4
                                R 5R14R15R16R20R21
  22597129.734   118748670.906    22597137.258    92531516.098  
  24588402.781   129212917.922    24588410.195   100685440.099  
  22051345.875   115880649.006    22051352.457    90296649.923  
  24119919.984   126751008.002    24119924.203    98767094.143  
  23076485.961   121267866.199    23076489.914    94494369.077  
  23010754.242   120922347.326    23010756.043    94225232.859  
  25124251.281   132028812.236                                  
  22487491.109   118172636.929    22487497.797    92082606.272  
  24411082.781   128281286.694    24411092.109    99959356.570  
  20272245.922   106531461.136    20272249.293    83011565.809  
  21059078.930   110666273.688    21059084.672    86233523.213  
  21275010.016   113926763.341    21275013.613    88609714.807  
  19857848.773   106151624.633    19857851.793    82562444.560  
  21326840.734   113684111.760    21326844.551    88421010.590  
  19587482.023   104669379.302    19587485.910    81409762.623  
  22435685.438   119848363.941    22435689.535    93214696.068  
  23185547.141   123983655.009    23185552.504    96431644.256  
  22924316.734   122672715.180    22924320.508    95412086.343  
 21  8 30  0  8 30.0000000  0 18G 1G 3G10G12G21G22G23G25G26G31G32R 4
                                R 5R14R15R16R20R21
  22594253.563   118733557.176    22594260.430    92519739.168  
  24568687.031   129109312.208    24568694.465   100604708.378  
  22066741.180   115961551.205    22066747.922    90359690.581  
  24127850.070   126792677.416    24127853.602    98799563.817  
  23079271.828   121282504.959    23079274.832    94505775.883  
  22994770.352   120838349.314    22994772.031    94159779.891  
  25144422.586   132134814.070                                  
  22487036.219   118170246.535    22487042.375    92080743.612  
  24390758.055   128174473.590    24390766.473    99876125.699  
  20264882.945   106492767.553    20264886.262    82981414.977  
  21064948.977   110697120.500    21064954.207    86257559.679  
  21285517.266   113983029.727    21285521.527    88653477.542  
  19853029.422   106125863.987    19853033.574    82542408.510  
  21342537.758   113767788.378    21342541.613    88486092.401  
  19580797.977   104633661.356    19580801.445    81381981.994  
  22411017.438   119716586.118    22411019.723    93112202.313  
  23205017.000   124087774.223    23205024.117    96512625.783  
  22927889.328   122691836.940    22927893.555    95426958.801  
 21  8 30  0  9  0.0000000  0 18G 1G 3G10G12G21G22G23G25G26G31G32R 4
                                R 5R14R15R16R20R21
  22591493.242   118719047.812    22591499.711    92508433.173  
  24548980.336   129005751.978    24548987.746   100524012.050  
  22082204.031   116042807.990    22082210.172    90423007.526  
  24135883.867   126834898.910    24135889.672    98832463.645  
  23082141.367   121297584.671    23082144.203    94517526.276  
  22978826.328   120754563.312    22978827.637    94094492.109  
  25164609.164   132240916.9021                                 
  22486697.828   118168465.659    22486704.051    92079355.937  
  24370423.234   128067614.181    24370432.020    99792858.699  
  20257623.828   106454619.992    20257626.598    82951689.614  
  21070854.180   110728154.962    21070860.422    86281742.357  
  21296079.281   114039587.108    21296082.855    88697466.601  
  19848263.273   106100384.766    19848266.848    82522591.347  
  21358342.930   113852040.435    21358346.422    88551621.760  
  19574262.281   104598734.845    19574266.113    81354816.945  
  22386387.820   119585023.487    22386390.953    93009875.902  
  23224531.141   124192120.046    23224536.285    96593783.604  
  22931597.859   122711683.322    22931602.203    95442394.887  
 21  8 30  0  9 30.0000000  0 16G 1G 3G10G12G21G22G25G26G31G32R 4R 5
                                R14R15R16R21
  22588847.094   118705142.979    22588854.238    92497598.232  
  24529281.383   128902239.246    24529289.867   100443352.840  
  22097733.656   116124418.054    22097740.242    90486599.753  
  24144023.406   126877672.100    24144028.305    98865793.415  
  23085095.094   121313104.528    23085098.180    94529619.663  
  22962923.367   120670991.470    22962924.688    94029371.201  
  22486474.398   118167295.012    22486481.281    92078443.758  
  24350078.680   127960711.140    24350088.805    99709557.741  
  20250468.594   106417019.028    20250471.055    82922390.168  
  21076795.625   110759376.983    21076801.754    86306071.197  
  21306695.633   114096436.075    21306699.016    88741682.430  
  19843550.570   106075188.966    19843553.484    82502994.609  
  21374255.859   113936864.257    21374260.148    88617595.829  
  19567874.195   104564601.358    19567877.980    81328268.683  
  22361800.117   119453679.471    22361803.785    92907719.544  
  22935442.500   122732252.971    22935445.406    95458393.482  
 21  8 30  0 10  0.0000000  0 17G 1G 3G10G12G21G22G25G26G31G32R 4R 5
                                R14R15R16R20R21
  22586316.102   118691843.379    22586323.570    92487234.926  
  24509593.078   128798776.542    24509602.336   100362732.668  
  22113330.914   116206380.663    22113337.086    90550466.685  
  24152268.180   126920995.803    24152271.781    98899552.127  
  23088131.656   121329064.064    23088135.160    94542055.659  
  22947060.914   120587636.221    22947062.203    93964419.071  
  22486368.039   118166735.689    22486374.258    92078007.933  
  24329727.586   127853767.768    24329736.902    99626225.383  
  20243417.250   106379965.355    20243420.586    82893517.188  
  21082772.797   110790786.977    21082778.766    86330546.511  
  21317366.344   114153577.267    21317369.746    88786125.558  
  19838890.180   106050278.627    19838893.227    82483619.909  
  21390275.438   114022256.712    21390280.016    88684012.155  
  19561635.156   104531262.515    19561639.004    81302338.475  
  22337254.148   119322559.240    22337258.348    92805737.228  
  23263681.148   124401473.5711   23263686.625    96756613.9141 
  22939421.063   122753544.537    22939425.367    95474953.596  
 21  8 30  0 10 30.0000000  0 17G 1G 3G10G12G21G22G25G26G31G32R 4R 5
                                R14R15R16R20R21
  22583900.211   118679148.697    22583907.785    92477342.959  
  24489914.234   128695365.504    24489923.414   100282152.722  
  22128994.359   116288694.145    22129000.832    90614607.051  
  24160615.977   126964867.923    24160619.871    98933738.224  
  23091251.469   121345461.595    23091255.195    94554832.938  
  22931240.633   120504499.507    22931242.418    93899637.233  
  22486377.563   118166788.019    22486384.594    92078048.709  
  24309369.953   127746786.559    24309378.918    99542863.500  
  20236470.461   106343458.849    20236473.531    82865070.579  
  21088785.836   110822384.460    21088791.781    86355167.912  
  21328091.563   114211011.061    21328094.813    88830796.260  
  19834283.906   106025655.211    19834286.832    82464468.357  
  21406400.461   114108213.750    21406404.547    88750867.613  
  19555545.477   104498719.307    19555548.688    81277027.101  
  22312751.367   119191665.863    22312754.680    92703931.345  
  23283316.516   124506471.996    23283321.699    96838279.275  
  22943534.883   122775555.665    22943538.527    95492073.365  
 21  8 30  0 11  0.0000000  0 17G 1G 3G10G12G21G22G25G26G31G32R 4R 5
                                R14R15R16R20R21
  22581599.766   118667058.541    22581606.375    92467922.059  
  24470246.828   128592007.718    24470255.098   100201614.248  
  22144724.125   116371356.722    22144730.918    90679019.405  
  24169069.188   127009287.396    24169073.891    98968350.772  
  23094455.203   121362295.929    23094459.039    94567950.580  
  22915461.750   120421583.171    22915463.684    93835027.122  
  22486504.102   118167451.860    22486510.621    92078566.007  
  24289005.555   127639769.638    24289014.672    99459473.824  
  20229627.500   106307499.724    20229630.570    82837050.489  
  21094834.281   110854168.856    21094839.941    86379934.967  
  21338871.508   114268737.343    21338875.457    88875694.469  
  19829731.297   106001320.039    19829734.742    82445541.008  
  21422630.742   114194731.173    21422634.957    88818158.931  
  19549603.773   104466972.455    19549608.320    81252335.121  
  22288289.586   119061003.278    22288294.059    92602304.934  
  23302989.172   124611677.866    23302995.926    96920106.023  
  22947782.352   122798284.177    22947785.695    95509751.093  
 21  8 30  0 11 30.0000000  0 17G 1G 3G10G12G21G22G25G26G31G32R 4R 5
                                R14R15R16R20R21
  22579413.867   118655572.846    22579420.434    92458972.159  
  24450589.508   128488704.940    24450596.707   100121118.656  
  22160520.953   116454366.916    22160527.453    90743702.650  
  24177626.344   127054252.218    24177630.797    99003388.278  
  23097741.875   121379565.729    23097745.340    94581407.556  
  22899726.289   120338889.647    22899727.727    93770590.633  
  22486746.633   118168727.725    22486753.637    92079560.193  
  24268633.961   127532719.750    24268643.836    99376058.430  
  20222889.219   106272087.570    20222891.844    82809456.615  
  21100917.648   110886139.906    21100923.367    86404847.464  
  21349706.648   114326756.345    21349710.195    88920820.334  
  19825232.836   105977274.534    19825236.434    82426838.959  
  21438965.836   114281804.967    21438970.355    88885882.971  
  19543812.609   104436022.909    19543816.133    81228263.261  
  22263873.930   118930575.031    22263877.719    92500860.813  
  23322701.609   124717087.156    23322708.633    97002090.922  
  22952162.867   122821727.974    22952167.078    95527985.133  
 21  8 30  0 12  0.0000000  0 17G 1G 3G10G12G21G22G25G26G31G32R 4R 5
                                R14R15R16R20R21
  22577343.734   118644691.969    22577350.852    92450493.545  
  24430941.414   128385459.601    24430949.617   100040667.819  
  22176382.953   116537723.864    22176389.316    90808656.081  
  24186284.375   127099762.150    24186289.629    99038850.559  
  23101111.039   121397270.311    23101114.145    94595203.330  
  22884033.195   120256421.548    22884034.891    93706329.773  
  22487106.328   118170616.487    22487112.895    92081031.971  
  24248257.664   127425639.971    24248267.000    99292619.752  
  20216254.844   106237223.286    20216257.328    82782289.654  
  21107037.258   110918297.838    21107043.598    86429905.590  
  21360595.742   114385068.699    21360599.254    88966174.382  
  19820789.906   105953520.883    19820793.332    82408363.901  
  21455405.148   114369431.942    21455408.840    88954037.264  
  19538170.492   104405872.530    19538173.969    81204812.973  
  22239501.758   118800385.367    22239506.148    92399602.262  
  23342450.938   124822694.681    23342457.824    97084230.040  
  22956677.016   122845885.524    22956682.145    95546774.357  
 21  8 30  0 12 30.0000000  0 17G 1G 3G10G12G21G22G25G26G31G32R 4R 5
                                R14R15R16R20R21
  22575388.273   118634415.894    22575395.395    92442486.219  
  24411306.117   128282273.785    24411313.004    99960263.372  
  22192311.164   116621426.011    22192317.859    90873878.491  
  24195049.523   127145815.688    24195053.621    99074736.455  
  23104562.414   121415408.356    23104565.855    94609336.854  
  22868383.164   120174180.646    22868384.520    93642245.976  
  22487582.531   118173118.579    22487589.434    92082981.655  
  24227875.602   127318533.094    24227886.293    99209159.973  
  20209724.195   106202907.399    20209727.371    82755550.009  
  21113192.227   110950642.634    21113198.379    86455109.311  
  21371540.969   114443675.078    21371543.695    89011757.080  
  19816401.219   105930060.691    19816403.984    82390117.092  
  21471946.164   114457608.071    21471950.426    89022618.660  
  19532678.258   104376522.037    19532681.645    81181984.824  
  22215175.852   118670438.330    22215179.379    92298532.431  
  23362235.938   124928496.168    23362243.695    97166520.000  
  22961324.289   122870754.617    22961328.852    95566116.981  
 21  8 30  0 13  0.0000000  0 17G 1G 3G10G12G21G22G25G26G31G32R 4R 5
                                R14R15R16R20R21
  22573547.156   118624744.797    22573554.859    92434950.300  
  24391682.359   128179149.652    24391688.059    99879906.916  
  22208304.805   116705472.306    22208311.469    90939369.083  
  24203916.297   127192411.063    24203920.848    99111044.533  
  23108096.023   121433978.884    23108099.637    94623807.391  
  22852776.695   120092169.047    22852778.773    93578340.865  
  22488174.891   118176234.600    22488182.320    92085409.726  
  24207490.273   127211402.116    24207499.426    99125681.387  
  20203298.227   106169140.043    20203301.781    82729237.792  
  21119382.820   110983174.318    21119389.148    86480458.664  
  21382539.563   114502575.717    21382543.195    89057568.685  
  19812067.055   105906895.970    19812070.754    82372100.091  
  21488590.289   114546329.974    21488594.762    89091624.565  
  19527335.617   104347972.953    19527338.648    81159779.994  
  22190896.078   118540737.912    22190899.801    92197654.361  
  23382057.227   125034487.150    23382064.855    97248957.360  
  22966104.828   122896333.804    22966108.785    95586011.858  
 21  8 30  0 13 30.0000000  0 17G 1G 3G10G12G21G22G25G26G31G32R 4R 5
                                R14R15R16R20R21
  22571821.852   118615678.303    22571829.152    92427885.502  
  24372071.438   128076089.074    24372076.578    99799600.004  
  22224363.023   116789861.078    22224369.797    91005126.545  
  24212885.961   127239547.201    24212890.766    99147773.992  
  23111712.078   121452980.657    23111715.609    94638613.956  
  22837214.219   120010388.946    22837216.496    93514616.132  
  22488885.656   118179964.773    22488891.656    92088316.352  
  24187098.523   127104249.590    24187108.668    99042186.056  
  20196977.156   106135921.130    20196979.938    82703352.937  
  21125609.203   111015892.555    21125614.703    86505953.397  
  21393593.383   114561770.810    21393596.996    89103609.291  
  19807789.383   105884028.141    19807792.895    82354314.001  
  21505335.469   114635593.456    21505339.777    89161051.691  
  19522142.617   104320225.773    19522146.070    81138198.862  
  22166661.852   118411287.739    22166664.656    92096970.981  
  23401911.438   125140662.491    23401920.078    97331538.127  
  22971017.539   122922620.514    22971021.824    95606457.054  
 21  8 30  0 14  0.0000000  0 17G 1G 3G10G12G21G22G25G26G31G32R 4R 5
                                R14R15R16R20R21
  22570212.047   118607216.546    22570219.332    92421291.891  
  24352471.258   127973094.170    24352478.164    99719344.294  
  22240487.328   116874591.096    22240493.820    91071149.908  
  24221958.094   127287222.657    24221963.383    99184923.646  
  23115410.211   121472412.543    23115413.113    94653755.665  
  22821696.883   119928842.936    22821698.859    93451073.794  
  22489712.109   118184309.518    22489718.957    92091701.890  
  24166705.602   126997078.426    24166714.164    98958676.146  
  20190760.258   106103251.453    20190763.570    82677896.054  
  21131870.461   111048797.393    21131876.273    86531593.530  
  21404703.297   114621261.128    21404707.305    89149879.508  
  19803567.680   105861459.169    19803570.918    82336760.355  
  21522182.664   114725394.952    21522186.070    89230897.296  
  19517100.656   104293281.861    19517104.426    81117242.500  
  22142476.039   118282091.929    22142479.516    91996485.426  
  23421800.250   125247017.983    23421808.133    97414258.973  
  22976061.133   122949612.912    22976065.727    95627451.157  
 21  8 30  0 14 30.0000000  0 17G 1G 3G10G12G21G22G25G26G31G32R 4R 5
                                R14R15R16R20R21
  22568717.008   118599359.210    22568724.613    92415169.280  
  24332884.977   127870166.895    24332891.672    99639141.292  
  22256674.852   116959660.842    22256681.945    91137437.986  
  24231132.898   127335435.516    24231136.289    99222492.158  
  23119189.539   121492273.536    23119193.141    94669231.761  
  22806224.078   119847532.986    22806225.863    93387715.411  
  22490655.852   118189269.142    22490662.227    92095566.508  
  24146308.125   126889891.293    24146317.074    98875153.835  
  20184647.797   106071130.312    20184650.555    82652866.604  
  21138167.914   111081888.673    21138173.734    86557378.935  
  21415868.188   114681046.822    21415870.777    89196379.471  
  19799401.531   105839190.743    19799404.465    82319440.470  
  21539128.977   114815730.544    21539132.574    89301158.306  
  19512208.359   104267141.748    19512212.219    81096911.298  
  22118338.773   118153154.497    22118342.918    91896200.845  
  23441724.008   125353548.351    23441730.305    97497115.824  
  22981236.898   122977308.569    22981241.047    95648992.248  
 21  8 30  0 15  0.0000000  0 17G 1G 3G10G12G21G22G25G26G31G32R 4R 5
                                R14R15R16R20R21
  22567336.047   118592106.172    22567344.133    92409517.576  
  24313311.336   127767309.380    24313318.195    99558992.598  
  22272927.945   117045068.925    22272934.578    91203989.696  
  24240408.766   127384184.930    24240414.625    99260478.714  
  23123050.320   121512561.967    23123053.516    94685040.917  
  22790796.859   119766461.234    22790797.863    93324542.614  
  22491716.367   118194843.957    22491723.176    92099910.530  
  24125908.414   126782691.050    24125917.344    98791621.268  
  20178639.945   106039558.198    20178642.777    82628264.963  
  21144500.102   111115166.260    21144506.531    86583309.527  
  21427087.789   114741128.165    21427091.164    89243109.388  
  19795292.938   105817224.457    19795296.258    82302355.581  
  21556175.094   114906596.310    21556179.367    89371831.668  
  19507467.953   104241806.639    19507471.379    81077206.226  
  22094249.984   118024478.803    22094254.035    91796119.828  
  23461677.438   125460249.559    23461683.715    97580105.539  
  22986543.727   123005705.531    22986547.461    95671078.687  
 21  8 30  0 15 30.0000000  0 17G 1G 3G10G12G21G22G25G26G31G32R 4R 5
                                R14R15R16R20R21
  22566071.617   118585457.510    22566078.305    92404336.803  
  24293751.586   127664523.848    24293759.141    99478899.988  
  22289244.672   117130814.112    22289251.316    91270804.101  
  24249788.641   127433469.215    24249793.855    99298882.008  
  23126992.250   121533276.935    23126995.367    94701182.415  
  22775415.188   119685629.894    22775416.328    93261557.156  
  22492894.797   118201034.399    22492901.531    92104734.256  
  24105507.000   126675480.723    24105515.598    98708080.850  
  20172736.430   106008535.188    20172739.668    82604091.191  
  21150868.336   111148630.299    21150874.359    86609385.395  
  21438362.477   114801505.796    21438366.379    89290069.757  
  19791240.469   105795562.315    19791243.445    82285507.254  
  21573320.383   114997988.666    21573324.660    89442914.578  
  19502877.047   104217277.523    19502880.695    81058128.036  
  22070211.055   117896069.304    22070215.262    91696245.850  
  23481663.008   125567116.821    23481669.262    97663224.451  
  22991980.375   123034801.613    22991984.977    95693708.960  
 21  8 30  0 16  0.0000000  0 17G 1G 3G10G12G21G22G25G26G31G32R 4R 5
                                R14R15R16R20R21
  22564921.234   118579412.932    22564928.242    92399626.729  
  24274205.859   127561812.310    24274214.191    99398865.102  
  22305625.164   117216894.947    22305632.191    91337880.039  
  24259268.430   127483287.165    24259273.230    99337701.136  
  23131014.969   121554417.243    23131018.879    94717655.392  
  22760079.398   119605041.721    22760080.285    93198761.181  
  22494189.750   118207840.755    22494196.430    92110037.936  
  24085103.086   126568263.130    24085113.324    98624534.803  
  20166937.648   105978061.953    20166940.723    82580345.816  
  21157272.078   111182280.688    21157278.016    86635606.469  
  21449692.680   114862179.862    21449696.793    89337260.662  
  19787245.570   105774206.230    19787248.477    82268896.957  
  21590563.141   115089903.635    21590567.355    89514403.975  
  19498438.289   104193554.974    19498441.418    81039677.164  
  22046224.523   117767929.757    22046227.422    91596581.843  
  23501676.602   125674145.166    23501684.582    97746468.623  
  22997548.852   123064594.629    22997552.379    95716881.269  
 21  8 30  0 16 30.0000000  0 17G 1G 3G10G12G21G22G25G26G31G32R 4R 5
                                R14R15R16R20R21
  22563885.578   118573972.019    22563893.117    92395387.061  
  24254675.797   127459176.767    24254683.176    99318889.430  
  22322069.141   117303309.737    22322075.801    91405216.212  
  24268849.102   127533636.567    24268852.992    99376934.457  
  23135119.078   121575981.626    23135121.633    94734458.789  
  22744790.859   119524698.348    22744792.176    93136155.952  
  22495601.805   118215263.006    22495609.398    92115821.513  
  24064700.438   126461040.888    24064708.977    98540985.072  
  20161243.422   105948137.971    20161246.461    82557028.439  
  21163710.383   111216117.117    21163716.617    86661972.518  
  21461079.219   114923150.624    21461082.480    89384682.342  
  19783307.359   105753157.568    19783310.961    82252525.773  
  21607903.898   115182337.258    21607908.109    89586296.756  
  19494149.336   104170639.501    19494153.387    81021854.033  
  22022286.422   117640063.629    22022290.152    91497130.488  
  23521722.984   125781330.687    23521729.070    97829834.993  
  23003247.219   123095082.228    23003250.121    95740593.789  
 21  8 30  0 17  0.0000000  0 17G 1G 3G10G12G21G22G25G26G31G32R 4R 5
                                R14R15R16R20R21
  22562965.070   118569134.877    22562972.496    92391617.876  
  24235160.195   127356619.714    24235167.117    99238974.872  
  22338576.844   117390057.506    22338583.473    91472811.842  
  24278531.109   127584516.380    24278534.883    99416581.103  
  23139302.641   121597968.966    23139305.977    94751591.761  
  22729548.813   119444602.488    22729550.672    93073743.616  
  22497131.695   118223301.825    22497139.152    92122085.528  
  24044296.086   126353817.051    24044304.270    98457434.092  
  20155653.414   105918763.640    20155656.828    82534139.360  
  21170184.773   111250139.947    21170190.785    86688483.814  
  21472521.648   114984418.725    21472523.840    89432335.279  
  19779427.805   105732418.508    19779431.602    82236395.401  
  21625340.781   115275285.930    21625345.074    89658590.129  
  19490012.328   104148532.324    19490016.352    81004659.557  
  21998401.438   117512475.746    21998406.043    91397895.543  
  23541795.344   125888668.293    23541801.746    97913319.701  
  23009071.344   123126262.314    23009076.660    95764844.972  
 21  8 30  0 17 30.0000000  0 17G 1G 3G10G12G21G22G25G26G31G32R 4R 5
                                R14R15R16R20R21
  22562159.547   118564900.994    22562166.879    92388318.745  
  24215659.188   127254143.003    24215667.238    99159122.938  
  22355147.391   117477136.432    22355154.594    91540665.527  
  24288314.484   127635924.985    24288318.395    99456639.748  
  23143567.922   121620377.864    23143570.230    94769053.232  
  22714354.422   119364755.973    22714356.297    93011525.562  
  22498778.945   118231957.036    22498785.445    92128829.853  
  24023891.867   126246594.427    24023901.383    98373884.087  
  20150168.141   105889938.868    20150171.496    82511678.495  
  21176694.531   111284348.847    21176700.488    86715140.100  
  21484017.367   115045984.348    21484020.840    89480219.656  
  19775606.914   105711990.793    19775609.266    82220507.168  
  21642873.422   115368745.584    21642877.965    89731280.953  
  19486026.930   104127233.773    19486030.551    80988094.035  
  21974570.688   117385169.495    21974573.891    91298879.626  
  23561893.422   125996153.573    23561902.102    97996919.348  
  23015028.094   123158132.311    23015032.867    95789632.726  
 21  8 30  0 18  0.0000000  0 17G 1G 3G10G12G21G22G25G26G31G32R 4R 5
                                R14R15R16R20R21
  22561468.508   118561269.967    22561475.434    92385489.387  
  24196174.023   127151748.654    24196181.781    99079335.194  
  22371780.844   117564545.060    22371787.332    91608776.112  
  24298197.930   127687861.032    24298202.945    99497109.370  
  23147911.422   121643206.757    23147914.031    94786841.962  
  22699208.281   119285160.886    22699209.996    92949503.452  
  22500543.594   118241228.823    22500550.473    92136054.626  
  24003489.297   126139375.714    24003497.566    98290337.120  
  20144787.484   105861663.466    20144790.840    82489645.727  
  21183239.602   111318743.691    21183245.551    86741941.271  
  21495569.695   115107847.656    21495573.492    89528335.530  
  19771843.781   105691875.631    19771847.148    82204862.035  
  21660502.148   115462712.210    21660505.430    89804366.063  
  19482192.609   104106744.586    19482196.016    80972158.000  
  21950792.898   117258148.775    21950795.191    91200085.777  
  23582020.813   126103781.672    23582028.656    98080630.085  
  23021113.070   123190689.788    23021117.457    95814955.166  
 21  8 30  0 18 30.0000000  0 17G 1G 3G10G12G21G22G25G26G31G32R 4R 5
                                R14R15R16R20R21
  22560892.398   118558241.546    22560899.523    92383129.571  
  24176704.398   127049438.870    24176712.438    98999613.329  
  22388476.773   117652281.868    22388483.152    91677142.418  
  24308180.922   127740322.613    24308185.469    99537988.530  
  23152335.125   121666454.300    23152338.191    94804956.935  
  22684109.992   119205819.669    22684111.684    92887679.156  
  22502425.180   118251117.268    22502432.070    92143759.914  
  23983087.547   126032163.842    23983095.539    98206795.448  
  20139511.625   105833937.485    20139514.742    82468041.066  
  21189820.078   111353324.444    21189826.293    86768887.315  
  21507177.477   115170008.848    21507181.648    89576683.120  
  19768139.414   105672075.117    19768142.766    82189461.634  
  21678223.805   115557182.066    21678228.047    89877842.577  
  19478509.633   104087065.166    19478513.426    80956851.802  
  21927066.484   117131417.234    21927069.863    91101516.877  
  23602174.742   126211547.9041   23602181.434    98164448.1571 
  23027324.430   123223932.430    23027329.770    95840810.513  
 21  8 30  0 19  0.0000000  0 17G 1G 3G10G12G21G22G25G26G31G32R 4R 5
                                R14R15R16R20R21
  22560430.406   118555815.469    22560438.188    92381239.128  
  24157252.359   126947215.942    24157260.480    98919959.170  
  22405234.953   117740345.531    22405241.168    91745763.419  
  24318264.820   127793308.242    24318268.813    99579275.939  
  23156838.750   121690119.620    23156841.645    94823397.414  
  22669060.734   119126734.496    22669062.535    92826054.381  
  22504424.602   118261622.554    22504430.898    92151945.843  
  23962687.375   125924961.725    23962695.492    98123261.397  
  20134339.883   105806760.794    20134343.355    82446864.435  
  21196435.828   111388091.201    21196442.199    86795978.297  
  21518842.039   115232468.543    21518845.438    89625262.847  
  19764494.680   105652591.211    19764498.109    82174307.479  
  21696039.828   115652151.420    21696043.926    89951707.610  
  19474978.938   104068196.296    19474982.246    80942176.021  
  21903397.203   117004979.184    21903400.340    91003176.216  
  23622352.711   126319448.074    23622359.883    98248370.421  
  23033664.813   123257857.935    23033669.078    95867196.996  
 21  8 30  0 19 30.0000000  0 16G 1G 3G10G12G21G22G25G26G31G32R 4R 5
                                R14R15R16R21
  22560083.250   118553991.235    22560090.938    92379817.677  
  24137817.109   126845081.934    24137825.043    98840374.279  
  22422054.586   117828734.429    22422061.816    91814637.865  
  24328445.156   127846816.011    24328448.949    99620970.358  
  23161421.125   121714201.068    23161424.270    94842162.167  
  22654060.281   119047907.748    22654061.941    92764630.974  
  22506539.992   118272744.812    22506546.918    92160612.549  
  23942289.789   125817772.306    23942298.785    98039737.260  
  20129273.148   105780133.624    20129276.148    82426115.992  
  21203087.336   111423043.721    21203093.590    86823214.030  
  21530562.000   115295226.901    21530565.234    89674074.874  
  19760909.016   105633425.403    19760912.570    82159400.738  
  21713949.031   115747616.189    21713952.004    90025957.968  
  19471599.492   104050138.320    19471603.238    80928130.936  
  21879783.750   116878838.460    21879786.313    90905066.834  
  23040131.273   123292463.623    23040135.504    95894112.474  
 21  8 30  0 20  0.0000000  0 16G 1G 3G10G12G21G22G25G26G31G32R 4R 5
                                R14R15R16R21
  22559850.922   118552768.607    22559858.348    92378864.980  
  24118398.977   126743039.157    24118406.047    98760860.478  
  22438935.789   117917447.208    22438943.023    91883764.669  
  24338725.414   127900844.661    24338731.391    99663070.645  
  23166082.789   121738697.378    23166086.195    94861250.167  
  22639110.000   118969342.013    22639111.543    92703410.962  
  22508774.852   118284484.091    22508781.652    92169760.030  
  23921894.883   125710598.439    23921904.711    97956225.254  
  20124310.359   105754056.051    20124313.738    82405795.814  
  21209774.023   111458182.353    21209779.824    86850594.772  
  21542337.016   115358284.313    21542340.551    89723119.520  
  19757383.477   105614579.718    19757387.082    82144742.990  
  21731950.430   115843572.391    21731954.309    90100590.519  
  19468371.891   104032891.735    19468375.469    80914716.938  
  21856227.570   116752999.225    21856229.414    90807191.944  
  23046725.086   123327747.205    23046730.191    95921555.246  
 21  8 30  0 20 30.0000000  0 16G 1G 3G10G12G21G22G25G26G31G32R 4R 5
                                R14R15R16R21
  22559732.625   118552147.155    22559739.637    92378380.738  
  24098998.477   126641089.824    24099005.520    98681419.479  
  22455878.938   118006482.412    22455885.637    91953142.726  
  24349108.633   127955392.881    24349112.199    99705575.685  
  23170822.898   121763607.379    23170826.234    94880660.551  
  22624209.133   118891039.389    22624210.578    92642395.941  
  22511125.969   118296840.518    22511132.684    92179388.405  
  23901503.789   125603443.253    23901514.086    97872727.780  
  20119452.805   105728527.979    20119455.820    82385903.815  
  21216495.883   111493506.995    21216501.895    86878120.461  
  21554168.820   115421641.037    21554172.387    89772396.919  
  19753918.266   105596056.100    19753921.688    82130335.732  
  21750043.055   115940016.566    21750046.566    90175602.668  
  19465296.648   104016457.284    19465299.922    80901934.599  
  21832726.594   116627465.109    21832729.094    90709554.368  
  23053444.914   123363706.365    23053449.000    95949523.428  
 21  8 30  0 21  0.0000000  0 16G 1G 3G10G12G21G22G25G26G31G32R 4R 5
                                R14R15R16R21
  22559728.766   118552126.132    22559735.855    92378364.361  
  24079616.320   126539235.754    24079623.305    98602052.736  
  22472883.086   118095838.212    22472889.352    92022770.587  
  24359587.328   128010457.790    24359590.031    99748483.410  
  23175641.227   121788929.117    23175644.637    94900391.767  
  22609358.836   118813001.350    22609360.715    92581587.120  
  22513594.945   118309813.775    22513601.453    92189497.434  
  23881117.313   125496309.205    23881126.121    97789246.796  
  20114699.797   105703548.896    20114702.508    82366439.596  
  21223253.602   111529017.291    21223259.430    86905790.823  
  21566055.680   115485297.102    21566060.285    89821907.171  
  19750513.867   105577856.053    19750517.367    82116180.155  
  21768226.945   116036944.189    21768230.258    90250990.759  
  19462372.773   104000834.842    19462376.508    80889783.819  
  21809283.219   116502239.971    21809286.980    90612157.093  
  23060289.820   123400337.875    23060295.266    95978014.545  
 21  8 30  0 21 30.0000000  0 16G 1G 3G10G12G21G22G25G26G31G32R 4R 5
                                R14R15R16R21
  22559838.188   118552705.348    22559845.652    92378815.698  
  24060252.438   126437479.576    24060259.691    98522762.268  
  22489947.734   118185513.307    22489953.621    92092647.240  
  24370163.203   128066038.814    24370165.871    99791793.250  
  23180538.367   121814661.789    23180541.914    94920443.195  
  22594559.539   118735230.945    22594560.930    92520986.833  
  22516180.414   118323404.046    22516187.543    92200087.259  
  23860735.758   125389199.617    23860743.855    97705784.823  
  20110050.766   105679119.084    20110053.578    82347403.375  
  21230046.383   111564713.515    21230052.336    86933606.064  
  21577999.273   115549253.062    21578002.520    89871650.668  
  19747170.047   105559981.512    19747172.813    82102277.737  
  21786498.383   116134351.508    21786503.309    90326752.001  
  19459601.516   103986025.002    19459604.898    80878265.072  
  21785898.430   116377327.203    21785903.063    90515002.804  
  23067261.430   123437639.629    23067265.473    96007027.022  
 21  8 30  0 22  0.0000000  0 16G 1G 3G10G12G21G22G25G26G31G32R 4R 5
                                R14R15R16R21
  22560063.094   118553883.924    22560070.203    92379734.089  
  24040908.273   126335823.053    24040915.273    98443549.484  
  22507072.102   118275505.794    22507078.680    92162771.220  
  24380836.750   128122133.685    24380840.289    99835503.638  
  23185512.461   121840803.735    23185516.168    94940813.528  
  22579812.047   118657729.957    22579813.715    92460596.488  
  22518884.758   118337611.071    22518890.840    92211157.661  
  23840357.602   125282116.954    23840366.316    97622343.879  
  20105506.258   105655238.100    20105509.262    82328794.820  
  21236874.117   111600595.335    21236880.367    86961565.905  
  21589998.008   115613508.652    21590002.137    89921627.201  
  19743887.461   105542433.992    19743890.621    82088629.675  
  21804861.766   116232234.487    21804866.281    90402883.163  
  19456981.883   103972027.664    19456985.988    80867378.258  
  21762574.000   116252731.419    21762578.168    90418095.021  
  23074356.820   123475608.542    23074359.898    96036558.359  
 21  8 30  0 22 30.0000000  0 16G 1G 3G10G12G21G22G25G26G31G32R 4R 5
                                R14R15R16R21
  22560401.641   118555661.824    22560408.754    92381119.476  
  24021583.328   126234268.933    24021590.031    98364416.475  
  22524258.203   118365814.673    22524264.793    92233141.736  
  24391608.641   128178740.608    24391614.023    99879612.866  
  23190564.898   121867353.517    23190568.301    94961501.642  
  22565116.047   118580501.124    22565117.289    92400418.208  
  22521705.555   118352435.088    22521712.559    92222708.855  
  23819986.063   125175064.614    23819995.098    97538926.549  
  20101066.039   105631906.279    20101069.250    82310614.185  
  21243737.641   111636663.154    21243744.367    86989670.697  
  21602054.031   115678064.768    21602058.059    89971837.480  
  19740666.695   105525215.810    19740669.320    82075237.771  
  21823312.641   116330589.534    21823317.055    90479381.513  
  19454515.156   103958843.582    19454518.305    80857123.976  
  21739309.883   116128456.429    21739312.832    90321436.758  
  23081574.711   123514242.435    23081580.434    96066606.908  
 21  8 30  0 23  0.0000000  0 16G 1G 3G10G12G21G22G25G26G31G32R 4R 5
                                R14R15R16R21
  22560853.500   118558037.895    22560860.867    92382970.954  
  24002278.320   126132818.929    24002285.066    98285364.565  
  22541502.648   118456437.808    22541509.609    92303757.127  
  24402478.375   128235857.7341   24402483.516    99924119.6211 
  23195694.141   121894309.303    23195698.316    94982506.136  
  22550471.695   118503546.157    22550473.168    92340453.309  
  22524643.016   118367875.589    22524650.012    92234740.422  
  23799622.070   125068045.097    23799629.680    97455534.795  
  20096730.531   105609122.738    20096733.957    82292860.780  
  21250636.789   111672916.545    21250642.863    87017920.075  
  21614165.531   115742921.173    21614169.426    90022281.308  
  19737506.375   105508328.016    19737510.152    82062102.825  
  21841851.688   116429412.448    21841856.602    90556243.746  
  19452199.594   103946472.493    19452203.438    80847502.026  
  21716106.242   116004505.625    21716109.758    90225030.644  
  23088919.039   123553538.296    23088924.953    96097170.358  
 21  8 30  0 23 30.0000000  0 16G 1G 3G10G12G21G22G25G26G31G32R 4R 5
                                R14R15R16R21
  22561419.148   118561011.910    22561427.457    92385288.368  
  23982992.750   126031475.500    23983000.031    98206395.689  
  22558807.766   118547373.902    22558814.621    92374616.378  
  24413444.391   128293483.562    24413448.051    99969022.898  
  23200901.250   121921669.960    23200904.590    95003826.113  
  22535880.141   118426867.544    22535881.684    92280703.766  
  22527699.125   118383932.562    22527704.984    92247252.358  
  23779262.844   124961061.513    23779271.367    97372171.026  
  20092499.242   105586887.306    20092502.359    82275534.478  
  21257570.898   111709355.670    21257577.008    87046314.194  
  21626332.328   115808078.245    21626336.938    90072959.020  
  19734409.250   105491772.768    19734413.602    82049226.540  
  21860478.000   116528699.176    21860481.844    90633466.730  
  19450037.352   103934914.731    19450040.879    80838512.666  
  21692964.680   115880883.309    21692966.914    90128880.009  
  23096386.289   123593493.512    23096390.566    96128246.631  
 21  8 30  0 24  0.0000000  0 16G 1G 3G10G12G21G22G25G26G31G32R 4R 5
                                R14R15R16R21
  22562099.023   118564582.744    22562106.617    92388070.855  
  23963728.891   125930240.489    23963735.707    98127511.334  
  22576171.500   118638620.910    22576178.074    92445717.904  
  24424505.438   128351615.851    24424510.598   100014320.780  
  23206184.398   121949433.659    23206187.398    95025460.124  
  22521341.883   118350466.973    22521343.117    92221170.881  
  22530871.641   118400605.449    22530878.559    92260244.213  
  23758911.969   124854116.370    23758920.453    97288837.219  
  20088372.781   105565199.673    20088375.410    82258635.018  
  21264540.031   111745980.184    21264546.348    87074852.757  
  21638557.828   115873535.926    21638561.098    90123870.499  
  19731375.328   105475551.449    19731378.715    82036609.957  
  21879189.938   116628445.607    21879194.203    90711047.223  
  19448026.211   103924169.918    19448029.676    80830155.588  
  21669884.289   115757592.890    21669886.973    90032987.513  
  23103975.891   123634104.813    23103980.430    96159833.141  
 21  8 30  0 24 30.0000000  0 16G 1G 3G10G12G21G22G25G26G31G32R 4R 5
                                R14R15R16R21
  22562891.914   118568750.407    22562899.422    92391318.370  
  23944484.539   125829116.758    23944492.367    98048713.710  
  22593594.109   118730178.078    22593600.512    92517061.103  
  24435663.039   128410253.001    24435668.930   100060012.069  
  23211543.914   121977599.553    23211547.672    95047407.574  
  22506856.422   118274347.552    22506858.586    92161857.069  
  22534162.359   118417894.761    22534168.523    92273716.401  
  23738567.883   124747213.370    23738577.219    97205536.267  
  20084350.000   105544060.068    20084352.734    82242162.605  
  21271545.063   111782790.670    21271551.141    87103536.248  
  21650836.258   115939294.821    21650840.383    90175016.300  
  19728403.680   105459666.764    19728407.680    82024255.207  
  21897988.164   116728648.066    21897992.336    90788982.453  
  19446167.984   103914238.916    19446172.059    80822431.484  
  21646866.844   115634638.795    21646869.984    89937356.591  
  23111686.648   123675370.166    23111690.461    96191928.410  
 21  8 30  0 25  0.0000000  0 16G 1G 3G10G12G21G22G25G26G31G32R 4R 5
                                R14R15R16R21
  22563798.344   118573513.913    22563805.973    92395030.210  
  23925263.430   125728106.274    23925270.027    97970004.314  
  22611075.492   118822043.100    22611081.602    92588644.191  
  24446919.602   128469393.6481   24446921.645   100106095.6531 
  23216979.984   122006165.678    23216983.750    95069666.869  
  22492425.781   118198511.094    22492426.559    92102763.754  
  22537569.461   118435799.847    22537575.281    92287668.433  
  23718233.773   124640355.021    23718243.176    97122270.096  
  20080430.898   105523467.858    20080434.035    82226116.737  
  21278585.148   111819786.836    21278590.617    87132364.409  
  21663173.539   116005355.038    21663177.422    90226396.427  
  19725495.711   105444119.762    19725498.887    82012163.100  
  21916870.398   116829302.652    21916875.121    90867269.314  
  19444461.531   103905121.281    19444465.250    80815339.995  
  21623913.078   115512024.595    21623915.891    89841990.063  
  23119519.617   123717286.120    23119524.895    96224529.681  
 21  8 30  0 25 30.0000000  0 16G 1G 3G10G12G21G22G25G26G31G32R 4R 5
                                R14R15R16R21
  22564818.070   118578872.506    22564825.211    92399205.720  
  23906063.430   125627211.273    23906070.266    97891384.893  
  22628615.438   118914214.499    22628621.863    92660466.009  
  24458268.250   128529035.2811   24458271.789   100152569.7131 
  23222492.273   122035130.379    23222495.348    95092236.735  
  22478048.797   118122959.866    22478049.977    92043892.693  
  22541093.359   118454320.438    22541100.316    92302100.064  
  23697908.641   124533544.275    23697917.695    97039041.023  
  20076616.625   105503422.690    20076619.781    82210497.124  
  21285660.383   111856968.650    21285666.758    87161337.249  
  21675566.211   116071716.571    21675568.965    90278010.914  
  19722651.023   105428912.518    19722653.875    82000335.240  
  21935836.703   116930405.156    21935841.531    90945904.540  
  19442907.617   103896817.015    19442910.980    80808881.129  
  21601024.875   115389754.208    21601026.926    89746890.919  
  23127473.680   123759850.274    23127478.156    96257635.121  
 21  8 30  0 26  0.0000000  0 16G 1G 3G10G12G21G22G25G26G31G32R 4R 5
                                R14R15R16R21
  22565951.289   118584825.488    22565957.992    92403844.405  
  23886886.523   125526434.083    23886893.020    97812857.281  
  22646212.508   119006690.696    22646219.543    92732525.337  
  24469711.555   128589176.021    24469717.379   100199432.610  
  23228079.125   122064492.587    23228082.871    95115116.363  
  22463726.078   118047696.223    22463727.219    91985245.716  
  22544734.922   118473456.286    22544741.434    92317011.089  
  23677592.344   124426784.115    23677600.457    96955851.350  
  20072906.211   105483924.555    20072909.543    82195303.780  
  21292771.359   111894336.227    21292777.742    87190454.825  
  21688015.625   116138379.504    21688018.418    90329859.841  
  19719869.953   105414046.712    19719873.199    81988772.951  
  21954886.984   117031951.633    21954891.230    91024885.101  
  19441505.180   103889326.076    19441509.297    80803054.843  
  21578198.195   115267831.220    21578202.371    89652061.990  
  23135548.055   123803059.522    23135553.035    96291242.284  
 21  8 30  0 26 30.0000000  0 15G 1G 3G10G21G22G25G26G31G32R 4R 5R14
                                R15R16R21
  22567195.922   118591372.194    22567204.055    92408945.742  
  23867731.500   125425776.982    23867737.961    97734423.247  
  22663868.250   119099470.153    22663875.188    92804820.983  
  23233741.805   122094250.421    23233745.965    95138304.250  
  22449458.750   117972722.410    22449460.391    91926824.580  
  22548493.453   118493207.162    22548500.488    92332401.402  
  23657287.289   124320077.602    23657296.035    96872703.479  
  20069300.031   105464972.996    20069302.820    82180536.337  
  21299917.484   111931889.549    21299923.805    87219717.140  
  21700520.570   116205344.335    21700524.129    90381943.565  
  19717153.211   105399524.122    19717156.555    81977477.606  
  21974020.414   117133938.135    21974023.633    91104207.926  
  19440255.969   103882648.499    19440259.473    80797861.175  
  21555440.523   115146259.945    21555444.105    89557506.596  
  23143744.328   123846910.878    23143748.160    96325348.826  
 21  8 30  0 27  0.0000000  0 16G 1G 3G10G12G21G22G25G26G31G32R 4R 5
                                R14R15R16R21
  22568555.234   118598511.853    22568562.777    92414509.099  
  23848601.414   125325242.373    23848606.320    97656084.599  
  22681580.617   119192551.173    22681587.801    92877351.613  
  24492882.922   128710947.9701   24492888.863   100294319.7101 
  23239479.547   122124402.172    23239483.148    95161799.100  
  22435247.492   117898040.686    22435248.828    91868631.049  
  22552368.625   118513572.672    22552375.664    92348270.621  
  23636992.586   124213427.718    23637000.855    96789599.761  
  20065797.414   105446567.645    20065800.340    82166194.511  
  21307099.266   111969628.679    21307105.180    87249124.236  
  21713081.836   116272611.213    21713085.402    90434262.211  
  19714500.930   105385346.656    19714504.488    81966450.687  
  21993234.164   117236360.753    21993237.996    91183869.905  
  19439158.438   103876783.864    19439162.180    80793299.801  
  21532748.219   115025044.029    21532751.688    89463227.614  
  23152056.234   123891401.509    23152062.094    96359952.685  
 21  8 30  0 27 30.0000000  0 16G 1G 3G10G12G21G22G25G26G31G32R 4R 5
                                R14R15R16R21
  22570027.273   118606243.443    22570033.836    92420533.693  
  23829493.617   125224832.290    23829499.031    97577842.996  
  22699350.727   119285931.927    22699357.590    92950115.789  
  24504613.078   128772575.4741   24504616.758   100342341.1151 
  23245292.172   122154946.256    23245296.027    95185599.673  
  22421092.242   117823653.013    22421093.512    91810666.640  
  22556361.242   118534552.349    22556367.891    92364618.411  
  23616709.055   124106837.227    23616717.363    96706542.327  
  20062399.055   105428708.005    20062401.809    82152277.913  
  21314315.773   112007553.461    21314322.051    87278676.000  
  21725699.672   116340179.769    21725703.398    90486815.515  
  19711913.438   105371516.025    19711916.805    81955693.527  
  22012529.055   117339215.349    22012532.824    91263867.951  
  19438213.352   103871731.934    19438216.609    80789370.530  
  21510124.234   114904187.295    21510127.398    89369227.981  
  23160490.594   123936528.360    23160494.875    96395051.290  
 21  8 30  0 28  0.0000000  0 16G 1G 3G10G12G21G22G25G26G31G32R 4R 5
                                R14R15R16R21
  22571610.430   118614566.252    22571617.637    92427019.007  
  23810410.422   125124549.221    23810415.766    97499700.348  
  22717177.570   119379610.882    22717183.941    93023112.327  
  24516433.289   128834694.018    24516436.625   100390745.188  
  23251179.313   122185881.120    23251182.527    95209704.734  
  22406992.961   117749561.652    22406994.285    91752933.134  
  22560469.820   118556145.889    22560477.168    92381444.533  
  23596437.617   124000309.348    23596445.094    96623533.622  
  20059103.703   105411393.672    20059107.180    82138786.230  
  21321568.031   112045664.085    21321574.004    87308372.590  
  21738373.711   116408050.715    21738377.945    90539604.006  
  19709391.125   105358034.168    19709394.719    81945207.633  
  22031904.906   117442497.959    22031908.762    91344198.801  
  19437419.547   103867492.758    19437423.012    80786073.406  
  21487567.508   114783693.551    21487570.633    89275510.672  
  23169041.031   123982288.356    23169046.715    96430642.346  
 21  8 30  0 28 30.0000000  0 15G 1G 3G10G21G22G25G26G31G32R 4R 5R14
                                R15R16R21
  22573306.516   118623479.326    22573314.016    92433964.252  
  23791351.141   125024395.301    23791357.871    97421658.366  
  22735060.063   119473586.210    22735066.688    93096339.822  
  23257139.469   122217204.998    23257143.102    95234112.917  
  22392950.539   117675769.011    22392951.992    91695432.396  
  22564695.852   118578352.690    22564703.629    92398748.537  
  23576177.789   123893846.778    23576186.660    96540575.848  
  20055912.984   105394624.339    20055916.137    82125719.225  
  21328855.828   112083960.381    21328861.891    87338213.852  
  21751105.375   116476223.920    21751108.750    90592627.581  
  19706935.234   105344902.585    19706938.313    81934994.179  
  22051359.531   117546204.562    22051364.055    91424859.489  
  19436778.992   103864065.765    19436781.918    80783407.975  
  21465079.320   114663566.173    21465081.789    89182078.312  
  23177711.641   124028678.410    23177714.613    96466723.466  
 21  8 30  0 29  0.0000000  0 17G 1G 3G10G12G21G22G25G26G31G32R 4R 5
                                R14R15R16R20R21
  22575114.727   118632981.813    22575122.027    92441368.746  
  23772318.359   124924372.902    23772324.387    97343718.875  
  22752999.211   119567856.296    22753005.750    93169796.979  
  24540352.492   128960398.3371   24540358.141   100488696.6311 
  23263174.289   122248916.623    23263177.070    95258823.265  
  22378965.742   117602277.581    22378966.906    91638166.365  
  22569038.648   118601172.311    22569044.961    92416530.079  
  23555931.656   123787452.592    23555939.762    96457671.357  
  20052825.500   105378399.457    20052828.395    82113076.472  
  21336178.961   112122442.440    21336184.953    87368199.861  
  21763892.852   116544699.427    21763895.320    90645886.267  
  19704544.461   105332123.147    19704547.410    81925054.605  
  22070893.719   117650331.077    22070898.168    91505846.737  
  19436288.609   103861450.621    19436292.582    80781373.988  
  21442660.297   114543809.268    21442663.727    89088934.089  
  24029854.727   128498523.1321   24029865.789    99943213.8461 
  23186498.352   124075695.717    23186501.723    96503292.440  
 21  8 30  0 29 30.0000000  0 17G 1G 3G10G12G21G22G25G26G31G32R 4R 5
                                R14R15R16R20R21
  22577035.164   118643072.574    22577042.297    92449231.682  
  23753309.297   124824484.202    23753316.125    97265883.586  
  22770994.203   119662419.334    22771000.496    93243482.416  
  24552452.602   129023980.010    24552457.781   100538240.710  
  23269282.156   122281014.109    23269285.273    95283834.248  
  22365038.633   117529089.391    22365039.594    91581136.617  
  22573497.523   118624604.240    22573504.570    92434788.720  
  23535699.625   123681129.707    23535707.348    96374822.436  
  20049841.352   105362718.415    20049844.715    82100857.485  
  21343536.977   112161110.181    21343543.098    87398330.567  
  21776735.703   116613477.118    21776740.199    90699379.998  
  19702219.891   105319697.630    19702223.000    81915390.311  
  22090505.695   117754873.325    22090509.723    91587157.367  
  19435952.227   103859646.765    19435954.832    80779970.995  
  21420311.406   114424426.888    21420314.605    88996081.178  
  24050365.164   128608186.065    24050372.711   100028507.108  
  23195400.164   124123336.616    23195405.605    96540346.430  
 21  8 30  0 30  0.0000000  0 17G 1G 3G10G12G21G22G25G26G31G32R 4R 5
                                R14R15R16R20R21
  22579066.953   118653750.789    22579074.410    92457552.368  
  23734327.172   124724731.597    23734333.785    97188154.305  
  22789044.156   119757273.554    22789051.172    93317394.745  
  24564643.188   129088044.909    24564648.738   100588161.471  
  23275463.195   122313495.375    23275466.828    95309144.296  
  22351169.164   117456206.305    22351170.699    91524344.626  
  22578073.078   118648647.892    22578079.320    92453524.024  
  23515480.500   123574881.024    23515488.742    96292031.329  
  20046960.609   105347580.813    20046963.488    82089061.962  
  21350930.195   112199963.633    21350936.785    87428605.976  
  21789636.375   116682557.338    21789640.012    90753109.043  
  19699961.352   105307627.638    19699964.883    81906002.533  
  22110195.063   117859827.563    22110199.340    91668788.393  
  19435765.195   103858653.788    19435768.742    80779198.704  
  21398034.820   114305422.424    21398037.801    88903522.195  
  24070878.453   128717883.780    24070885.277   100113827.414  
  23204419.133   124171598.406    23204423.176    96577883.371  
 21  8 30  0 30 30.0000000  0 17G 1G 3G10G12G21G22G25G26G31G32R 4R 5
                                R14R15R16R20R21
  22581210.383   118665015.698    22581218.047    92466330.205  
  23715370.539   124625117.684    23715377.582    97110533.104  
  22807149.578   119852417.569    22807156.539    93391532.912  
  24576925.891   129152591.5141   24576931.383   100638457.5321 
  23281716.656   122346359.276    23281720.441    95334752.528  
  22337359.313   117383631.040    22337360.215    91467792.495  
  22582764.594   118673303.046    22582771.301    92472735.831  
  23495276.969   123468709.996    23495285.891    96209300.726  
  20044183.688   105332986.403    20044186.629    82077689.703  
  21358359.422   112239003.135    21358365.816    87459026.358  
  21802593.109   116751940.139    21802596.684    90807073.405  
  19697770.617   105295915.396    19697774.121    81896893.011  
  22129960.586   117965190.115    22129964.383    91750736.993  
  19435731.398   103858471.658    19435734.754    80779057.044  
  21375827.172   114186800.052    21375830.613    88811260.383  
  24091399.297   128827612.210    24091404.168   100199171.651  
  23213553.883   124220477.947    23213555.934    96615900.746  
 21  8 30  0 31  0.0000000  0 16G 1G 3G10G12G21G22G25G26G31G32R 4R 5
                                R14R15R16R21
  22583465.984   118676866.775    22583473.633    92475564.773  
  23696441.688   124525645.140    23696449.309    97033022.102  
  22825309.008   119947849.991    22825316.254    93465895.813  
  24589300.523   129217618.2021   24589305.996   100689127.5871 
  23288043.461   122379604.670    23288046.484    95360657.988  
  22323606.914   117311366.323    22323608.230    91411482.371  
  22587572.773   118698569.534    22587579.547    92492424.006  
  23475088.594   123362619.844    23475096.930    96126633.148  
  20041509.867   105318935.006    20041512.820    82066740.577  
  21365824.188   112278229.122    21365830.262    87489592.052  
  21815606.789   116821626.287    21815610.785    90861273.718  
  19695647.578   105284563.089    19695651.203    81888063.427  
  22149801.938   118070956.944    22149806.930    91833000.068  
  19435848.828   103859100.141    19435852.801    80779545.884  
  21353694.086   114068563.816    21353696.316    88719298.915  
  23222803.438   124269972.480    23222807.070    96654396.437  
 21  8 30  0 31 30.0000000  0 16G 1G 3G10G21G22G25G26G31G32R 4R 5R14
                                R15R16R20R21
  22585832.008   118689302.382    22585839.633    92485254.849  
  23677540.172   124426315.920    23677547.441    96955622.737  
  22843524.500   120043568.623    22843531.254    93540481.699  
  23294442.133   122413229.076    23294444.980    95386858.816  
  22309914.828   117239413.746    22309915.918    91355415.444  
  22592496.977   118724446.222    22592504.090    92512587.668  
  23454916.570   123256613.192    23454924.570    96044030.626  
  20038938.844   105305425.513    20038941.898    82056213.701  
  21373323.609   112317641.106    21373330.129    87520302.677  
  21828676.758   116891615.314    21828680.313    90915709.601  
  19693590.828   105273571.766    19693594.250    81879514.625  
  22169719.219   118177123.839    22169722.820    91915574.289  
  19436118.602   103860538.105    19436121.727    80780664.302  
  21331631.641   113950717.070    21331635.004    88627640.387  
  24132456.938   129047143.7221   24132457.840   100369918.2421 
  23232165.719   124320078.309    23232170.484    96693367.666  
 21  8 30  0 32  0.0000000  0 15G 1G 3G10G21G22G25G26G31G32R 4R 5R14
                                R15R16R21
  22588309.313   118702321.952    22588317.227    92495399.955  
  23658667.078   124327132.711    23658673.438    96878337.134  
  22861793.578   120139572.121    22861799.969    93615289.559  
  23300912.453   122447231.269    23300915.848    95413354.006  
  22296282.344   117167775.940    22296283.734    91299593.803  
  22597536.773   118750932.911    22597543.875    92533226.657  
  23434760.055   123150693.381    23434769.086    95961495.780  
  20036471.102   105292457.903    20036474.422    82046109.078  
  21380858.719   112357239.540    21380865.148    87551158.608  
  21841803.000   116961907.454    21841806.746    90970381.236  
  19691603.203   105262944.001    19691606.578    81871248.577  
  22189710.000   118283687.162    22189714.770    91998456.817  
  19436538.758   103862785.443    19436542.355    80782412.260  
  21309645.531   113833264.007    21309647.840    88536288.051  
  23241643.648   124370792.680    23241647.652    96732812.161  
 21  8 30  0 32 30.0000000  0 15G 1G 3G10G21G22G25G26G31G32R 4R 5R14
                                R15R16R21
  22590898.398   118715923.748    22590905.422    92505998.727  
  23639820.719   124228097.298    23639826.863    96801166.668  
  22880115.977   120235858.086    22880122.785    93690317.543  
  23307454.875   122481608.909    23307457.262    95440141.743  
  22282710.617   117096454.672    22282712.371    91244018.804  
  22602693.039   118778028.291    22602699.336    92554339.939  
  23414621.758   123044862.772    23414629.086    95879030.403  
  20034106.484   105280030.775    20034109.426    82036425.617  
  21388429.578   112397023.828    21388435.930    87582159.337  
  21854985.156   117032502.117    21854989.953    91025288.180  
  19689682.891   105252680.632    19689686.574    81863265.964  
  22209773.977   118390642.049    22209778.762    92081643.906  
  19437110.273   103865840.695    19437114.277    80784788.559  
  21287731.320   113716207.633    21287734.895    88445244.246  
  23251233.164   124422111.665    23251237.164    96772726.901  
 21  8 30  0 33  0.0000000  0 16G 1G 3G10G12G21G22G25G26G31G32R 4R 5
                                R14R15R16R21
  22593597.109   118730106.762    22593604.801    92517050.402  
  23621004.031   124129212.145    23621010.672    96724113.283  
  22898491.703   120332424.864    22898499.051    93765564.306  
  24639702.688   129482472.0701   24639705.977   100895474.8711 
  23314067.008   122516360.240    23314070.191    95467220.694  
  22269199.352   117025451.879    22269201.031    91188691.976  
  22607964.945   118805731.797    22607971.539    92575927.089  
  23394499.672   122939124.558    23394507.879    95796637.044  
  20031844.406   105268143.622    20031847.098    82027162.903  
  21396035.836   112436994.119    21396042.352    87613305.017  
  21868225.992   117103399.678    21868229.633    91080430.700  
  19687831.320   105242783.689    19687834.938    81855568.341  
  22229911.578   118497984.841    22229916.020    92165132.730  
  19437833.367   103869703.499    19437836.629    80787792.974  
  21265893.797   113599551.898    21265896.215    88354512.067  
  23260936.680   124474031.958    23260940.090    96813109.282  
 21  8 30  0 33 30.0000000  0 16G 1G 3G10G12G21G22G25G26G31G32R 4R 5
                                R14R15R16R21
  22596406.828   118744869.652    22596414.105    92528553.931  
  23602215.180   124030479.436    23602222.496    96647178.734  
  22916921.242   120429270.436    22916927.996    93841028.344  
  24652526.102   129549864.348    24652532.168   100947988.338  
  23320751.047   122551483.397    23320754.109    95494589.361  
  22255749.063   116954770.107    22255750.539    91133615.296  
  22613351.883   118834042.487    22613359.180    92597987.352  
  23374396.773   122833481.487    23374405.055    95714317.854  
  20029685.227   105256795.831    20029688.063    82018320.474  
  21403677.164   112477150.293    21403683.059    87644595.554  
  21881521.891   117174599.820    21881525.418    91135808.575  
  19686049.211   105233254.471    19686052.355    81848156.724  
  22250120.938   118605711.169    22250124.645    92248919.844  
  19438707.219   103874372.765    19438710.762    80791424.620  
  21244130.414   113483300.386    21244133.879    88264094.260  
  23270748.992   124526550.105    23270755.320    96853956.704  
 21  8 30  0 34  0.0000000  0 16G 1G 3G10G12G21G22G25G26G31G32R 4R 5
                                R14R15R16R21
  22599325.469   118760211.661    22599333.418    92540508.735  
  23583456.797   123931901.875    23583463.668    96570365.054  
  22935402.977   120526393.409    22935410.074    93916708.544  
  24665439.055   129617723.203    24665444.117   101000865.350  
  23327505.133   122586976.853    23327509.078    95522246.575  
  22242360.477   116884411.708    22242361.383    91078790.591  
  22618855.008   118862960.049    22618861.352    92620520.525  
  23354312.531   122727937.029    23354320.625    95632075.449  
  20027628.039   105245987.064    20027631.070    82009898.069  
  21411354.008   112517492.758    21411360.137    87676031.242  
  21894874.258   117246102.735    21894877.934    91191421.910  
  19684335.438   105224095.227    19684338.938    81841032.874  
  22270400.945   118713817.391    22270404.652    92333002.429  
  19439731.430   103879848.074    19439735.469    80795683.199  
  21222444.758   113367457.060    21222447.313    88173993.955  
  23280676.289   124579663.067    23280681.063    96895266.754  
 21  8 30  0 34 30.0000000  0 16G 1G 3G10G12G21G22G25G26G31G32R 4R 5
                                R14R15R16R21
  22602355.453   118776131.641    22602362.789    92552913.903  
  23564728.094   123833481.966    23564735.855    96493674.219  
  22953937.195   120623792.068    22953944.109    93992603.542  
  24678440.992   129686047.3091   24678447.051   101054104.7721 
  23334329.289   122622839.052    23334333.090    95550191.134  
  22229033.672   116814378.867    22229034.953    91024219.570  
  22624473.086   118892483.697    22624479.941    92643525.958  
  23334246.406   122622494.159    23334255.031    95549912.254  
  20025673.578   105235716.805    20025676.664    82001895.278  
  21419066.680   112558021.566    21419073.035    87707612.131  
  21908283.875   117317908.718    21908287.660    91247270.982  
  19682691.617   105215307.880    19682694.438    81834198.272  
  22290752.289   118822299.713    22290755.895    92417377.559  
  19440906.828   103886128.770    19440910.652    80800568.186  
  21200835.586   113252026.063    21200838.445    88084214.343  
  23290711.352   124633367.664    23290716.879    96937036.942  
 21  8 30  0 35  0.0000000  0 15G 1G 3G10G21G22G25G26G31G32R 4R 5R14
                                R15R16R21
  22605494.297   118792628.221    22605502.211    92565768.348  
  23546029.336   123735221.934    23546037.465    96417107.999  
  22972524.352   120721464.384    22972531.371    94068711.780  
  23341223.633   122659067.815    23341226.621    95578421.304  
  22215769.211   116744673.858    22215770.441    90969904.002  
  22630206.102   118922612.512    22630213.844    92667002.966  
  23314201.469   122517155.807    23314210.316    95467830.476  
  20023821.766   105225983.829    20023824.609    81994311.152  
  21426814.633   112598736.665    21426820.719    87739338.182  
  21921749.906   117390017.455    21921753.402    91303355.539  
  19681118.086   105206893.935    19681120.883    81827654.091  
  22311173.695   118931153.862    22311177.340    92502041.866  
  19442232.484   103893213.715    19442235.887    80806078.708  
  21179304.188   113137010.286    21179307.836    87994757.663  
  23300858.781   124687660.241    23300862.742    96979264.479  
 21  8 30  0 35 30.0000000  0 15G 1G 3G10G21G22G25G26G31G32R 4R 5R14
                                R15R16R21
  22608743.914   118809700.491    22608751.242    92579071.408  
  23527362.250   123637124.471    23527369.715    96340668.445  
  22991162.117   120819408.933    22991168.934    94145032.164  
  23348187.461   122695661.730    23348190.457    95606936.005  
  22202567.188   116675298.993    22202569.000    90915845.668  
  22636054.789   118953346.062    22636061.156    92690951.188  
  23294177.102   122411925.345    23294185.066    95385832.781  
  20022071.984   105216787.928    20022074.680    81987145.521  
  21434597.883   112639638.426    21434603.855    87771209.677  
  21935271.633   117462429.279    21935276.133    91359675.826  
  19679614.359   105198855.501    19679617.262    81821401.982  
  22331663.070   119040375.928    22331667.180    92586992.332  
  19443709.109   103901102.323    19443712.918    80812214.287  
  21157850.711   113022414.481    21157854.566    87905627.641  
  23311111.797   124742537.632    23311117.242    97021946.845  
 21  8 30  0 36  0.0000000  0 15G 1G 3G10G21G22G25G26G31G32R 4R 5R14
                                R15R16R21
  22612101.633   118827346.858    22612108.934    92592821.789  
  23508725.672   123539191.652    23508732.906    96264357.174  
  23009851.414   120917623.519    23009858.820    94221562.948  
  23355219.594   122732618.625    23355223.672    95635733.570  
  22189429.016   116606256.330    22189430.230    90862046.210  
  22642018.250   118984683.071    22642025.137    92715369.632  
  23274173.602   122306805.509    23274181.598    95303921.254  
  20020424.023   105208128.044    20020426.668    81980397.568  
  21442416.336   112680726.539    21442423.184    87803226.378  
  21948851.406   117535143.816    21948854.664    91416231.523  
  19678180.820   105191194.084    19678183.867    81815443.103  
  22352220.938   119149961.700    22352225.387    92672225.665  
  19445335.461   103909793.291    19445338.629    80818973.937  
  21136478.016   112908241.689    21136481.180    87816826.623  
  23321476.438   124797996.179    23321481.238    97065081.250  
 21  8 30  0 36 30.0000000  0 15G 1G 3G10G21G22G25G26G31G32R 4R 5R14
                                R15R16R21
  22615568.594   118845565.803    22615575.250    92607018.349  
  23490121.547   123441425.742    23490128.883    96188175.937  
  23028592.469   121016106.094    23028599.340    94298302.574  
  23362321.367   122769936.691    23362324.367    95664812.539  
  22176354.180   116537547.742    22176355.070    90808507.050  
  22648095.188   119016622.468    22648102.902    92740257.478  
  23254191.586   122201798.981    23254198.891    95222098.051  
  20018877.742   105200002.892    20018880.672    81974066.286  
  21450270.648   112722000.891    21450277.141    87835388.212  
  21962487.258   117608160.786    21962490.219    91473022.468  
  19676818.328   105183910.968    19676821.469    81809778.463  
  22372846.445   119259907.117    22372850.734    92757738.722  
  19447112.172   103919285.546    19447114.973    80826356.800  
  21115184.266   112794495.218    21115187.281    87728357.182  
  23331949.484   124854031.982    23331951.992    97108664.597  
 21  8 30  0 37  0.0000000  0 15G 1G 3G10G21G22G25G26G31G32R 4R 5R14
                                R15R16R21
  22619144.563   118864356.321    22619151.633    92621660.276  
  23471549.992   123343829.368    23471557.512    96112126.859  
  23047383.867   121114855.148    23047390.945    94375249.815  
  23369490.563   122807613.707    23369494.020    95694171.236  
  22163343.453   116469175.791    22163345.090    90755230.238  
  22654287.516   119049163.668    22654295.332    92765614.260  
  23234231.461   122096909.182    23234239.457    95140365.788  
  20017433.078   105192412.509    20017436.207    81968151.719  
  21458160.484   112763461.817    21458166.500    87867695.404  
  21976178.031   117681480.594    21976182.203    91530048.955  
  19675526.656   105177008.324    19675530.129    81804409.746  
  22393538.859   119370208.231    22393542.582    92843528.466  
  19449038.414   103929578.301    19449041.570    80834362.281  
  21093971.211   112681178.878    21093974.641    87640222.299  
  23342527.586   124910641.935    23342531.629    97152694.538  
 21  8 30  0 37 30.0000000  0 15G 1G 3G10G21G22G25G26G31G32R 4R 5R14
                                R15R16R21
  22622828.648   118883716.931    22622835.492    92636746.450  
  23453010.492   123246404.885    23453018.508    96036211.723  
  23066225.617   121213868.641    23066232.824    94452403.128  
  23376728.375   122845648.036    23376731.941    95723808.344  
  22150397.320   116401142.332    22150398.355    90702217.170  
  22660594.773   119082305.657    22660601.293    92791439.153  
  23214293.875   121992139.027    23214302.789    95058726.750  
  20016090.398   105185356.130    20016093.832    81962653.250  
  21466085.547   112805109.254    21466092.012    87900147.948  
  21989926.234   117755102.600    21989931.039    91587310.484  
  19674307.359   105170487.712    19674310.102    81799338.158  
  22414297.188   119480861.025    22414301.934    92929591.750  
  19451114.195   103940670.266    19451117.234    80842989.370  
  21072840.180   112568296.785    21072843.449    87552425.153  
  23353213.125   124967822.490    23353217.309    97197168.273  
 21  8 30  0 38  0.0000000  0 15G 1G 3G10G21G22G25G26G31G32R 4R 5R14
                                R15R16R21
  22626620.773   118903646.647    22626628.121    92652276.081  
  23434504.164   123149155.037    23434512.285    95960432.662  
  23085117.438   121313145.089    23085124.602    94529761.345  
  23384034.008   122884037.827    23384037.793    95753722.440  
  22137515.477   116333450.343    22137517.016    90649470.178  
  22667015.906   119116047.715    22667022.637    92817731.672  
  23194380.328   121887491.902    23194388.816    94977183.578  
  20014849.016   105178832.954    20014851.996    81957570.267  
  21474047.016   112846943.594    21474052.508    87932746.124  
  22003731.625   117829027.540    22003736.063    91644807.594  
  19673159.203   105164351.258    19673162.723    81794565.362  
  22435120.758   119591861.894    22435125.504    93015925.705  
  19453338.234   103952560.745    19453342.473    80852237.524  
  21051790.234   112455852.290    21051793.234    87464968.370  
  23364004.055   125025570.130    23364008.871    97242083.065  
 21  8 30  0 38 30.0000000  0 15G 1G 3G10G21G22G25G26G31G32R 4R 5R14
                                R15R16R21
  22630521.414   118924143.951    22630529.352    92668247.981  
  23416032.336   123052082.265    23416039.527    95884791.587  
  23104058.875   121412682.589    23104065.965    94607322.979  
  23391406.781   122922781.482    23391410.293    95783912.251  
  22124699.648   116266101.546    22124700.602    90596990.619  
  22673551.359   119150388.916    22673557.637    92844491.045  
  23174490.805   121782970.798    23174498.879    94895738.614  
  20013709.039   105172841.885    20013712.492    81952901.911  
  21482043.023   112888964.853    21482049.004    87965489.948  
  22017592.516   117903254.826    22017597.438    91702539.912  
  19672083.602   105158600.678    19672086.602    81790092.692  
  22456008.828   119703206.645    22456013.242    93102527.148  
  19455712.945   103965248.325    19455716.438    80862105.644  
  21030820.930   112343849.256    21030825.402    87377854.940  
  23374900.859   125083881.590    23374905.570    97287436.352  
 21  8 30  0 39  0.0000000  0 15G 1G 3G10G21G22G25G26G31G32R 4R 5R14
                                R15R16R21
  22634529.969   118945207.378    22634536.926    92684661.020  
  23397593.742   122955188.849    23397600.996    95809290.254  
  23123048.891   121512479.134    23123056.555    94685086.471  
  23398846.516   122961876.786    23398850.035    95814376.102  
  22111949.367   116199098.255    22111950.648    90544780.270  
  22680198.703   119185328.039    22680206.805    92871716.334  
  23154625.719   121678578.639    23154633.680    94814394.136  
  20012670.203   105167382.181    20012672.914    81948647.606  
  21490074.797   112931172.998    21490081.121    87998379.409  
  22031511.031   117977784.463    22031515.238    91760507.351  
  19671080.055   105153237.492    19671082.875    81785921.329  
  22476960.148   119814891.274    22476964.426    93189392.949  
  19458236.492   103978732.096    19458240.027    80872593.021  
  21009938.391   112232291.306    21009941.551    87291087.678  
  23385903.344   125142752.868    23385907.406    97333225.040  
 21  8 30  0 39 30.0000000  0 15G 1G 3G10G21G22G25G26G31G32R 4R 5R14
                                R15R16R21
  22638645.289   118966835.791    22638652.504    92701514.317  
  23379190.266   122858477.517    23379197.066    95733930.839  
  23142088.281   121612533.153    23142096.422    94763050.586  
  23406352.336   123001322.279    23406355.910    95845112.835  
  22099264.852   116132443.185    22099266.164    90492841.262  
  22686961.766   119220864.431    22686968.344    92899407.021  
  23134785.211   121574318.749    23134793.816    94733152.735  
  20011732.070   105162453.009    20011735.055    81944806.693  
  21498142.516   112973568.411    21498149.145    88031414.782  
  22045484.945   118052616.543    22045489.211    91818710.046  
  19670149.492   105148263.873    19670152.555    81782052.961  
  22497975.195   119926912.049    22497979.910    93276520.193  
  19460908.516   103993010.633    19460912.516    80883698.553  
  20989138.305   112121182.055    20989142.035    87204669.405  
  23397008.547   125202180.690    23397013.805    97379446.671  
 21  8 30  0 40  0.0000000  0 15G 1G 3G10G21G22G25G26G31G32R 4R 5R14
                                R15R16R21
  22642868.234   118989027.651    22642876.266    92718806.652  
  23360821.938   122761950.717    23360828.242    95658715.178  
  23161177.641   121712842.710    23161183.965    94841213.846  
  23413925.328   123041115.783    23413929.438    95876120.704  
  22086648.000   116066137.864    22086648.867    90441174.794  
  22693837.398   119256996.963    22693843.988    92927562.249  
  23114971.758   121470194.188    23114979.070    94652016.758  
  20010894.938   105158053.725    20010897.949    81941378.693  
  21506245.680   113016151.095    21506251.953    88064596.085  
  22059516.266   118127751.011    22059520.395    91877147.926  
  19669293.180   105143681.428    19669295.801    81778488.845  
  22519051.789   120039264.764    22519056.449    93363905.607  
  19463729.313   104008082.832    19463732.727    80895421.381  
  20968422.695   112010524.977    20968426.422    87118602.825  
  23408218.117   125262161.567    23408221.902    97426098.394  
 21  8 30  0 40 30.0000000  0 15G 1G 3G10G21G22G25G26G31G32R 4R 5R14
                                R15R16R21
  22647198.797   119011781.020    22647205.602    92736536.532  
  23342488.953   122665610.430    23342495.402    95583644.860  
  23180314.289   121813405.454    23180320.301    94919574.364  
  23421563.367   123081255.012    23421567.609    95907397.998  
  22074097.148   116000184.633    22074098.570    90389782.685  
  22700826.805   119293724.125    22700833.848    92956180.791  
  23095183.539   121366207.547    23095191.613    94570988.277  
  20010158.234   105154183.020    20010161.551    81938362.569  
  21514384.063   113058920.715    21514390.668    88097923.049  
  22073603.422   118203187.163    22073607.070    91935820.420  
  19668508.523   105139491.198    19668511.840    81775229.784  
  22540190.023   120151945.146    22540195.059    93451545.887  
  19466697.969   104023947.000    19466701.320    80907760.190  
  20947793.813   111900323.616    20947796.344    87032890.696  
  23419528.828   125322691.171    23419533.531    97473176.913  
 21  8 30  0 41  0.0000000  0 15G 1G 3G10G21G22G25G26G31G32R 4R 5R14
                                R15R16R21
  22651634.586   119035094.573    22651642.137    92754702.929  
  23324191.883   122569459.257    23324198.371    95508721.919  
  23199498.039   121914219.674    23199505.180    94998130.821  
  23429267.781   123121737.933    23429271.227    95938943.107  
  22061614.164   115934585.185    22061615.063    90338666.246  
  22707928.875   119331044.912    22707935.281    92985261.925  
  23075421.656   121262362.116    23075429.980    94490069.795  
  20009522.109   105150840.289    20009525.234    81935757.839  
  21522559.266   113101877.489    21522565.266    88131395.848  
  22087747.789   118278924.993    22087750.762    91994727.574  
  19667798.016   105135695.229    19667801.703    81772277.362  
  22561389.898   120264949.202    22561393.988    93539437.902  
  19469814.930   104040601.817    19469818.086    80920713.936  
  20927250.727   111790581.559    20927252.715    86947535.783  
  23430942.313   125383765.949    23430947.215    97520679.502  
 21  8 30  0 41 30.0000000  0 15G 1G 3G10G21G22G25G26G31G32R 4R 5R14
                                R15R16R21
  22656177.969   119058966.547    22656184.824    92773304.448  
  23305931.016   122473499.452    23305938.020    95433948.088  
  23218729.984   122015283.150    23218736.914    95076881.526  
  23437036.141   123162562.401    23437039.332    95970754.340  
  22049199.117   115869341.756    22049200.453    90287827.223  
  22715143.266   119368957.960    22715150.090    93014804.556  
  23055688.375   121158660.535    23055695.898    94409263.413  
  20008986.359   105148024.198    20008989.238    81933563.504  
  21530768.898   113145021.202    21530774.656    88165014.314  
  22101948.133   118354964.164    22101950.336    92053869.113  
  19667162.484   105132294.795    19667165.520    81769632.586  
  22582649.477   120378272.863    22582654.094    93627578.474  
  19473078.945   104058045.492    19473082.121    80934281.243  
  20906792.164   111681301.905    20906795.633    86862540.531  
  23442456.578   125445382.220    23442462.105    97568603.216  
 21  8 30  0 42  0.0000000  0 16G 1G 3G10G12G21G22G25G26G31G32R 4R 5
                                R14R15R16R21
  22660826.563   119083395.210    22660833.574    92792339.733  
  23287707.313   122377733.381    23287714.684    95359325.224  
  23238008.281   122116593.802    23238015.930    95155824.861  
  24883787.219   130765147.6761   24883790.848   101894962.5051 
  23444869.336   123203726.646    23444872.480    96002830.329  
  22036851.422   115804456.430    22036852.434    90237267.246  
  22722470.242   119407461.975    22722476.574    93044807.691  
  23035982.180   121055105.871    23035990.789    94328571.517  
  20008550.352   105145733.215    20008553.488    81931778.325  
  21539014.656   113188351.898    21539020.484    88198778.481  
  22116202.703   118431304.388    22116206.668    92113244.828  
  19666600.266   105129291.495    19666603.797    81767296.693  
  22603967.367   120491911.844    22603971.785    93715964.315  
  19476490.289   104076276.523    19476494.230    80948460.949  
  20886420.883   111572488.336    20886424.871    86777907.814  
  23454069.328   125507535.870    23454076.473    97616944.928  
 21  8 30  0 42 30.0000000  0 16G 1G 3G10G12G21G22G25G26G31G32R 4R 5
                                R14R15R16R21
  22665580.313   119108379.417    22665588.188    92811807.946  
  23269521.391   122282163.892    23269528.629    95284855.564  
  23257334.328   122218150.187    23257342.391    95234959.650  
  24898145.961   130840598.292    24898148.363   101953755.298  
  23452766.703   123245228.643    23452770.629    96035169.505  
  22024572.750   115739931.858    22024574.070    90186988.361  
  22729909.414   119446556.268    22729916.836    93075270.768  
  23016305.508   120951701.607    23016313.371    94247996.817  
  20008214.242   105143967.119    20008217.223    81930402.155  
  21547295.758   113231870.027    21547302.328    88232688.707  
  22130515.227   118507945.610    22130518.590    92172854.613  
  19666113.695   105126687.609    19666116.605    81765271.448  
  22625344.930   120605862.662    22625348.992    93804592.697  
  19480049.602   104095293.941    19480052.988    80963252.268  
  20866140.148   111464144.673    20866143.016    86693640.575  
  23465786.109   125570223.578    23465791.172    97665701.940  
 21  8 30  0 43  0.0000000  0 15G 1G 3G10G21G22G25G26G31G32R 4R 5R14
                                R15R16R21
  22670440.148   119133917.645    22670447.582    92831707.858  
  23251373.492   122186793.621    23251380.090    95210541.127  
  23276706.242   122319950.534    23276713.598    95314284.549  
  23460728.008   123287066.883    23460732.250    96067770.695  
  22012363.461   115675769.938    22012364.500    90136992.061  
  22737460.953   119486239.645    22737468.063    93106192.874  
  22996656.586   120848450.863    22996665.281    94167541.732  
  20007977.922   105142724.925    20007980.922    81929434.213  
  21555612.859   113275575.786    21555618.855    88266745.138  
  22144883.555   118584888.089    22144887.219    92232698.698  
  19665701.539   105124484.980    19665705.199    81763558.295  
  22646780.320   120720121.481    22646783.188    93893460.692  
  19483754.797   104115096.290    19483758.641    80978654.108  
  20845945.797   111356274.339    20845949.289    86609741.480  
  23477600.875   125633441.598    23477605.453    97714871.489  
 21  8 30  0 43 30.0000000  0 15G 1G 3G10G21G22G25G26G31G32R 4R 5R14
                                R15R16R21
  22675404.766   119160008.546    22675412.820    92852038.420  
  23233262.992   122091625.262    23233270.281    95136384.006  
  23296124.172   122421993.054    23296131.715    95393798.144  
  23468753.430   123329238.914    23468757.086    96100631.998  
  22000222.719   115611973.352    22000224.281    90087280.460  
  22745124.688   119526511.160    22745131.105    93137573.262  
  22977039.086   120745356.947    22977047.457    94087208.863  
  20007841.164   105142006.105    20007844.008    81928874.093  
  21563965.594   113319469.470    21563971.527    88300947.997  
  22159308.336   118662131.615    22159313.035    92292776.968  
  19665364.297   105122685.399    19665367.703    81762158.630  
  22668270.453   120834684.497    22668275.359    93982565.226  
  19487607.977   104135682.146    19487611.410    80994665.326  
  20825841.656   111248881.437    20825844.984    86526213.733  
  23489512.164   125697186.570    23489517.941    97764450.837  
 21  8 30  0 44  0.0000000  0 15G 1G 3G10G21G22G25G26G31G32R 4R 5R14
                                R15R16R21
  22680474.859   119186650.143    22680482.809    92872798.088  
  23215192.180   121996661.078    23215198.883    95062385.984  
  23315588.023   122524275.491    23315595.582    95473498.697  
  23476841.789   123371742.588    23476845.336    96133751.687  
  21988152.734   115548544.186    21988153.879    90037855.132  
  22752899.570   119567369.217    22752906.566    93169410.700  
  22957451.086   120642422.613    22957459.813    94007000.367  
  20007803.953   105141809.262    20007806.738    81928720.710  
  21572354.305   113363550.930    21572360.141    88335297.184  
  22173789.719   118739675.786    22173793.980    92353089.065  
  19665103.281   105121289.940    19665106.543    81761073.280  
  22689818.891   120949547.730    22689823.254    94071903.235  
  19491606.539   104157049.762    19491610.008    81011284.588  
  20805826.953   111141968.812    20805830.375    86443059.521  
  23501521.547   125761454.214    23501527.383    97814436.716  
 21  8 30  0 44 30.0000000  0 15G 1G 3G10G21G22G25G26G31G32R 4R 5R14
                                R15R16R21
  22685649.109   119213840.697    22685657.000    92893985.535  
  23197160.328   121901903.456    23197166.730    94988548.923  
  23335097.547   122626795.912    23335104.672    95553384.663  
  23484992.305   123414576.000    23484996.086    96167128.346  
  21976153.398   115485484.201    21976153.926    89988717.472  
  22760786.617   119608812.530    22760793.223    93201704.177  
  22937894.602   120539650.964    22937902.270    93926918.608  
  20007865.078   105142133.028    20007868.148    81928972.996  
  21580777.914   113407820.147    21580784.113    88369792.681  
  22188325.766   118817520.115    22188330.875    92413634.613  
  19664918.633   105120300.684    19664921.547    81760303.858  
  22711422.164   121064706.775    22711427.539    94161471.357  
  19495750.898   104179197.217    19495754.000    81028510.386  
  20785904.086   111035540.357    20785906.828    86360281.886  
  23513628.898   125826240.772    23513635.020    97864826.239  
 21  8 30  0 45  0.0000000  0 15G 1G 3G10G21G22G25G26G31G32R 4R 5R14
                                R15R16R21
  22690927.500   119241578.811    22690934.910    92915599.643  
  23179168.055   121807355.185    23179174.461    94914875.004  
  23354651.453   122729552.540    23354658.430    95633454.693  
  23493205.484   123457737.476    23493209.594    96200760.635  
  21964223.352   115422795.897    21964224.836    89939869.437  
  22768783.820   119650840.051    22768790.203    93234452.872  
  22918369.016   120437045.361    22918377.625    93846966.240  
  20008025.609   105142976.794    20008028.867    81929630.480  
  21589237.992   113452277.556    21589244.055    88404434.814  
  22202919.789   118895664.948    22202923.410    92474413.900  
  19664809.453   105119719.518    19664813.477    81759851.843  
  22733080.336   121180158.120    22733085.363    94251266.823  
  19500040.945   104202123.322    19500044.789    81046341.810  
  20766071.398   110929598.969    20766074.168    86277883.078  
  23525832.727   125891542.741    23525837.871    97915616.639  
 21  8 30  0 45 30.0000000  0 15G 1G 3G10G21G22G25G26G31G32R 4R 5R14
                                R15R16R21
  22696310.086   119269862.603    22696316.457    92937638.936  
  23161216.070   121713018.680    23161222.629    94841366.061  
  23374249.797   122832543.337    23374257.098    95713707.206  
  23501480.609   123501224.495    23501484.633    96234646.592  
  21952365.328   115360481.150    21952366.668    89891312.511  
  22776891.719   119693450.279    22776899.363    93267655.658  
  22898876.289   120334608.613    22898884.004    93767145.465  
  20008285.047   105144339.390    20008288.098    81930692.242  
  21597734.172   113496923.023    21597739.875    88439223.491  
  22217568.461   118974109.622    22217572.219    92535426.370  
  19664777.961   105119547.750    19664780.590    81759718.256  
  22754793.367   121295897.726    22754798.191    94341286.483  
  19504477.297   104225826.089    19504480.355    81064777.295  
  20746331.375   110824148.767    20746334.520    86195866.285  
  23538131.813   125957355.932    23538135.672    97966804.623  
 21  8 30  0 46  0.0000000  0 15G 1G 3G10G21G22G25G26G31G32R 4R 5R14
                                R15R16R21
  22701795.531   119298690.336    22701802.977    92960102.107  
  23143305.039   121618896.405    23143312.094    94768024.071  
  23393893.227   122935766.299    23393899.227    95794140.616  
  23509818.148   123545035.322    23509822.066    96268784.848  
  21940578.938   115298541.975    21940580.137    89843048.221  
  22785111.336   119736641.925    22785117.219    93301311.458  
  22879415.180   120232343.944    22879423.371    93687458.756  
  20008642.711   105146219.528    20008645.645    81932157.288  
  21606265.352   113541756.751    21606271.410    88474158.867  
  22232273.281   119052853.899    22232277.789    92596671.865  
  19664822.578   105119786.858    19664826.137    81759904.225  
  22776558.953   121411921.438    22776563.504    94431527.137  
  19509057.648   104250303.880    19509060.766    81083815.573  
  20726682.117   110719193.032    20726686.098    86114234.102  
  23550525.344   126023676.478    23550529.699    98018387.206  
 21  8 30  0 46 30.0000000  0 15G 1G 3G10G21G22G25G26G31G32R 4R 5R14
                                R15R16R21
  22707384.453   119328060.305    22707392.020    92982987.795  
  23125436.234   121524991.039    23125442.207    94694851.089  
  23413579.109   123039219.555    23413586.180    95874753.465  
  23518216.203   123589167.640    23518220.160    96303173.629  
  21928864.539   115236980.730    21928865.340    89795078.413  
  22793440.875   119780413.621    22793448.207    93335419.255  
  22859988.820   120130254.333    22859996.992    93607908.489  
  20009099.227   105148616.331    20009101.984    81934024.927  
  21614833.039   113586778.842    21614839.023    88509241.014  
  22247033.836   119131897.526    22247038.230    92658150.173  
  19664944.203   105120438.701    19664947.410    81760411.221  
  22798377.609   121528225.450    22798382.211    94521985.781  
  19513782.820   104275554.786    19513786.793    81103455.177  
  20707128.508   110614735.134    20707131.027    86032989.115  
  23563013.797   126090500.544    23563017.645    98070361.454  
 21  8 30  0 47  0.0000000  0 15G 1G 3G10G21G22G25G26G31G32R 4R 5R14
                                R15R16R21
  22713076.703   119357970.410    22713083.535    93006294.365  
  23107608.141   121431304.657    23107613.789    94621848.740  
  23433309.281   123142900.684    23433316.121    95955543.902  
  23526675.031   123633619.270    23526678.625    96337811.274  
  21917222.031   115175799.837    21917223.051    89747404.984  
  22801880.125   119824763.646    22801886.750    93369977.728  
  22840595.609   120028342.661    22840603.527    93528496.843  
  20009652.969   105151528.185    20009655.957    81936293.912  
  21623435.891   113631989.025    21623441.922    88544469.726  
  22261851.219   119211240.020    22261855.629    92719860.969  
  19665143.469   105121504.642    19665147.258    81761240.283  
  22820247.070   121644805.665    22820251.527    94612659.269  
  19518652.531   104301576.733    19518655.906    81123694.466  
  20687667.781   110510777.885    20687670.484    85952133.526  
  23575593.641   126157823.923    23575598.910    98122724.056  
 21  8 30  0 47 30.0000000  0 15G 1G 3G10G21G22G25G26G31G32R 4R 5R14
                                R15R16R21
  22718870.047   119388419.115    22718877.480    93030020.618  
  23089822.094   121337840.131    23089828.453    94549019.270  
  23453081.930   123246807.993    23453089.398    96036510.590  
  23535194.305   123678387.815    23535197.707    96372695.790  
  21905651.953   115115000.476    21905653.125    89700028.853  
  22810429.188   119869690.876    22810436.184    93404985.926  
  22821237.219   119926612.239    22821244.559    93449226.423  
  20010304.938   105154954.425    20010307.871    81938963.713  
  21632075.164   113677387.733    21632081.137    88579845.346  
  22276722.867   119290881.222    22276727.090    92781804.102  
  19665420.570   105122986.294    19665424.754    81762392.691  
  22842168.750   121761658.226    22842173.078    94703544.573  
  19523666.070   104328367.916    19523669.707    81144532.060  
  20668300.398   110407325.330    20668303.902    85871670.468  
  23588267.586   126225642.991    23588272.340    98175472.180  
 21  8 30  0 48  0.0000000  0 15G 1G 3G10G21G22G25G26G31G32R 4R 5R14
                                R15R16R21
  22724767.055   119419404.773    22724773.914    93054165.283  
  23072079.273   121244600.234    23072085.570    94476364.829  
  23472898.156   123350939.826    23472904.836    96117652.233  
  23543773.984   123723471.793    23543777.172    96407826.137  
  21894155.953   115054585.646    21894156.930    89652952.373  
  22819088.992   119915194.051    22819095.699    93440442.946  
  22801912.859   119825066.390    22801921.059    93370099.826  
  20011054.703   105158894.406    20011057.605    81942033.839  
  21640749.906   113722975.295    21640756.473    88615368.116  
  22291652.313   119370821.122    22291655.207    92843979.534  
  19665776.563   105124886.137    19665779.746    81763870.342  
  22864140.617   121878779.699    22864144.473    94794639.010  
  19528823.203   104355926.989    19528826.648    81165966.885  
  20649029.008   110304380.783    20649031.508    85791602.531  
  23601033.578   126293954.016    23601038.121    98228602.926  
 21  8 30  0 48 30.0000000  0 15G 1G 3G10G21G22G25G26G31G32R 4R 5R14
                                R15R16R21
  22730764.781   119450925.327    22730772.176    93078726.734  
  23054379.406   121151587.239    23054386.230    94403887.209  
  23492755.289   123455293.835    23492763.191    96198967.012  
  23552412.375   123768868.672    23552416.137    96443200.300  
  21882732.461   114994557.097    21882734.055    89606176.881  
  22827856.664   119961271.490    22827863.285    93476347.419  
  22782625.219   119723707.865    22782633.418    93291119.213  
  20011901.984   105163346.308    20011904.977    81945502.859  
  21649461.273   113768751.533    21649467.176    88651037.917  
  22306634.688   119451059.181    22306639.012    92906386.849  
  19666210.055   105127204.743    19666213.563    81765673.696  
  22886162.352   121996165.583    22886165.762    94885939.133  
  19534124.336   104384251.568    19534127.617    81187997.110  
  20629853.586   110201947.381    20629856.359    85711932.140  
  23613889.992   126362752.646    23613894.746    98282112.947  
 21  8 30  0 49  0.0000000  0 15G 1G 3G10G21G22G25G26G31G32R 4R 5R14
                                R15R16R21
  22736864.742   119482978.875    22736871.613    93103703.516  
  23036723.609   121058803.725    23036729.879    94331588.386  
  23512654.758   123559868.005    23512662.379    96280453.359  
  23561110.609   123814576.277    23561113.781    96478816.578  
  21871383.180   114934916.910    21871384.734    89559704.017  
  22836733.938   120007921.659    22836741.543    93512698.219  
  22763373.375   119622539.827    22763381.457    93212287.030  
  20012846.438   105168308.543    20012849.441    81949369.543  
  21658207.758   113814716.568    21658213.914    88686854.821  
  22321673.813   119531594.816    22321679.527    92969025.645  
  19666722.305   105129944.117    19666725.551    81767804.327  
  22908232.031   122113812.237    22908236.852    94977442.054  
  19539566.750   104413339.759    19539571.418    81210621.279  
  20610774.016   110100028.457    20610776.906    85632661.898  
  23626836.789   126432034.832    23626841.488    98335999.015  
 21  8 30  0 49 30.0000000  0 15G 1G 3G10G21G22G25G26G31G32R 4R 5R14
                                R15R16R21
  22743065.180   119515563.535    22743072.273    93129094.145  
  23019111.234   120966252.266    23019118.191    94259470.394  
  23532596.672   123664660.363    23532603.965    96362109.673  
  23569867.023   123860592.602    23569870.406    96514673.411  
  21860108.898   114875667.100    21860110.223    89513535.336  
  22845720.148   120055143.085    22845727.090    93549494.119  
  22744159.250   119521565.411    22744166.402    93133605.699  
  20013887.469   105173780.085    20013890.316    81953633.083  
  21666990.289   113860870.555    21666997.145    88722818.964  
  22336769.930   119612427.867    22336775.227    93031895.776  
  19667313.594   105133106.055    19667317.465    81770263.609  
  22930350.539   122231715.567    22930355.930    95069144.624  
  19545153.258   104443189.469    19545157.328    81233837.702  
  20591791.016   109998627.759    20591794.285    85553794.735  
  23639874.281   126501796.786    23639877.805    98390258.223  
 21  8 30  0 50  0.0000000  0 15G 1G 3G10G21G22G25G26G31G32R 4R 5R14
                                R15R16R21
  22749366.758   119548677.429    22749373.867    93154897.161  
  23001544.227   120873935.431    23001550.961    94187535.242  
  23552578.492   123769668.984    23552587.039    96443934.511  
  23578682.039   123906915.450    23578686.070    96550769.111  
  21848908.250   114816810.035    21848909.539    89467672.709  
  22854814.750   120102934.317    22854821.586    93586734.036  
  22724981.055   119420787.714    22724989.156    93055077.676  
  20015025.023   105179760.071    20015028.148    81958292.822  
  21675809.703   113907213.649    21675815.770    88758930.463  
  22351920.695   119693557.966    22351925.871    93094996.941  
  19667984.641   105136691.892    19667988.191    81773052.596  
  22952516.008   122349872.036    22952520.965    95161044.056  
  19550881.977   104473798.851    19550884.695    81257644.996  
  20572906.805   109897748.341    20572909.203    85475333.013  
  23652998.688   126572034.279    23653004.547    98444887.366  
 21  8 30  0 50 30.0000000  0 15G 1G 3G10G21G22G25G26G31G32R 4R 5R14
                                R15R16R21
  22755767.750   119582318.782    22755775.719    93181111.196  
  22984021.766   120781855.827    22984028.492    94115784.941  
  23572602.594   123874891.815    23572609.891    96525926.273  
  23587555.367   123953542.724    23587558.461    96587102.024  
  21837783.078   114758347.790    21837784.934    89422117.740  
  22864016.867   120151293.806    22864023.195    93624416.761  
  22705841.961   119320209.886    22705850.148    92976705.387  
  20016259.734   105186247.404    20016262.598    81963347.886  
  21684664.227   113953745.992    21684670.145    88795189.420  
  22367126.430   119774984.671    22367130.941    93158328.785  
  19668734.984   105140703.226    19668738.398    81776172.523  
  22974729.031   122468277.546    22974733.727    95253137.226  
  19556751.719   104505165.773    19556755.109    81282041.503  
  20554120.352   109797393.467    20554122.563    85397279.263  
  23666212.930   126642743.576    23666218.414    98499883.464  
 21  8 30  0 51  0.0000000  0 15G 1G 3G10G21G22G25G26G31G32R 4R 5R14
                                R15R16R21
  22762270.367   119616485.224    22762277.176    93207734.370  
  22966544.805   120690015.779    22966551.559    94044221.314  
  23592666.805   123980326.614    23592674.047    96608083.193  
  23596485.516   124000471.813    23596488.371    96623670.101  
  21826734.453   114700282.176    21826734.918    89376871.818  
  22873327.086   120200219.729    22873334.328    93662540.856  
  22686741.328   119219834.719    22686748.871    92898491.013  
  20017590.625   105193240.258    20017593.605    81968796.864  
  21693554.805   114000467.424    21693561.313    88831595.722  
  22382388.797   119856707.594    22382391.289    93221891.022  
  19669565.281   105145141.425    19669568.445    81779624.460  
  22996987.430   122586928.133    22996991.867    95345420.966  
  19562762.609   104537287.713    19562766.133    81307025.232  
  20535431.391   109697566.271    20535435.016    85319635.929  
  23679514.578   126713920.267    23679517.988    98555243.039  
 21  8 30  0 51 30.0000000  0 15G 1G 3G10G21G22G25G26G31G32R 4R 5R14
                                R15R16R21
  22768871.852   119651175.117    22768879.074    93234765.442  
  22949114.367   120598418.174    22949121.031    93972846.612  
  23612770.203   124085971.564    23612776.453    96690403.904  
  23605472.820   124047700.928    23605476.309    96660471.979  
  21815760.688   114642615.397    21815761.758    89331936.672  
  22882744.930   120249710.762    22882751.723    93701105.292  
  22667679.430   119119665.599    22667687.895    92820437.205  
  20019017.305   105200737.803    20019020.305    81974639.114  
  21702481.547   114047378.409    21702487.895    88868149.741  
  22397705.016   119938726.595    22397708.344    93285683.524  
  19670476.078   105150008.402    19670479.516    81783409.890  
  23019291.688   122705820.215    23019295.988    95437892.536  
  19568914.234   104570162.887    19568917.996    81332594.820  
  20516843.039   109598269.993    20516846.180    85242405.535  
  23692901.953   126785560.529    23692906.367    98610963.153  
 21  8 30  0 52  0.0000000  0 15G 1G 3G10G21G22G25G26G31G32R 4R 5R14
                                R15R16R21
  22775571.828   119686386.400    22775579.730    93262202.780  
  22931731.117   120507065.369    22931737.414    93901662.658  
  23632913.266   124191824.555    23632919.938    96772886.740  
  23614516.914   124095227.645    23614520.438    96697505.763  
  21804862.484   114585349.314    21804864.137    89287313.775  
  22892270.461   120299765.123    22892277.016    93740108.688  
  22648657.711   119019705.545    22648666.203    92742546.299  
  20020540.000   105208738.460    20020542.520    81980873.388  
  21711444.586   114094478.911    21711450.902    88904851.411  
  22413075.797   120021040.937    22413079.996    93349705.755  
  19671466.445   105155305.455    19671470.035    81787529.827  
  23041640.508   122824949.666    23041643.898    95530548.739  
  19575207.383   104603789.165    19575210.930    81358748.587  
  20498354.703   109499507.876    20498357.977    85165590.603  
  23706374.578   126857660.203    23706380.074    98667040.663  
 21  8 30  0 52 30.0000000  0 15G 1G 3G10G21G22G25G26G31G32R 4R 5R14
                                R15R16R21
  22782370.813   119722117.004    22782378.102    93290044.796  
  22914394.445   120415960.045    22914400.570    93830671.541  
  23653095.352   124297883.555    23653102.141    96855530.082  
  23623617.094   124143050.154    23623620.500    96734769.997  
  21794042.438   114528485.929    21794043.672    89243004.679  
  22901901.938   120350381.274    22901908.813    93779549.837  
  22629675.781   118919957.614    22629684.348    92664820.684  
  20022157.547   105217240.934    20022160.598    81987498.690  
  21720443.641   114141769.043    21720450.125    88941700.856  
  22428504.367   120103650.326    22428507.531    93413957.459  
  19672538.492   105161034.414    19672541.898    81791985.697  
  23064032.172   122944312.737    23064036.133    95623386.692  
  19581640.227   104638163.963    19581643.980    81385484.546  
  20479966.719   109401283.082    20479969.879    85089193.599  
  23719932.938   126930215.302    23719938.637    98723472.365  
 21  8 30  0 53  0.0000000  0 15G 1G 3G10G21G22G25G26G31G32R 4R 5R14
                                R15R16R21
  22789269.102   119758364.837    22789275.703    93318289.830  
  22897105.039   120325104.686    22897110.977    93759875.193  
  23673316.461   124404146.429    23673323.879    96938332.282  
  23632773.156   124191165.963    23632776.949    96772262.777  
  21783298.563   114472027.405    21783299.469    89199011.038  
  22911640.633   120401557.408    22911647.473    93819427.350  
  22610736.148   118820424.856    22610743.645    92587262.727  
  20023870.820   105226244.268    20023873.504    81994514.283  
  21729478.945   114189248.895    21729485.172    88978698.135  
  22443982.922   120186554.312    22443988.031    93478438.344  
  19673691.148   105167196.324    19673694.266    81796778.288  
  23086467.195   123063905.609    23086471.789    95716403.328  
  19588212.734   104673285.357    19588215.895    81412801.198  
  20461680.656   109303598.980    20461682.727    85013217.113  
  23733577.891   127003221.488    23733581.090    98780254.878  
 21  8 30  0 53 30.0000000  0 15G 1G 3G10G21G22G25G26G31G32R 4R 5R14
                                R15R16R21
  22796264.438   119795128.085    22796272.199    93346936.502  
  22879863.734   120234502.112    22879870.133    93689275.833  
  23693575.430   124510611.418    23693584.199    97021291.992  
  23641984.867   124239572.687    23641988.277    96809982.265  
  21772632.063   114415975.820    21772633.035    89155334.508  
  22921485.680   120453292.152    22921492.234    93859740.159  
  22591836.875   118721110.572    22591844.578    92509875.025  
  20025679.453   105235747.067    20025682.391    82001919.059  
  21738549.938   114236918.814    21738556.461    89015843.518  
  22459521.945   120269752.424    22459524.742    93543147.936  
  19674925.000   105173793.185    19674928.359    81801909.191  
  23108944.836   123183724.627    23108949.605    95809595.885  
  19594924.453   104709151.036    19594928.160    81440696.721  
  20443495.742   109206458.809    20443498.516    84937663.690  
  23747304.016   127076674.889    23747307.672    98837385.292  
 21  8 30  0 54  0.0000000  0 15G 1G 3G10G21G22G25G26G31G32R 4R 5R14
                                R15R16R21
  22803358.125   119832404.511    22803365.578    93375983.055  
  22862670.836   120144154.715    22862677.594    93618875.316  
  23713873.555   124617276.207    23713881.633    97104407.383  
  23651251.172   124288268.125    23651254.820    96847926.742  
  21762043.680   114360333.415    21762044.922    89111976.801  
  22931436.141   120505583.510    22931443.012    93900486.658  
  22572979.844   118622017.707    22572988.203    92432659.857  
  20027582.711   105245747.700    20027585.535    82009711.746  
  21747657.258   114284778.759    21747664.055    89053136.966  
  22475112.414   120353244.258    22475115.723    93608085.965  
  19676240.914   105180826.398    19676244.367    81807379.464  
  23131464.789   123303765.691    23131469.199    95902961.117  
  19601775.281   104745758.699    19601778.336    81469169.351  
  20425412.789   109109865.638    20425415.977    84862535.704  
  23761113.328   127150571.261    23761116.344    98894860.267  
 21  8 30  0 54 30.0000000  0 15G 1G 3G10G21G22G25G26G31G32R 4R 5R14
                                R15R16R21
  22810549.008   119870192.039    22810556.191    93405427.841  
  22845527.500   120054065.098    22845533.691    93548675.656  
  23734209.094   124724138.778    23734217.559    97187676.872  
  23660571.984   124337250.086    23660576.090    96886094.452  
  21751533.656   114305102.067    21751534.730    89068939.412  
  22941492.211   120558429.843    22941499.484    93941665.627  
  22554165.930   118523149.367    22554173.957    92355619.631  
  20029579.773   105256245.068    20029583.152    82017891.523  
  21756801.289   114332828.889    21756807.859    89090578.613  
  22490757.391   120437029.504    22490763.348    93673252.227  
  19677638.836   105188297.366    19677641.949    81813190.211  
  23154025.148   123424024.974    23154029.648    95996496.088  
  19608763.930   104783105.701    19608767.539    81498217.028  
  20407433.742   109013822.709    20407436.586    84787835.691  
  23775004.242   127224906.380    23775008.879    98952676.421  
 21  8 30  0 55  0.0000000  0 15G 1G 3G10G21G22G25G26G31G32R 4R 5R14
                                R15R16R21
  22817836.727   119908488.596    22817843.543    93435269.274  
  22828433.586   119964235.993    22828439.980    93478678.971  
  23754581.609   124831197.181    23754589.078    97271098.965  
  23669947.602   124386516.590    23669950.879    96924483.858  
  21741101.930   114250283.836    21741103.031    89026223.932  
  22951653.672   120611829.502    22951660.375    93983275.732  
  22535395.602   118424508.678    22535403.355    92278756.817  
  20031671.461   105267237.722    20031674.676    82026457.232  
  21765981.203   114381069.374    21765987.324    89128168.600  
  22506460.719   120521107.629    22506464.301    93738646.287  
  19679118.805   105196207.871    19679122.023    81819342.832  
  23176626.242   123544498.889    23176630.266    96090197.977  
  19615891.305   104821189.998    19615894.258    81527838.136  
  20389556.781   108918333.247    20389560.492    84713566.148  
  23788977.922   127299676.358    23788982.777    99010830.787  
 21  8 30  0 55 30.0000000  0 15G 1G 3G10G21G22G25G26G31G32R 4R 5R14
                                R15R16R21
  22825220.547   119947292.057    22825228.344    93465505.731  
  22811390.289   119874669.964    22811396.164    93408887.287  
  23774990.969   124938449.240    23774997.867    97354671.974  
  23679376.117   124436064.958    23679379.543    96963092.961  
  21730749.281   114195880.358    21730750.363    88983831.630  
  22961920.117   120665780.686    22961926.895    94025315.629  
  22516668.633   118326098.776    22516676.387    92202073.831  
  20033857.781   105278724.212    20033860.188    82035407.747  
  21775197.078   114429500.385    21775203.516    89165907.027  
  22522216.672   120605477.894    22522220.402    93804267.582  
  19680681.070   105204559.355    19680683.613    81825838.430  
  23199265.930   123665183.513    23199270.254    96184063.757  
  19623155.047   104860009.051    19623158.738    81558030.751  
  20371786.391   108823400.249    20371789.445    84639729.412  
  23803031.109   127374877.039    23803035.070    99069320.117  
 21  8 30  0 56  0.0000000  0 15G 1G 3G10G21G22G25G26G31G32R 4R 5R14
                                R15R16R21
  22832701.125   119986600.182    22832708.090    93496135.405  
  22794396.406   119785369.481    22794403.004    93339302.539  
  23795437.102   125045892.840    23795443.887    97438394.203  
  23688857.500   124485893.189    23688861.398    97001920.102  
  21720475.625   114141894.107    21720476.988    88941764.442  
  22972291.258   120720281.514    22972298.547    94067783.785  
  22497986.250   118227922.612    22497993.938    92125572.984  
  20036136.977   105290703.079    20036139.910    82044741.933  
  21784449.734   114478121.903    21784455.875    89203793.920  
  22538025.508   120690139.978    22538029.934    93870115.822  
  19682325.938   105213352.553    19682328.809    81832677.580  
  23221945.641   123786075.264    23221948.949    96278090.655  
  19630557.086   104899560.384    19630560.270    81588792.884  
  20354118.484   108729026.641    20354121.887    84566327.745  
  23817159.984   127450503.842    23817167.727    99128140.921  
 21  8 30  0 56 30.0000000  0 15G 1G 3G10G21G22G25G26G31G32R 4R 5R14
                                R15R16R21
  22840276.406   120026410.933    22840283.602    93527156.755  
  22777453.945   119696337.346    22777461.043    93269926.884  
  23815918.391   125153526.013    23815925.379    97522264.189  
  23698393.523   124535999.304    23698396.645    97040963.745  
  21710282.422   114088327.068    21710283.887    88900023.916  
  22982767.195   120775330.315    22982773.941    94110678.944  
  22479348.672   118129983.449    22479356.730    92049256.800  
  20038510.023   105303173.248    20038513.168    82054458.943  
  21793738.391   114526934.243    21793744.719    89241829.498  
  22553890.727   120775093.296    22553894.410    93936190.563  
  19684053.656   105222589.944    19684056.988    81839862.215  
  23244661.906   123907170.236    23244666.137    96372275.595  
  19638095.539   104939841.689    19638098.621    81620122.793  
  20336557.234   108635215.535    20336560.445    84493363.593  
  23831375.523   127526553.021    23831378.949    99187290.160  
 21  8 30  0 57  0.0000000  0 15G 1G 3G10G21G22G25G26G31G32R 4R 5R14
                                R15R16R21
  22847947.289   120066721.829    22847954.574    93558567.798  
  22760563.398   119607575.805    22760569.766    93200762.081  
  23836436.109   125261346.415    23836443.313    97606280.048  
  23707980.641   124586380.191    23707984.043    97080221.529  
  21700169.250   114035180.579    21700170.254    88858611.091  
  22993346.352   120830925.013    22993352.703    94153999.510  
  22460757.500   118032284.049    22460764.965    91973127.450  
  20040976.383   105316132.774    20040978.871    82064557.282  
  21803063.680   114575937.253    21803069.590    89280013.643  
  22569809.078   120860337.266    22569813.133    94002491.413  
  19685864.789   105232272.193    19685868.520    81847392.856  
  23267416.023   124028464.417    23267420.680    96466615.464  
  19645769.188   104980850.097    19645772.809    81652018.228  
  20319101.898   108541969.643    20319104.574    84420839.034  
  23845664.773   127603019.956    23845669.113    99246764.387  
 21  8 30  0 57 30.0000000  0 15G 1G 3G10G21G22G25G26G31G32R 4R 5R14
                                R15R16R21
  22855713.250   120107530.797    22855720.871    93590366.985  
  22743724.367   119519087.656    22743731.363    93131810.276  
  23856988.992   125369352.060    23856996.688    97690440.258  
  23717619.922   124637033.909    23717623.441    97119691.913  
  21690136.273   113982456.968    21690137.074    88817527.767  
  23004029.086   120887063.877    23004035.582    94197744.075  
  22442212.031   117934827.650    22442219.441    91897187.455  
  20043534.945   105329580.353    20043537.984    82075035.920  
  21812424.781   114625131.197    21812431.105    89318346.574  
  22585782.203   120945871.360    22585785.582    94069017.922  
  19687759.430   105242400.996    19687762.977    81855270.819  
  23290207.336   124149954.244    23290211.949    96561107.519  
  19653579.094   105022583.356    19653582.445    81684477.423  
  20301752.195   108449292.518    20301754.574    84348756.863  
  23860029.758   127679900.507    23860035.926    99306560.365  
 21  8 30  0 58  0.0000000  0 15G 1G 3G10G21G22G25G26G31G32R 4R 5R14
                                R15R16R21
  22863573.164   120148835.622    22863580.977    93622552.546  
  22726938.109   119430875.484    22726945.250    93063073.535  
  23877576.148   125477540.860    23877584.676    97774743.169  
  23727309.711   124687957.952    23727313.766    97159372.960  
  21680183.719   113930158.420    21680185.234    88776775.665  
  23014815.039   120943744.958    23014822.449    94241911.130  
  22423713.188   117837617.303    22423721.207    91821439.174  
  20046187.148   105343514.483    20046190.070    82085893.678  
  21821822.438   114674516.183    21821828.902    89356828.371  
  22601809.016   121031694.982    22601812.348    94135769.614  
  19689738.695   105252977.807    19689741.660    81863497.223  
  23313035.539   124271635.991    23313039.242    96655748.854  
  19661523.430   105065038.536    19661527.023    81717498.120  
  20284509.805   108357186.525    20284512.914    84277118.907  
  23874474.984   127757190.424    23874479.953    99366674.686  
 21  8 30  0 58 30.0000000  0 15G 1G 3G10G21G22G25G26G31G32R 4R 5R14
                                R15R16R21
  22871527.273   120190634.020    22871534.891    93655122.669  
  22710204.805   119342941.917    22710211.355    92994553.869  
  23898198.695   125585910.734    23898207.020    97859187.161  
  23737051.547   124739150.236    23737055.301    97199262.996  
  21670313.188   113878286.244    21670314.453    88736355.799  
  23025704.195   121000966.443    23025711.559    94286499.289  
  22405262.203   117740656.080    22405270.051    91745885.021  
  20048930.695   105357933.840    20048933.621    82097129.546  
  21831256.227   114724092.326    21831262.688    89395459.138  
  22617890.133   121117807.660    22617891.758    94202746.080  
  19691801.383   105264004.048    19691804.523    81872073.182  
  23335896.391   124393505.938    23335901.883    96750536.559  
  19669603.563   105108213.310    19669607.059    81751078.494  
  20267375.367   108265655.252    20267378.012    84205927.942  
  23888994.922   127834885.596    23888999.141    99427104.188  
 21  8 30  0 59  0.0000000  0 15G 1G 3G10G21G22G25G26G31G32R 4R 5R14
                                R15R16R21
  22879574.383   120232923.826    22879581.883    93688075.742  
  22693525.297   119255289.621    22693531.848    92926253.373  
  23918855.188   125694459.646    23918863.918    97943770.697  
  23746843.344   124790608.538    23746847.313    97239360.335  
  21660523.789   113826842.912    21660525.105    88696270.099  
  23036694.992   121058726.499    23036702.000    94331507.126  
  22386859.789   117643947.206    22386867.242    91670527.505  
  20051766.742   105372837.014    20051769.348    82108742.412  
  21840726.406   114773859.907    21840732.930    89434239.056  
  22634024.031   121204208.969    22634028.988    94269947.031  
  19693947.984   105275481.006    19693951.547    81880999.705  
  23358793.930   124515560.397    23358799.348    96845467.790  
  19677817.031   105152105.072    19677820.887    81785216.520  
  20250348.695   108174701.503    20250351.418    84135186.161  
  23903588.266   127912981.619    23903593.293    99487845.517  
 21  8 30  0 59 30.0000000  0 15G 1G 3G10G21G22G25G26G31G32R 4R 5R14
                                R15R16R21
  22887715.695   120275702.701    22887722.977    93721409.921  
  22676900.070   119167921.238    22676905.891    92858174.115  
  23939544.195   125803185.485    23939553.035    98028492.045  
  23756686.070   124842330.336    23756689.504    97279662.967  
  21650816.719   113775830.397    21650817.625    88656520.119  
  23047788.984   121117023.176    23047795.613    94376933.109  
  22368504.609   117547493.658    22368511.988    91595368.934  
  20054694.617   105388222.768    20054697.516    82120731.321  
  21850233.906   114823819.021    21850240.074    89473168.215  
  22650211.992   121290898.086    22650218.941    94337371.900  
  19696179.703   105287410.357    19696183.191    81890278.082  
  23381725.922   124637795.621    23381729.590    96940539.611  
  19686165.047   105196711.128    19686168.293    81819910.132  
  20233429.797   108084327.959    20233433.113    84064895.661  
  23918255.906   127991474.400    23918260.305    99548895.394  
 21  8 30  1  0  0.0000000  0 15G 1G 3G10G21G22G25G26G31G32R 4R 5R14
                                R15R16R21
  22895948.172   120318968.322    22895955.930    93755123.366  
  22660328.555   119080839.336    22660334.664    92790318.080  
  23960268.445   125912085.992    23960275.605    98113349.560  
  23766578.336   124894313.378    23766582.203    97320169.187  
  21641191.289   113725250.290    21641192.539    88617107.061  
  23058984.172   121175854.512    23058991.141    94422775.705  
  22350199.727   117451298.524    22350207.320    91520411.734  
  20057713.547   105404089.065    20057716.742    82133094.674  
  21859777.273   114873969.707    21859783.895    89512246.665  
  22666455.234   121377874.395    22666460.430    94405020.121  
  19698496.313   105299793.369    19698499.637    81899909.322  
  23404690.133   124760208.054    23404694.895    97035749.254  
  19694645.227   105242028.644    19694648.863    81855157.083  
  20216621.305   107994538.142    20216623.453    83995059.178  
  23932997.578   128070359.588    23933002.836    99610250.406  
 21  8 30  1  0 30.0000000  0 15G 1G 3G10G21G22G25G26G31G32R 4R 5R14
                                R15R16R21
  22904272.891   120362718.345    22904281.426    93789214.283  
  22643812.773   118994046.423    22643818.922    92722687.221  
  23981024.453   126021159.099    23981031.344    98198341.525  
  23776519.484   124946555.212    23776523.281    97360877.102  
  21631649.031   113675104.551    21631649.906    88578032.463  
  23070280.867   121235218.458    23070287.785    94469033.313  
  22331944.039   117355364.787    22331951.559    91445658.230  
  20060824.398   105420434.618    20060827.082    82145831.470  
  21869356.750   114924312.088    21869363.047    89551474.495  
  22682753.070   121465137.439    22682754.652    94472891.308  
  19700898.281   105312631.323    19700900.852    81909894.393  
  23427686.820   124882793.684    23427690.914    97131093.612  
  19703258.109   105288054.883    19703261.992    81890955.272  
  20199921.719   107905334.627    20199924.648    83925678.689  
  23947812.813   128149632.972    23947817.895    99671907.470  
 21  8 30  1  1  0.0000000  0 15G 1G 3G10G21G22G25G26G31G32R 4R 5R14
                                R15R16R21
  22912691.250   120406950.834    22912698.582    93823681.134  
  22627352.438   118907545.605    22627358.766    92655283.978  
  24001812.563   126130403.061    24001820.301    98283466.633  
  23786510.031   124999054.036    23786513.621    97401785.228  
  21622189.656   113625395.595    21622191.031    88539298.235  
  23081678.086   121295113.408    23081685.262    94515704.695  
  22313738.664   117259695.959    22313745.859    91371111.124  
  20064025.758   105437258.068    20064028.645    82158940.661  
  21878973.594   114974846.747    21878979.504    89590852.148  
  22699099.602   121552686.761    22699104.051    94540985.208  
  19703384.789   105325925.868    19703387.906    81920234.587  
  23450714.742   125005549.317    23450720.289    97226570.222  
  19712004.469   105334787.577    19712007.074    81927302.915  
  20183332.938   107816720.195    20183335.965    83856756.385  
  23962698.484   128229290.347    23962703.277    99733863.148  
 21  8 30  1  1 30.0000000  0 15G 1G 3G10G21G22G25G26G31G32R 4R 5R14
                                R15R16R21
  22921199.508   120451662.886    22921206.801    93858521.679  
  22610947.063   118821339.013    22610953.652    92588110.005  
  24022632.930   126239815.237    24022639.234    98368722.900  
  23796547.734   125051806.784    23796552.070    97442891.218  
  21612813.813   113576124.770    21612814.977    88500905.406  
  23093176.555   121355536.951    23093183.773    94562787.967  
  22295584.008   117164294.579    22295591.938    91296772.448  
  20067317.703   105454557.361    20067320.477    82172420.635  
  21888626.289   115025573.294    21888632.961    89630379.315  
  22715502.500   121640521.379    22715507.477    94609301.012  
  19705957.961   105339678.161    19705961.035    81930930.822  
  23473775.367   125128470.764    23473779.703    97322175.792  
  19720880.406   105382223.464    19720884.422    81964197.502  
  20166854.219   107728697.428    20166857.699    83788294.273  
  23977653.680   128309327.359    23977659.688    99796114.043  
 21  8 30  1  2  0.0000000  0 15G 1G 3G10G21G22G25G26G31G32R 4R 5R14
                                R15R16R21
  22929799.023   120496852.408    22929806.016    93893734.265  
  22594599.594   118735429.371    22594606.094    92521167.441  
  24043484.750   126349393.713    24043492.180    98454108.692  
  23806634.258   125104811.060    23806638.738    97484193.204  
  21603521.859   113527294.480    21603522.688    88462855.844  
  23104774.758   121416487.241    23104781.797    94610281.687  
  22277481.523   117069163.933    22277489.164    91222644.708  
  20070699.953   105472331.363    20070702.691    82186270.504  
  21898315.875   115076492.058    21898321.730    89670056.269  
  22731958.305   121728640.740    22731963.992    94677838.264  
  19708616.078   105353889.510    19708619.313    81941984.094  
  23496863.875   125251554.604    23496869.484    97417907.641  
  19729889.203   105430359.858    19729892.617    82001636.894  
  20150488.477   107641269.671    20150490.539    83720294.933  
  23992682.813   128389739.705    23992687.457    99858656.972  
 21  8 30  1  2 30.0000000  0 15G 1G 3G10G21G22G25G26G31G32R 4R 5R14
                                R15R16R21
  22938488.352   120542516.984    22938496.125    93929317.048  
  22578308.422   118649819.475    22578314.867    92454458.431  
  24064368.156   126459136.427    24064374.820    98539622.509  
  23816768.625   125158065.102    23816772.973    97525689.831  
  21594313.227   113478905.887    21594314.613    88425150.470  
  23116473.664   121477962.237    23116480.875    94658184.277  
  22259430.570   116974307.167    22259438.621    91148730.373  
  20074172.109   105490578.588    20074175.605    82200489.125  
  21908041.805   115127603.256    21908048.480    89709883.169  
  22748468.516   121817044.239    22748472.371    94746596.517  
  19711360.883   105368561.405    19711363.992    81953395.565  
  23519985.391   125374797.188    23519989.746    97513762.976  
  19739027.383   105479193.944    19739030.742    82039618.976  
  20134233.508   107554439.474    20134235.934    83652760.364  
  24007776.055   128470522.940    24007783.480    99921488.453  
 21  8 30  1  3  0.0000000  0 15G 1G 3G10G21G22G25G26G31G32R 4R 5R14
                                R15R16R21
  22947268.109   120588654.094    22947275.609    93965268.029  
  22562075.086   118564511.743    22562081.105    92387984.881  
  24085282.664   126569041.087    24085290.676    98625262.436  
  23826949.852   125211566.148    23826953.469    97567378.901  
  21585189.609   113430961.174    21585190.969    88387790.962  
  23128271.055   121539959.826    23128278.543    94706494.095  
  22241432.797   116879727.110    22241440.070    91075031.678  
  20077734.164   105509297.079    20077736.855    82215074.970  
  21917804.828   115178906.840    21917810.855    89749860.000  
  22765029.500   121905731.071    22765032.086    94815575.095  
  19714191.203   105383694.783    19714195.000    81965165.969  
  23543134.813   125498194.886    23543138.754    97609738.958  
  19748296.555   105528722.927    19748299.652    82078141.517  
  20118091.195   107468209.446    20118093.703    83585692.596  
  24022942.133   128551672.9901   24022948.695    99984605.0001 
 21  8 30  1  3 30.0000000  0 17G 1G 3G 4G10G21G22G25G26G31G32R 4R 5
                                R 9R14R15R16R21
  22956137.211   120635261.306    22956144.664    94001585.296  
  22545898.883   118479508.780    22545905.277    92321748.823  
  25280260.891   132848660.4601                                 
  24106227.047   126679105.521    24106234.586    98711026.826  
  23837176.828   125265311.496    23837180.555    97609258.381  
  21576151.273   113383462.176    21576152.418    88350778.763  
  23140167.625   121602477.847    23140174.922    94755209.433  
  22223487.617   116785426.827    22223495.645    91001550.980  
  20081385.742   105528485.327    20081388.391    82230026.857  
  21927604.336   115230402.945    21927610.504    89789986.813  
  22781643.586   121994700.725    22781648.293    94884773.637  
  19717109.102   105399291.093    19717112.762    81977296.434  
  24120126.156   128800119.9781   24120131.867   100177877.0401 
  23566310.961   125621743.842    23566316.277    97705832.568  
  19757694.086   105578943.709    19757697.758    82117202.118  
  20102061.352   107382582.314    20102063.727    83519093.750  
  24038174.906   128633185.152    24038181.539   100048003.200  
 21  8 30  1  4  0.0000000  0 17G 1G 3G 4G10G21G22G25G26G31G32R 4R 5
                                R 9R14R15R16R21
  22965095.180   120682336.259    22965102.512    94038267.061  
  22529782.141   118394813.386    22529788.813    92255752.430  
  25264625.711   132766495.627    25264631.895   103454444.1781 
  24127201.047   126789327.730    24127209.270    98796914.276  
  23847450.773   125319299.201    23847454.555    97651326.674  
  21567197.586   113336410.800    21567198.699    88314115.377  
  23152163.477   121665514.392    23152170.387    94804328.797  
  22205596.352   116691409.522    22205604.473    90928290.797  
  20085125.703   105548141.948    20085128.953    82245343.709  
  21937440.570   115282091.834    21937446.422    89830263.867  
  22798311.203   122083952.211    22798315.781    94954191.443  
  19720113.992   105415351.854    19720117.359    81989788.135  
  24095682.359   128669591.180    24095687.363   100076354.787  
  23589517.258   125745440.795    23589522.207    97802041.284  
  19767221.430   105629853.365    19767225.168    82156798.517  
  20086145.102   107297561.079    20086148.090    83452966.146  
  24053474.984   128715055.349    24053480.473   100111679.927  
 21  8 30  1  4 30.0000000  0 18G 1G 3G 4G10G16G21G22G25G26G31G32R 4
                                R 5R 9R14R15R16R21
  22974141.992   120729875.881    22974149.379    94075310.914  
  22513724.156   118310427.480    22513730.246    92189997.196  
  25248985.461   132684308.110    25248992.570   103390402.107  
  24148206.398   126899704.935    24148214.418    98882922.415  
  25148090.844   132154052.4381                                 
  23857769.672   125373526.238    23857773.477    97693581.462  
  21558329.336   113289808.184    21558330.313    88277801.659  
  23164257.891   121729066.616    23164264.133    94853850.013  
  22187760.203   116597677.560    22187767.727    90855252.949  
  20088955.164   105568264.664    20088957.914    82261023.750  
  21947313.031   115333973.017    21947319.152    89870690.752  
  22815029.461   122173484.512    22815035.043    95023827.648  
  19723205.336   105431877.642    19723208.945    82002641.532  
  24071254.281   128539141.678    24071257.941    99974894.255  
  23612748.891   125869281.363    23612753.359    97898361.720  
  19776877.016   105681448.485    19776880.113    82196928.050  
  20070342.984   107213147.690    20070345.547    83387311.311  
  24068839.813   128797278.741    24068845.117   100175631.392  
 21  8 30  1  5  0.0000000  0 17G 1G 3G 4G10G21G22G25G26G31G32R 4R 5
                                R 9R14R15R16R21
  22983275.930   120777878.279    22983284.129    94112715.366  
  22497725.266   118226354.293    22497732.094    92124485.672  
  25233341.023   132602098.537    25233348.539   103326342.807  
  24169239.648   127010235.546    24169247.246    98969050.069  
  23868134.836   125427990.716    23868137.578    97736021.275  
  21549546.930   113243656.769    21549547.984    88241839.516  
  23176448.578   121793133.071    23176455.941    94903771.932  
  22169978.648   116504234.588    22169986.332    90782440.282  
  20092873.078   105588852.307    20092876.395    82277066.075  
  21957222.531   115386047.209    21957228.695    89911268.035  
  22831802.461   122263297.521    22831805.836    95093682.156  
  19726384.305   105448870.169    19726387.020    82015857.932  
  24046838.961   128408775.424    24046843.863    99873498.495  
  23636006.914   125993262.524    23636011.586    97994791.527  
  19786660.156   105733726.671    19786663.504    82237588.861  
  20054655.656   107129345.590    20054657.555    83322131.928  
  24084272.281   128879851.341    24084277.266   100239854.440  
 21  8 30  1  5 30.0000000  0 18G 1G 3G 4G10G16G21G22G25G26G31G32R 4
                                R 5R 9R14R15R16R21
  22992498.414   120826340.948    22992505.754    94150478.441  
  22481786.781   118142596.422    22481793.543    92059219.823  
  25217694.234   132519866.932    25217700.582   103262266.350  
  24190301.922   127120917.294    24190309.012    99055295.583  
  25103436.688   131919394.4051                                 
  23878541.875   125482690.390    23878547.535    97778644.389  
  21540850.891   113197958.338    21540851.902    88206230.365  
  23188737.977   121857711.551    23188744.121    94954092.807  
  22152252.242   116411083.622    22152260.324    90709855.167  
  20096878.648   105609903.407    20096881.949    82293469.534  
  21967168.320   115438314.464    21967174.773    89951995.765  
  22848626.047   122353390.222    22848631.371    95163754.178  
  19729650.930   105466330.770    19729653.734    82029438.402  
  24022442.336   128278495.203    24022446.223    99772169.647  
  23659292.094   126117380.605    23659295.906    98091327.832  
  19796570.289   105786685.074    19796573.805    82278778.733  
  20039080.625   107046157.211    20039085.293    83257429.879  
  24099765.273   128962768.712    24099773.066   100304345.644  
 21  8 30  1  6  0.0000000  0 18G 1G 3G 4G10G16G21G22G25G26G31G32R 4
                                R 5R 9R14R15R16R21
  23001807.867   120875261.161    23001815.590    94188598.082  
  22465908.906   118059156.377    22465914.941    91994201.653  
  25202041.336   132437613.389    25202047.887   103198172.759  
  24211391.313   127231747.937    24211399.820    99141657.066  
  25081081.445   131801919.7981                                 
  23888996.063   125537622.131    23889000.020    97821448.251  
  21532241.008   113152714.190    21532241.938    88170975.176  
  23201123.125   121922799.760    23201130.191    95004810.876  
  22134582.648   116318227.525    22134590.207    90637499.794  
  20100972.703   105631416.015    20100975.297    82310232.606  
  21977151.461   115490774.850    21977157.727    89992873.964  
  22865502.500   122443761.809    22865508.387    95234043.155  
  19733004.359   105484260.355    19733007.707    82043383.619  
  23998060.383   128148303.719    23998065.340    99670909.745  
  23682601.766   126241632.347    23682605.621    98187968.078  
  19806607.578   105840320.254    19806610.926    82320494.988  
  20023624.578   106963585.222    20023627.648    83193207.258  
  24115324.461   129046026.616    24115330.832   100369101.711  
 21  8 30  1  6 30.0000000  0 18G 1G 3G 4G10G16G21G22G25G26G31G32R 4
                                R 5R 9R14R15R16R21
  23011203.258   120924636.835    23011211.055    94227072.624  
  22450091.734   117976037.067    22450098.035    91929433.384  
  25186383.945   132355338.297    25186390.871   103134062.451  
  24232510.719   127342725.704    24232517.375    99228133.254  
  25058709.242   131684351.440                                  
  23899493.711   125592783.823    23899496.570    97864431.347  
  21523718.250   113107926.651    21523719.398    88136075.791  
  23213606.023   121988395.815    23213612.555    95055924.691  
  22116969.344   116225669.660    22116976.879    90565376.846  
  20105153.977   105653388.774    20105156.918    82327354.242  
  21987170.930   115543428.774    21987177.023    90033902.991  
  22882430.508   122534411.798    22882435.977    95304548.706  
  19736446.578   105502660.842    19736450.043    82057695.112  
  23973696.461   128018204.486    23973702.598    99569721.609  
  23705935.477   126366013.936    23705939.395    98284709.344  
  19816770.711   105894629.589    19816773.914    82362735.576  
  20008282.570   106881632.107    20008285.563    83129465.989  
  24130948.633   129129620.906    24130952.109   100434119.396  
 21  8 30  1  7  0.0000000  0 18G 1G 3G 4G10G16G21G22G25G26G31G32R 4
                                R 5R 9R14R15R16R21
  23020685.156   120974465.005    23020692.926    94265899.718  
  22434336.367   117893240.810    22434342.648    91864916.850  
  25170723.313   132273041.484    25170730.055   103069935.175  
  24253655.828   127453848.036    24253663.578    99314722.030  
  25036318.430   131566691.791                                  
  23910032.297   125648173.180    23910037.820    97907591.844  
  21515282.539   113063597.282    21515283.734    88101533.438  
  23226184.383   122054497.266    23226191.484    95107432.321  
  22099413.797   116133412.745    22099420.645    90493488.389  
  20109422.148   105675819.395    20109425.195    82344832.662  
  21997227.539   115596276.093    21997233.715    90075082.708  
  22899411.523   122625339.364    22899414.879    95375270.149  
  19739977.406   105521532.640    19739980.570    82072373.171  
  23949350.352   127888200.111    23949357.246    99468607.285  
  23729292.227   126490521.856    23729296.508    98381548.816  
  19827059.273   105949609.810    19827063.027    82405497.972  
  19993056.930   106800300.376    19993059.609    83066208.000  
  24146628.789   129213546.803    24146636.414   100499394.994  
 21  8 30  1  7 30.0000000  0 18G 1G 3G 4G10G16G21G22G25G26G31G32R 4
                                R 5R 9R14R15R16R21
  23030253.406   121024743.472    23030260.855    94305077.714  
  22418642.641   117810770.399    22418648.844    91800654.245  
  25155059.320   132190723.410    25155065.406   103005791.288  
  24274829.094   127565113.014    24274836.508    99401421.983  
  25013910.969   131448944.001                                  
  23920616.406   125703787.913    23920620.336    97950927.978  
  21506934.789   113019727.956    21506935.668    88067349.542  
  23238859.188   122121102.118    23238865.957    95159332.186  
  22081915.469   116041459.997    22081922.949    90421836.938  
  20113777.945   105698706.921    20113780.566    82362667.095  
  22007320.461   115649317.136    22007327.059    90116413.370  
  22916443.617   122716543.758    22916445.184    95446206.800  
  19743596.313   105540877.616    19743599.270    82087419.263  
  23925024.555   127758294.207    23925029.563    99367569.414  
  23752673.539   126615152.759    23752677.410    98478483.946  
  19837472.797   106005257.779    19837476.516    82448779.724  
  19977947.797   106719592.682    19977951.051    83003435.387  
  24162376.055   129297800.309    24162380.797   100564925.366  
 21  8 30  1  8  0.0000000  0 18G 1G 3G 4G10G16G21G22G25G26G31G32R 4
                                R 5R 9R14R15R16R21
  23039906.070   121075469.493    23039914.262    94344604.496  
  22403011.211   117728628.506    22403017.797    91736647.632  
  25139389.531   132108384.226                                  
  24296029.531   127676518.479    24296035.906    99488231.403  
  24991488.906   131331110.832                                  
  23931242.414   125759625.626    23931246.133    97994437.798  
  21498674.594   112976320.601    21498675.473    88033525.635  
  23251628.945   122188208.076    23251635.496    95211622.538  
  22064475.789   115949814.449    22064483.523    90350424.861  
  20118220.164   105722049.585    20118222.641    82380856.182  
  22017451.172   115702552.034    22017457.734    90157895.086  
  22933526.469   122808024.263    22933530.383    95517358.261  
  19747303.375   105560696.641    19747306.578    82102834.052  
  23900716.594   127628489.444    23900722.207    99266610.251  
  23776076.453   126739903.046    23776080.355    98575511.930  
  19848011.484   106061570.669    19848014.586    82492578.633  
  19962957.133   106639512.062    19962959.859    82941150.495  
  24178177.367   129382376.877    24178186.891   100630707.115  
 21  8 30  1  8 30.0000000  0 18G 1G 3G 4G10G16G21G22G25G26G31G32R 4
                                R 5R 9R14R15R16R21
  23049643.305   121126640.407    23049651.254    94384477.893  
  22387443.008   117646817.564    22387449.734    91672898.901  
  25123716.523   132026023.737                                  
  24317255.703   127788061.960    24317262.684    99575148.423  
  24969050.563   131213194.860                                  
  23941909.297   125815683.998    23941914.129    98038119.582  
  21490502.617   112933376.636    21490503.660    88000062.804  
  23264493.672   122255812.783    23264500.652    95264301.514  
  22047095.125   115858478.914    22047103.059    90279254.357  
  20122747.875   105745845.314    20122750.250    82399398.314  
  22027618.492   115755980.758    22027624.480    90199527.838  
  22950661.602   122899779.701    22950664.938    95588723.607  
  19751100.156   105580990.769    19751103.008    82118618.371  
  23876426.430   127498788.656    23876432.543    99165731.994  
  23799500.547   126864768.751    23799504.914    98672629.724  
  19858673.086   106118545.092    19858676.684    82536892.079  
  19948084.234   106560060.291    19948085.938    82879354.706  
  24194046.969   129467271.986    24194049.984   100696736.428  
 21  8 30  1  9  0.0000000  0 17G 1G 3G 4G10G16G21G22G25G26G31G32R 4
                                R 5R 9R14R15R16
  23059465.414   121178253.439    23059472.023    94424695.798  
  22371938.344   117565339.933    22371944.730    91609409.898  
  25108040.727   131943642.039                                  
  24338505.992   127899741.204    24338515.168    99662171.187  
  24946596.344   131095198.483    24946600.801   102152156.8251 
  23952618.539   125871959.705    23952622.133    98081970.742  
  21482419.320   112890897.514    21482420.195    87966962.193  
  23277452.359   122323913.722    23277459.871    95317367.171  
  22029774.070   115767456.185    22029781.570    90208327.615  
  20127361.266   105770092.407    20127364.699    82418292.159  
  22037822.094   115809603.228    22037828.457    90241311.563  
  22967846.945   122991809.148    22967851.004    95660302.076  
  19754985.617   105601760.888    19754989.188    82134772.906  
  23852158.023   127369194.884    23852163.887    99064936.962  
  23822945.383   126989746.536    23822950.578    98769834.694  
  19869458.281   106176177.497    19869461.797    82581717.281  
  19933327.945   106481239.622    19933330.656    82818049.775  
 21  8 30  1  9 30.0000000  0 17G 1G 3G 4G10G16G21G22G25G26G31G32R 4
                                R 5R 9R14R15R16
  23069370.438   121230306.614    23069378.348    94465256.685  
  22356498.023   117484199.052    22356504.012    91546183.283  
  25092360.289   131861240.136                                  
  24359784.359   128011554.782    24359792.023    99749298.558  
  24924127.758   130977125.292    24924133.090   102060151.766  
  23963368.445   125928450.885    23963372.641    98125989.790  
  21474424.430   112848885.568    21474425.719    87934225.622  
  23290506.523   122392509.441    23290512.617    95370818.378  
  22012513.313   115676750.028    22012520.770    90137647.539  
  20132061.391   105794789.650    20132064.223    82437536.760  
  22048063.719   115863420.317    22048069.805    90283246.947  
  22985083.836   123084112.540    22985086.238    95732093.584  
  19758960.586   105623009.027    19758963.664    82151299.237  
  23827908.570   127239711.697    23827914.996    98964227.959  
  23846411.852   127114833.668    23846416.688    98867124.702  
  19880366.125   106234465.626    19880369.598    82627052.491  
  19918691.188   106403053.497    19918694.113    82757238.375  
 21  8 30  1 10  0.0000000  0 17G 1G 3G 4G10G16G21G22G25G26G31G32R 4
                                R 5R 9R14R15R16
  23079359.078   121282797.052    23079367.082    94506158.304  
  22341121.609   117403397.180    22341127.617    91483220.821  
  25076674.859   131778817.922                                  
  24381086.469   128123500.055    24381094.805    99836528.576  
  24901644.406   130858977.564    24901650.625   101968088.670  
  23974159.516   125985155.544    23974163.414    98170175.207  
  21466518.969   112807342.614    21466520.008    87901854.486  
  23303653.461   122461597.267    23303659.684    95424653.029  
  21995313.063   115586363.096    21995321.070    90067216.207  
  20136846.648   105819935.728    20136849.805    82457131.104  
  22058341.289   115917431.862    22058348.023    90325333.861  
  23002371.656   123176688.717    23002375.320    95804097.213  
  19763025.328   105644735.907    19763027.934    82168197.924  
  23803682.922   127110342.111    23803687.555    98863607.196  
  23869897.375   127240026.246    23869902.340    98964496.685  
  19891396.203   106293405.959    19891399.180    82672894.974  
  19904173.711   106325503.796    19904176.168    82696921.973  
 21  8 30  1 10 30.0000000  0 17G 1G 3G 4G10G16G21G22G25G26G31G32R 4
                                R 5R 9R14R15R16
  23089430.516   121335721.785    23089438.031    94547398.324  
  22325810.281   117322936.478    22325817.055    91420524.213  
  25060986.852   131696375.017    25060993.203   102620579.0101 
  24402414.258   128235574.608    24402421.949    99923859.281  
  24879148.383   130740757.701    24879154.117   101875969.402  
  23984989.883   126042069.893    23984993.543    98214523.989  
  21458702.938   112766269.430    21458703.977    87869849.413  
  23316893.266   122531174.543    23316900.031    95478869.086  
  21978174.344   115496297.990    21978181.902    89997035.649  
  20141716.633   105845527.372    20141719.316    82477072.645  
  22068657.078   115971637.555    22068662.441    90367572.037  
  23019710.281   123269536.373    23019715.352    95876312.069  
  19767178.875   105666942.055    19767182.512    82185469.361  
  23779477.164   126981088.528    23779483.836    98763076.686  
  23893400.875   127365320.358    23893407.602    99061947.667  
  19902546.727   106352994.651    19902550.762    82719241.740  
  19889776.359   106248592.604    19889778.500    82637102.189  
 21  8 30  1 11  0.0000000  0 17G 1G 3G 4G10G16G21G22G25G26G31G32R 4
                                R 5R 9R14R15R16
  23099583.484   121389078.088    23099591.477    94588974.640  
  22310564.734   117242819.753    22310571.066    91358095.612  
  25045295.563   131613911.946    25045302.082   102556322.104  
  24423765.453   128347776.211    24423772.957   100011289.063  
  24856638.219   130622468.583    24856644.582   101783796.089  
  23995859.195   126099192.243    23995863.988    98259034.877  
  21450976.727   112725667.792    21450978.148    87838211.775  
  23330225.484   122601238.978    23330233.488    95533464.722  
  21961097.352   115406557.766    21961104.789    89927108.255  
  20146671.078   105871563.406    20146674.094    82497360.471  
  22079008.195   116026037.664    22079014.590    90409961.733  
  23037100.648   123362654.644    23037104.594    95948737.347  
  19771422.977   105689628.868    19771426.348    82203114.677  
  23755294.656   126851954.159    23755299.945    98662639.028  
  23916931.914   127490712.941    23916930.621    99159475.233  
  19913819.195   106413228.888    19913823.012    82766090.573  
  19875497.414   106172322.532    19875500.668    82577781.060  
 21  8 30  1 11 30.0000000  0 16G 1G 3G 4G10G16G21G22G25G26G31G32R 4
                                R 5R 9R15R16
  23109819.758   121442863.269    23109826.898    94630885.111  
  22295385.211   117163049.433    22295390.949    91295936.961  
  25029599.656   131531428.661    25029605.719   102492049.516  
  24445140.492   128460102.606    24445148.586   100098816.031  
  24834116.430   130504113.0791                                 
  24006768.344   126156519.927    24006772.789    98303705.722  
  21443340.836   112685539.530    21443341.902    87806943.013  
  23343651.039   122671788.194    23343657.656    95588438.117  
  21944082.398   115317145.285    21944089.691    89857436.246  
  20151709.648   105898041.844    20151713.145    82517993.020  
  22089397.844   116080632.172    22089403.672    90452502.884  
  23054538.344   123456042.682    23054541.902    96021372.470  
  19775757.406   105712797.307    19775760.508    82221134.558  
  23731135.250   126722941.684    23731139.941    98562296.148  
  19925211.672   106474105.009    19925214.598    82813438.660  
  19861339.867   106096695.158    19861342.449    82518959.806  
 21  8 30  1 12  0.0000000  0 16G 1G 3G 4G10G16G21G22G25G26G31G32R 4
                                R 5R 9R15R16
  23120134.969   121497074.827    23120142.738    94673127.855  
  22280271.625   117083628.399    22280277.898    91234050.464  
  25013900.266   131448925.616    25013905.484   102427761.426  
  24466538.469   128572551.772    24466546.539   100186438.737  
  24811582.539   130385693.997    24811587.461   101599300.5831 
  24017716.945   126214050.385    24017720.922    98348534.579  
  21435795.031   112645886.341    21435795.824    87776044.425  
  23357167.852   122742820.085    23357175.133    95643787.640  
  21927130.898   115228063.748    21927138.180    89788022.103  
  20156832.734   105924961.400    20156835.535    82538969.297  
  22099823.742   116135421.437    22099830.012    90495195.797  
  23072029.398   123549699.731    23072032.445    96094216.741  
  19780181.375   105736448.513    19780185.063    82239529.945  
  23706998.352   126594054.606    23707003.500    98462050.717  
  19936723.461   106535620.041    19936727.074    82861283.682  
  19847303.719   106021713.751    19847306.250    82460640.955  
 21  8 30  1 12 30.0000000  0 16G 1G 3G 4G10G16G21G22G25G26G31G32R 4
                                R 5R 9R15R16
  23130531.477   121551710.057    23130539.543    94715700.764  
  22265224.781   117004559.151    22265231.480    91172438.103  
  24998195.922   131366402.942    24998202.094   102363458.087  
  24487960.180   128685121.577    24487968.773   100274155.459  
  24789036.141   130267214.047    24789042.195   101506978.628  
  24028702.211   126271781.078    24028706.121    98393519.457  
  21428339.609   112606709.815    21428340.922    87745517.274  
  23370775.469   122814332.218    23370783.551    95699511.382  
  21910242.469   115139316.136    21910250.473    89718868.172  
  20162038.977   105952319.956    20162041.379    82560287.650  
  22110286.656   116190405.567    22110292.570    90538040.575  
  23089568.883   123643624.927    23089574.125    96167269.618  
  19784696.484   105760583.438    19784700.109    82258301.557  
  23682886.211   126465295.981    23682891.086    98361905.244  
  19948353.336   106597770.699    19948357.758    82909623.072  
  19833388.211   105947379.995    19833391.047    82402825.852  
 21  8 30  1 13  0.0000000  0 17G 1G 3G 4G10G16G21G22G25G26G31G32R 4
                                R 5R 9R14R15R16
  23141008.773   121606766.409    23141016.777    94758601.770  
  22250245.727   116925844.483    22250252.430    91111102.039  
  24982488.516   131283861.041    24982495.902   102299139.741  
  24509403.945   128797809.921    24509413.215   100361964.541  
  24766479.203   130148676.184    24766483.914   101414611.545  
  24039725.875   126329709.752    24039729.723    98438658.626  
  21420975.891   112568011.585    21420977.238    87715362.824  
  23384475.422   122886322.364    23384482.664    95755607.567  
  21893419.055   115050905.418    21893426.324    89649976.752  
  20167328.383   105980116.051    20167330.770    82581946.962  
  22120787.078   116245584.794    22120793.734    90581037.363  
  23107157.523   123737817.392    23107164.191    96240530.432  
  19789302.727   105785203.664    19789305.766    82277450.616  
  23658799.133   126336668.747    23658804.496    98261861.870  
  24011190.445   127993193.5101   24011196.141    99550296.7671 
  19960103.047   106660553.542    19960106.242    82958454.177  
  19819594.586   105873696.533    19819596.957    82345516.519  
 21  8 30  1 13 30.0000000  0 17G 1G 3G 4G10G16G21G22G25G26G31G32R 4
                                R 5R 9R14R15R16
  23151564.766   121662240.796    23151572.570    94801828.532  
  22235335.188   116847486.659    22235341.539    91050044.028  
  24966778.156   131201299.777    24966784.520   102234806.306  
  24530870.516   128910614.367    24530879.344   100449864.040  
  24743910.836   130030083.089    24743916.512   101322201.433  
  24050786.953   126387833.501    24050790.750    98483949.786  
  21413702.953   112529793.046    21413704.402    87685582.147  
  23398265.742   122958787.837    23398272.266    95812074.171  
  21876659.648   114962834.327    21876666.535    89581349.973  
  20172700.445   106008347.765    20172703.281    82603945.703  
  22131324.375   116300958.955    22131330.398    90624186.049  
  23124798.695   123832275.913    23124801.914    96313998.130  
  19793999.492   105810309.487    19794002.461    82296977.366  
  23634735.680   126208175.709    23634741.324    98161922.943  
  24034799.297   128119026.516    24034802.539    99648166.904  
  19971969.555   106723965.189    19971973.020    83007774.341  
  19805923.195   105800665.257    19805925.566    82288714.456  
 21  8 30  1 14  0.0000000  0 17G 1G 3G 4G10G16G21G22G25G26G31G32R 4
                                R 5R 9R14R15R16
  23162200.563   121718130.348    23162208.098    94845378.785  
  22220492.508   116769488.131    22220498.840    90989265.963  
  24951063.375   131118719.125    24951069.293   102170457.827  
  24552357.000   129023532.431    24552367.320   100537852.165  
  24721333.883   129911437.263    24721338.852   101229750.196  
  24061883.820   126446149.870    24061887.957    98529391.041  
  21406522.016   112492055.544    21406522.996    87656176.311  
  23412144.695   123031725.980    23412151.625    95868909.078  
  21859965.320   114875105.505    21859972.355    89512989.901  
  20178154.984   106037012.797    20178157.531    82626282.090  
  22141898.969   116356527.988    22141905.348    90667486.588  
  23142487.594   123926999.696    23142492.188    96387672.085  
  19798786.523   105835901.732    19798789.996    82316882.450  
  23610698.609   126079819.617    23610703.320    98062090.534  
  24058418.734   128244937.191    24058422.887    99746097.453  
  19983953.086   106788002.019    19983956.410    83057580.757  
  19792372.945   105728288.036    19792376.539    82232421.100  
 21  8 30  1 14 30.0000000  0 17G 1G 3G 4G10G16G21G22G25G26G31G32R 4
                                R 5R 9R14R15R16
  23172914.898   121774432.906    23172922.430    94889250.865  
  22205719.195   116691852.085    22205725.016    90928770.366  
  24935344.039   131036120.102    24935352.012   102106095.079  
  24573866.570   129136562.559    24573875.770   100625927.503  
  24698746.164   129792742.090    24698752.293   101137260.595  
  24073017.383   126504656.742    24073020.949    98574980.759  
  21399432.453   112454801.183    21399433.957    87627146.952  
  23426114.586   123105135.154    23426121.055    95926111.024  
  21843336.969   114787722.699    21843343.918    89444899.446  
  20183691.531   106066110.134    20183694.633    82648955.350  
  22152510.281   116412292.648    22152516.582    90710939.560  
  23160225.336   124021987.883    23160231.223    96461551.782  
  19803665.508   105861982.194    19803668.707    82337167.242  
  23586688.523   125951604.272    23586693.660    97962367.584  
  24082053.617   128370922.797    24082057.898    99844086.240  
  19996052.883   106852661.136    19996056.461    83107871.184  
  19778947.805   105656567.875    19778950.109    82176638.791  
 21  8 30  1 15  0.0000000  0 17G 1G 3G 4G10G16G21G22G25G26G31G32R 4
                                R 5R 9R14R15R16
  23183706.617   121831145.479    23183714.902    94933442.462  
  22191014.664   116614580.889    22191020.699    90868559.074  
  24919623.195   130953502.545    24919630.266   102041717.778  
  24595396.227   129249702.315    24595405.332   100714088.357  
  24676150.367   129674000.069    24676156.398   101044734.487  
  24084186.289   126563351.631    24084190.730    98620716.980  
  21392435.867   112418031.410    21392436.645    87598495.186  
  23440172.625   123179012.617    23440180.531    95983677.848  
  21826774.570   114700688.547    21826781.941    89377080.669  
  20189311.484   106095637.497    20189313.824    82671963.682  
  22163159.461   116468252.800    22163165.391    90754544.865  
  23178012.328   124117239.590    23178018.691    96535636.450  
  19808636.195   105888551.260    19808638.816    82357832.080  
  23562704.156   125823532.413    23562708.570    97862756.283  
  24105703.453   128496979.852                                  
  20008268.922   106917939.249    20008272.191    83158643.054  
  19765645.039   105585506.675    19765646.637    82121369.011  
 21  8 30  1 15 30.0000000  0 17G 1G 3G 4G10G16G21G22G25G26G31G32R 4
                                R 5R 9R14R15R16
  23194575.953   121888265.320    23194584.477    94977951.383  
  22176379.734   116537677.135    22176386.336    90808634.091  
  24903897.836   130870866.896    24903905.375   101977326.469  
  24616946.375   129362949.619    24616954.617   100802332.924  
  24653546.219   129555214.282    24653552.355   100952174.236  
  24095390.781   126622231.806    24095395.840    98666597.556  
  21385531.047   112381747.727    21385532.191    87570222.194  
  23454320.094   123253355.852    23454327.020    96041607.618  
  21810279.219   114614005.936    21810286.844    89309535.824  
  20195011.195   106125593.268    20195014.195    82695305.842  
  22173845.438   116524408.601    22173852.199    90798302.626  
  23195849.664   124212753.723    23195853.547    96609925.222  
  19813697.258   105915610.188    19813700.828    82378877.908  
  23538747.008   125695607.094    23538752.570    97763258.868  
  24129359.805   128623104.915                                  
  20020600.805   106983832.604    20020603.574    83209893.426  
  19752466.078   105515106.081    19752467.754    82066613.024  
 21  8 30  1 16  0.0000000  0 16G 1G 3G 4G10G16G21G22G25G26G31G32R 4
                                R 5R 9R15R16
  23205522.727   121945789.799    23205530.660    95022775.619  
  22161816.875   116461143.602    22161822.719    90748997.603  
  24888169.352   130788213.494    24888175.938   101912921.318  
  24638516.922   129476302.240    24638524.359   100890659.660  
  24630933.867   129436387.478    24630940.473   100859582.027  
  24106630.844   126681294.991    24106634.789    98712620.701  
  21378719.094   112345951.692    21378720.410    87542329.181  
  23468554.898   123328162.695    23468561.891    96099898.678  
  21793851.727   114527678.002    21793859.098    89242267.339  
  20200792.953   106155975.718    20200795.551    82718980.479  
  22184568.953   116580760.367    22184575.184    90842213.069  
  23213734.656   124308529.469    23213738.340    96684417.418  
  19818851.641   105943160.180    19818854.984    82400305.680  
  23514818.477   125567831.540    23514823.195    97663878.010  
  20033045.805   107050337.764    20033048.711    83261619.669  
  19739410.211   105445368.920    19739412.816    82012373.039  
 21  8 30  1 16 30.0000000  0 16G 1G 3G 4G10G16G21G22G25G26G31G32R 4
                                R 5R 9R15R16
  23216546.164   122003715.985    23216553.086    95067912.849  
  22147323.391   116384982.694    22147329.934    90689651.449  
  24872437.008   130705542.458    24872443.996   101848502.338  
  24660107.227   129589757.885    24660114.309   100979066.635  
  24608316.086   129317522.518    24608320.797   100766960.121  
  24117905.180   126740538.349    24117908.602    98758784.304  
  21372000.633   112310644.853    21372001.496    87514817.364  
  23482878.547   123403430.534    23482884.668    96158548.916  
  21777492.375   114441707.433    21777499.207    89175277.331  
  20206655.398   106186782.849    20206657.715    82742986.044  
  22195329.609   116637308.004    22195335.352    90886276.156  
  23231667.930   124404565.740    23231672.715    96759112.267  
  19824097.305   105971201.965    19824100.680    82422115.947  
  23490920.367   125440208.696    23490923.938    97564615.821  
  20045604.711   107117451.629    20045608.488    83313819.340  
  19726480.648   105376296.582    19726482.184    81958650.149  
 21  8 30  1 17  0.0000000  0 16G 1G 3G 4G10G16G21G22G25G26G31G32R 4
                                R 5R 9R15R16
  23227644.641   122062040.959    23227652.527    95113360.843  
  22132901.984   116309196.955    22132908.121    90630597.655  
  24856703.102   130622853.971    24856709.414   101784069.832  
  24681716.195   129703314.378    24681723.719   101067552.215  
  24585689.375   129198622.510    24585694.578   100674310.840  
  24129211.945   126799959.377    24129216.352    98805086.363  
  21365375.273   112275828.825    21365376.617    87487688.008  
  23497288.367   123479156.795    23497295.418    96217556.392  
  21761200.891   114356097.123    21761207.930    89108568.048  
  20212598.102   106218012.797    20212601.180    82767321.067  
  22206127.445   116694051.647    22206134.188    90930491.968  
  23249653.391   124500861.644    23249656.434    96834009.058  
  19829434.406   105999736.054    19829438.168    82444309.130  
  23467049.625   125312741.288    23467053.926    97465474.624  
  20058277.648   107185170.415    20058281.441    83366489.508  
  19713674.547   105307891.363    19713676.617    81905446.126  
 21  8 30  1 17 30.0000000  0 16G 1G 3G 4G10G16G21G22G25G26G31G32R 4
                                R 5R 9R15R16
  23238818.836   122120762.019    23238827.367    95159117.458  
  22118552.297   116233788.982    22118558.664    90571838.225  
  24840964.430   130540148.316    24840970.445   101719623.937  
  24703343.836   129816969.377    24703350.820   101156114.559  
  24563056.703   129079689.870    24563061.676   100581636.191  
  24140552.391   126859555.775    24140557.313    98851525.037  
  21358843.664   112241504.856    21358844.898    87460942.050  
  23511785.352   123555339.031    23511792.199    96276919.167  
  21744978.836   114270849.958    21744986.695    89042141.734  
  20218621.406   106249663.701    20218624.391    82791984.098  
  22216962.469   116750991.371    22216969.199    90974860.584  
  23267683.133   124597415.702    23267688.070    96909106.627  
  19834865.070   106028763.695    19834868.086    82466886.179  
  23443209.164   125185432.635    23443213.898    97366456.899  
  20071063.469   107253490.692    20071066.867    83419627.490  
  19700994.180   105240155.155    19700996.402    81852762.437  
 21  8 30  1 18  0.0000000  0 16G 1G 3G 4G10G16G21G22G25G26G31G32R 4
                                R 5R 9R15R16
  23250068.320   122179876.201    23250076.070    95205180.404  
  22104274.867   116158761.311    22104281.285    90513375.090  
  24825222.617   130457425.723    24825228.648   101655164.798  
  24724990.219   129930720.726    24724997.324   101244751.929  
  24540419.469   128960727.701    24540424.492   100488938.499  
  24151927.141   126919324.812    24151931.133    98898098.241  
  21352405.977   112207674.589    21352407.254    87434580.814  
  23526368.492   123631974.682    23526376.359    96336635.243  
  21728826.766   114185968.809    21728833.957    88976000.632  
  20224723.867   106281733.593    20224727.016    82816973.633  
  22227834.867   116808127.318    22227841.352    91019382.085  
  23285762.000   124694227.203    23285766.551    96984404.403  
  19840387.805   106058285.363    19840391.094    82489847.468  
  23419397.125   125058285.453    23419401.320    97267564.744  
  20083960.125   107322409.057    20083963.676    83473230.661  
  19688438.852   105173089.935    19688441.555    81800600.632  
 21  8 30  1 18 30.0000000  0 16G 1G 3G 4G10G16G21G22G25G26G31G32R 4
                                R 5R 9R15R16
  23261391.539   122239380.521    23261399.711    95251547.342  
  22090070.969   116084116.351    22090076.543    90455210.210  
  24809477.820   130374686.348    24809483.281   101590692.645  
  24746654.156   130044566.022    24746661.699   101333462.559  
  24517776.328   128841738.637    24517781.656   100396219.872  
  24163331.914   126979263.685    24163337.133    98944803.795  
  21346062.273   112174338.553    21346063.137    87408604.685  
  23541037.758   123709061.078    23541044.547    96396702.542  
  21712744.469   114101456.385    21712751.641    88910146.831  
  20230905.680   106314220.473    20230908.801    82842288.081  
  22238745.742   116865459.378    22238751.625    91064056.401  
  23303887.438   124791294.822    23303893.180    97059901.395  
  19846003.102   106088301.880    19846005.625    82513193.648  
  23395617.102   124931302.699    23395623.023    97168800.454  
  20096968.414   107391921.522    20096971.367    83527295.914  
  19676009.891   105106696.953    19676012.910    81748961.678  
 21  8 30  1 19  0.0000000  0 16G 1G 3G 4G10G16G21G22G25G26G31G32R 4
                                R 5R 9R15R16
  23272788.156   122299272.558    23272796.711    95298216.424  
  22075939.547   116009856.967    22075945.523    90397345.768  
  24793730.016   130291930.748    24793735.793   101526207.859  
  24768335.773   130158503.442    24768343.230   101422244.913  
  24495128.500   128722725.900    24495133.570   100303482.724  
  24174770.789   127039370.483    24174774.664    98991640.202  
  21339813.375   112141498.977    21339814.023    87383015.406  
  23555792.164   123786596.036    23555799.250    96457119.383  
  21696732.797   114017315.856    21696740.074    88844582.832  
  20237167.531   106347123.067    20237170.152    82867926.467  
  22249692.625   116922988.025    22249699.152    91108883.908  
  23322064.383   124888617.905    23322068.617    97135597.049  
  19851711.164   106118814.598    19851714.602    82536925.760  
  23371867.672   124804487.639    23371873.574    97070166.666  
  20110087.281   107462025.222    20110091.234    83581821.008  
  19663707.992   105040979.240    19663710.145    81697847.934  
 21  8 30  1 19 30.0000000  0 16G 1G 3G 4G10G16G21G22G25G26G31G32R 4
                                R 5R 9R15R16
  23284258.695   122359549.016    23284267.043    95345185.040  
  22061882.664   115935985.433    22061888.215    90339783.541  
  24777979.047   130209158.883    24777984.965   101461710.401  
  24790033.195   130272530.435    24790042.480   101511096.984  
  24472477.281   128603691.883    24472481.680   100210728.993  
  24186239.633   127099641.907    24186243.730    99038604.909  
  21333658.727   112109157.160    21333659.531    87357813.995  
  23570631.555   123864576.747    23570638.383    96517883.593  
  21680792.727   113933549.845    21680799.969    88779310.655  
  20243506.648   106380438.951    20243509.574    82893886.902  
  22260676.867   116980713.099    22260683.531    91153864.475  
  23340284.906   124986194.968    23340290.441    97211490.292  
  19857511.281   106149823.935    19857515.602    82561044.130  
  23348151.953   124677843.247    23348158.254    96971665.651  
  20123316.117   107532715.960    20123320.121    83636802.689  
  19651532.016   104975937.646    19651534.152    81647260.067  
 21  8 30  1 20  0.0000000  0 16G 1G 3G 4G10G16G21G22G25G26G31G32R 4
                                R 5R 9R15R16
  23295801.406   122420207.235    23295810.012    95392451.117  
  22047899.289   115862504.506    22047905.027    90282525.676  
  24762224.953   130126371.276    24762230.102   101397200.639  
  24811748.563   130386644.860    24811757.492   101600017.339  
  24449822.102   128484639.946    24449826.738   100117961.384  
  24197740.398   127160075.551    24197744.422    99085695.978  
  21327599.414   112077314.998    21327600.648    87333001.924  
  23585554.555   123943000.812    23585561.367    96578993.220  
  21664924.242   113850161.271    21664931.043    88714332.594  
  20249925.141   106414166.372    20249928.137    82920168.004  
  22271699.516   117038634.790    22271705.512    91198998.247  
  23358553.992   125084025.049    23358558.590    97287580.340  
  19863405.875   106181330.799    19863409.723    82585549.467  
  23324469.008   124551372.493    23324474.199    96873299.638  
  20136654.586   107603990.468    20136657.961    83692238.399  
  19639482.555   104911574.429    19639485.277    81597199.805  
 21  8 30  1 20 30.0000000  0 16G 1G 3G 4G10G16G21G22G25G26G31G32R 4
                                R 5R 9R15R16
  23307416.875   122481244.030    23307424.289    95440012.199  
  22033991.094   115789416.422    22033997.109    90225573.917  
  24746467.938   130043567.848    24746473.656   101332678.608  
  24833479.359   130500844.305                                  
  24427164.414   128365572.673    24427169.086   100025181.783  
  24209270.773   127220668.833    24209274.031    99132911.500  
  21321635.164   112045972.762    21321636.012    87308579.403  
  23600562.656   124021865.395    23600568.695    96640446.158  
  21649128.609   113767152.786    21649135.371    88649650.703  
  20256420.953   106448303.317    20256423.816    82946768.215  
  22282759.148   117096753.033    22282765.609    91244285.169  
  23376871.523   125182107.140    23376874.211    97363866.348  
  19869392.836   106213335.566    19869396.828    82610442.056  
  23300817.555   124425077.922    23300823.145    96775070.647  
  20150101.117   107675845.017    20150103.871    83748125.280  
  19627560.641   104847890.810    19627563.320    81547668.134  
 21  8 30  1 21  0.0000000  0 16G 1G 3G 4G10G16G21G22G25G26G31G32R 4
                                R 5R 9R15R16
  23319103.039   122542656.539    23319111.074    95487866.065  
  22020158.125   115716723.694    22020164.203    90168930.226  
  24730707.773   129960748.875    24730714.121   101268144.464  
  24855227.383   130615126.6411                                 
  24404503.633   128246492.892    24404508.750    99932392.473  
  24220831.664   127281419.546    24220834.859    99180249.681  
  21315766.508   112015131.855    21315767.277    87284547.541  
  23615652.969   124101167.861    23615660.582    96702240.298  
  21633405.094   113684527.109    21633412.250    88585267.100  
  20262994.570   106482847.724    20262997.285    82973685.937  
  22293856.391   117155067.793    22293862.250    91289725.238  
  23395233.117   125280439.803    23395237.887    97440347.297  
  19875473.109   106245839.050    19875476.898    82635722.545  
  23277199.211   124298962.742    23277206.398    96676981.246  
  20163655.805   107748275.829    20163658.980    83804460.355  
  19615767.227   104784888.911    19615769.563    81498666.680  
 21  8 30  1 21 30.0000000  0 16G 1G 3G 4G10G16G21G22G25G26G31G32R 4
                                R 5R 9R15R16
  23330860.875   122604442.076    23330868.508    95536010.584  
  22006400.891   115644429.128    22006407.184    90112596.816  
  24714944.461   129877915.028    24714951.129   101203598.744  
  24876991.602   130729489.716    24877000.879   101867160.2341 
  24381841.359   128127403.841    24381846.766    99839595.879  
  24232420.570   127342324.988    24232425.359    99227708.406  
  21309993.492   111984794.463    21309994.402    87260908.002  
  23630826.813   124180905.972    23630834.148    96764373.873  
  21617755.461   113602287.428    21617762.605    88521184.271  
  20269645.484   106517797.824    20269648.320    83000919.786  
  22304990.195   117213579.565    22304996.387    91335318.826  
  23413643.047   125379022.286    23413645.895    97517022.561  
  19881647.695   106278842.265    19881651.195    82661391.699  
  23253616.898   124173030.065    23253622.504    96579033.756  
  20177317.039   107821279.812    20177320.469    83861241.215  
  19604101.125   104722570.550    19604103.609    81450196.865  
 21  8 30  1 22  0.0000000  0 16G 1G 3G 4G10G16G21G22G25G26G31G32R 4
                                R 5R 9R15R16
  23342688.578   122666597.609    23342696.602    95584443.421  
  21992719.773   115572535.144    21992726.301    90056575.548  
  24699178.852   129795066.538    24699185.125   101139041.593  
  24898769.469   130843931.291    24898777.328   101956335.427  
  24359177.938   128008308.500    24359184.734    99746794.439  
  24244039.414   127403382.635    24244044.188    99275285.781  
  21304316.609   111954961.885    21304317.938    87237661.838  
  23646082.547   124261076.980    23646090.211    96826844.764  
  21602179.305   113520436.354    21602186.480    88457404.253  
  20276373.102   106553151.748    20276375.988    83028468.301  
  22316162.211   117272288.245    22316168.527    91381065.847  
  23432099.328   125477853.329    23432102.516    97593891.112  
  19887915.125   106312345.894    19887918.637    82687450.085  
  23230068.742   124047282.865    23230073.695    96481230.550  
  20191085.297   107894852.890    20191088.965    83918464.715  
  19592562.281   104660937.233    19592565.527    81402259.881  
 21  8 30  1 22 30.0000000  0 16G 1G 3G 4G10G16G21G22G25G26G31G32R 4
                                R 5R 9R15R16
  23354586.414   122729120.477    23354594.215    95633162.477  
  21979115.219   115501044.481    21979121.770    90000868.559  
  24683410.688   129712203.790    24683416.250   101074473.350  
  24920561.484   130958449.4351   24920569.566   102045570.4121 
  24336515.133   127889209.747    24336521.059    99653990.324  
  24255687.500   127464590.051    24255691.504    99322979.815  
  21298735.672   111925634.985    21298736.551    87214809.725  
  23661420.977   124341678.589    23661427.781    96889651.214  
  21586678.414   113438977.008    21586685.566    88393929.477  
  20283177.063   106588907.903    20283179.926    83056330.243  
  22327371.914   117331194.245    22327378.184    91426966.607  
  23450602.719   125576932.129    23450606.512    97670952.344  
  19894275.641   106346350.869    19894279.582    82713898.398  
  23206554.789   123921724.330    23206559.133    96383574.054  
  20204959.906   107968991.934    20204962.887    83976128.414  
  19581154.555   104599991.132    19581155.801    81354857.375  
 21  8 30  1 23  0.0000000  0 16G 1G 3G 4G10G16G21G22G25G26G31G32R 4
                                R 5R 9R15R16
  23366553.500   122792007.623    23366560.105    95682165.434  
  21965588.586   115429959.662    21965594.902    89945477.795  
  24667639.656   129629327.195    24667645.434   101009894.284  
  24942370.266   131073041.8101   24942375.836   102134863.1001 
  24313851.828   127770110.774    24313856.660    99561185.977  
  24267363.219   127525944.591    24267367.832    99370788.466  
  21293251.445   111896815.139    21293252.477    87192352.698  
  23676839.859   124422708.011    23676847.055    96952791.022  
  21571251.828   113357912.013    21571259.242    88330762.005  
  20290057.547   106625064.254    20290060.758    83084504.031  
  22338618.680   117390297.521    22338625.535    91473021.097  
  23469146.320   125676256.968    23469153.023    97748205.048  
  19900731.555   106380857.742    19900735.375    82740737.068  
  23183077.906   123796357.228    23183083.156    96286066.462  
  20218938.633   108043692.974    20218941.688    84034229.229  
  19569874.234   104539733.524    19569876.078    81307990.383  
 21  8 30  1 23 30.0000000  0 16G 1G 3G 4G10G16G21G22G25G26G31G32R 4
                                R 5R 9R15R16
  23378588.766   122855255.706    23378596.410    95731449.570  
  21952139.273   115359282.643    21952145.578    89890404.805  
  24651866.484   129546436.555    24651872.852   100945304.218  
  24964188.461   131187705.779    24964195.289   102224211.613  
  24291186.898   127651013.775    24291192.984    99468383.238  
  24279065.203   127587443.144    24279070.691    99418709.371  
  21287864.156   111868503.272    21287865.074    87170291.506  
  23692340.578   124504162.179    23692347.340    97016261.812  
  21555900.898   113277243.723    21555909.004    88267903.645  
  20297013.719   106661618.249    20297016.738    83112987.665  
  22349903.156   117449597.702    22349909.789    91519229.018  
  23487742.609   125775826.761    23487746.676    97825648.234  
  19907280.945   106415866.911    19907283.770    82767966.419  
  23159635.734   123671184.362    23159641.660    96188709.909  
  20233022.547   108118952.187    20233025.605    84092764.169  
  19558722.094   104480165.697    19558724.594    81261659.873  
 21  8 30  1 24  0.0000000  0 16G 1G 3G 4G10G16G21G22G25G26G31G32R 4
                                R 5R 9R15R16
  23390693.430   122918861.868    23390701.168    95781012.796  
  21938767.938   115289016.193    21938773.820    89835651.734  
  24636090.836   129463532.362    24636095.844   100880703.582  
  24986022.477   131302439.182    24986028.344   102313614.179  
  24268525.828   127531922.007    24268530.902    99375584.513  
  24290795.211   127649083.325    24290799.953    99466740.643  
  21282573.047   111840700.966    21282574.141    87148627.386  
  23707920.961   124586038.725    23707927.180    97080061.717  
  21540626.703   113196975.135    21540634.172    88205356.741  
  20304044.938   106698568.072    20304047.520    83141779.737  
  22361225.320   117509095.102    22361231.520    91565590.612  
  23506382.758   125875640.325    23506387.258    97903280.943  
  19913924.070   106451378.986    19913927.656    82795586.918  
  23136231.961   123546208.592    23136238.180    96091506.707  
  20247209.055   108194765.847    20247213.723    84151730.338  
  19547700.039   104421289.494    19547702.859    81215867.306  
 21  8 30  1 24 30.0000000  0 15G 1G 3G 4G16G21G22G25G26G31G32R 4R 5
                                R 9R15R16
  23402864.344   122982823.473    23402872.695    95830852.948  
  21925475.500   115219163.005    21925481.336    89781220.692  
  24620311.688   129380615.217    24620317.027   100816092.888  
  24245864.547   127412838.854    24245868.980    99282792.509  
  24302551.914   127710862.905    24302555.813    99514880.509  
  21277379.523   111813409.454    21277380.352    87127361.271  
  23723581.281   124668335.212    23723588.695    97144188.851  
  21525429.203   113117109.228    21525436.039    88143123.598  
  20311151.109   106735912.325    20311153.715    83170879.159  
  22372585.008   117568790.078    22372591.246    91612106.164  
  23525067.219   125975696.575    23525071.344    97981102.437  
  19920661.734   106487394.915    19920665.387    82823599.302  
  23112866.234   123421433.527    23112871.891    95994459.567  
  20261500.469   108271130.747    20261504.000    84211125.251  
  19536807.914   104363106.125    19536810.191    81170613.598  
 21  8 30  1 25  0.0000000  0 15G 1G 3G 4G16G21G22G25G26G31G32R 4R 5
                                R 9R15R16
  23415102.945   123047137.524    23415110.922    95880967.770  
  21912261.828   115149725.653    21912267.770    89727113.682  
  24604530.602   129297685.528    24604535.484   100751472.427  
  24223206.211   127293767.060    24223210.652    99190009.375  
  24314334.664   127772779.346    24314338.641    99563127.026  
  21272283.656   111786630.331    21272284.711    87106494.428  
  23739321.781   124751049.077    23739328.809    97208641.199  
  21510307.891   113037648.799    21510315.004    88081206.431  
  20318331.992   106773648.930    20318335.293    83200284.317  
  22383982.078   117628682.746    22383988.422    91658775.761  
  23543797.484   126075994.697    23543800.512    98059112.052  
  19927493.617   106523915.178    19927497.043    82852003.957  
  23089538.523   123296861.704    23089542.918    95897570.487  
  20275893.648   108348043.064    20275897.004    84270945.930  
  19526046.297   104305617.704    19526048.352    81125900.403  
 21  8 30  1 25 30.0000000  0 16G 1G 3G 4G10G16G21G22G25G26G31G32R 4
                                R 5R 9R15R16
  23427408.711   123111800.803    23427415.543    95931354.691  
  21899127.852   115080706.311    21899133.879    89673332.390  
  24588747.602   129214743.380    24588752.465   100686842.268  
  25051593.656   131647029.3221                                 
  24200549.680   127174709.574    24200554.059    99097237.395  
  24326141.938   127834829.295    24326145.777    99611477.632  
  21267285.336   111760364.093    21267286.906    87086027.238  
  23755140.445   124834177.348    23755147.508    97273416.455  
  21495264.859   112958596.283    21495271.758    88019607.121  
  20325587.094   106811775.438    20325590.172    83229993.291  
  22395416.742   117688772.895    22395423.148    91705599.242  
  23562571.797   126176532.943    23562575.621    98137308.409  
  19934419.859   106560940.143    19934423.941    82880801.141  
  23066248.547   123172496.102    23066253.008    95800841.814  
  20290388.852   108425498.825    20290391.828    84331189.289  
  19515415.000   104248825.186    19515416.832    81081728.468  
 21  8 30  1 26  0.0000000  0 16G 1G 3G 4G10G16G21G22G25G26G31G32R 4
                                R 5R 9R15R16
  23439779.195   123176810.299    23439786.730    95982011.424  
  21886074.422   115012107.497    21886079.941    89619878.781  
  24572961.656   129131789.122    24572967.195   100622202.564  
  25073476.539   131762019.0631                                 
  24177897.570   127055669.283    24177901.613    99004478.817  
  24337974.758   127897010.685    24337978.785    99659930.617  
  21262385.023   111734612.287    21262386.301    87065960.912  
  23771037.742   124917717.318    23771044.723    97338512.552  
  21480299.359   112879954.415    21480306.457    87958327.785  
  20332916.398   106850290.316    20332919.074    83260004.893  
  22406889.500   117749060.591    22406895.438    91752576.653  
  23581391.148   126277310.156    23581396.867    98215690.640  
  19941440.750   106598470.646    19941444.355    82909991.538  
  23042997.891   123048339.788    23043002.582    95704275.925  
  20304985.000   108503494.483    20304987.766    84391852.564  
  19504912.422   104192729.844    19504915.414    81038098.785  
 21  8 30  1 26 30.0000000  0 15G 1G 3G 4G16G21G22G25G26G31G32R 4R 5
                                R 9R15R16
  23452214.609   123242163.146    23452223.355    96032935.684  
  21873100.344   114943931.743    21873106.328    89566754.849  
  24557172.773   129048823.238    24557179.566   100557553.968  
  24155247.852   126936649.407    24155252.379    98911736.218  
  24349832.094   127959321.576    24349836.637    99708484.523  
  21257583.078   111709376.243    21257583.930    87046296.467  
  23787012.391   125001666.513    23787019.258    97403927.490  
  21465413.320   112801726.035    21465420.391    87897370.651  
  20340319.094   106889191.800    20340322.039    83290317.741  
  22418399.094   117809546.071    22418405.371    91799708.184  
  23600256.039   126378325.327    23600261.410    98294257.961  
  19948556.719   106636507.391    19948559.289    82939575.668  
  23019787.234   122924395.579    23019791.305    95607875.002  
  20319680.578   108582026.089    20319684.191    84452932.689  
  19494543.000   104137333.542    19494545.348    80995012.798  
 21  8 30  1 27  0.0000000  0 15G 1G 3G 4G16G21G22G25G26G31G32R 4R 5
                                R 9R15R16
  23464716.891   123307856.407    23464724.574    96084125.199  
  21860208.195   114876181.610    21860214.047    89513962.545  
  24541383.430   128965846.163    24541388.957   100492896.528  
  24132604.234   126817652.891    24132608.504    98819011.785  
  24361713.555   128021758.572    24361718.453    99757136.684  
  21252879.000   111684657.128    21252880.125    87027034.825  
  23803065.398   125086022.278    23803071.555    97469659.253  
  21450606.352   112723913.935    21450612.801    87836737.876  
  20347794.875   106928477.755    20347797.918    83320930.171  
  22429947.133   117870229.484    22429953.129    91846993.942  
  23619164.922   126479577.114    23619168.469    98373009.292  
  19955767.039   106675050.288    19955770.125    82969553.473  
  22996616.742   122800666.339    22996620.285    95511641.277  
  20334476.188   108661090.256    20334479.910    84514427.042  
  19484304.063   104082637.499    19484306.012    80952471.445  
 21  8 30  1 27 30.0000000  0 15G 1G 3G 4G16G21G22G25G26G31G32R 4R 5
                                R 9R15R16
  23477281.063   123373887.033    23477289.449    96135577.616  
  21847397.367   114808859.545    21847403.480    89461503.802  
  24525591.320   128882858.314    24525597.520   100428230.720  
  24109965.188   126698682.667    24109969.258    98726307.895  
  24373618.000   128084319.292    24373623.254    99805885.203  
  21248273.930   111660455.762    21248274.605    87008176.630  
  23819194.336   125170781.883    23819200.813    97535705.697  
  21435878.656   112646520.750    21435885.723    87776431.538  
  20355343.945   106968146.000    20355346.637    83351840.503  
  22441532.422   117931110.864    22441538.609    91894433.935  
  23638115.469   126581064.233    23638121.543    98451943.668  
  19963071.648   106714100.805    19963075.125    82999926.095  
  22973486.000   122677155.368    22973490.375    95415577.291  
  20349371.117   108740683.180    20349374.133    84576332.649  
  19474195.453   104028642.996    19474198.254    80910475.739  
 21  8 30  1 28  0.0000000  0 15G 1G 3G 4G16G21G22G25G26G31G32R 4R 5
                                R 9R15R16
  23489910.594   123440251.718    23489918.332    96187290.334  
  21834667.922   114741967.701    21834674.309    89409380.313  
  24509797.734   128799859.702    24509802.633   100363556.541  
  24087331.242   126579741.585    24087335.539    98633626.620  
  24385546.688   128147001.162    24385551.184    99854728.166  
  21243766.938   111636773.107    21243767.668    86989722.622  
  23835398.734   125255942.410    23835406.277    97602064.558  
  21421231.234   112569548.892    21421238.355    87716453.520  
  20362965.031   107008194.478    20362967.938    83383047.114  
  22453154.953   117992190.053    22453161.496    91942028.099  
  23657110.906   126682785.333    23657116.535    98531059.990  
  19970472.523   106753658.453    19970474.797    83030693.143  
  22950398.406   122553865.426    22950402.652    95319685.228  
  20364363.813   108820800.900    20364367.520    84638646.407  
  19464219.938   103975351.084    19464222.133    80869026.504  
 21  8 30  1 28 30.0000000  0 15G 1G 3G 4G16G21G22G25G26G31G32R 4R 5
                                R 9R15R16
  23502602.102   123506947.789    23502610.387    96239261.245  
  21822021.039   114675508.837    21822027.453    89357594.201  
  24494001.070   128716851.061    24494006.758   100298874.576  
  24064703.297   126460832.992    24064707.188    98540970.744  
  24397497.078   128209801.557    24397501.848    99903663.477  
  21239359.609   111613610.840    21239360.262    86971674.101  
  23851680.680   125341501.421    23851687.852    97668733.919  
  21406665.000   112493001.394    21406671.629    87656806.155  
  20370657.625   107048621.591    20370660.859    83414548.759  
  22464816.031   118053467.386    22464822.293    91989776.651  
  23676150.461   126784739.333    23676155.867    98610357.520  
  19977966.641   106793724.293    19977970.094    83061855.466  
  22927351.063   122430799.418    22927356.430    95223967.349  
  20379453.891   108901439.587    20379457.359    84701365.388  
  19454374.688   103922763.305    19454377.879    80828124.915  
 21  8 30  1 29  0.0000000  0 15G 1G 3G 4G16G21G22G25G26G31G32R 4R 5
                                R 9R15R16
  23515355.484   123573972.151    23515364.398    96291488.007  
  21809457.445   114609485.420    21809463.457    89306147.401  
  24478202.789   128633832.733    24478208.641   100234184.997  
  24042082.219   126341959.864    24042086.332    98448342.454  
  24409469.570   128272717.983    24409473.910    99952689.206  
  21235050.727   111590969.923    21235052.141    86954031.839  
  23868037.805   125427456.244    23868044.242    97735711.678  
  21392179.680   112416880.858    21392186.523    87597491.495  
  20378422.227   107089425.330    20378425.211    83446343.896  
  22476514.539   118114942.988    22476520.953    92037679.693  
  23695233.398   126886925.038    23695239.016    98689835.217  
  19985556.859   106834298.585    19985560.855    83093413.245  
  22904348.375   122307960.373    22904352.336    95128426.006  
  20394641.313   108982595.857    20394644.813    84764486.935  
  19444662.578   103870880.885    19444664.598    80787771.925  
 21  8 30  1 29 30.0000000  0 15G 1G 3G 4G16G21G22G25G26G31G32R 4R 5
                                R 9R15R16
  23528172.945   123641321.698    23528181.340    96343968.131  
  21796977.063   114543899.702    21796982.574    89255041.650  
  24462403.047   128550805.167    24462409.359   100169488.265  
  24019469.344   126223125.155    24019473.375    98355744.087  
  24421463.641   128335747.882    24421468.070   100001803.365  
  21230841.719   111568851.347    21230842.945    86936796.594  
  23884468.813   125513804.033    23884476.219    97802995.681  
  21377776.258   112341189.838    21377783.063    87538511.507  
  20386258.727   107130603.585    20386261.180    83478430.857  
  22488250.523   118176616.737    22488256.875    92085737.160  
  23714360.945   126989340.932    23714362.840    98769491.966  
  19993242.133   106875381.896    19993246.051    83125366.928  
  22881386.164   122185351.112    22881392.363    95033063.341  
  20409925.055   109064265.845    20409928.258    84828008.025  
  19435081.953   103819704.886    19435084.898    80747968.400  
 21  8 30  1 30  0.0000000  0 15G 1G 3G 4G16G21G22G25G26G31G32R 4R 5
                                R 9R15R16
  23541050.844   123708993.155    23541058.098    96396699.130  
  21784579.859   114478753.961    21784586.398    89204278.754  
  24446602.664   128467768.550    24446607.895   100104784.425  
  23996862.945   126104331.546    23996867.559    98263177.733  
  24433478.617   128398888.351    24433483.598   100051003.672  
  21226732.180   111547255.598    21226733.457    86919968.743  
  23900974.867   125600541.875    23900981.773    97870583.593  
  21363454.203   112265930.749    21363461.551    87479868.106  
  20394165.508   107172154.076    20394168.449    83510807.865  
  22500024.086   118238488.593    22500030.203    92133948.975  
  23733526.219   127091985.498    23733530.387    98849326.669  
  20001023.609   106916974.343    20001026.813    83157716.597  
  22858468.430   122062974.382    22858473.906    94937881.582  
  20425304.094   109146445.567    20425307.664    84891925.579  
  19425633.219   103769236.206    19425636.566    80708715.002  
 21  8 30  1 30 30.0000000  0 15G 1G 3G 4G16G21G22G25G26G31G32R 4R 5
                                R 9R15R16
  23553988.078   123776983.554    23553996.324    96449678.663  
  21772267.383   114414050.600    21772273.543    89153860.569  
  24430798.922   128384723.274    24430804.918   100040073.904  
  23974265.188   125985582.170    23974270.453    98170645.832  
  24445514.250   128462136.786    24445519.082   100100288.135  
  21222722.578   111526184.037    21222723.746    86903549.361  
  23917553.477   125687667.047    23917561.168    97938473.327  
  21349216.242   112191106.320    21349222.746    87421563.388  
  20402142.516   107214074.866    20402145.262    83543473.422  
  22511835.836   118300558.615    22511841.680    92182315.207  
  23752736.625   127194857.459    23752739.789    98929338.120  
  20008899.359   106959076.215    20008903.070    83190462.500  
  22835596.797   121940833.177    22835600.723    94842883.012  
  20440776.836   109229131.140    20440780.727    84956236.578  
  19416319.625   103719476.142    19416321.051    80670012.739  
 21  8 30  1 31  0.0000000  0 15G 1G 3G 4G16G21G22G25G26G31G32R 4R 5
                                R 9R15R16
  23566985.969   123845290.205    23566995.066    96502904.573  
  21760039.539   114349792.480    21760045.484    89103789.304  
  24414993.641   128301670.160    24415000.461    99975357.242  
  23951676.898   125866880.658    23951682.254    98078151.271  
  24457569.992   128525491.019    24457574.898   100149655.043  
  21218812.531   111505638.169    21218813.676    86887539.589  
  23934206.391   125775177.271    23934213.613    98006663.132  
  21335060.250   112116719.492    21335067.320    87363599.662  
  20410189.914   107256364.652    20410192.500    83576426.505  
  22523685.125   118362827.273    22523691.621    92230836.230  
  23771991.055   127297955.968    23771996.867    99009525.759  
  20016871.320   107001688.566    20016874.676    83223605.410  
  22812767.695   121818930.745    22812772.035    94748070.145  
  20456345.484   109312319.214    20456347.723    85020938.391  
  19407137.266   103670426.062    19407139.441    80631862.697  
 21  8 30  1 31 30.0000000  0 15G 1G 3G 4G16G21G22G25G26G31G32R 4R 5
                                R 9R15R16
  23580044.352   123913909.629    23580052.523    96556374.201  
  21747896.695   114285981.510    21747902.668    89054066.495  
  24399189.359   128218609.240    24399194.926    99910634.506  
  23929099.281   125748229.584    23929103.824    97985695.966  
  24469645.234   128588947.818    24469650.949   100199101.815  
  21215002.742   111485618.026    21215004.043    86871939.479  
  23950932.711   125863069.305    23950939.434    98075150.407  
  21320989.141   112042772.443    21320996.004    87305978.635  
  20418307.195   107299020.830    20418309.789    83609665.094  
  22535572.234   118425294.143    22535578.156    92279511.691  
  23791286.695   127401279.285    23791291.172    99089888.403  
  20024938.141   107044811.181    20024941.371    83257145.234  
  22789985.211   121697269.525    22789988.938    94653444.880  
  20472005.359   109396005.477    20472009.227    85086027.715  
  19398088.047   103622086.767    19398089.938    80594265.478  
 21  8 30  1 32  0.0000000  0 15G 1G 3G 4G16G21G22G25G26G31G32R 4R 5
                                R 9R15R16
  23593160.922   123982838.635    23593169.273    96610085.127  
  21735839.227   114222620.097    21735845.359    89004693.977  
  24383381.797   128135540.978    24383387.191    99845906.047  
  23906530.484   125629632.129    23906535.133    97893282.403  
  24481741.227   128652505.134    24481746.352   100248626.926  
  21211293.602   111466124.953    21211294.586    86856750.084  
  23967729.398   125951340.444    23967736.262    98143933.113  
  21307001.695   111969267.830    21307008.695    87248702.345  
  20426494.086   107342041.329    20426496.391    83643187.566  
  22547497.117   118487959.405    22547503.359    92328341.733  
  23810622.148   127504825.930    23810627.488    99170424.716  
  20033100.383   107088444.609    20033104.031    83291082.326  
  22767246.977   121575852.512    22767251.020    94559009.571  
  20487758.563   109480186.367    20487762.578    85151501.730  
  19389171.648   103574458.932    19389173.621    80557221.627  
 21  8 30  1 32 30.0000000  0 15G 1G 3G 4G16G21G22G25G26G31G32R 4R 5
                                R 9R15R16
  23606336.086   124052074.095    23606343.945    96664034.824  
  21723868.063   114159710.453    21723874.648    88955673.479  
  24367572.578   128052465.663    24367578.461    99781172.100  
  23883972.789   125511090.982    23883977.000    97800912.802  
  24493854.992   128716159.972    24493858.742   100298228.051  
  21207684.750   111447159.960    21207685.680    86841972.165  
  23984597.914   126039987.763    23984605.383    98213008.938  
  21293098.320   111896207.945    21293105.512    87191772.608  
  20434749.266   107385424.138    20434752.047    83676992.359  
  22559459.508   118550822.874    22559465.859    92377326.230  
  23830000.867   127608594.643    23830005.625    99251133.701  
  20041359.156   107132588.792    20041362.359    83325416.686  
  22744556.453   121454682.356    22744560.063    94464766.242  
  20503603.930   109564857.759    20503607.059    85217357.246  
  19380389.180   103527543.625    19380391.473    80520731.955  
 21  8 30  1 33  0.0000000  0 15G 1G 3G 4G16G21G22G25G26G31G32R 4R 5
                                R 9R15R16
  23619570.000   124121613.312    23619577.047    96718221.183  
  21711983.195   114097255.277    21711989.203    88907007.126  
  24351762.289   127969384.046    24351768.195    99716433.248  
  23861427.078   125392609.681    23861430.891    97708589.776  
  24505985.813   128779910.247    24505989.754   100347903.515  
  21204176.711   111428724.526    21204177.961    86827606.891  
  24001538.070   126129008.826    24001545.531    98282376.009  
  21279280.883   111823595.797    21279287.555    87135191.740  
  20443073.484   107429167.363    20443076.051    83711078.002  
  22571459.898   118613884.951    22571466.445    92426465.500  
  23849419.195   127712584.199    23849424.789    99332014.505  
  20049712.398   107177244.297    20049715.941    83360148.744  
  22721911.750   121333762.466    22721916.027    94370717.580  
  20519540.188   109650016.002    20519543.660    85283591.441  
  19371739.813   103481341.787    19371742.336    80484797.214  
 21  8 30  1 33 30.0000000  0 15G 1G 3G 4G16G21G22G25G26G31G32R 4R 5
                                R 9R15R16
  23632859.227   124191453.023    23632867.828    96772641.728  
  21700185.523   114035256.905    21700191.195    88858696.703  
  24335951.023   127886296.496    24335956.344    99651689.740  
  23838892.414   125274191.549    23838896.336    97616316.010  
  24518134.781   128843752.754    24518138.840   100397650.885  
  21200769.281   111410818.957    21200770.324    86813654.505  
  24018549.641   126218400.880    24018556.828    98352032.112  
  21265549.297   111751433.789    21265555.996    87078961.645  
  20451465.367   107473269.380    20451468.508    83745443.212  
  22583498.016   118677145.616    22583504.227    92475759.491  
  23868880.430   127816793.117    23868883.809    99413065.895  
  20058161.633   107222411.292    20058165.473    83395278.609  
  22699314.117   121213095.323    22699318.090    94276865.479  
  20535567.008   109735657.354    20535569.961    85350201.377  
  19363224.195   103435854.782    19363226.461    80449418.452  
 21  8 30  1 34  0.0000000  0 15G 1G 3G 4G16G21G22G25G26G31G32R 4R 5
                                R 9R15R16
  23646206.445   124261589.860    23646214.734    96827293.796  
  21688474.516   113973717.319    21688481.020    88810743.792  
  24320139.430   127803203.259    24320144.840    99586941.849  
  23816370.016   125155838.779    23816374.285    97524093.170  
  24530300.016   128907684.700    24530305.223   100447467.905  
  21197463.063   111393443.916    21197463.922    86800115.514  
  24035630.164   126308160.715    24035636.660    98421974.858  
  21251903.102   111679724.217    21251909.941    87023084.081  
  20459925.438   107517727.393    20459928.676    83780085.820  
  22595574.078   118740604.645    22595580.469    92525208.061  
  23888382.133   127921219.850    23888384.316    99494286.630  
  20066707.188   107268090.149    20066710.406    83430806.615  
  22676765.500   121092683.829    22676768.977    94183212.172  
  20551682.984   109821777.817    20551687.164    85417183.959  
  19354843.648   103391082.765    19354845.766    80414595.786  
 21  8 30  1 34 30.0000000  0 16G 1G 3G 4G16G21G22G25G26G31G32R 4R 5
                                R 7R 9R15R16
  23659608.789   124332021.088    23659616.914    96882175.248  
  21676851.867   113912639.203    21676858.270    88763150.462  
  24304326.438   127720105.081    24304330.703    99522190.010  
  23793861.234   125037555.172    23793865.609    97431924.237  
  24542484.031   128971704.540    24542487.992   100497353.434  
  21194257.633   111376600.426    21194258.957    86786990.723  
  24052780.922   126398285.972    24052786.539    98492202.322  
  21238343.805   111608469.858    21238350.746    86967561.240  
  20468453.172   107562540.081    20468456.168    83815004.802  
  22607687.227   118804262.361    22607693.910    92574811.449  
  23907921.969   128025863.136    23907926.188    99575675.815  
  20075348.305   107314281.192    20075350.949    83466732.969  
  24177029.438   129421510.5931   24177035.781   100661189.1051 
  22654263.969   120972531.047    22654267.746    94089760.087  
  20567888.563   109908373.792    20567892.020    85484536.374  
  19346596.977   103347027.217    19346598.301    80380330.370  
 21  8 30  1 35  0.0000000  0 16G 1G 3G 4G16G21G22G25G26G31G32R 4R 5
                                R 7R 9R15R16
  23673066.664   124402744.229    23673075.066    96937284.132  
  21665317.672   113852025.579    21665323.320    88715919.058  
  24288513.297   127637003.163    24288517.422    99457435.324  
  23771367.320   124919344.369    23771370.344    97339812.021  
  24554682.000   129035810.080    24554686.734   100547305.746  
  21191154.328   111360290.434    21191155.191    86774281.641  
  24069999.367   126488774.526    24070006.320    98562712.876  
  21224871.500   111537673.912    21224878.656    86912395.607  
  20477048.094   107607706.015    20477051.441    83850199.033  
  22619839.242   118868119.500    22619845.469    92624570.224  
  23927502.016   128130722.381    23927510.383    99657233.019  
  20084084.680   107360985.307    20084088.680    83503058.397  
  24155995.078   129308914.129                                  
  22631812.109   120852640.345    22631815.695    93996511.859  
  20584182.273   109995442.036    20584185.117    85552256.120  
  19338481.875   103303689.364    19338485.230    80346623.173  
 21  8 30  1 35 30.0000000  0 16G 1G 3G 4G16G21G22G25G26G31G32R 4R 5
                                R 7R 9R15R16
  23686579.680   124473754.234    23686588.188    96992616.566  
  21653871.500   113791876.740    21653877.285    88669049.850  
  24272697.445   127553895.934    24272703.711    99392676.519  
  23748885.234   124801207.635    23748890.242    97247757.503  
  24566895.797   129099996.250    24566900.688   100597320.831  
  21188151.672   111344512.461    21188152.523    86761987.114  
  24087287.141   126579621.690    24087294.324    98633502.884  
  21211487.102   111467336.967    21211493.504    86857587.619  
  20485709.344   107653221.175    20485711.910    83885665.393  
  22632028.414   118932174.180    22632034.930    92674482.940  
  23947123.367   128235794.227    23947131.070    99738955.496  
  20092917.914   107408200.605    20092921.230    83539781.407  
  24134941.180   129196220.603                                  
  22609410.016   120733012.802    22609414.070    93903468.300  
  20600562.758   110082976.871    20600566.645    85620338.768  
  19330504.484   103261068.161    19330506.492    80313473.369  
 21  8 30  1 36  0.0000000  0 16G 1G 3G 4G16G21G22G25G26G31G32R 4R 5
                                R 7R 9R15R16
  23700146.336   124545048.585    23700154.547    97048170.586  
  21642514.563   113732195.624    21642520.422    88622545.103  
  24256880.477   127470784.606    24256887.980    99327914.521  
  23726420.094   124683148.571    23726424.293    97155763.583  
  24579125.633   129164261.616    24579129.602   100647397.718  
  21185250.219   111329268.125    21185251.637    86750108.409  
  24104642.898   126670825.215    24104650.863    98704570.545  
  21198190.172   111397462.010    21198196.852    86803139.635  
  20494436.398   107699084.013    20494439.379    83921402.676  
  22644255.992   118996427.013    22644261.953    92724550.079  
  23966790.461   128341077.708    23966791.266    99820842.575  
  20101846.063   107455928.013    20101849.301    83576902.716  
  24113872.352   129083431.9861   24113883.988   100398280.6551 
  22587056.758   120613651.918    22587060.809    93810632.120  
  20617030.523   110170975.176    20617034.461    85688781.894  
  19322660.164   103219164.695    19322661.832    80280881.799  
 21  8 30  1 36 30.0000000  0 16G 1G 3G 4G16G21G22G25G26G31G32R 4R 5
                                R 7R 9R15R16
  23713767.773   124616625.048    23713774.563    97103944.371  
  21631247.563   113672985.458    21631253.430    88576407.321  
  24241066.336   127387670.486    24241071.313    99263150.273  
  23703968.734   124565171.148    23703973.797    97063833.216  
  24591369.891   129228604.150    24591374.188   100697534.633  
  21182451.125   111314559.160    21182452.852    86738646.887  
  24122065.594   126762383.100    24122073.715    98775914.325  
  21184982.156   111328052.425    21184988.855    86749054.275  
  20503230.078   107745293.885    20503232.746    83957410.367  
  22656520.703   119060878.885    22656526.613    92774772.285  
  23986492.789   128446572.510    23986488.891    99902893.899  
  20110870.875   107504168.545    20110874.281    83614423.129  
  24092789.734   128970550.7761   24092791.117   100310484.3711 
  22564755.336   120494561.389    22564759.914    93718006.202  
  20633584.547   110259433.936    20633587.656    85757583.150  
  19314950.609   103177980.778    19314952.293    80248849.891  
 21  8 30  1 37  0.0000000  0 15G 1G 3G 4G16G21G22G25G26G31G32R 5R 7
                                R 9R15R16
  23727440.555   124688481.053    23727449.320    97159936.050  
  21620070.039   113614249.036    21620076.359    88530638.681  
  24225248.602   127304554.648    24225254.055    99198384.763  
  23681535.156   124447279.362    23681539.633    96971969.590  
  24603627.688   129293021.900    24603632.449   100747730.190  
  21179754.945   111300386.779    21179755.941    86727603.479  
  24139556.172   126854293.257    24139562.773    98847532.607  
  21171862.539   111259111.228    21171869.582    86695333.890  
  20512089.141   107791849.270    20512091.965    83993687.291  
  22668822.758   119125530.419    22668829.449    92825150.095  
  20119990.680   107552923.130    20119993.520    83652343.355  
  24071682.547   128857579.920    24071685.738   100222618.256  
  22542504.555   120375744.640    22542509.430    93625593.243  
  20650224.141   110348349.857    20650227.469    85826739.962  
  19307374.758   103137517.588    19307377.008    80217378.531  
 21  8 30  1 37 30.0000000  0 16G 1G 3G 4G16G21G22G25G26G31G32R 4R 5
                                R 7R 9R15R16
  23741166.688   124760612.722    23741175.051    97216142.524  
  21608983.359   113555987.860    21608989.227    88485240.367  
  24209432.570   127221436.931    24209437.820    99133617.752  
  23659117.188   124329475.250    23659122.281    96880174.292  
  24615899.836   129357511.365    24615904.094   100797981.625  
  21177160.164   111286751.457    21177161.043    86716978.543  
  24157112.695   126946552.026    24157118.645    98919422.531  
  21158833.438   111190640.068    21158839.777    86641979.773  
  20521013.297   107838747.047    20521016.227    84030231.011  
  22681164.023   119190380.916    22681170.359    92875682.943  
  24026019.773   128658392.6261   24026012.086   100067493.8161 
  20129207.758   107602190.696    20129210.754    83690662.579  
  24050561.719   128744520.213    24050565.023   100134682.926  
  22520305.430   120257203.883    22520309.910    93533394.956  
  20666948.086   110437718.071    20666951.867    85896248.566  
  19299934.945   103097774.988    19299937.461    80186467.649  
 21  8 30  1 38  0.0000000  0 16G 1G 3G 4G16G21G22G25G26G31G32R 4R 5
                                R 7R 9R15R16
  23754945.086   124833015.255    23754953.078    97272560.028  
  21597987.070   113498202.554    21597993.074    88440212.870  
  24193614.875   127138316.107    24193620.785    99068848.338  
  23636717.195   124211760.403    23636721.461    96788448.512  
  24628183.836   129422068.619    24628189.469   100848285.886  
  21174667.297   111273651.456    21174668.195    86706770.762  
  24174733.039   127039154.949    24174739.520    98991580.707  
  21145892.898   111122639.705    21145899.813    86588992.510  
  20530002.461   107885983.401    20530004.672    84067038.572  
  22693541.578   119255428.652    22693548.863    92926369.467  
  24045827.820   128764510.900    24045827.797   100150030.198  
  20138519.836   107651970.070    20138523.281    83729379.869  
  24029426.219   128631371.896    24029429.422   100046678.676  
  22498159.039   120138940.053    22498162.672    93441412.063  
  20683755.531   110527533.198    20683758.648    85966104.773  
  19292630.109   103058751.630    19292632.023    80156116.165  
 21  8 30  1 38 30.0000000  0 16G 1G 3G 4G16G21G22G25G26G31G32R 4R 5
                                R 7R 9R15R16
  23768773.578   124905686.695    23768782.188    97329187.099  
  21587081.977   113440896.498    21587088.164    88395558.817  
  24177797.719   127055193.955    24177803.520    99004077.852  
  23614335.172   124094139.291    23614338.625    96696795.765  
  24640481.141   129486692.224    24640487.230   100898641.854  
  21172276.789   111261089.091    21172277.969    86696981.914  
  24192420.688   127132100.445    24192427.223    99064005.785  
  21133043.133   111055113.732    21133050.168    86536374.889  
  20539055.078   107933557.838    20539058.266    84104109.559  
  22705958.016   119320674.874    22705964.605    92977210.674  
  24065682.211   128870833.873    24065682.547   100232725.855  
  20147928.008   107702262.362    20147931.676    83768496.094  
  24008271.672   128518137.852    24008277.316    99958607.732  
  22476064.898   120020957.098    22476068.102    93349647.600  
  20700646.258   110617792.587    20700649.504    86036306.523  
  19285459.188   103020449.559    19285462.148    80126325.677  
 21  8 30  1 39  0.0000000  0 15G 1G 3G 4G16G21G22G25G26G31G32R 5R 7
                                R 9R15R16
  23782653.234   124978625.154    23782661.855    97386022.187  
  21576269.000   113384073.265    21576275.129    88351280.976  
  24161979.883   126972072.262    24161985.688    98939307.716  
  23591970.422   123976616.104    23591975.121    96605219.323  
  24652792.063   129551380.522    24652798.004   100949048.205  
  21169989.078   111249066.300    21169989.668    86687613.504  
  24210172.828   127225386.914    24210179.281    99136696.541  
  21120284.461   110988065.798    21120291.613    86484129.776  
  20548172.641   107981469.721    20548175.254    84141443.494  
  22718411.742   119386120.889    22718418.020    93028207.567  
  20157432.375   107753068.796    20157435.574    83808012.201  
  23987105.273   128404821.281    23987108.527    99870472.525  
  22454023.602   119903259.310    22454026.797    93258104.943  
  20717619.891   110708493.922    20717623.027    86106851.987  
  19278424.711   102982870.520    19278427.027    80097097.556  
 21  8 30  1 39 30.0000000  0 14G 1G 3G 4G16G21G22G26G31G32R 5R 7R 9
                                R15R16
  23796583.453   125051826.079    23796591.496    97443061.806  
  21565548.227   113327733.586    21565554.129    88307379.932  
  24146162.211   126888950.077    24146168.215    98874537.247  
  23569625.891   123859192.594    23569630.066    96513720.610  
  24665114.078   129616129.779    24665119.164   100999502.069  
  21167803.695   111237582.258    21167804.387    86678664.906  
  21107616.781   110921496.785    21107623.824    86432257.852  
  20557353.305   108029715.393    20557356.203    84179037.522  
  22730903.430   119451765.241    22730910.152    93079359.006  
  20167032.883   107804388.081    20167035.977    83847927.201  
  23965922.195   128291422.603    23965924.586    99782273.654  
  22432035.398   119785847.954    22432038.625    93166785.128  
  20734675.492   110799631.475    20734679.535    86177736.748  
  19271525.398   102946013.748    19271527.637    80068431.203  
 21  8 30  1 40  0.0000000  0 14G 1G 3G 4G16G21G22G26G31G32R 5R 7R 9
                                R15R16
  23810563.156   125125287.236    23810570.785    97500304.208  
  21554919.508   113271880.606    21554925.648    88263858.138  
  24130345.359   126805828.912    24130350.629    98809767.525  
  23547301.008   123741872.793    23547304.129    96422302.615  
  24677445.625   129680938.235    24677451.848   101050002.044  
  21165721.148   111226638.634    21165722.063    86670137.414  
  21095040.430   110855410.025    21095047.645    86380761.710  
  20566597.891   108078293.873    20566600.160    84216890.881  
  22743433.125   119517608.882    22743439.594    93130665.726  
  20176729.234   107856221.366    20176732.012    83888241.982  
  23944721.734   128177944.343    23944725.258    99694012.905  
  22410102.516   119668726.754    22410106.395    93075690.947  
  20751812.063   110891202.608    20751815.230    86248958.742  
  19264760.484   102909880.615    19264763.219    80040327.665  
 21  8 30  1 40 30.0000000  0 15G 1G 3G 4G16G21G22G25G26G31G32R 5R 7
                                R 9R15R16
  23824589.750   125199004.881    23824598.703    97557746.514  
  21544383.945   113216516.014    21544390.328    88220716.916  
  24114527.500   126722708.844    24114532.988    98744998.673  
  23524995.531   123624659.463    23524999.773    96330967.652  
  24689788.805   129745802.984    24689794.914   101100545.891  
  21163741.273   111216235.943    21163742.328    86662031.425  
  24263809.945   127507257.7791   24263818.406    99356336.1331 
  21082556.539   110789807.328    21082563.773    86329642.756  
  20575904.938   108127202.532    20575907.402    84255001.532  
  22756000.695   119583651.288    22756007.098    93182127.337  
  20186521.523   107908567.856    20186525.043    83928955.906  
  23923506.305   128064388.566    23923513.141    99605691.757  
  22388223.859   119551898.012    22388227.891    92984824.215  
  20769028.172   110983202.860    20769031.449    86320514.489  
  19258132.305   102874470.453    19258134.117    80012786.448  
 21  8 30  1 41  0.0000000  0 14G 1G 3G 4G16G21G22G26G31G32R 5R 7R 9
                                R15R16
  23838666.555   125272975.689    23838675.168    97615386.006  
  21533941.766   113161641.627    21533947.992    88177957.648  
  24098710.516   126639590.005    24098716.402    98680230.755  
  23502710.328   123507555.285    23502715.586    96239717.722  
  24702143.070   129810720.814    24702148.008   101151131.127  
  21161864.773   111206373.796    21161866.012    86654346.642  
  21070166.031   110724690.614    21070173.184    86278902.488  
  20585274.242   108176438.975    20585277.063    84293367.584  
  22768605.758   119649892.095    22768611.887    93233743.542  
  20196410.133   107961427.385    20196413.293    83970068.872  
  23902280.500   127950756.238    23902284.668    99517311.011  
  22366401.570   119435364.028    22366405.336    92894186.758  
  20786323.805   111075628.117    20786328.094    86392400.800  
  19251638.078   102839783.743    19251641.066    79985807.906  
 21  8 30  1 41 30.0000000  0 15G 1G 3G 4G16G21G22G25G26G31G32R 5R 7
                                R 9R15R16
  23852790.547   125347196.467    23852798.746    97673220.309  
  21523593.148   113107259.746    21523599.453    88135582.170  
  24082893.664   126556473.129    24082899.418    98615464.346  
  23480448.859   123390563.528    23480452.762    96148555.360  
  24714506.750   129875689.484    24714511.422   101201755.991  
  21160090.719   111197052.940    21160092.164    86647083.645  
  24299884.289   127696819.1571   24299890.285    99504046.2421 
  21057867.289   110660062.339    21057874.438    86228542.826  
  20594706.063   108226001.462    20594708.695    84331987.708  
  22781248.867   119716331.393    22781255.215    93285514.413  
  20206394.359   108014799.621    20206397.898    84011580.597  
  23881040.477   127837049.778    23881043.488    99428872.667  
  22344633.711   119319127.647    22344637.527    92803780.785  
  20803699.039   111168474.528    20803702.449    86464614.651  
  19245280.250   102805820.769    19245283.070    79959392.287  
 21  8 30  1 42  0.0000000  0 14G 1G 3G 4G16G21G22G26G31G32R 5R 7R 9
                                R15R16
  23866960.648   125421663.952    23866969.621    97731246.883  
  21513338.625   113053372.430    21513344.801    88093592.071  
  24067078.344   126473358.719    24067083.117    98550699.887  
  23458208.305   123273687.528    23458212.184    96057483.240  
  24726878.352   129940705.925    24726882.703   101252418.118  
  21158420.578   111188273.820    21158421.355    86640242.776  
  21045662.609   110595924.681    21045669.398    86178565.464  
  20604198.898   108275887.858    20604201.684    84370860.221  
  22793929.680   119782969.145    22793936.066    93337439.906  
  20216474.992   108068684.803    20216478.262    84053491.282  
  23859782.984   127723270.510    23859788.191    99340377.792  
  22322922.070   119203191.765    22322925.523    92713608.554  
  20821152.516   111261737.870    20821154.758    86537152.807  
  19239058.523   102772581.647    19239060.316    79933539.648  
 21  8 30  1 42 30.0000000  0 15G 1G 3G 4G16G21G22G25G26G31G32R 5R 7
                                R 9R15R16
  23881177.484   125496374.951    23881186.242    97789463.191  
  21503178.820   112999981.666    21503184.727    88051988.893  
  24051260.914   126390247.214    24051267.180    98485937.679  
  23435990.055   123156930.034    23435993.109    95966503.420  
  24739259.820   130005768.331    24739264.285   101303116.033  
  21156853.016   111180037.258    21156853.504    86633824.699  
  24336201.563   127887670.9371   24336207.703    99652761.9701 
  21033551.078   110532279.765    21033558.020    86128972.046  
  20613753.039   108326096.106    20613756.418    84409983.532  
  22806647.922   119849805.139    22806654.324    93389519.891  
  20226650.891   108123082.430    20226654.316    84095800.528  
  23838516.789   127609420.668    23838519.195    99251828.017  
  22301268.477   119087558.873    22301271.535    92623671.972  
  20838682.172   111355414.590    20838685.777    86610012.474  
  19232971.945   102740066.574    19232973.313    79908250.159  
 21  8 30  1 43  0.0000000  0 15G 1G 3G 4G16G21G22G25G26G31G32R 5R 7
                                R 9R15R16
  23895440.633   125571326.788    23895450.023    97847867.171  
  21493113.977   112947090.168    21493119.902    88010774.742  
  24035446.914   126307139.793    24035452.414    98421178.649  
  23413794.836   123040294.890    23413798.820    95875618.938  
  24751649.852   130070874.099    24751654.109   101353847.720  
  21155389.078   111172344.752    21155389.801    86627830.533  
  24354450.898   127983574.148    24354458.281    99727491.757  
  21021533.953   110469130.422    21021541.105    86079764.796  
  20623368.539   108376624.594    20623371.016    84449356.379  
  22819403.727   119916839.972    22819411.082    93441754.816  
  20236923.367   108177993.163    20236926.664    84138508.870  
  23817234.070   127495502.582    23817238.543    99163225.197  
  22279671.703   118972232.286    22279675.129    92533973.606  
  20856289.258   111449501.051    20856293.488    86683190.832  
  19227020.375   102708276.317    19227022.125    79883524.417  
 21  8 30  1 43 30.0000000  0 15G 1G 3G 4G16G21G22G25G26G31G32R 5R 7
                                R 9R15R16
  23909749.234   125646516.120    23909757.914    97906456.234  
  21483144.586   112894699.823    21483150.289    87969951.103  
  24019632.391   126224036.811    24019638.984    98356423.057  
  23391623.242   122923785.110    23391627.605    95784832.172  
  24764045.930   130136020.097    24764051.039   101404610.775  
  21154028.781   111165195.610    21154029.641    86622259.789  
  24372758.039   128079791.5501   24372767.027    99802466.3691 
  21009612.000   110406478.595    21009618.941    86030945.225  
  20633044.180   108427471.204    20633046.445    84488977.116  
  22832198.375   119984073.361    22832204.656    93494144.463  
  20247291.555   108233416.502    20247294.805    84181615.895  
  23795942.656   127381518.099    23795945.961    99074570.750  
  22258130.859   118857214.529    22258135.832    92444515.447  
  20873972.844   111543993.470    20873976.344    86756684.934  
  19221204.742   102677211.054    19221206.910    79859362.567  
 21  8 30  1 44  0.0000000  0 15G 1G 3G 4G16G21G22G25G26G31G32R 5R 7
                                R 9R15R16
  23924102.453   125721939.672    23924110.543    97965227.767  
  21473270.602   112842812.724    21473276.672    87929519.621  
  24003820.133   126140938.927    24003825.391    98291671.469  
  23369476.336   122807403.829    23369480.645    95694145.540  
  24776450.828   130201204.089    24776455.133   101455403.390  
  21152771.852   111158590.675    21152772.980    86617113.097  
  24391129.547   128176320.5751   24391135.840    99877683.7911 
  20997784.914   110344326.609    20997791.672    85982515.122  
  20642780.094   108478633.751    20642782.781    84528844.039  
  22845029.766   120051505.306    22845036.926    93546688.824  
  20257755.961   108289352.425    20257758.793    84225121.599  
  23774636.641   127267469.383    23774640.484    98985866.207  
  22236650.648   118742508.048    22236654.930    92355299.403  
  20891730.156   111638887.776    20891733.641    86830491.610  
  19215524.750   102646870.655    19215526.688    79835764.488  
 21  8 30  1 44 30.0000000  0 14G 1G 3G 4G16G21G22G26G31G32R 5R 7R 9
                                R15R16
  23938498.297   125797594.384    23938507.145    98024179.479  
  21463492.742   112791431.051    21463498.902    87889481.968  
  23988009.227   126057846.667    23988014.035    98226924.222  
  23347355.250   122691154.288    23347359.469    95603561.557  
  24788861.102   130266423.628    24788866.379   101506223.698  
  21151618.391   111152530.489    21151619.422    86612390.879  
  20986053.266   110282676.577    20986059.844    85934476.167  
  20652575.641   108530110.407    20652578.207    84568955.713  
  22857900.211   120119135.779    22857906.078    93599387.870  
  20268314.883   108345800.832    20268318.375    84269025.906  
  23753319.148   127153358.589    23753324.355    98897113.392  
  22215228.898   118628115.958    22215233.102    92266327.866  
  20909563.094   111734180.301    20909566.555    86904608.018  
  19209981.250   102617255.690    19209983.090    79812730.640  
 21  8 30  1 45  0.0000000  0 14G 1G 3G 4G16G21G22G26G31G32R 5R 7R 9
                                R15R16
  23952938.148   125873477.060    23952947.383    98083308.790  
  21453812.016   112740556.758    21453817.746    87849839.679  
  23972198.320   125974760.735    23972204.051    98162181.968  
  23325258.398   122575039.702    23325262.840    95513082.758  
  24801277.000   130331675.785    24801284.070   101557069.443  
  21150569.289   111147015.354    21150570.332    86608093.371  
  20974417.391   110221530.746    20974424.129    85886830.094  
  20662431.070   108581899.150    20662433.793    84609310.573  
  22870807.383   120186964.765    22870813.609    93652241.613  
  20278970.625   108402761.246    20278974.145    84313328.434  
  23731991.883   127039187.280    23731995.148    98808313.501  
  22193866.305   118514041.035    22193870.113    92177603.009  
  20927469.313   111829867.246    20927472.727    86979031.201  
  19204572.156   102588365.942    19204575.254    79790260.848  
 21  8 30  1 45 30.0000000  0 14G 1G 3G 4G16G21G22G26G31G32R 5R 7R 9
                                R15R16
  23967422.055   125949584.335    23967429.754    98142613.085  
  21444227.211   112690191.786    21444233.938    87810594.265  
  23956388.414   125891681.594    23956394.363    98097444.963  
  23303189.305   122459063.212    23303193.090    95422711.513  
  24813700.148   130396958.201    24813705.730   101607938.775  
  21149623.422   111142045.593    21149624.234    86604220.843  
  20962878.469   110160891.062    20962884.797    85839578.417  
  20672345.109   108633997.925    20672347.961    84649907.022  
  22883753.172   120254992.080    22883758.809    93705249.875  
  20289722.391   108460233.462    20289725.520    84358029.022  
  23710651.539   126924957.913    23710656.754    98719468.480  
  22172563.125   118400285.345    22172567.227    92089126.456  
  20945449.148   111925944.289    20945452.789    87053757.779  
  19199299.734   102560201.135    19199302.457    79768354.908  
 21  8 30  1 46  0.0000000  0 14G 1G 3G 4G16G21G22G26G31G32R 5R 7R 9
                                R15R16
  23981946.664   126025913.064    23981955.238    98202089.973  
  21434740.844   112640338.200    21434747.047    87771747.321  
  23940579.984   125808609.933    23940586.109    98032713.818  
  23281146.734   122343227.633    23281150.688    95332450.100  
  24826129.570   130462268.287    24826134.445   101658829.689  
  21148781.586   111137621.863    21148782.738    86600773.777  
  20951435.625   110100759.709    20951441.766    85792722.847  
  20682317.188   108686404.594    20682320.406    84690743.392  
  22896735.555   120323217.677    22896742.070    93758412.680  
  20300569.383   108518217.217    20300573.188    84403127.494  
  23689301.555   126810672.053    23689306.930    98630579.535  
  22151321.102   118286851.916    22151323.945    92000900.535  
  20963501.039   112022407.844    20963504.410    87128784.997  
  19194163.945   102532761.570    19194165.484    79747013.034  
 21  8 30  1 46 30.0000000  0 13G 1G 3G 4G16G21G22G26G31G32R 5R 9R15
                                R16
  23996513.328   126102459.668    23996520.707    98261736.626  
  21425351.516   112590997.607    21425357.918    87733300.138  
  23924774.063   125725545.934    23924779.586    97967988.648  
  23259131.242   122227536.059    23259135.305    95242300.891  
  24838562.234   130527602.812    24838567.801   101709739.615  
  21148043.656   111133743.805    21148044.719    86597751.923  
  20940089.859   110041138.413    20940096.500    85746264.721  
  20692348.203   108739116.654    20692351.320    84731817.718  
  22909756.125   120391641.130    22909762.688    93811729.632  
  20311511.695   108576711.996    20311515.168    84448623.426  
  22130139.383   118173743.121    22130142.387    91912927.113  
  20981624.461   112119253.534    20981627.703    87204109.424  
  19189162.547   102506046.665    19189164.813    79726234.793  
 21  8 30  1 47  0.0000000  0 13G 1G 3G 4G16G21G22G26G31G32R 5R 9R15
                                R16
  24011120.391   126179221.324    24011128.531    98321550.879  
  21416060.508   112542172.462    21416066.457    87695254.590  
  23908968.719   125642490.710    23908974.176    97903270.339  
  23237143.977   122111992.014    23237147.523    95152266.680  
  24850998.914   130592959.747    24851004.777   101760667.083  
  21147409.641   111130412.112    21147410.805    86595155.807  
  20928841.859   109982029.696    20928848.637    85700206.003  
  20702436.656   108792132.710    20702439.684    84773128.924  
  22922813.820   120460262.798    22922820.785    93865201.059  
  20322550.523   108635717.840    20322553.547    84494516.833  
  22109019.047   118060961.847    22109022.598    91825208.433  
  20999818.719   112216478.116    20999822.105    87279728.524  
  19184297.016   102480056.489    19184299.016    79706020.220  
 21  8 30  1 47 30.0000000  0 14G 1G 3G 4G16G21G22G26G31G32R 5R 7R 9
                                R15R16
  24025767.148   126256194.508    24025775.766    98381529.916  
  21406868.109   112493864.395    21406873.945    87657611.951  
  23893165.531   125559444.560    23893170.742    97838559.092  
  23215185.125   121996598.521    23215188.684    95062349.762  
  24863439.750   130658336.471    24863445.152   101811609.936  
  21146879.633   111127627.270    21146880.516    86592985.809  
  20917691.578   109923435.256    20917698.777    85654548.018  
  20712582.680   108845450.182    20712586.207    84814674.997  
  22935909.992   120529082.285    22935917.004    93918826.607  
  20333683.961   108695234.217    20333687.363    84540807.345  
  23625195.766   126467491.7741   23625199.707    98363659.7381 
  22087960.656   117948510.280    22087963.066    91737746.186  
  21018083.969   112314077.043    21018086.414    87355638.806  
  19179567.711   102454790.957    19179569.094    79686369.274  
 21  8 30  1 48  0.0000000  0 14G 1G 3G 4G16G21G22G26G31G32R 5R 7R 9
                                R15R16
  24040454.844   126333376.200    24040463.285    98441671.438  
  21397774.094   112446075.467    21397780.113    87620373.846  
  23877363.984   125476408.184    23877369.930    97773855.488  
  23193255.055   121881358.611    23193259.656    94972552.523  
  24875883.539   130723730.430    24875888.816   101862566.174  
  21146454.180   111125389.273    21146454.895    86591241.919  
  20906639.852   109865357.287    20906646.668    85609292.480  
  20722785.672   108899067.609    20722788.711    84856454.822  
  22949043.789   120598099.626    22949050.137    93972606.353  
  20344913.203   108755260.539    20344916.980    84587494.475  
  23603805.297   126353001.108    23603811.164    98274611.499  
  22066963.859   117836391.090    22066967.145    91650542.439  
  21036416.484   112412046.894    21036420.391    87431837.573  
  19174973.273   102430249.891    19174975.387    79667281.794  
 21  8 30  1 48 30.0000000  0 14G 1G 3G 4G16G21G22G26G31G32R 5R 7R 9
                                R15R16
  24055181.633   126410763.845    24055190.117    98501973.442  
  21388779.367   112398808.313    21388785.262    87583542.318  
  23861564.805   125393382.964    23861570.703    97709160.568  
  23171355.695   121766276.326    23171359.863    94882878.081  
  24888331.563   130789139.384    24888336.199   101913534.139  
  21146131.984   111123699.198    21146133.012    86589924.984  
  20895686.633   109807798.472    20895693.441    85564441.478  
  20733045.555   108952983.063    20733048.219    84898466.857  
  22962214.938   120667315.376    22962221.465    94026540.693  
  20356238.367   108815797.326    20356240.801    84634578.613  
  23582410.367   126238465.290    23582415.109    98185528.086  
  22046031.172   117724608.051    22046034.043    91563600.121  
  21054819.328   112510384.275    21054822.781    87508322.197  
  19170515.148   102406434.145    19170516.727    79648758.442  
 21  8 30  1 49  0.0000000  0 14G 1G 3G 4G16G21G22G26G31G32R 5R 7R 9
                                R15R16
  24069946.352   126488353.535    24069954.934    98562432.919  
  21379884.336   112352064.218    21379890.031    87547118.365  
  23845767.852   125310368.918    23845773.402    97644474.367  
  23149487.109   121651354.270    23149490.793    94793328.523  
  24900780.977   130854560.366    24900785.129   101964511.466  
  21145915.000   111122556.542    21145915.695    86589034.608  
  20884832.727   109750760.189    20884839.102    85519996.100  
  20743361.602   109007194.340    20743364.535    84940709.411  
  22975424.063   120736728.841    22975430.586    94080629.088  
  20367657.656   108876843.490    20367661.672    84682058.969  
  23561006.289   126123885.638    23561008.355    98096410.527  
  22025160.398   117613162.818    22025164.070    91476920.554  
  21073289.609   112609084.772    21073293.164    87585089.249  
  19166191.781   102383342.212    19166193.645    79630798.068  
 21  8 30  1 49 30.0000000  0 14G 1G 3G 4G16G21G22G26G31G32R 5R 7R 9
                                R15R16
  24084748.813   126566142.121    24084756.922    98623047.366  
  21371088.609   112305845.181    21371094.871    87511103.539  
  23829973.797   125227366.799    23829978.738    97579797.463  
  23127649.016   121536595.641    23127652.824    94703906.277  
  24913231.133   130919990.9621   24913236.418   102015496.2451 
  21145801.555   111121961.595    21145802.324    86588571.008  
  20874077.977   109694244.521    20874084.598    85475957.934  
  20753734.031   109061699.280    20753736.426    84983180.787  
  22988669.922   120806340.057    22988677.000    94134871.592  
  20379172.867   108938398.854    20379176.559    84729935.347  
  23539594.258   126009264.571    23539596.945    98007260.781  
  22004354.328   117502057.941    22004357.605    91390505.718  
  21091827.203   112708144.626    21091831.031    87662135.794  
  19162004.461   102360974.531    19162006.371    79613400.998  
 21  8 30  1 50  0.0000000  0 14G 1G 3G 4G16G21G22G26G31G32R 5R 7R 9
                                R15R16
  24099589.141   126644126.730    24099597.105    98683814.558  
  21362393.836   112260153.261    21362400.070    87475499.467  
  23814181.203   125144377.484    23814186.223    97515130.544  
  23105842.914   121422003.742    23105847.172    94614613.976  
  24925684.555   130985428.474    24925688.688   102066486.422  
  21145792.773   111121915.126    21145793.770    86588534.802  
  20863422.813   109638253.587    20863429.910    85432328.661  
  20764161.078   109116496.340    20764164.250    85025879.806  
  23001954.805   120876149.083    23001961.320    94189268.206  
  20390783.141   109000463.126    20390787.098    84778207.546  
  23518174.859   125894604.546    23518178.379    97918080.825  
  21983611.969   117391296.536    21983614.996    91304358.010  
  21110431.453   112807560.332    21110434.934    87739459.128  
  19157953.023   102339330.677    19157954.641    79596566.909  
 21  8 30  1 50 30.0000000  0 14G 1G 3G 4G16G21G22G26G31G32R 5R 7R 9
                                R15R16
  24114465.617   126722304.072    24114473.504    98744731.929  
  21353799.563   112214990.410    21353805.930    87440307.647  
  23798391.375   125061401.729    23798396.652    97450474.126  
  23084069.617   121307581.918    23084072.867    94525454.165  
  24938137.656   131050870.480    24938142.273   102117480.124  
  21145888.148   111122417.104    21145889.305    86588925.954  
  20852868.898   109582789.442    20852875.547    85389109.866  
  20774643.844   109171583.207    20774646.375    85068804.632  
  23015276.688   120946155.874    23015283.043    94243818.930  
  20402488.953   109063035.747    20402492.844    84826875.134  
  23496747.570   125779907.594    23496752.355    97828872.145  
  21962934.078   117280880.974    21962938.254    91218479.319  
  21129101.469   112907327.833    21129105.297    87817056.065  
  19154036.359   102318410.212    19154038.734    79580295.438  
 21  8 30  1 51  0.0000000  0 14G 1G 3G 4G16G21G22G26G31G32R 5R 7R 9
                                R15R16
  24129378.789   126800670.482    24129385.930    98805796.600  
  21345306.719   112170357.987    21345312.266    87405529.149  
  23782603.492   124978439.615    23782608.922    97385828.406  
  23062328.148   121193332.895    23062331.840    94436429.030  
  24950591.633   131116313.983    24950596.043   102168475.036  
  21146087.945   111123467.010    21146088.797    86589744.065  
  20842414.391   109527853.473    20842421.484    85346302.633  
  20785181.219   109226957.537    20785184.086    85111953.467  
  23028635.984   121016359.761    23028642.914    94298523.229  
  20414289.742   109126116.037    20414292.840    84875937.570  
  23475312.914   125665175.565    23475318.258    97739636.169  
  21942322.906   117170813.231    21942325.387    91132871.121  
  21147837.047   113007443.035    21147839.711    87894923.445  
  19150254.883   102298212.421    19150257.281    79564586.074  
 21  8 30  1 51 30.0000000  0 14G 1G 3G 4G16G21G22G26G31G32R 5R 7R 9
                                R15R16
  24144326.055   126879223.505    24144334.828    98867006.720  
  21336914.430   112126258.628    21336920.672    87371166.024  
  23766820.477   124895492.734    23766824.090    97321194.520  
  23040621.031   121079260.697    23040624.188    94347541.673  
  24963043.344   131181757.595    24963049.094   102219469.913  
  21146392.336   111125066.081    21146393.313    86590990.093  
  20832062.055   109473448.401    20832068.605    85303909.098  
  20795773.461   109282618.191    20795775.871    85155325.398  
  23042033.656   121086761.484    23042039.836    94353381.722  
  20426183.891   109189704.048    20426187.762    84925394.906  
  23453873.953   125550411.595    23453880.586    97650375.295  
  21921776.070   117061096.872    21921779.063    91047536.234  
  21166637.102   113107902.650    21166639.848    87973058.693  
  19146609.023   102278737.722    19146611.383    79549439.095  
 21  8 30  1 52  0.0000000  0 14G 1G 3G 4G16G21G22G26G31G32R 5R 7R 9
                                R15R16
  24159310.008   126957959.344    24159317.984    98928359.243  
  21328624.188   112082693.497    21328630.551    87337219.182  
  23751038.375   124812561.084    23751042.508    97256572.519  
  23018947.563   120965367.838    23018951.266    94258794.068  
  24975496.586   131247197.507    24975501.605   102270462.026  
  21146800.586   111127213.700    21146801.664    86592663.551  
  20821809.953   109419575.427    20821816.684    85261930.193  
  20806419.109   109338562.508    20806421.980    85198918.376  
  23055467.813   121157360.301    23055474.168    94408393.755  
  20438175.109   109253799.068    20438178.770    84975246.571  
  23432431.133   125435616.854    23432435.559    97561090.496  
  21901296.063   116951733.556    21901299.266    90962475.937  
  21185500.344   113208702.449    21185503.949    88051458.538  
  19143099.070   102259985.267    19143101.258    79534853.873  
 21  8 30  1 52 30.0000000  0 14G 1G 3G 4G16G21G22G26G31G32R 5R 7R 9
                                R15R16
  24174326.305   127036875.088    24174335.191    98989851.994  
  21320436.180   112039664.826    21320442.523    87303690.361  
  23735259.703   124729645.761    23735264.578    97191963.219  
  22997309.641   120851657.718    22997312.273    94170188.816  
  24987948.477   131312631.833    24987953.770   102321449.682  
  21147314.172   111129910.310    21147315.137    86594764.807  
  20811660.227   109366236.872    20811666.668    85220367.700  
  20817118.359   109394788.736    20817121.430    85242731.019  
  23068939.828   121228156.480    23068946.094    94463559.624  
  20450260.477   109318400.265    20450263.434    85025491.937  
  23410982.609   125320794.418    23410986.676    97471784.196  
  21880881.867   116842726.447    21880885.750    90877692.690  
  21204425.820   113309838.722    21204429.941    88130120.083  
  19139723.148   102241954.504    19139725.559    79520829.962  
 21  8 30  1 53  0.0000000  0 14G 1G 3G 4G16G21G22G26G31G32R 5R 7R 9
                                R15R16
  24189377.367   127115967.446    24189386.352    99051482.362  
  21312350.648   111997174.227    21312356.605    87270580.809  
  23719484.727   124646747.394    23719489.156    97127367.155  
  22975706.719   120738133.430    22975709.734    94081728.398  
  25000399.016   131378058.032    25000403.438   102372431.048  
  21147931.781   111133155.609    21147932.605    86597293.599  
  20801612.047   109313434.377    20801618.785    85179222.925  
  20827871.242   109451294.993    20827874.375    85286761.869  
  23082449.570   121299149.705    23082456.414    94518878.992  
  20462440.039   109383507.338    20462442.430    85076130.768  
  23389528.414   125205946.385    23389530.734    97382457.974  
  21860535.883   116734077.673    21860539.379    90793188.137  
  21223415.180   113411307.780    21223418.676    88209040.447  
  19136481.727   102224644.938    19136485.027    79507366.987  
 21  8 30  1 53 30.0000000  0 14G 1G 3G 4G16G21G22G26G31G32R 5R 7R 9
                                R15R16
  24204460.617   127195233.025    24204470.180    99113247.727  
  21304367.719   111955223.330    21304373.684    87237891.817  
  23703712.906   124563866.532    23703718.008    97062784.723  
  22954139.875   120624798.621    22954143.254    93993415.632  
  25012847.922   131443473.755    25012852.371   102423404.258  
  21148653.836   111136949.884    21148654.848    86600250.170  
  20791666.625   109261169.692    20791672.902    85138497.220  
  20838676.836   109508078.890    20838679.723    85331009.064  
  23095996.414   121370339.722    23096003.082    94574351.732  
  20474713.750   109449119.642    20474716.797    85127162.543  
  23368068.836   125091074.855    23368071.672    97293113.504  
  21840257.156   116625789.707    21840259.805    90708964.216  
  21242464.992   113513105.423    21242467.926    88288216.387  
  19133377.602   102208055.815    19133379.805    79494464.352  
 21  8 30  1 54  0.0000000  0 14G 1G 3G 4G16G21G22G26G31G32R 5R 7R 9
                                R15R16
  24219577.211   127274668.828    24219585.813    99175145.670  
  21296487.898   111913814.066    21296494.039    87205624.878  
  23687944.484   124481004.132    23687949.996    96998216.685  
  22932609.297   120511656.131    22932613.016    93905252.699  
  25025292.891   131508875.686    25025298.238   102474366.752  
  21149480.180   111141293.132    21149481.496    86603634.516  
  20781823.453   109209444.666    20781830.426    85098192.027  
  20849535.094   109565138.667    20849538.008    85375471.232  
  23109580.500   121441726.560    23109587.047    94629977.837  
  20487082.938   109515236.449    20487086.441    85178586.731  
  23346604.008   124976182.386    23346608.535    97203752.725  
  21820046.438   116517865.225    21820048.832    90625023.011  
  21261575.281   113615228.125    21261579.543    88367645.158  
  19130406.945   102192186.706    19130408.805    79482121.729  
 21  8 30  1 54 30.0000000  0 14G 1G 3G 4G16G21G22G26G31G32R 5R 7R 9
                                R15R16
  24234724.367   127354271.623    24234734.133    99237173.783  
  21288711.313   111872948.208    21288717.391    87173781.366  
  23672179.680   124398160.964    23672185.895    96933663.581  
  22911115.859   120398709.122    22911119.434    93817242.101  
  25037735.422   131574261.515    25037740.637   102525316.729  
  21150411.273   111146185.308    21150412.000    86607446.592  
  20772083.484   109158261.229    20772090.313    85058308.855  
  20860445.156   109622472.437    20860448.285    85420146.900  
  23123202.813   121513310.131    23123209.160    94685757.228  
  20499545.695   109581857.392    20499548.195    85230403.007  
  23325136.805   124861271.270    23325140.129    97114377.491  
  21799904.328   116410306.795    21799906.977    90541366.515  
  21280746.594   113717672.038    21280750.563    88447323.735  
  19127571.172   102177037.249    19127572.910    79470338.833  
 21  8 30  1 55  0.0000000  0 14G 1G 3G 4G16G21G22G26G31G32R 5R 7R 9
                                R15R16
  24249904.281   127434038.237    24249912.508    99299329.556  
  21281038.305   111832627.529    21281044.137    87142362.669  
  23656418.789   124315337.777    23656424.977    96869126.083  
  22889660.742   120285961.226    22889664.699    93729386.667  
  25050173.320   131639629.351    25050180.051   102576252.500  
  21151446.586   111151626.630    21151447.648    86611686.577  
  20762447.297   109107621.151    20762453.887    85018849.071  
  20871407.258   109680078.392    20871410.184    85465034.657  
  23136862.133   121585090.305    23136868.668    94741689.832  
  20512102.523   109648981.792    20512105.258    85282610.871  
  23303666.445   124746343.807    23303672.594    97024989.513  
  21779830.063   116303116.942    21779833.281    90457996.686  
  21299976.656   113820433.536    21299981.160    88527249.335  
  19124869.703   102162606.515    19124872.020    79459114.941  
 21  8 30  1 55 30.0000000  0 14G 1G 3G 4G16G21G22G26G31G32R 5R 7R 9
                                R15R16
  24265113.859   127513965.367    24265121.758    99361610.426  
  21273469.992   111792853.544    21273475.441    87111369.964  
  23640662.250   124232535.149    23640668.293    96804604.607  
  22868244.227   120173415.138    22868247.129    93641688.460  
  25062610.266   131704976.348    25062615.586   102627172.136  
  21152586.789   111157617.017    21152587.602    86616354.410  
  20752914.250   109057525.973    20752920.859    84979813.903  
  20882420.422   109737954.040    20882423.066    85510132.566  
  23150559.031   121657066.811    23150565.387    94797775.386  
  20524752.961   109716608.776    20524756.461    85335209.633  
  23282196.289   124631402.146    23282200.516    96935590.469  
  21759826.289   116196297.541    21759829.648    90374914.992  
  21319266.453   113923508.615    21319270.047    88607418.826  
  19122301.953   102148893.578    19122304.145    79448449.334  
 21  8 30  1 56  0.0000000  0 14G 1G 3G 4G16G21G22G26G31G32R 5R 7R 9
                                R15R16
  24280353.492   127594049.807    24280361.617    99424013.775  
  21266005.188   111753627.951    21266011.258    87080804.594  
  23624910.313   124149753.923    23624915.402    96740099.800  
  22846866.578   120061074.236    22846869.578    93554150.183  
  25075040.742   131770299.436    25075045.840   102678073.188  
  21153831.125   111164155.921    21153832.160    86621449.660  
  20743485.797   109007977.509    20743492.480    84941204.720  
  20893485.086   109796097.703    20893487.785    85555439.319  
  23164292.633   121729239.477    23164298.805    94854013.823  
  20537498.273   109784737.616    20537501.484    85388198.719  
  23260723.930   124516448.875    23260728.340    96846182.382  
  21739892.539   116089851.518    21739895.637    90292123.705  
  21338612.805   114026893.553    21338617.059    88687829.324  
  19119869.773   102135898.123    19119871.441    79438341.774  
 21  8 30  1 56 30.0000000  0 14G 1G 3G 4G16G21G22G26G31G32R 5R 7R 9
                                R15R16
  24295621.859   127674288.207    24295630.676    99486537.233  
  21258645.406   111714952.418    21258651.660    87050667.818  
  23609161.539   124066994.811    23609166.980    96675612.231  
  22825527.891   119948941.840    22825531.398    93466774.326  
  25087466.023   131835596.374    25087472.414   102728953.843  
  21155179.922   111171243.433    21155180.691    86626972.391  
  20734161.148   108958977.371    20734167.570    84903022.819  
  20904599.656   109854507.307    20904602.934    85600953.300  
  23178063.922   121801608.126    23178070.512    94910404.958  
  20550337.336   109853367.755    20550340.336    85441577.704  
  23239245.602   124401486.110    23239252.434    96756766.989  
  21720028.469   115983781.058    21720032.156    90209624.528  
  21358017.805   114130584.323    21358021.566    88768477.699  
  19117570.078   102123619.428    19117572.633    79428791.694  
 21  8 30  1 57  0.0000000  0 14G 1G 3G 4G16G21G22G26G31G32R 5R 7R 9
                                R15R16
  24310919.516   127754677.669    24310928.543    99549178.313  
  21251390.789   111676828.711    21251396.988    87020961.046  
  23593416.336   123984258.750    23593422.234    96611142.627  
  22804230.289   119837021.395    22804233.418    93379563.655  
  25099887.492   131900864.861    25099892.535   102779812.341  
  21156632.617   111178879.783    21156634.098    86632922.797  
  20724941.234   108910527.391    20724947.832    84865269.615  
  20915765.281   109913180.839    20915768.023    85646672.937  
  23191872.875   121874172.774    23191878.777    94966948.796  
  20563269.328   109922498.635    20563272.633    85495346.155  
  23217768.625   124286516.575    23217774.758    96667346.338  
  21700235.555   115878088.833    21700239.133    90127419.514  
  21377478.852   114234577.507    21377481.688    88849361.296  
  19115407.055   102112056.497    19115408.574    79419798.316  
 21  8 30  1 57 30.0000000  0 14G 1G 3G 4G16G21G22G26G31G32R 5R 7R 9
                                R15R16
  24326245.844   127835214.703    24326254.723    99611934.396  
  21244241.227   111639258.281    21244247.367    86991685.412  
  23577677.023   123901546.496    23577682.723    96546691.553  
  22782973.266   119725315.738    22782976.516    93292520.359  
  25112301.266   131966102.279    25112306.906   102830646.620  
  21158190.289   111187064.643    21158191.020    86639300.609  
  20715826.641   108862629.102    20715833.313    84827946.274  
  20926980.711   109972116.472    20926983.348    85692596.811  
  23205718.273   121946933.078    23205724.879    95023645.108  
  20576294.531   109992129.129    20576298.359    85549503.201  
  23196290.297   124171542.586    23196295.414    96577922.210  
  21680513.805   115772776.965    21680518.168    90045510.347  
  21396995.102   114338869.426    21396998.910    88930477.234  
  19113375.461   102101208.418    19113377.094    79411360.933  
 21  8 30  1 58  0.0000000  0 14G 1G 3G 4G16G21G22G26G31G32R 5R 7R 9
                                R15R16
  24341598.789   127915896.297    24341607.738    99674803.115  
  21237197.727   111602242.882    21237203.547    86962842.262  
  23561942.820   123818858.760    23561948.387    96482259.569  
  22761757.539   119613828.128    22761761.352    93205646.949  
  25124708.172   132031306.247    25124714.379   102881454.839  
  21159852.031   111195797.883    21159852.918    86646105.731  
  20706817.063   108815284.209    20706823.867    84791054.178  
  20938244.859   110031312.216    20938247.762    85738723.376  
  23219601.234   122019888.965    23219608.012    95080493.848  
  20589414.078   110062258.863    20589417.633    85604048.541  
  23174812.695   124056566.922    23174816.441    96488496.754  
  21660865.063   115667848.055    21660867.680    89963899.028  
  21416567.500   114443456.027    21416571.117    89011822.367  
  19111478.938   102091074.641    19111480.707    79403479.121  
 21  8 30  1 58 30.0000000  0 14G 1G 3G 4G16G21G22G26G31G32R 5R 7R 9
                                R15R16
  24356978.813   127996719.194    24356988.426    99737781.964  
  21230259.492   111565784.085    21230265.598    86934432.822  
  23546212.297   123736196.478    23546218.008    96417847.415  
  22740584.047   119502561.808    22740587.875    93118945.997  
  25137109.891   132096473.974    25137116.078   102932234.828  
  21161617.945   111205079.323    21161619.004    86653338.023  
  20697913.234   108768494.349    20697919.992    84754594.572  
  20949558.531   110090766.139    20949561.227    85785051.119  
  23233522.422   122093040.268    23233528.547    95137494.822  
  20602626.055   110132886.847    20602629.867    85658981.399  
  23153334.555   123941591.611    23153337.871    96399071.541  
  21641286.336   115563304.464    21641289.512    89882587.417  
  21436193.992   114548333.666    21436197.363    89093393.870  
  19109714.680   102081653.917    19109716.691    79396151.905  
 21  8 30  1 59  0.0000000  0 14G 1G 3G 4G16G21G22G26G31G32R 5R 7R 9
                                R15R16
  24372385.797   128077680.277    24372394.070    99800868.454  
  21223428.172   111529883.465    21223433.953    86906458.326  
  23530487.383   123653560.465    23530492.398    96353455.747  
  22719454.227   119391520.201    22719457.430    93032420.121  
  25149503.078   132161603.030    25149509.613   102982984.641  
  21163488.727   111214908.815    21163489.965    86660997.375  
  20689115.820   108722261.101    20689121.637    84718568.688  
  20960921.000   110150476.378    20960923.887    85831578.583  
  23247479.719   122166386.823    23247485.746    95194647.969  
  20615932.211   110204012.195    20615935.656    85714301.088  
  23131856.922   123826619.240    23131861.262    96309648.620  
  21621781.203   115459148.442    21621784.406    89801577.211  
  21455873.789   114653498.670    21455876.797    89175188.856  
  19108084.789   102072945.524    19108087.199    79389378.724  
 21  8 30  1 59 30.0000000  0 14G 1G 3G 4G16G21G22G26G31G32R 5R 7R 9
                                R15R16
  24387817.297   128158776.498    24387825.852    99864060.267  
  21216702.969   111494542.808    21216708.785    86878920.165  
  23514767.617   123570951.791    23514772.121    96289085.402  
  22698367.352   119280706.744    22698370.383    92946072.014  
  25161888.367   132226691.406    25161895.223   103033702.707  
  21165463.594   111225286.406    21165464.887    86669083.808  
  20680423.875   108676586.243    20680430.535    84682977.917  
  20972331.969   110210441.187    20972334.816    85878304.410  
  23261474.273   122239928.648    23261480.449    95251953.262  
  20629330.813   110275634.436    20629334.090    85770007.250  
  23110379.055   123711652.671    23110385.203    96220230.213  
  21602349.406   115355382.826    21602353.438    89720870.690  
  21475608.180   114758947.574    21475611.117    89257204.636  
  19106587.719   102064948.760    19106589.547    79383159.032  
 21  8 30  2  0  0.0000000  0 14G 1G 3G 4G16G21G22G26G31G32R 5R 7R 9
                                R15R16
  24403274.859   128240004.572    24403282.992    99927354.835  
  21210084.891   111459763.467    21210090.676    86851819.391  
  23499052.867   123488371.101    23499057.652    96224736.843  
  22677323.688   119170124.362    22677327.000    92859903.996  
  25174264.531   132291736.372                                  
  21167542.273   111236211.694    21167543.508    86677597.032  
  20671838.773   108631471.280    20671845.707    84647823.416  
  20983790.586   110270658.478    20983793.789    85925226.992  
  23275505.625   122313665.426    23275512.145    95309410.482  
  20642821.664   110347752.562    20642825.656    85826099.125  
  23088901.445   123596694.044    23088909.875    96130818.007  
  21582990.750   115252009.491    21582994.723    89640469.259  
  21495393.102   114864676.509    21495396.520    89339438.242  
  19105223.875   102057662.481    19105225.449    79377491.939  
 21  8 30  2  0 30.0000000  0 14G 1G 3G 4G16G21G22G26G31G32R 5R 7R 9
                                R15R16
  24418756.172   128321361.349    24418764.785    99990749.665  
  21203573.211   111425547.077    21203579.313    86825157.280  
  23483343.656   123405819.356    23483348.590    96160410.842  
  22656324.703   119059776.352    22656328.668    92773918.605  
  25186635.656   132356735.400                                  
  21169725.789   111247684.562    21169726.629    86686536.932  
  20663359.805   108586917.679    20663367.238    84613106.355  
  20995297.328   110331126.270    20995300.074    85972344.759  
  23289574.078   122387597.028    23289580.453    95367019.527  
  20656405.266   110420365.866    20656409.449    85882576.119  
  23067429.195   123481746.218    23067436.406    96041414.127  
  21563706.828   115149031.032    21563709.414    89560374.959  
  21515229.711   114970681.801    21515233.656    89421886.790  
  19103993.273   102051085.578    19103994.266    79372376.590  
 21  8 30  2  1  0.0000000  0 14G 1G 3G 4G16G21G22G26G31G32R 5R 7R 9
                                R15R16
  24434262.641   128402843.629    24434270.773   100054242.312  
  21197169.422   111391894.968    21197175.277    86798934.864  
  23467640.211   123323297.247    23467645.750    96096107.916  
  22635371.531   118949665.913    22635375.273    92688118.315  
  25198996.648   132421685.881                                  
  21172012.844   111259704.307    21172014.242    86695902.974  
  20654989.570   108542926.893    20654995.992    84578827.836  
  21006851.250   110391842.745    21006854.313    86019656.308  
  23303679.578   122461723.140    23303686.113    95424780.111  
  20670081.563   110493473.108    20670084.980    85939437.290  
  23045961.516   123366811.618    23045964.008    95952020.482  
  21544496.539   115046449.593    21544499.512    89480589.443  
  21535119.516   115076959.412    21535122.457    89504547.154  
  19102893.742   102045217.211    19102895.852    79367812.309  
 21  8 30  2  1 30.0000000  0 14G 1G 3G 4G16G21G22G26G31G32R 5R 7R 9
                                R15R16
  24449791.141   128484447.871    24449799.223   100117829.964  
  21190873.859   111358808.373    21190879.703    86773153.114  
  23451941.992   123240805.408    23451947.477    96031828.601  
  22614463.711   118839795.708    22614467.102    92602505.241  
  25211345.102   132486585.828                                  
  21174404.555   111272270.567    21174405.109    86705694.871  
  20646725.391   108499500.132    20646731.969    84544988.828  
  21018452.250   110452805.441    21018454.730    86067159.703  
  23317822.680   122536043.340    23317828.473    95482691.972  
  20683850.203   110567073.481    20683853.566    85996682.006  
  23024493.641   123251892.247    23024496.063    95862638.816  
  21525360.648   114944266.928    21525364.035    89401114.101  
  21555057.250   115183505.633    21555061.461    89587416.450  
  19101928.094   102040055.735    19101929.527    79363797.848  
 21  8 30  2  2  0.0000000  0 14G 1G 3G 4G16G21G22G26G31G32R 5R 7R 9
                                R15R16
  24465342.531   128566170.892    24465350.711   100181510.212  
  21184685.492   111326288.729    21184691.215    86747813.142  
  23436250.094   123158344.758    23436256.074    95967573.568  
  22593602.938   118730169.362    22593606.184    92517082.174  
  25223686.430   132551431.774                                  
  21176899.250   111285383.048    21176900.363    86715912.399  
  20638569.023   108456638.853    20638575.617    84511590.459  
  21030099.625   110514012.512    21030102.605    86114853.529  
  23332002.281   122610557.379    23332008.613    95540754.840  
  20697711.461   110641165.769    20697714.922    86054309.312  
  23003028.797   123136990.846    23003030.734    95773271.111  
  21506300.117   114842485.816    21506303.605    89321951.051  
  21575045.742   115290316.952    21575049.211    89670491.916  
  19101093.375   102035600.176    19101095.344    79360332.416  
 21  8 30  2  2 30.0000000  0 13G 1G 3G 4G16G22G26G31G32R 5R 7R 9R15
                                R16
  24480916.555   128648009.870    24480924.836   100245280.788  
  21178605.641   111294337.855    21178611.199    86722916.360  
  23420564.359   123075916.523    23420570.281    95903343.799  
  22572788.820   118620790.462    22572792.234    92431851.928  
  21179498.758   111299041.702    21179500.016    86726555.510  
  20630520.461   108414344.863    20630527.438    84478634.108  
  21041792.906   110575462.621    21041795.758    86162736.734  
  23346218.852   122685265.421    23346225.051    95598968.867  
  20711663.469   110715749.388    20711667.145    86112318.791  
  22981567.672   123022110.395    22981571.469    95683919.703  
  21487315.680   114741108.604    21487318.691    89243102.172  
  21595082.930   115397389.786    21595085.801    89753770.797  
  19100390.797   102031849.312    19100392.922    79357415.097  
 21  8 30  2  3  0.0000000  0 13G 1G 3G 4G16G22G26G31G32R 5R 7R 9R15
                                R16
  24496511.789   128729961.993    24496520.031   100309139.579  
  21172633.391   111262957.488    21172639.621    86698464.131  
  23404885.680   122993521.878    23404890.473    95839140.216  
  22552022.109   118511662.448    22552025.441    92346817.190  
  21182202.016   111313246.736    21182202.840    86737624.369  
  20622580.633   108372619.911    20622587.184    84446121.187  
  21053532.539   110637153.906    21053535.367    86210807.871  
  23360472.102   122760167.578    23360478.352    95657334.171  
  20725707.969   110790823.809    20725711.578    86170709.989  
  22960109.391   122907253.932    22960114.070    95594586.993  
  21468406.984   114640137.960    21468410.543    89164569.509  
  21615168.383   115504720.884    21615172.137    89837250.544  
  19099820.742   102028803.037    19099823.152    79355045.783  
 21  8 30  2  3 30.0000000  0 13G 1G 3G 4G16G22G26G31G32R 5R 7R 9R15
                                R16
  24512126.719   128812023.680    24512135.738   100373083.673  
  21166770.836   111232148.651    21166776.629    86674457.245  
  23389213.523   122911161.363    23389218.270    95774963.216  
  22531303.953   118402788.066    22531307.172    92261980.079  
  21185008.789   111327997.016    21185009.773    86749118.104  
  20614749.102   108331465.007    20614755.816    84414052.455  
  21065317.344   110699084.330    21065320.645    86259065.348  
  23374762.320   122835263.273    23374768.840    95715850.270  
  20739843.047   110866387.525    20739847.484    86229481.757  
  22938657.758   122792423.511    22938664.070    95505274.469  
  21449574.641   114539575.863    21449578.055    89086354.595  
  21635301.984   115612306.275    21635305.070    89920928.040  
  19099382.070   102026459.198    19099384.305    79353222.803  
 21  8 30  2  4  0.0000000  0 13G 1G 3G 4G16G22G26G31G32R 5R 7R 9R15
                                R16
  24527763.648   128894191.506    24527771.711   100437110.518  
  21161017.109   111201912.356    21161023.461    86650896.501  
  23373547.102   122828835.624    23373552.195    95710813.315  
  22510634.836   118294170.199    22510638.301    92177342.848  
  21187919.203   111343291.958    21187920.102    86761036.256  
  20607026.234   108290881.237    20607032.902    84382428.746  
  21077147.648   110761251.675    21077150.480    86307507.442  
  23389089.266   122910551.944    23389095.594    95774516.733  
  20754069.617   110942439.512    20754073.793    86288633.293  
  22917213.602   122677621.603    22917218.500    95415984.159  
  21430819.953   114439424.033    21430822.367    89008458.777  
  21655481.219   115720141.856    21655484.738    90004800.153  
  19099075.008   102024816.257    19099076.691    79351944.982  
 21  8 30  2  4 30.0000000  0 13G 1G 3G 4G16G22G26G31G32R 5R 7R 9R15
                                R16
  24543418.242   128976462.388    24543427.172   100501217.641  
  21155372.539   111172250.108    21155378.820    86627783.066  
  23357887.781   122746545.640    23357892.156    95646691.277  
  22490014.938   118185812.377    22490018.551    92092908.243  
  21190933.234   111359131.247    21190934.473    86773378.568  
  20599412.336   108250870.003    20599419.230    84351251.178  
  21089022.539   110823654.029    21089025.656    86356132.648  
  23403452.891   122986033.498    23403459.500    95833333.523  
  20768388.813   111018978.739    20768392.797    86348163.786  
  22895771.891   122562851.021    22895778.090    95326718.150  
  21412141.703   114339684.813    21412144.754    88930883.885  
  21675707.641   115828224.358    21675711.895    90088864.287  
  19098897.156   102023873.215    19098899.793    79351211.520  
 21  8 30  2  5  0.0000000  0 13G 1G 3G 4G16G22G26G31G32R 5R 7R 9R15
                                R16
  24559093.695   129058833.208    24559102.391   100565402.601  
  21149837.484   111143163.152    21149843.184    86605117.917  
  23342235.219   122664292.257    23342240.469    95582597.764  
  22469445.609   118077717.700    22469448.246    92008678.665  
  21194051.023   111375514.394    21194051.668    86786144.666  
  20591908.125   108211432.593    20591914.758    84320520.748  
  21100941.859   110886289.678    21100944.359    86404939.640  
  23417852.922   123061707.598    23417860.102    95892300.346  
  20782797.938   111096003.682    20782801.738    86408072.061  
  22874339.609   122448114.156    22874344.789    95237478.360  
  21393541.531   114240360.620    21393544.352    88853631.780  
  21695979.531   115936549.951    21695983.789    90173117.503  
  19098852.578   102023628.475    19098853.859    79351021.177  
 21  8 30  2  5 30.0000000  0 13G 1G 3G 4G16G22G26G31G32R 5R 7R 9R15
                                R16
  24574785.438   129141300.604    24574795.000   100629662.861  
  21144412.227   111114652.784    21144418.113    86582902.034  
  23326589.938   122582076.404    23326595.758    95518533.462  
  22448926.172   117969889.389    22448928.934    91924656.674  
  21197272.289   111392440.883    21197273.063    86799334.138  
  20584512.297   108172570.271    20584518.926    84290238.435  
  21112904.656   110949156.324    21112907.426    86453926.647  
  23432289.969   123137573.987    23432296.559    95951416.992  
  20797297.398   111173513.743    20797301.066    86468357.645  
  22852912.391   122333414.003    22852917.918    95148267.143  
  21375019.258   114141453.232    21375021.992    88776703.879  
  21716296.367   116045114.901    21716299.629    90257556.904  
  19098936.992   102024080.785    19098938.855    79351372.991  
 21  8 30  2  6  0.0000000  0 13G 1G 3G 4G16G22G26G31G32R 5R 7R 9R15
                                R16
  24590496.539   129223861.906    24590506.141   100693996.286  
  21139096.953   111086720.603    21139102.926    86561136.709  
  23310952.102   122499899.435    23310958.078    95454499.453  
  22428458.508   117862331.050    22428461.406    91840845.036  
  21200596.063   111409910.586    21200597.359    86812946.901  
  20577226.914   108134284.671    20577233.434    84260405.513  
  21124911.586   111012252.667    21124914.289    86503092.625  
  23446763.484   123213632.740    23446770.145    96010683.562  
  20811887.898   111251507.976    20811891.496    86529019.797  
  22831491.453   122218753.416    22831496.832    95059086.735  
  21356575.789   114042965.280    21356578.488    88700102.182  
  21736656.547   116153916.106    21736660.172    90342180.075  
  19099152.539   102025229.337    19099153.445    79352266.312  
 21  8 30  2  6 30.0000000  0 13G 1G 3G 4G16G22G26G31G32R 5R 7R 9R15
                                R16
  24606225.523   129306513.857    24606234.883   100758400.350  
  21133891.625   111059367.824    21133897.703    86539822.860  
  23295322.406   122417762.128    23295327.867    95390496.349  
  22408042.055   117755045.632    22408045.602    91757246.062  
  21204023.398   111427922.611    21204024.727    86826982.254  
  20570051.609   108096576.948    20570058.191    84231022.890  
  21136962.352   111075576.765    21136964.672    86552436.091  
  23461274.211   123289883.615    23461279.984    96070099.808  
  20826569.320   111329985.274    20826572.727    86590057.682  
  22810080.297   122104134.887    22810085.047    94969938.959  
  21338210.484   113944898.763    21338213.039    88623828.271  
  21757061.164   116262949.741    21757063.570    90426984.012  
  19099497.211   102027072.183    19099498.754    79353699.660  
 21  8 30  2  7  0.0000000  0 13G 1G 3G 4G16G22G26G31G32R 5R 7R 9R15
                                R16
  24621970.242   129389253.060    24621979.148   100822872.422  
  21128797.297   111032595.522    21128802.969    86518961.319  
  23279699.688   122335665.338    23279704.496    95326524.812  
  22387679.242   117648035.918    22387682.457    91673861.933  
  21207554.484   111446476.377    21207555.633    86841439.724  
  20562986.008   108059448.155    20562992.820    84202091.381  
  21149054.883   111139126.558    21149057.875    86601955.402  
  23475820.367   123366326.144    23475827.121    96129665.389  
  20841339.625   111408944.390    20841343.508    86651470.311  
  22788677.625   121989561.205    22788683.133    94880826.116  
  21319925.836   113847255.871    21319928.984    88547883.882  
  21777506.859   116372212.095    21777510.945    90511965.862  
  19099971.063   102029608.209    19099973.445    79355672.131  
 21  8 30  2  7 30.0000000  0 13G 1G 3G 4G16G22G26G31G32R 5R 7R 9R15
                                R16
  24637731.711   129472076.438    24637740.258   100887410.115  
  21123813.180   111006404.846    21123819.148    86498552.998  
  23264085.281   122253609.967    23264090.230    95262585.578  
  22367368.992   117541305.673    22367372.563    91590695.555  
  21211187.836   111465571.613    21211189.074    86856319.136  
  20556031.023   108022899.515    20556037.648    84173611.946  
  21161190.352   111202900.133    21161193.246    86651649.104  
  23490403.023   123442959.977    23490410.117    96189380.036  
  20856201.000   111488383.847    20856205.004    86713256.539  
  22767284.016   121875035.258    22767288.965    94791750.412  
  21301720.172   113750038.515    21301723.207    88472270.432  
  21797997.336   116481699.714    21798000.195    90597122.887  
  19100576.375   102032835.782    19100578.027    79358182.474  
 21  8 30  2  8  0.0000000  0 13G 1G 3G 4G16G22G26G31G32R 5R 7R 9R15
                                R16
  24653507.219   129554980.974    24653516.625   100952011.067  
  21118940.609   110980797.206    21118946.168    86478599.001  
  23248478.820   122171597.210    23248483.160    95198679.550  
  22347112.805   117434857.779    22347116.246    91507749.202  
  21214925.008   111485208.135    21214925.887    86871620.320  
  20549186.539   107986932.333    20549193.133    84145585.584  
  21173368.547   111266896.031    21173371.273    86701516.041  
  23505022.711   123519785.085    23505028.371    96249243.746  
  20871151.086   111568302.881    20871154.840    86775415.778  
  22745898.945   121760559.728    22745903.234    94702713.903  
  21283594.328   113653249.035    21283597.082    88396989.786  
  21818527.094   116591409.234    21818530.688    90682452.527  
  19101308.906   102036753.090    19101311.262    79361229.280  
 21  8 30  2  8 30.0000000  0 13G 1G 3G 4G16G22G26G31G32R 5R 7R 9R15
                                R16
  24669299.164   129637963.232    24669307.352   101016672.532  
  21114178.313   110955773.457    21114184.418    86459099.980  
  23232880.758   122089627.733    23232885.422    95134807.233  
  22326910.398   117328695.540    22326914.250    91425025.438  
  21218764.297   111505384.171    21218765.590    86887341.908  
  20542453.398   107951547.453    20542459.988    84118012.967  
  21185587.836   111331111.829    21185590.707    86751554.324  
  23519677.922   123596800.834    23519684.633    96309256.036  
  20886190.492   111648700.000    20886194.512    86837946.858  
  22724522.867   121646136.841    22724527.789    94613718.334  
  21265548.609   113556889.188    21265552.129    88322043.291  
  21839098.836   116701336.592    21839102.914    90767951.570  
  19102171.414   102041359.028    19102173.234    79364811.690  
 21  8 30  2  9  0.0000000  0 13G 1G 3G 4G16G22G26G31G32R 5R 7R 9R15
                                R16
  24685103.891   129721020.348    24685112.648   101081392.296  
  21109527.961   110931334.953    21109533.629    86440056.991  
  23217290.641   122007702.726    23217295.184    95070969.556  
  22306763.563   117222822.306    22306766.641    91342526.863  
  21222706.156   111526099.626    21222707.328    86903483.820  
  20535830.789   107916746.235    20535837.230    84090895.155  
  21197849.680   111395546.186    21197852.480    86801762.912  
  23534370.289   123674007.221    23534377.242    96369416.826  
  20901321.078   111729574.085    20901323.902    86900848.896  
  22703158.578   121531770.056    22703162.051    94524766.430  
  21247585.438   113460961.557    21247586.738    88247432.969  
  21859710.930   116811478.581    21859714.332    90853617.542  
  19103161.578   102046651.674    19103164.020    79368928.205  
 21  8 30  2  9 30.0000000  0 13G 1G 3G 4G16G22G26G31G32R 5R 7R 9R15
                                R16
  24700922.922   129804149.033    24700931.863   101146167.857  
  21104989.094   110907482.793    21104995.320    86421470.893  
  23201709.195   121925823.170    23201713.777    95007167.326  
  22286672.047   117117240.856    22286675.391    91260255.652  
  21226750.930   111547354.022    21226751.801    86920045.681  
  20529319.656   107882529.742    20529326.219    84064232.974  
  21210152.461   111460196.948    21210155.078    86852140.133  
  23549098.016   123751403.854    23549104.883    96429725.880  
  20916538.641   111810923.976    20916542.488    86964121.028  
  22681803.852   121417462.146    22681809.160    94435860.315  
  21229702.078   113365467.671    21229704.914    88173160.007  
  21880361.914   116921831.547    21880365.332    90939447.611  
  19104283.000   102052629.604    19104283.145    79373577.717  
 21  8 30  2 10  0.0000000  0 13G 1G 3G 4G16G22G26G31G32R 5R 7R 9R15
                                R16
  24716753.617   129887346.552    24716763.574   101210997.015  
  21100562.078   110884218.288    21100568.059    86403342.719  
  23186137.406   121843990.328    23186141.918    94943401.493  
  22266636.797   117011954.977    22266639.996    91178214.753  
  21230898.023   111569146.679    21230898.438    86937026.975  
  20522919.680   107848899.262    20522926.355    84038027.413  
  21222496.070   111525062.567    21222498.813    86902684.766  
  23563862.656   123828990.721    23563869.500    96490183.173  
  20931845.688   111892748.535    20931848.688    87027762.345  
  22660461.156   121303215.956    22660465.102    94347002.253  
  21211901.008   113270410.094    21211903.523    88099226.403  
  21901050.734   117032392.346    21901054.617    91025439.341  
  19105528.250   102059291.805    19105530.723    79378759.440  
 21  8 30  2 10 30.0000000  0 13G 1G 3G 4G16G22G26G31G32R 5R 7R 9R15
                                R16
  24732597.844   129970609.614    24732607.891   101275877.268  
  21096246.578   110861542.467    21096252.754    86385673.259  
  23170574.031   121762205.131    23170578.773    94879672.780  
  22246658.227   116906967.776    22246661.586    91096406.589  
  21235147.516   111591476.772    21235148.566    86954427.033  
  20516631.813   107815855.787    20516638.195    84012279.269  
  21234880.008   111590141.071    21234882.715    86953395.279  
  23578662.680   123906767.369    23578669.645    96550788.339  
  20947240.953   111975046.585    20947244.645    87091771.935  
  22639131.422   121189034.326    22639135.727    94258194.343  
  21194181.594   113175790.444    21194184.043    88025633.397  
  21921780.172   117143157.192    21921782.977    91111589.758  
  19106903.250   102066636.137    19106904.941    79384471.711  
 21  8 30  2 11  0.0000000  0 13G 1G 3G 4G16G22G26G31G32R 5R 7R 9R15
                                R16
  24748455.633   130053934.9021   24748464.371   101340805.9001 
  21092044.078   110839455.985    21092049.781    86368463.026  
  23155020.250   121680468.215    23155025.277    94815981.710  
  22226737.352   116802282.023    22226740.387    91014833.316  
  21239498.391   111614343.311    21239499.508    86972245.110  
  20510455.672   107783399.957    20510462.301    83986989.034  
  21247304.508   111655430.731    21247307.109    87004270.330  
  23593499.070   123984733.158    23593506.230    96611540.911  
  20962724.938   112057816.275    20962728.535    87156148.331  
  22617813.727   121074919.893    22617818.184    94169438.711  
  21176544.031   113081610.773    21176546.906    87952382.607  
  21942544.797   117254122.302    21942549.586    91197895.924  
  19108404.930   102074660.304    19108407.668    79390712.744  
 21  8 30  2 11 30.0000000  0 13G 1G 3G 4G16G22G26G31G32R 5R 7R 9R15
                                R16
  24764321.961   130137319.444    24764332.031   101405780.721  
  21087953.266   110817960.211    21087959.461    86351713.094  
  23139475.875   121598780.962    23139480.715    94752329.343  
  22206874.109   116697901.117    22206877.414    90933497.592  
  21243951.984   111637745.861    21243952.719    86990480.855  
  20504391.430   107751533.108    20504398.027    83962157.738  
  21259768.117   111720929.844    21259771.418    87055308.597  
  23608371.172   124062888.162    23608378.039    96672440.876  
  20978296.664   112141056.719    20978300.539    87220890.879  
  22596510.094   120960875.499    22596515.207    94080737.524  
  21158990.320   112987873.224    21158993.293    87879475.667  
  21963347.891   117365284.606    21963351.750    91284355.481  
  19110034.859   102083363.314    19110036.734    79397481.758  
 21  8 30  2 12  0.0000000  0 13G 1G 3G 4G16G22G26G31G32R 5R 7R 9R15
                                R16
  24780201.094   130220759.856    24780209.801   101470799.153  
  21083975.547   110797055.881    21083981.387    86335424.018  
  23123940.258   121517144.100    23123945.395    94688716.243  
  22187069.516   116593828.042    22187072.770    90852401.731  
  21248507.289   111661683.432    21248508.387    87009133.495  
  20498440.039   107720255.944    20498446.328    83937785.940  
  21272272.133   111786636.032    21272275.125    87106508.220  
  23623280.102   124141231.714    23623286.375    96733487.775  
  20993956.125   112224766.354    20993959.656    87285998.356  
  22575220.984   120846903.956    22575223.898    93992092.997  
  21141519.141   112894579.412    21141521.484    87806913.870  
  21984186.742   117476640.324    21984189.922    91370965.476  
  19111791.453   102092742.843    19111792.207    79404776.958  
 21  8 30  2 12 30.0000000  0 13G 1G 3G 4G16G22G26G31G32R 5R 7R 9R15
                                R16
  24796089.063   130304252.900    24796098.996   101535858.687  
  21080110.203   110776743.920    21080115.980    86319596.530  
  23108415.031   121435558.648    23108420.402    94625143.205  
  22167324.672   116490065.760    22167327.512    90771548.048  
  21253164.117   111686155.183    21253164.805    87028202.397  
  20492600.328   107689569.384    20492606.891    83913874.353  
  21284814.367   111852547.384    21284817.418    87157867.713  
  23638223.242   124219763.493    23638230.406    96794681.341  
  21009703.633   112308943.484    21009707.543    87351469.441  
  22553943.336   120733008.236    22553946.504    93903507.460  
  21124131.797   112801731.414    21124134.406    87734698.809  
  22005061.102   117588185.843    22005063.500    91457723.099  
  19113672.773   102102797.108    19113674.930    79412596.954  
 21  8 30  2 13  0.0000000  0 13G 1G 3G 4G16G22G26G31G32R 5R 7R 9R15
                                R16
  24811986.883   130387795.942    24811996.887   101600957.181  
  21076357.898   110757025.567    21076363.852    86304231.602  
  23092899.844   121354025.942    23092904.754    94561611.253  
  22147639.313   116386618.018    22147641.762    90690939.460  
  21257922.242   111711160.632    21257923.422    87047687.163  
  20486873.414   107659474.562    20486880.414    83890423.857  
  21297396.109   111918662.835    21297399.063    87209386.238  
  23653203.188   124298483.352    23653210.066    96856021.485  
  21025537.977   112393587.219    21025541.949    87417303.438  
  22532682.578   120619191.430    22532685.102    93814983.301  
  21106828.188   112709331.338    21106831.152    87662832.120  
  22025969.406   117699918.061    22025973.191    91544625.932  
  19115681.086   102113524.717    19115682.934    79420940.661  
