     2.11           OBSERVATION DATA    M (MIXED)           RINEX VERSION / TYPE
CONVBIN 2.4.3                           20210829 171709 UTC PGM / RUN BY / DATE 
log: ngs/njtw2400.21o                                       COMMENT             
format: RINEX                                               COMMENT             
NJTW                                                        MARKER NAME         
21                                                          MARKER NUMBER       
                                                            OBSERVER / AGENCY   
5920R40010          TRIMBLE ALLOY       NP 6.10 / SP 5.50   REC # / TYPE / VERS 
1441025881          TRM115000.00    NONE                    ANT # / TYPE        
  1271653.0480 -4729243.5750  4072560.6810                  APPROX POSITION XYZ 
        0.0460        0.0000        0.0000                  ANTENNA: DELTA H/E/N
     1     1                                                WAVELENGTH FACT L1/2
     4    C1    L1    P2    L2                              # / TYPES OF OBSERV 
    30.000                                                  INTERVAL            
  2021     8    28     0     0    0.0000000     GPS         TIME OF FIRST OBS   
  2021     8    28    23    59   30.0000000     GPS         TIME OF LAST OBS    
                                                            END OF HEADER       
 21  8 28  0  0  0.0000000  0  9G 1G10G12G21G22G23G25G31G32
  23761868.109   124869427.306    23761870.996    97300873.865  
  21136122.086   111071132.764    21136123.016    86548984.753  
  22576236.578   118639035.716    22576235.137    92446029.149  
  24319218.398   127798409.449    24319217.957    99583124.758  
  24410078.938   128275797.031    24410075.633    99955171.191  
  23740875.836   124759184.372    23740877.086    97214959.892  
  21326090.797   112069583.151    21326093.199    87326909.117  
  21301264.508   111938989.672    21301263.355    87225236.439  
  20523611.953   107852425.812    20523612.313    84040952.588  
 21  8 28  0  0 30.0000000  0  9G 1G10G12G21G22G23G25G31G32
  23758984.734   124854274.407    23758987.809    97289066.451  
  21149395.992   111140887.917    21149397.000    86603339.414  
  22582324.477   118671029.601    22582323.527    92470959.491  
  24321930.953   127812665.021    24321930.711    99594233.020  
  24392296.969   128182350.921    24392293.578    99882355.994  
  23761731.797   124868782.754    23761732.973    97300361.197  
  21321567.469   112045812.999    21321569.434    87308386.969  
  21288073.391   111869669.845    21288072.309    87171221.053  
  20522440.320   107846270.688    20522440.910    84036156.415  
 21  8 28  0  1  0.0000000  0  9G 1G10G12G21G22G23G25G31G32
  23756213.117   124839707.907    23756215.754    97277715.979  
  21162757.383   111211103.912    21162758.355    86658053.160  
  22588529.414   118703634.579    22588528.531    92496366.040  
  24324722.680   127827334.971    24324722.324    99605664.152  
  24374550.500   128089095.631    24374547.520    99809689.495  
  23782618.305   124978542.029    23782619.672    97385887.898  
  21317164.180   112022670.643    21317166.176    87290354.019  
  21274959.234   111800754.065    21274957.805    87117520.497  
  20521318.133   107840373.490    20521318.699    84031561.221  
 21  8 28  0  1 30.0000000  0  9G 1G10G12G21G22G23G25G31G32
  23753552.539   124825728.239    23753555.570    97266822.738  
  21176206.500   111281779.536    21176207.797    86713125.069  
  22594850.273   118736850.763    22594849.414    92522248.811  
  24327592.516   127842418.818    24327592.875    99617417.774  
  24356841.609   127996034.029    24356838.781    99737173.917  
  23803534.891   125088460.454    23803535.949    97471538.590  
  21312880.156   112000157.758    21312881.543    87272811.539  
  21261921.977   111732243.256    21261920.344    87064135.517  
  20520245.313   107834735.166    20520245.832    84027167.736  
 21  8 28  0  2  0.0000000  0  9G 1G10G12G21G22G23G25G31G32
  23751004.023   124812335.340    23751006.785    97256386.733  
  21189742.523   111352913.164    21189743.789    86768553.855  
  22601286.805   118770676.635    22601286.059    92548606.681  
  24330541.844   127857915.245    24330541.582    99629492.910  
  24339169.891   127903168.473    24339166.773    99664811.150  
  23824481.609   125198535.864    23824482.477    97557311.608  
  21308715.586   111978275.368    21308717.582    87255760.375  
  21248961.820   111664138.383    21248960.645    87011066.834  
  20519221.500   107829356.230    20519222.105    84022976.373  
 21  8 28  0  2 30.0000000  0  9G 1G10G12G21G22G23G25G31G32
  23748566.969   124799529.189    23748569.613    97246407.895  
  21203365.523   111424503.024    21203367.344    86824338.160  
  22607839.227   118805110.854    22607837.883    92575438.604  
  24333568.828   127873823.043    24333568.547    99641888.575  
  24321535.891   127810501.130    24321532.836    99592602.815  
  23845458.094   125308765.893    23845459.125    97643205.117  
  21304671.992   111957024.446    21304673.379    87239201.263  
  21236079.031   111596439.949    21236078.188    86958314.858  
  20518247.734   107824237.098    20518247.973    84018987.457  
 21  8 28  0  3  0.0000000  0  9G 1G10G12G21G22G23G25G31G32
  23746241.844   124787309.911    23746244.906    97236886.373  
  21217075.453   111496547.669    21217076.723    86880476.837  
  22614507.883   118840152.445    22614507.070    92602743.792  
  24336673.852   127890141.066    24336674.246    99654603.902  
  24303939.891   127718034.412    24303937.180    99520550.839  
  23866463.016   125419148.537    23866464.992    97729217.546  
  21300748.172   111936406.270    21300749.980    87223135.215  
  21223274.461   111529148.888    21223273.016    86905880.325  
  20517323.148   107819378.509    20517323.508    84015201.555  
 21  8 28  0  3 30.0000000  0  9G 1G10G12G21G22G23G25G31G32
  23744028.281   124775677.424    23744031.223    97227822.089  
  21230871.227   111569045.410    21230872.660    86936968.575  
  22621290.773   118875800.011    22621290.578    92630521.161  
  24339857.148   127906868.116    24339857.090    99667637.944  
  24286382.563   127625770.526    24286379.648    99448656.895  
  23887496.656   125529681.570    23887498.105    97815347.188  
  21296945.516   111916421.924    21296946.715    87207563.037  
  21210547.117   111462266.517    21210545.664    86853764.253  
  20516448.078   107814780.970    20516448.520    84011619.078  
 21  8 28  0  4  0.0000000  0  9G 1G10G12G21G22G23G25G31G32
  23741926.258   124764631.751    23741929.297    97219215.032  
  21244753.203   111641994.626    21244754.348    86993812.111  
  22628189.539   118912053.043    22628188.742    92658770.316  
  24343117.664   127924002.970    24343117.516    99680989.762  
  24268864.242   127533711.914    24268861.789    99376922.915  
  23908559.063   125640362.816    23908560.047    97901592.325  
  21293263.055   111897072.430    21293264.891    87192485.561  
  21197897.555   111395793.332    21197896.000    86801967.017  
  20515623.023   107810445.082    20515623.355    84008240.482  
 21  8 28  0  4 30.0000000  0  9G 1G10G12G21G22G23G25G31G32
  23739935.922   124754172.464    23739939.137    97211064.907  
  21258720.523   111715393.309    21258721.344    87051005.884  
  22635203.172   118948909.817    22635201.871    92687489.919  
  24346456.469   127941544.306    24346456.020    99694658.303  
  24251386.031   127441860.281    24251382.805    99305350.165  
  23929648.578   125751189.909    23929649.500    97987951.100  
  21289702.359   111878358.479    21289703.488    87177903.311  
  21185325.953   111329729.653    21185324.445    86750488.885  
  20514847.797   107806371.123    20514847.867    84005065.974  
 21  8 28  0  5  0.0000000  0  9G 1G10G12G21G22G23G25G31G32
  23738057.188   124744299.749    23738060.270    97203371.837  
  21272773.055   111789240.166    21272774.309    87108548.872  
  22642331.516   118986369.330    22642329.598    92716679.205  
  24349871.578   127959491.329    24349871.035    99708642.977  
  24233946.594   127350218.453    24233943.898    99233940.955  
  23950765.281   125862160.914    23950766.648    98074422.023  
  21286262.188   111860281.406    21286263.379    87163817.340  
  21172832.719   111264076.752    21172830.938    86699330.842  
  20514122.344   107802559.983    20514122.797    84002096.280  
 21  8 28  0  5 30.0000000  0  9G 1G10G12G21G22G23G25G31G32
  23736290.398   124735013.900    23736293.102    97196136.074  
  21286910.563   111863533.735    21286911.848    87166439.967  
  22649574.719   119024430.581    22649572.949    92746337.378  
  24353363.258   127977842.911    24353363.266    99722942.867  
  24216548.414   127258789.089    24216545.586    99162697.281  
  23971909.680   125973273.979    23971910.574    98161003.610  
  21282943.422   111842842.501    21282945.262    87150228.635  
  21160417.516   111198835.517    21160415.961    86648493.574  
  20513447.453   107799012.548    20513447.555    83999332.071  
 21  8 28  0  6  0.0000000  0  9G 1G10G12G21G22G23G25G31G32
  23734634.711   124726314.610    23734637.539    97189357.373  
  21301132.750   111938272.216    21301134.234    87224677.742  
  22656931.391   119063092.031    22656930.695    92776463.232  
  24356932.422   127996597.571    24356931.965    99737556.892  
  24199190.930   127167574.283    24199187.969    99091620.816  
  23993079.773   126084526.743    23993081.047    98247694.026  
  21279746.461   111826042.508    21279748.371    87137137.793  
  21148081.266   111134006.742    21148079.566    86597977.704  
  20512822.484   107795729.274    20512822.754    83996773.702  
 21  8 28  0  6 30.0000000  0  9G 1G10G12G21G22G23G25G31G32
  23733091.148   124718201.416    23733094.008    97183035.369  
  21315439.594   112013453.604    21315441.266    87283260.637  
  22664402.156   119102352.681    22664401.410    92807056.008  
  24360577.727   128015753.897    24360577.176    99752483.890  
  24181874.547   127076576.156    24181871.531    99020713.193  
  24014276.453   126195916.797    24014277.961    98334491.475  
  21276671.570   111809882.183    21276673.199    87124545.368  
  21135822.938   111069590.846    21135821.445    86547783.561  
  20512248.141   107792710.502    20512248.449    83994421.432  
 21  8 28  0  7  0.0000000  0  9G 1G10G12G21G22G23G25G31G32
  23731658.523   124710674.087    23731661.941    97177169.899  
  21329829.977   112089076.169    21329831.266    87342187.281  
  22671987.328   119142210.681    22671985.586    92838114.228  
  24364298.969   128035310.601    24364298.781    99767722.897  
  24164599.586   126985797.039    24164597.055    98949976.216  
  24035500.039   126307441.931    24035499.906    98421394.201  
  21273717.977   111794362.229    21273720.230    87112451.949  
  21123643.648   111005588.416    21123642.125    86497911.592  
  20511724.336   107789956.748    20511724.289    83992275.674  
 21  8 28  0  7 30.0000000  0  9G 1G10G12G21G22G23G25G31G32
  23730337.734   124703732.573    23730340.859    97171760.875  
  21344303.789   112165138.280    21344305.535    87401456.448  
  22679685.414   119182664.970    22679683.836    92869637.104  
  24368096.555   128055266.505    24368096.387    99783272.929  
  24147367.586   126895239.389    24147364.258    98879411.839  
  24056746.891   126419100.183    24056748.730    98508400.644  
  21270886.680   111779483.723    21270888.645    87100858.372  
  21111543.227   110942000.429    21111541.555    86448362.559  
  20511250.570   107787468.830    20511250.832    83990337.054  
 21  8 28  0  8  0.0000000  0  9G 1G10G12G21G22G23G25G31G32
  23729128.094   124697376.509    23729131.293    97166808.066  
  21358861.398   112241638.001    21358862.844    87461066.612  
  22687496.656   119223714.111    22687495.324    92901623.491  
  24371969.938   128075620.115    24371969.348    99799132.883  
  24130177.398   126804905.453    24130174.480    98809021.737  
  24078019.961   126530889.082    24078021.855    98595508.872  
  21268177.273   111765247.370    21268179.609    87089765.159  
  21099522.078   110878827.368    21099520.070    86399136.850  
  20510827.727   107785247.130    20510827.945    83988605.888  
 21  8 28  0  8 30.0000000  0  9G 1G10G12G21G22G23G25G31G32
  23728029.891   124691605.661    23728033.152    97162311.294  
  21373501.906   112318573.676    21373502.645    87521016.481  
  22695421.125   119265356.856    22695419.758    92934072.444  
  24375918.563   128096370.237    24375917.684    99815301.815  
  24113030.422   126714797.586    24113027.746    98738807.832  
  24099316.969   126642806.676    24099318.680    98682717.382  
  21265590.445   111751654.052    21265593.406    87079173.001  
  21087579.039   110816070.026    21087577.887    86350235.075  
  20510455.680   107783292.369    20510455.934    83987082.724  
 21  8 28  0  9  0.0000000  0 10G 1G10G12G21G22G23G25G26G31G32
  23727043.211   124686419.817    23727046.184    97158270.381  
  21388224.867   112395943.560    21388225.770    87581304.706  
  22703458.078   119307591.686    22703456.617    92966982.741  
  24379942.469   128117515.543    24379941.820    99831778.681  
  24095927.039   126624918.523    24095924.137    98668772.257  
  24120638.523   126754850.713    24120639.449    98770024.448  
  21263126.297   111738704.566    21263128.762    87069082.547  
  25059895.664   131690635.2181   25059901.391   102616105.7861 
  21075716.367   110753729.191    21075714.672    86301657.864  
  20510134.383   107781605.177    20510134.840    83985768.059  
 21  8 28  0  9 30.0000000  0 10G 1G10G12G21G22G23G25G26G31G32
  23726167.758   124681818.641    23726170.297    97154685.050  
  21403029.844   112473745.852    21403031.625    87641929.862  
  22711607.016   119350417.578    22711606.453    93000353.627  
  24384040.766   128139054.534    24384040.496    99848562.310  
  24078867.719   126535270.046    24078864.648    98598916.340  
  24141983.305   126867019.113    24141984.551    98857428.402  
  21260785.477   111726399.620    21260787.230    87059494.317  
  25037994.266   131575542.998    25038000.520   102526423.697  
  21063932.852   110691805.729    21063930.969    86253405.861  
  20509864.656   107780186.168    20509864.891    83984662.363  
 21  8 28  0 10  0.0000000  0 10G 1G10G12G21G22G23G25G26G31G32
  23725403.273   124677801.784    23725406.746    97151555.031  
  21417917.586   112551978.683    21417918.629    87702890.509  
  22719869.102   119393832.848    22719867.875    93034183.766  
  24388214.547   128160986.021    24388214.047    99865651.800  
  24061852.227   126445854.658    24061849.188    98529242.042  
  24163351.406   126979309.635    24163352.590    98944927.480  
  21258565.953   111714739.927    21258568.215    87050408.880  
  25016081.250   131460388.052    25016086.742   102436692.720  
  21052228.461   110630300.106    21052226.645    86205479.460  
  20509645.719   107779035.903    20509645.988    83983766.073  
 21  8 28  0 10 30.0000000  0 10G 1G10G12G21G22G23G25G26G31G32
  23724750.031   124674368.628    23724753.012    97148879.856  
  21432886.305   112630640.088    21432887.859    87764185.103  
  22728242.633   119437835.685    22728241.480    93068471.733  
  24392462.031   128183308.381    24392462.090    99883045.826  
  24044881.727   126356674.689    24044878.953    98459751.194  
  24184742.531   127091719.889    24184742.977    99032519.936  
  21256469.836   111703726.058    21256472.563    87041826.675  
  24994156.164   131345172.792    24994161.223   102346914.760  
  21040603.844   110569212.417    21040602.297    86157878.709  
  20509477.906   107778154.873    20509478.316    83983079.581  
 21  8 28  0 11  0.0000000  0 10G 1G10G12G21G22G23G25G26G31G32
  23724207.789   124671518.978    23724211.129    97146659.359  
  21447936.266   112709728.361    21447937.414    87825812.309  
  22736727.523   119482424.841    22736726.578    93103216.570  
  24396784.023   128206020.443    24396783.703    99900743.537  
  24027956.719   126267732.540    24027953.703    98390445.671  
  24206155.914   127204247.888    24206155.863    99120204.096  
  21254497.148   111693358.774    21254499.559    87033748.317  
  24972220.367   131229899.927    24972225.434   102257091.913  
  21029058.211   110508543.641    21029057.105    86110604.393  
  20509361.852   107777543.797    20509362.090    83982603.444  
 21  8 28  0 11 30.0000000  0 10G 1G10G12G21G22G23G25G26G31G32
  23723776.500   124669252.451    23723779.320    97144893.246  
  21463067.211   112789241.668    21463068.129    87887770.737  
  22745323.719   119527598.922    22745323.184    93138417.205  
  24401180.070   128229120.850    24401179.469    99918743.868  
  24011077.672   126179030.465    24011074.313    98321327.207  
  24227591.305   127316891.482    24227591.762    99207978.325  
  21252647.875   111683638.702    21252649.723    87026174.283  
  24950274.383   131114571.680    24950278.945   102167225.875  
  21017593.836   110448295.197    21017592.238    86063657.611  
  20509296.867   107777203.327    20509297.254    83982338.166  
 21  8 28  0 12  0.0000000  0 10G 1G10G12G21G22G23G25G26G31G32
  23723456.117   124667568.573    23723459.098    97143581.133  
  21478278.547   112869178.105    21478279.227    87950058.857  
  22754030.820   119573356.281    22754030.105    93174072.321  
  24405649.094   128252608.206    24405648.969    99937045.722  
  23994244.297   126090570.801    23994241.066    98252397.654  
  24249048.305   127429648.418    24249049.090    99295840.847  
  21250921.102   111674566.449    21250923.180    87019105.037  
  24928318.141   130999190.597    24928322.559   102077318.673  
  21006208.914   110388466.690    21006207.277    86017038.052  
  20509283.891   107777134.010    20509283.969    83982284.185  
 21  8 28  0 12 30.0000000  0 10G 1G10G12G21G22G23G25G26G31G32
  23723246.156   124666466.747    23723249.336    97142722.550  
  21493570.188   112949535.718    21493570.676    88012675.165  
  22762849.164   119619695.137    22762848.633    93210180.553  
  24410191.930   128276480.904    24410191.375    99955647.821  
  23977457.328   126002355.882    23977454.281    98183658.812  
  24270526.641   127542516.399    24270526.289    99383789.972  
  21249318.383   111666142.516    21249320.012    87012540.974  
  24906351.672   130883759.104    24906356.379   101987372.133  
  20994904.188   110329058.860    20994902.348    85970746.289  
  20509322.258   107777336.441    20509322.375    83982441.944  
 21  8 28  0 13  0.0000000  0 10G 1G10G12G21G22G23G25G26G31G32
  23723147.281   124665946.609    23723150.672    97142317.286  
  21508941.484   113030312.747    21508942.270    88075618.309  
  22771777.672   119666614.664    22771776.402    93246741.277  
  24414808.266   128300737.540    24414807.684    99974549.093  
  23960717.461   125914388.281    23960714.539    98115112.697  
  24292024.961   127655493.462    24292026.145    99471824.089  
  21247838.508   111658367.584    21247840.383    87006482.638  
  24884377.133   130768279.931    24884380.984   101897388.511  
  20983679.469   110270072.377    20983677.535    85924782.842  
  20509412.445   107777811.372    20509412.934    83982812.043  
 21  8 28  0 13 30.0000000  0 10G 1G10G12G21G22G23G25G26G31G32
  23723158.820   124666007.450    23723161.613    97142364.694  
  21524392.063   113111507.083    21524393.234    88138886.618  
  22780815.938   119714112.523    22780814.355    93283752.629  
  24419496.602   128325376.298    24419496.375    99993748.146  
  23944025.055   125826670.257    23944022.391    98046761.043  
  24313543.602   127768577.199    24313545.168    99559941.292  
  21246482.570   111651241.999    21246484.668    87000930.269  
  24862393.141   130652755.378    24862396.793   101807369.495  
  20972534.578   110211507.747    20972532.961    85879148.121  
  20509554.852   107778559.181    20509554.922    83983394.779  
 21  8 28  0 14  0.0000000  0 10G 1G10G12G21G22G23G25G26G31G32
  23723280.797   124666648.932    23723284.410    97142864.544  
  21539921.875   113193116.920    21539923.664    88202478.691  
  22789964.313   119762187.040    22789963.324    93321213.324  
  24424257.852   128350396.134    24424257.387   100013244.100  
  23927381.023   125739204.139    23927377.859    97978605.732  
  24335083.148   127881765.487    24335083.180    99648140.031  
  21245250.344   111644766.337    21245251.887    86995884.330  
  24840401.375   130537187.977    24840405.164   101717317.054  
  20961470.383   110153365.649    20961468.988    85833842.649  
  20509749.367   107779580.666    20509749.254    83984190.758  
 21  8 28  0 14 30.0000000  0 10G 1G10G12G21G22G23G25G26G31G32
  23723513.109   124667870.239    23723516.996    97143816.187  
  21555530.953   113275140.256    21555531.797    88266392.974  
  22799221.914   119810836.957    22799220.668    93359122.386  
  24429091.508   128375795.376    24429091.035   100033035.745  
  23910784.547   125651992.173    23910781.637    97910648.426  
  24356641.469   127995056.074    24356642.207    99736418.471  
  21244141.719   111638940.914    21244143.367    86991345.101  
  24818402.016   130421580.026    24818406.523   101627233.055  
  20950486.836   110095646.533    20950485.211    85788866.770  
  20509995.703   107780876.323    20509996.043    83985200.385  
 21  8 28  0 15  0.0000000  0 10G 1G10G12G21G22G23G25G26G31G32
  23723855.992   124669670.952    23723859.371    97145219.348  
  21571217.289   113357575.202    21571218.559    88330627.988  
  22808589.148   119860060.508    22808587.633    93397478.469  
  24433996.313   128401572.541    24433996.027   100053121.857  
  23894237.992   125565036.832    23894234.371    97842891.116  
  24378219.289   128108446.903    24378218.785    99824774.989  
  21243156.859   111633766.329    21243158.496    86987313.001  
  24796394.734   130305934.303    24796399.832   101537119.546  
  20939583.844   110038351.058    20939582.094    85744220.982  
  20510294.680   107782446.869    20510294.891    83986424.216  
 21  8 28  0 15 30.0000000  0 10G 1G10G12G21G22G23G25G26G31G32
  23724308.844   124672050.362    23724311.801    97147073.447  
  21586982.078   113440419.769    21586983.125    88395182.186  
  22818064.492   119909856.029    22818063.914    93436280.218  
  24438972.906   128427726.032    24438973.008   100073501.226  
  23877739.367   125478340.686    23877736.742    97775335.767  
  24399815.188   128221935.716    24399814.043    99913207.856  
  21242296.063   111629242.869    21242297.461    86983788.272  
  24774381.828   130190253.287    24774386.066   101446978.473  
  20928761.570   109981479.764    20928759.879    85699905.740  
  20510646.023   107784292.875    20510646.109    83987862.692  
 21  8 28  0 16  0.0000000  0 10G 1G10G12G21G22G23G25G26G31G32
  23724871.523   124675007.617    23724875.270    97149377.767  
  21602824.281   113523671.691    21602825.465    88460053.813  
  22827648.656   119960221.073    22827647.348    93475525.773  
  24444021.680   128454254.090    24444021.102   100094172.462  
  23861291.625   125391905.483    23861288.914    97707983.756  
  24421429.625   128335520.018    24421428.453   100001715.147  
  21241558.891   111625370.683    21241561.031    86980771.037  
  24752361.664   130074539.265    24752366.129   101356811.725  
  20918019.711   109925032.709    20918018.414    85655921.063  
  20511049.742   107786414.705    20511050.008    83989516.092  
 21  8 28  0 16 30.0000000  0 10G 1G10G12G21G22G23G25G26G31G32
  23725544.117   124678542.112    23725547.316    97152131.938  
  21618743.633   113607329.198    21618745.172    88525241.480  
  22837341.313   120011154.970    22837339.914    93515214.567  
  24449140.266   128481155.362    24449140.363   100115134.497  
  23844893.688   125305733.715    23844890.637    97640837.001  
  24443062.609   128449197.827    24443061.953   100090295.299  
  21240946.523   111622150.255    21240947.922    86978261.664  
  24730336.641   129958794.978    24730340.684   101266621.379  
  20907359.328   109869010.396    20907357.598    85612267.373  
  20511506.234   107788813.195    20511506.246    83991385.069  
 21  8 28  0 17  0.0000000  0 10G 1G10G12G21G22G23G25G26G31G32
  23726326.258   124682653.350    23726329.746    97155335.487  
  21634739.898   113691390.408    21634742.078    88590743.723  
  22847141.523   120062655.781    22847140.445    93555345.108  
  24454330.961   128508428.712    24454330.125   100136386.466  
  23828545.750   125219827.857    23828543.406    97573897.399  
  24464710.766   128562967.098    24464712.055   100178946.741  
  21240457.711   111619582.045    21240458.961    86976260.508  
  24708306.461   129843023.314    24708310.332   101176409.751  
  20896779.188   109813413.752    20896777.816    85568945.360  
  20512015.133   107791489.071    20512015.254    83993470.186  
 21  8 28  0 17 30.0000000  0 10G 1G10G12G21G22G23G25G26G31G32
  23727218.352   124687340.389    23727221.941    97158987.742  
  21650813.125   113775853.027    21650814.387    88656558.741  
  22857048.953   120114720.996    22857047.719    93595915.455  
  24459590.563   128536071.979    24459590.102   100157926.703  
  23812250.180   125134190.203    23812247.043    97507166.827  
  24486377.828   128676825.457    24486379.031   100267667.556  
  21240093.117   111617666.045    21240094.566    86974767.577  
  24686270.484   129727226.406    24686275.367   101086178.466  
  20886280.641   109758243.005    20886279.133    85525955.223  
  20512577.320   107794442.693    20512577.289    83995771.734  
 21  8 28  0 18  0.0000000  0 10G 1G10G12G21G22G23G25G26G31G32
  23728219.938   124692602.710    23728223.199    97163088.268  
  21666961.773   113860715.382    21666963.004    88722685.246  
  22867063.539   120167349.610    22867062.699    93636924.849  
  24464921.047   128564083.857    24464920.770   100179754.155  
  23796005.438   125048823.749    23796002.367    97440647.564  
  24508060.977   128790770.849    24508062.371   100356456.268  
  21239852.742   111616402.850    21239853.992    86973783.324  
  24664230.797   129611407.208    24664235.762   100995929.881  
  20875863.375   109703498.618    20875861.484    85483297.311  
  20513192.227   107797675.046    20513192.285    83998290.475  
 21  8 28  0 18 30.0000000  0 10G 1G10G12G21G22G23G25G26G31G32
  23729330.258   124698439.498    23729333.672    97167636.393  
  21683186.461   113945975.322    21683187.258    88789121.566  
  22877185.398   120220539.622    22877183.711    93678371.690  
  24470321.578   128592462.742    24470321.152   100201867.594  
  23779812.344   124963730.365    23779809.520    97374341.110  
  24529760.531   128904801.097    24529761.570   100445311.095  
  21239736.883   111615792.571    21239737.273    86973307.837  
  24642187.148   129495568.185    24642191.887   100905665.861  
  20865527.023   109649181.248    20865525.199    85440972.134  
  20513860.711   107801186.640    20513860.441    84001026.803  
 21  8 28  0 19  0.0000000  0 10G 1G10G12G21G22G23G25G26G31G32
  23730550.109   124704849.565    23730553.660    97172631.256  
  21699485.852   114031630.476    21699486.676    88855865.840  
  22887413.445   120274289.024    22887412.152    93720254.382  
  24475791.695   128621206.966    24475791.109   100224265.727  
  23763671.984   124878912.071    23763668.809    97308248.986  
  24551475.570   129018913.682    24551476.281   100534230.034  
  21239744.805   111615835.085    21239745.320    86973341.007  
  24620140.516   129379711.547    24620145.055   100815388.146  
  20855271.992   109595290.509    20855270.340    85398979.385  
  20514581.883   107804977.793    20514581.750    84003980.968  
 21  8 28  0 19 30.0000000  0 10G 1G10G12G21G22G23G25G26G31G32
  23731878.781   124711832.189    23731882.531    97178072.258  
  21715860.336   114117678.887    21715861.953    88922916.557  
  22897747.773   120328595.815    22897746.180    93762571.426  
  24481330.898   128650314.731    24481330.125   100246947.095  
  23747584.969   124794371.561    23747581.324    97242373.338  
  24573205.773   129133106.410    24573206.758   100623211.452  
  21239876.914   111616530.646    21239878.188    86973883.053  
  24598090.977   129263839.961    24598095.473   100725098.769  
  20845098.156   109541827.297    20845096.629    85357319.798  
  20515356.969   107809049.217    20515356.531    84007153.528  
 21  8 28  0 20  0.0000000  0 10G 1G10G12G21G22G23G25G26G31G32
  23733316.563   124719386.541    23733319.648    97183958.789  
  21732309.766   114204118.442    21732310.844    88990272.050  
  22908187.516   120383458.141    22908185.781    93805321.368  
  24486938.055   128679784.093    24486937.625   100269910.274  
  23731550.016   124710111.052    23731546.922    97176715.838  
  24594950.023   129247377.284    24594951.430   100712253.710  
  21240133.289   111617879.359    21240134.531    86974934.037  
  24576038.156   129147955.930    24576043.223   100634799.679  
  20835005.781   109488791.855    20835004.184    85315993.524  
  20516184.820   107813401.523    20516184.848    84010544.950  
 21  8 28  0 20 30.0000000  0 10G 1G10G12G21G22G23G25G26G31G32
  23734862.867   124727511.999    23734866.195    97190290.322  
  21748832.305   114290947.406    21748833.465    89057930.970  
  22918733.086   120438874.503    22918731.711    93848503.011  
  24492614.523   128709613.953    24492614.016   100293154.369  
  23715569.492   124626133.087    23715566.656    97111278.532  
  24616709.297   129361724.149    24616710.750   100801355.244  
  21240514.313   111619881.630    21240515.242    86976494.308  
  24553984.406   129032062.339    24553989.691   100544493.171  
  20824995.242   109436185.084    20824993.293    85275001.290  
  20517066.945   107818035.681    20517066.551    84014155.996  
 21  8 28  0 21  0.0000000  0 10G 1G10G12G21G22G23G25G26G31G32
  23736517.391   124736207.620    23736520.934    97197066.126  
  21765428.844   114378163.622    21765429.844    89125891.658  
  22929383.367   120494842.852    22929382.168    93892114.756  
  24498359.461   128739802.568    24498358.766   100316677.992  
  23699643.211   124542440.126    23699639.969    97046063.268  
  24638482.648   129476144.946    24638484.246   100890514.396  
  21241019.859   111622537.507    21241020.637    86978563.858  
  24531929.148   128916161.6301   24531934.527   100454181.207  
  20815065.969   109384007.109    20815064.203    85234343.176  
  20518002.547   107822952.242    20518002.242    84017987.113  
 21  8 28  0 21 30.0000000  0 11G 1G 3G10G12G21G22G23G25G26G31G32
  23738280.156   124745472.095    23738283.648    97204285.178  
  25196128.578   132406543.399    25196127.980   103173932.035  
  21782098.930   114465764.588    21782100.008    89194152.151  
  22940138.406   120551361.092    22940137.430    93936155.013  
  24504171.914   128770348.754    24504171.168   100340480.251  
  23683771.945   124459033.839    23683768.438    96981071.401  
  24660270.273   129590636.991    24660270.934   100979729.058  
  21241649.602   111625846.621    21241650.094    86981142.448  
  24509872.500   128800256.185    24509877.891   100363865.498  
  20805218.344   109332257.823    20805216.535    85194019.103  
  20518991.617   107828151.463    20518991.777    84022038.472  
 21  8 28  0 22  0.0000000  0 11G 1G 3G10G12G21G22G23G25G26G31G32
  23740151.398   124755304.668    23740155.180    97211946.932  
  25175760.492   132299508.966    25175760.215   103090528.723  
  21798841.680   114553748.372    21798843.016    89262710.929  
  22950997.648   120608427.032    22950995.746    93980622.043  
  24510052.383   128801249.613    24510051.816   100364558.889  
  23667955.375   124375917.131    23667952.113    96916305.163  
  24682070.594   129705198.321    24682070.418   101068997.750  
  21242403.477   111629809.191    21242404.566    86984230.207  
  24487815.766   128684348.764    24487820.879   100273548.217  
  20795452.531   109280938.016    20795450.754    85154029.691  
  20520034.906   107833634.166    20520035.023    84026310.736  
 21  8 28  0 22 30.0000000  0 11G 1G 3G10G12G21G22G23G25G26G31G32
  23742130.625   124765704.292    23742133.852    97220050.511  
  25155413.766   132192586.392    25155413.410   103007212.473  
  21815656.422   114642112.725    21815658.055    89331566.281  
  22961960.961   120666039.055    22961959.285    94025514.576  
  24516000.055   128832503.663    24515999.113   100388912.740  
  23652193.844   124293092.434    23652191.176    96851766.481  
  24703883.578   129819826.648    24703883.449   101158318.638  
  21243281.797   111634425.093    21243282.734    86987827.059  
  24465759.195   128568441.872    24465763.586   100183231.309  
  20785768.789   109230047.836    20785766.551    85114375.060  
  20521132.516   107839400.899    20521132.313    84030804.322  
 21  8 28  0 23  0.0000000  0 11G 1G 3G10G12G21G22G23G25G26G31G32
  23744217.094   124776669.763    23744220.813    97228595.051  
  25135088.477   132085778.428    25135088.441   102923985.508  
  21832543.883   114730855.481    21832545.430    89400716.472  
  22973027.383   120724194.982    22973025.664    94070830.937  
  24522014.039   128864109.358    24522013.379   100413540.596  
  23636488.664   124210561.583    23636486.090    96787456.743  
  24725708.523   129934519.724    24725708.754   101247689.912  
  21244284.492   111639694.184    21244285.543    86991932.888  
  24443703.258   128452538.048    24443709.012   100092916.841  
  20776166.031   109179587.353    20776164.137    85075055.241  
  20522283.789   107845452.167    20522283.922    84035519.614  
 21  8 28  0 23 30.0000000  0 11G 1G 3G10G12G21G22G23G25G26G31G32
  23746411.500   124788200.278    23746415.250    97237579.846  
  25114786.031   131979087.564    25114786.297   102840849.756  
  21849502.836   114819974.547    21849503.785    89470159.896  
  22984197.828   120782892.763    22984194.527    94116569.542  
  24528095.227   128896065.159    24528094.074   100438441.210  
  23620840.430   124128327.120    23620837.320    96723377.989  
  24747545.914   130049275.421    24747546.676   101337110.079  
  21245411.461   111645616.510    21245412.320    86996547.719  
  24421648.313   128336639.999    24421653.824   100002606.940  
  20766645.766   109129557.079    20766643.680    85036070.654  
  20523489.633   107851788.759    20523489.695    84040457.237  
 21  8 28  0 24  0.0000000  0 11G 1G 3G10G12G21G22G23G25G26G31G32
  23748712.938   124800294.687    23748716.598    97247004.055  
  25094505.570   131872516.407    25094506.488   102757807.330  
  21866532.477   114909467.756    21866533.875    89539894.869  
  22995469.805   120842130.539    22995468.023    94162728.901  
  24534242.609   128928369.095    24534241.465   100463613.154  
  23605248.398   124046391.575    23605245.215    96659532.135  
  24769394.992   130164091.588    24769396.391   101426577.270  
  21246662.586   111652191.955    21246663.188    87001671.481  
  24399595.117   128220750.317    24399600.434    99912303.550  
  20757207.000   109079957.273    20757205.160    84997421.499  
  20524750.102   107858411.236    20524749.895    84045617.634  
 21  8 28  0 24 30.0000000  0 11G 1G 3G10G12G21G22G23G25G26G31G32
  23751121.297   124812951.874    23751125.313    97256866.792  
  25074248.961   131766067.262    25074250.105   102674860.012  
  21883633.258   114999332.818    21883634.703    89609919.589  
  23006845.000   120901906.077    23006843.273    94209307.286  
  24540455.211   128961019.600    24540454.496   100489055.145  
  23589714.016   123964757.115    23589710.582    96595920.922  
  24791254.273   130278965.835    24791255.871   101516089.713  
  21248038.188   111659420.239    21248038.922    87007303.959  
  24377544.305   128104871.568    24377548.586    99822008.621  
  20747850.359   109030788.009    20747848.484    84959107.840  
  20526064.375   107865320.151    20526064.602    84051001.231  
 21  8 28  0 25  0.0000000  0 11G 1G 3G10G12G21G22G23G25G26G31G32
  23753636.820   124826170.669    23753640.324    97267167.120  
  25054016.039   131659742.566    25054017.461   102592009.661  
  21900804.359   115089567.517    21900805.539    89680232.342  
  23018321.500   120962217.232    23018319.695    94256303.042  
  24546734.227   128994014.576    24546733.695   100514765.540  
  23574237.031   123883425.952    23574233.898    96532546.046  
  24813124.695   130393896.027    24813126.000   101605645.797  
  21249538.078   111667301.209    21249538.820    87013445.014  
  24355495.781   127989006.338    24355499.258    99731724.217  
  20738575.609   108982049.510    20738573.691    84921129.825  
  20527433.672   107872516.094    20527433.738    84056608.481  
 21  8 28  0 25 30.0000000  0 11G 1G 3G10G12G21G22G23G25G26G31G32
  23756259.359   124839950.025    23756262.348    97277904.252  
  25033807.719   131553544.919    25033808.594   102509258.323  
  21918045.742   115180169.772    21918047.000    89750831.500  
  23029899.906   121023061.796    23029897.617    94303714.448  
  24553077.789   129027352.372    24553077.387   100540743.072  
  23558819.047   123802400.904    23558815.145    96469409.701  
  24835005.398   130508880.013    24835006.305   101695243.883  
  21251161.563   111675834.774    21251162.453    87020094.580  
  24333450.188   127873157.299    24333454.484    99641452.508  
  20729383.070   108933742.162    20729381.180    84883487.772  
  20528857.617   107879999.786    20528858.059    84062439.966  
 21  8 28  0 26  0.0000000  0 11G 1G 3G10G12G21G22G23G25G26G31G32
  23758987.469   124854288.732    23758991.082    97289077.243  
  25013624.031   131447476.493    25013624.199   102426607.588  
  21935356.523   115271137.287    21935357.684    89821715.282  
  23041579.250   121084438.009    23041577.848    94351540.134  
  24559486.344   129061031.098    24559486.414   100566986.272  
  23543458.500   123721683.866    23543455.227    96406513.340  
  24856896.367   130623915.506    24856896.957   101784882.008  
  21252909.305   111685020.591    21252910.254    87027252.388  
  24311408.227   127757327.114    24311412.086    99551195.461  
  20720272.766   108885866.350    20720270.465    84846181.988  
  20530336.930   107887771.792    20530336.992    84068496.102  
 21  8 28  0 26 30.0000000  0 11G 1G 3G10G12G21G22G23G25G26G31G32
  23761822.320   124869185.584    23761825.742    97300685.160  
  24993464.859   131341540.038    24993464.734   102344059.718  
  21952735.703   115362467.808    21952737.285    89892881.913  
  23053359.727   121146343.522    23053357.879    94399778.229  
  24565959.695   129095048.864    24565959.438   100593493.665  
  23528156.977   123641277.043    23528153.809    96343858.695  
  24878796.266   130739000.318    24878796.629   101874558.585  
  21254781.563   111694858.393    21254782.352    87034918.240  
  24289370.625   127641518.334    24289374.516    99460955.059  
  20711244.148   108838421.977    20711242.066    84809212.393  
  20531871.258   107895832.664    20531870.887    84074777.337  
 21  8 28  0 27  0.0000000  0 11G 1G 3G10G12G21G22G23G25G26G31G32
  23764763.336   124884639.394    23764766.582    97312727.060  
  24973331.297   131235738.104    24973330.863   102261616.670  
  21970184.188   115454159.200    21970185.836    89964329.737  
  23065240.172   121208776.262    23065238.113    94448427.163  
  24572497.648   129129403.933    24572497.246   100620263.880  
  23512916.125   123561182.884    23512912.527    96281447.658  
  24900704.820   130854132.169    24900704.750   101964271.809  
  21256777.977   111705347.952    21256778.719    87043091.963  
  24267337.063   127525733.607    24267341.828    99370733.449  
  20702297.711   108791409.161    20702295.746    84772579.084  
  20533459.805   107904183.142    20533459.926    84081284.233  
 21  8 28  0 27 30.0000000  0 11G 1G 3G10G12G21G22G23G25G26G31G32
  23767810.063   124900648.846    23767813.156    97325201.918  
  24953224.117   131130073.413    24953224.125   102179280.695  
  21987700.414   115546209.048    21987701.621    90036056.893  
  23077220.570   121271733.861    23077218.406    94497485.070  
  24579099.188   129164094.547    24579098.168   100647295.592  
  23497734.688   123481403.637    23497730.816    96219282.025  
  24922621.695   130969309.059    24922622.230   102054020.107  
  21258897.758   111716488.811    21258898.469    87051773.183  
  24245309.281   127409975.533    24245313.414    99280532.646  
  20693433.977   108744828.368    20693431.828    84736282.398  
  20535103.859   107912823.724    20535104.129    84088017.177  
 21  8 28  0 28  0.0000000  0 11G 1G 3G10G12G21G22G23G25G26G31G32
  23770961.742   124917212.822    23770965.324    97338108.854  
  24933142.609   131024548.093    24933142.238   102097053.256  
  22005285.125   115638615.205    22005286.188    90108061.687  
  23089300.188   121335214.682    23089297.082    94546950.688  
  24585763.969   129199118.838    24585763.211   100674587.288  
  23482613.727   123401942.107    23482609.941    96157363.963  
  24944547.555   131084528.648    24944547.336   102143801.691  
  21261141.625   111728280.770    21261142.188    87060961.762  
  24223286.086   127294246.862    24223290.145    99190354.660  
  20684651.828   108698679.756    20684650.016    84700322.486  
  20536803.797   107921755.091    20536803.707    84094976.709  
 21  8 28  0 28 30.0000000  0 11G 1G 3G10G12G21G22G23G25G26G31G32
  23774219.133   124934329.948    23774222.344    97351446.828  
  24913089.102   130919164.875    24913088.148   102014936.531  
  22022936.828   115731375.374    22022938.066    90180342.351  
  23101479.375   121399216.298    23101476.242    94596822.138  
  24592492.297   129234474.982    24592490.836   100702137.577  
  23467553.648   123322800.060    23467549.785    96095694.849  
  24966480.953   131199788.657    24966479.977   102233614.799  
  21263509.523   111740723.381    21263509.902    87070657.342  
  24201269.859   127178550.218    24201273.387    99100201.605  
  20675952.398   108652963.473    20675950.516    84664699.458  
  20538558.531   107930977.931    20538558.617    84102163.361  
 21  8 28  0 29  0.0000000  0 11G 1G 3G10G12G21G22G23G25G26G31G32
  23777581.703   124951998.982    23777584.227    97365214.871  
  24893062.820   130813926.128    24893062.301   101932932.343  
  22040655.516   115824487.321    22040656.496    90252897.095  
  23113757.250   121463736.519    23113755.227    94647097.692  
  24599282.797   129270161.135    24599281.605   100729945.029  
  23452554.500   123243980.127    23452550.836    96034276.758  
  24988421.883   131315087.003    24988421.047   102323457.741  
  21266000.766   111753816.275    21266001.301    87080859.639  
  24179259.938   127062888.212    24179263.840    99010075.558  
  20667335.609   108607679.700    20667333.207    84629413.443  
  20540369.234   107940492.697    20540368.941    84109577.474  
 21  8 28  0 29 30.0000000  0 11G 1G 3G10G12G21G22G23G25G26G31G32
  23781048.313   124970218.581    23781051.414    97379411.925  
  24873064.781   130708834.444    24873064.035   101851042.744  
  22058440.211   115917948.730    22058441.637    90325724.144  
  23126133.484   121528772.897    23126130.938    94697775.457  
  24606135.688   129306175.259    24606134.605   100758008.011  
  23437617.063   123165484.858    23437613.613    95973111.634  
  25010368.938   131430421.496    25010368.578   102413328.830  
  21268616.367   111767558.949    21268616.758    87091568.260  
  24157257.141   126947263.461    24157260.359    98919978.602  
  20658800.516   108562828.597    20658798.246    84594464.587  
  20542235.563   107950300.055    20542235.453    84117219.601  
 21  8 28  0 30  0.0000000  0 11G 1G 3G10G12G21G22G23G25G26G31G32
  23784620.188   124988987.262    23784623.492    97394036.843  
  24853094.758   130603892.373    24853094.219   101769269.654  
  22076291.383   116011757.198    22076292.711    90398821.644  
  23138606.547   121594323.177    23138605.211    94748853.645  
  24613051.773   129342515.389    24613050.453   100786325.035  
  23422741.938   123087316.396    23422738.551    95912201.163  
  25032323.406   131545789.935    25032322.762   102503226.387  
  21271354.695   111781950.918    21271355.262    87102782.795  
  24135262.234   126831678.663    24135265.102    98829912.736  
  20650347.734   108518409.957    20650345.434    84559852.690  
  20544157.508   107960400.609    20544157.520    84125090.177  
 21  8 28  0 30 30.0000000  0 11G 1G 3G10G12G21G22G23G25G26G31G32
  23788295.992   125008303.726    23788299.691    97409088.608  
  24833153.820   130499102.674    24833153.297   101687615.420  
  22094208.688   116105910.535    22094209.488    90472187.879  
  23151178.188   121660385.125    23151176.594    94800330.563  
  24620028.203   129379179.676    24620028.035   100814894.630  
  23407929.430   123009476.590    23407926.191    95851546.774  
  25054282.961   131661190.001    25054282.109   102593148.604  
  21274216.813   111796991.690    21274217.121    87114502.915  
  24113275.148   126716136.535    24113277.914    98739880.074  
  20641977.219   108474423.956    20641975.313    84525577.928  
  20546135.586   107970794.961    20546135.180    84133189.706  
 21  8 28  0 31  0.0000000  0 11G 1G 3G10G12G21G22G23G25G26G31G32
  23792075.859   125028166.397    23792079.629    97424566.002  
  24813241.906   130394467.588    24813241.523   101606081.723  
  22112190.766   116200406.184    22112191.813    90545820.852  
  23163845.656   121726956.550    23163845.297    94852204.403  
  24627066.367   129416165.860    24627065.656   100843715.057  
  23393180.484   122931967.494    23393176.828    95791150.093  
  25076247.203   131776619.397    25076247.828   102683093.578  
  21277202.398   111812680.574    21277202.422    87126728.061  
  24091296.500   126600639.383    24091299.422    98649882.464  
  20633689.711   108430870.396    20633687.285    84491640.137  
  20548169.234   107981483.522    20548169.371    84141518.492  
 21  8 28  0 31 30.0000000  0 11G 1G 3G10G12G21G22G23G25G26G31G32
  23795959.367   125048573.997    23795962.762    97440467.994  
  24793360.258   130289989.870    24793359.734   101524670.547  
  22130236.914   116295242.012    22130238.840    90619718.874  
  23176610.945   121794035.376    23176609.824    94904473.670  
  24634165.492   129453472.207    24634165.168   100872784.951  
  23378494.492   122854792.082    23378490.988    95731013.406  
  25098218.930   131892076.189    25098218.934   102773060.085  
  21280311.203   111829017.172    21280311.223    87139457.914  
  24069326.805   126485190.221    24069330.172    98559922.249  
  20625483.672   108387749.579    20625481.672    84458039.543  
  20550259.109   107992467.102    20550259.395    84150077.158  
 21  8 28  0 32  0.0000000  0 10G 1G 3G10G12G21G22G25G26G31G32
  23799946.023   125069524.913    23799949.742    97456793.381  
  24773509.133   130185671.848    24773508.813   101443383.813  
  22148347.836   116390415.531    22148349.699    90693880.043  
  23189471.016   121861618.894    23189469.594    94957136.177  
  24641325.375   129491096.625    24641324.625   100902102.650  
  23363872.031   122777952.246    23363869.238    95671138.196  
  21283542.828   111846000.767    21283543.348    87152691.919  
  24047367.055   126369791.485    24047370.832    98470001.334  
  20617360.297   108345061.795    20617358.449    84424776.380  
  20552405.742   108003746.139    20552405.648    84158866.046  
 21  8 28  0 32 30.0000000  0 10G 1G 3G10G12G21G22G25G26G31G32
  23804036.016   125091018.055    23804039.379    97473541.256  
  24753689.461   130081516.443    24753689.168   101362223.806  
  22166522.844   116485924.700    22166523.500    90768302.764  
  23202427.570   121929704.728    23202426.633    95010190.127  
  24648545.398   129529037.573    24648544.598   100931667.020  
  23349314.867   122701450.745    23349310.973    95611526.672  
  21286897.625   111863631.097    21286897.781    87166429.873  
  24025417.672   126254446.240    24025421.133    98380122.104  
  20609319.336   108302807.184    20609317.516    84391850.757  
  20554608.305   108015321.594    20554608.133    84167885.909  
 21  8 28  0 33  0.0000000  0 10G 1G 3G10G12G21G22G25G26G31G32
  23808229.250   125113051.869    23808231.988    97490710.468  
  24733900.430   129977526.180    24733900.383   101281192.420  
  22184760.758   116581767.152    22184762.008    90842985.202  
  23215478.914   121998290.844    23215477.875    95063633.926  
  24655825.000   129567293.086    24655824.688   100961476.524  
  23334821.234   122625289.669    23334817.547    95552180.385  
  21290375.406   111881907.385    21290375.840    87180671.180  
  24003478.344   126139157.035    24003481.645    98290286.529  
  20601360.961   108260985.608    20601358.949    84359262.563  
  20556867.578   108027193.960    20556867.168    84177137.143  
 21  8 28  0 33 30.0000000  0 10G 1G 3G10G12G21G22G25G26G31G32
  23812524.586   125135624.638    23812527.914    97508299.642  
  24714144.172   129873703.442    24714143.871   101200291.550  
  22203061.977   116677940.343    22203063.668    90917925.323  
  23228625.367   122067375.125    23228624.453    95117465.884  
  24663163.859   129605861.025    24663163.457   100991529.477  
  23320393.703   122549471.164    23320390.352    95493101.040  
  21293976.195   111900828.890    21293976.680    87195415.245  
  23981550.758   126023926.499    23981553.699    98200496.634  
  20593485.383   108219597.197    20593483.176    84327011.898  
  20559183.375   108039363.715    20559183.254    84186620.099  
 21  8 28  0 34  0.0000000  0 10G 1G 3G10G12G21G22G25G26G31G32
  23816922.039   125158734.850    23816925.313    97526307.599  
  24694419.578   129770050.966    24694419.016   101119523.383  
  22221425.211   116774441.880    22221426.641    90993121.323  
  23241866.266   122136954.585    23241865.191    95171683.703  
  24670562.781   129644739.224    24670562.230   101021824.147  
  23306031.305   122473997.686    23306027.973    95434290.535  
  21297699.047   111920394.863    21297699.730    87210661.493  
  23959634.336   125908757.250    23959638.023    98110754.492  
  20585691.828   108178641.601    20585689.598    84295098.497  
  20561556.211   108051831.441    20561555.594    84196335.252  
 21  8 28  0 34 30.0000000  0 10G 1G 3G10G12G21G22G25G26G31G32
  23821421.766   125182380.857    23821425.148    97544733.069  
  24674728.023   129666571.223    24674728.137   101038889.766  
  22239851.141   116871269.389    22239852.895    91068571.319  
  23255200.648   122207027.175    23255199.754    95226285.774  
  24678019.148   129683925.909    24678018.840   101052359.242  
  23291735.391   122398871.308    23291731.938    95375750.525  
  21301545.016   111940604.532    21301545.355    87226409.327  
  23937730.227   125793651.995    23937734.207    98021062.232  
  20577980.391   108138118.866    20577978.297    84263522.390  
  20563985.250   108064597.725    20563984.641    84206283.038  
 21  8 28  0 35  0.0000000  0 10G 1G 3G10G12G21G22G25G26G31G32
  23826023.477   125206561.186    23826026.730    97563574.898  
  24655070.070   129563266.977    24655069.684   100958392.920  
  22258337.953   116968420.556    22258340.094    91144273.513  
  23268628.234   122277590.566    23268626.988    95281270.282  
  24685534.781   129723418.751    24685533.773   101083132.915  
  23277505.656   122324094.334    23277502.207    95317482.788  
  21305513.367   111961457.281    21305513.664    87242658.262  
  23915839.578   125678613.490    23915843.109    97931422.007  
  20570352.031   108098029.163    20570349.402    84232283.702  
  20566471.516   108077663.205    20566471.262    84216463.966  
 21  8 28  0 35 30.0000000  0 10G 1G 3G10G12G21G22G25G26G31G32
  23830726.023   125231274.072    23830728.938    97582831.712  
  24635445.594   129460140.725    24635445.395   100878034.736  
  22276886.914   117065892.848    22276888.059    91220225.924  
  23282148.797   122348642.344    23282147.902    95336635.343  
  24693107.883   129763215.932    24693106.723   101114143.702  
  23263343.016   122249668.942    23263340.008    95259488.987  
  21309603.563   111982952.151    21309603.934    87259407.547  
  23893960.938   125563644.248    23893965.035    97841835.783  
  20562805.039   108058372.512    20562802.828    84201382.458  
  20569015.023   108091028.394    20569014.500    84226878.424  
 21  8 28  0 36  0.0000000  0 10G 1G 3G10G12G21G22G25G26G31G32
  23835529.477   125256518.096    23835532.824    97602502.405  
  24615855.055   129357195.021    24615855.711   100797817.188  
  22295495.898   117163684.003    22295496.863    91296426.822  
  23295761.625   122420179.635    23295761.160    95392378.736  
  24700738.648   129803315.408    24700737.559   101145390.073  
  23249247.516   122175597.830    23249244.574    95201771.253  
  21313816.063   112005088.493    21313816.816    87276656.700  
  23872097.273   125448747.206    23872100.402    97752305.752  
  20555341.164   108019148.606    20555338.648    84170818.422  
  20571615.500   108104693.998    20571615.164    84237526.983  
 21  8 28  0 36 30.0000000  0 10G 1G 3G10G12G21G22G25G26G31G32
  23840434.352   125282291.392    23840437.059    97622585.489  
  24596301.172   129254432.575    24596300.672   100717742.491  
  22314164.938   117261791.503    22314166.680    91372874.239  
  23309466.766   122492200.339    23309465.867    95448498.767  
  24708426.133   129843715.188    24708425.496   101176870.438  
  23235220.391   122101882.665    23235216.547    95144330.910  
  21318150.359   112027865.346    21318150.953    87294404.941  
  23850246.703   125333924.943    23850250.305    97662834.024  
  20547959.234   107980357.653    20547956.852    84140591.745  
  20574273.039   108118660.501    20574272.602    84248410.005  
 21  8 28  0 37  0.0000000  0 10G 1G 3G10G12G21G22G25G26G31G32
  23845439.305   125308592.339    23845442.383    97643079.743  
  24576781.070   129151856.108    24576781.484   100637812.741  
  22332894.234   117360212.887    22332896.191    91449566.209  
  23323263.352   122564702.133    23323262.891    95504993.698  
  24716170.977   129884413.011    24716170.004   101208583.025  
  23221261.016   122028525.971    23221257.590    95087169.880  
  21322606.000   112051281.813    21322606.809    87312651.583  
  23828411.578   125219180.096    23828415.246    97573422.644  
  20540659.672   107941999.367    20540657.535    84110702.208  
  20576988.102   108132928.451    20576987.742    84259527.917  
 21  8 28  0 37 30.0000000  0 10G 1G 3G10G12G21G22G25G26G31G32
  23850543.938   125335419.387    23850547.496    97663983.935  
  24557297.656   129049468.017    24557296.805   100558029.679  
  22351682.641   117458945.929    22351684.219    91526501.044  
  23337151.141   122637682.309    23337149.535    95561861.447  
  24723971.594   129925406.794    24723971.184   101240526.240  
  23207370.391   121955529.882    23207366.844    95030289.855  
  21327183.305   112075337.186    21327184.457    87331396.072  
  23806591.180   125104515.591    23806594.652    97484073.858  
  20533443.195   107904073.930    20533440.605    84081149.968  
  20579760.680   108147498.618    20579760.648    84270881.321  
 21  8 28  0 38  0.0000000  0 10G 1G 3G10G12G21G22G25G26G31G32
  23855749.117   125362770.651    23855752.711    97685296.640  
  24537850.344   128947270.968    24537849.484   100478395.493  
  22370529.602   117557988.038    22370530.875    91603676.702  
  23351129.578   122711138.662    23351126.840    95619100.211  
  24731828.758   129966694.661    24731827.957   101272698.588  
  23193548.688   121882896.896    23193544.777    94973692.756  
  21331882.547   112100030.397    21331883.848    87350637.579  
  23784787.250   124989933.906    23784790.137    97394789.629  
  20526308.289   107866581.162    20526305.895    84051934.857  
  20582590.633   108162371.404    20582590.797    84282470.533  
 21  8 28  0 38 30.0000000  0  9G 1G10G12G21G22G25G26G31G32
  23861053.055   125390644.492    23861056.801    97707016.512  
  22389434.930   117657336.825    22389436.230    91681091.354  
  23365197.438   122785068.566    23365194.129    95676707.981  
  24739741.234   130008274.640    24739740.281   101305098.592  
  23179796.492   121810628.901    23179792.645    94917380.071  
  21336702.563   112125360.521    21336703.949    87370375.399  
  23762999.813   124875437.917    23763002.438    97305572.140  
  20519255.945   107829520.658    20519253.461    84023056.580  
  20585478.664   108177547.506    20585478.578    84294296.087  
 21  8 28  0 39  0.0000000  0  9G 1G10G12G21G22G25G26G31G32
  23866456.516   125419038.954    23866460.027    97729142.096  
  22408397.906   117756989.646    22408400.332    91758742.916  
  23379355.516   122859469.359    23379352.832    95734682.699  
  24747708.852   130050144.129    24747707.387   101337724.211  
  23166113.898   121738728.195    23166110.332    94861353.595  
  21341643.586   112151326.493    21341644.996    87390608.651  
  23741228.148   124761030.118    23741231.258    97216423.399  
  20512285.688   107792892.331    20512283.191    83994515.067  
  20588425.070   108193027.308    20588424.102    84306358.288  
 21  8 28  0 39 30.0000000  0  9G 1G10G12G21G22G25G26G31G32
  23871958.461   125447952.278    23871961.699    97751671.970  
  22427418.523   117856944.167    22427421.023    91836629.528  
  23393602.578   122934338.658    23393600.133    95793022.480  
  24755730.570   130092301.368    24755730.336   101370573.979  
  23152502.461   121667196.858    23152498.277    94805614.930  
  21346705.984   112177927.258    21346706.754    87411336.574  
  23719473.750   124646713.210    23719476.730    97127345.402  
  20505397.516   107756696.248    20505395.484    83966310.362  
  20591428.367   108208811.419    20591428.090    84318657.618  
 21  8 28  0 40  0.0000000  0  9G 1G10G12G21G22G25G26G31G32
  23877558.914   125477382.698    23877562.051    97774604.767  
  22446496.219   117957197.861    22446498.168    91914749.309  
  23407938.648   123009673.634    23407934.855    95851725.119  
  24763807.023   130134744.393    24763806.824   101403646.464  
  23138961.188   121596037.270    23138956.973    94750165.935  
  21351888.375   112205161.895    21351888.902    87432558.408  
  23697737.828   124532489.992    23697741.293    97038340.483  
  20498592.039   107720932.179    20498589.707    83938442.296  
  20594489.703   108224900.474    20594489.465    84331194.574  
 21  8 28  0 40 30.0000000  0 10G 1G 3G10G12G21G22G25G26G31G32
  23883257.703   125507328.589    23883260.527    97797939.262  
  24441177.094   128439187.8291   24441176.414   100082538.7781 
  22465630.906   118057748.501    22465632.336    91993100.464  
  23422361.977   123085471.978    23422358.480    95910788.824  
  24771938.359   130177470.992    24771937.598   101436939.888  
  23125490.891   121525251.733    23125486.938    94695008.420  
  21357190.898   112233029.487    21357191.887    87454273.471  
  23676020.492   124418363.394    23676023.727    96949410.814  
  20491868.773   107685599.974    20491866.137    83910910.765  
  20597609.375   108241295.233    20597609.535    84343969.720  
 21  8 28  0 41  0.0000000  0 10G 1G 3G10G12G21G22G25G26G31G32
  23889053.578   125537788.233    23889056.910    97821674.040  
  24421957.953   128338193.194    24421957.414   100003841.582  
  22484821.023   118158593.563    22484821.477    92071681.034  
  23436873.695   123161731.615    23436870.871    95970211.982  
  24780121.813   130220478.608    24780121.156   101470452.306  
  23112092.469   121454842.434    23112088.523    94640144.061  
  21362614.227   112261528.921    21362614.766    87476480.887  
  23654321.578   124304336.063    23654324.215    96860558.460  
  20485227.141   107650699.609    20485224.875    83883715.708  
  20600787.758   108257996.186    20600787.688    84356983.483  
 21  8 28  0 41 30.0000000  0 10G 1G 3G10G12G21G22G25G26G31G32
  23894947.289   125568759.148    23894950.121    97845807.212  
  24402779.156   128237408.114    24402778.773    99925307.696  
  22504066.344   118259730.280    22504068.188    92150488.890  
  23451472.555   123238449.289    23451469.566    96029992.078  
  24788359.523   130263765.223    24788358.504   101504182.132  
  23098765.594   121384811.535    23098761.984    94585574.571  
  21368157.250   112290658.861    21368158.211    87499179.580  
  23632641.930   124190410.398    23632645.523    96771785.377  
  20478667.961   107616230.738    20478665.613    83856856.896  
  20604024.414   108275003.662    20604024.172    84370236.080  
 21  8 28  0 42  0.0000000  0 10G 1G 3G10G12G21G22G25G26G31G32
  23900937.797   125600239.655    23900940.922    97870337.490  
  24383640.398   128136835.225    24383640.223    99846939.146  
  22523367.438   118361156.216    22523368.875    92229522.088  
  23466157.805   123315622.386    23466155.969    96090127.063  
  24796649.188   130307329.002    24796648.387   101538127.944  
  23085511.813   121315160.891    23085507.957    94531301.399  
  21373820.602   112320418.185    21373821.277    87522368.705  
  23610982.539   124076589.310    23610985.555    96683093.746  
  20472190.680   107582193.239    20472188.484    83830334.202  
  20607318.625   108292318.279    20607319.066    84383728.005  
 21  8 28  0 42 30.0000000  0 10G 1G 3G10G12G21G22G25G26G31G32
  23907025.016   125632228.009    23907027.828    97895263.470  
  24364543.258   128036477.399    24364542.500    99768738.177  
  22542722.750   118462869.074    22542724.648    92308778.857  
  23480929.281   123393249.174    23480928.262    96150615.525  
  24804991.281   130351167.743    24804990.574   101572287.945  
  23072330.164   121245892.857    23072327.383    94477326.350  
  21379602.945   112350805.883    21379603.559    87546047.491  
  23589343.883   123962875.633    23589346.777    96594485.788  
  20465795.758   107548586.814    20465793.324    83804147.410  
  20610671.938   108309940.775    20610672.520    84397459.839  
 21  8 28  0 43  0.0000000  0 10G 1G 3G10G12G21G22G25G26G31G32
  23913208.258   125664722.078    23913211.520    97920583.524  
  24345486.938   127936337.074    24345486.844    99690706.668  
  22562131.875   118564866.028    22562133.313    92388257.010  
  23495787.609   123471326.139    23495785.777    96211454.766  
  24813386.141   130395278.999    24813384.566   101606660.365  
  23059222.148   121177009.545    23059218.996    94423651.049  
  21385505.148   112381820.525    21385505.547    87570214.797  
  23567725.367   123849271.811    23567728.184    96505963.447  
  20459482.656   107515411.111    20459480.094    83778296.263  
  20614084.188   108327871.378    20614084.594    84411431.778  
 21  8 28  0 43 30.0000000  0 10G 1G 3G10G12G21G22G25G26G31G32
  23919487.461   125697720.112    23919490.617    97946296.267  
  24326473.086   127836417.172    24326472.680    99612846.956  
  22581594.969   118667144.904    22581595.641    92467954.838  
  23510730.516   123549851.078    23510728.523    96272643.084  
  24821830.750   130439660.806    24821830.477   101641243.569  
  23046187.875   121108513.293    23046184.496    94370277.391  
  21391525.977   112413461.178    21391526.410    87594869.908  
  23546128.828   123735780.914    23546131.699    96417529.084  
  20453251.266   107482666.167    20453248.910    83752780.762  
  20617555.172   108346111.005    20617555.301    84425644.504  
 21  8 28  0 44  0.0000000  0 10G 1G 3G10G12G21G22G25G26G31G32
  23925862.375   125731220.044    23925865.590    97972400.098  
  24307501.633   127736720.214    24307500.293    99535160.889  
  22601110.961   118769702.981    22601112.137    92547870.235  
  23525757.859   123628821.190    23525755.605    96334178.295  
  24830327.453   130484310.623    24830327.176   101676035.641  
  23033227.344   121040406.260    23033224.082    94317207.024  
  21397665.570   112445726.451    21397666.402    87620011.737  
  23524554.172   123622405.479    23524556.570    96329184.696  
  20447102.305   107450351.490    20447099.563    83727600.527  
  20621084.883   108364660.028    20621085.191    84440098.311  
 21  8 28  0 44 30.0000000  0 10G 1G 3G10G12G21G22G25G26G31G32
  23932332.555   125765219.886    23932335.594    97998893.495  
  24288573.055   127637248.894    24288571.859    99457650.671  
  22620679.711   118872537.808    22620681.461    92628001.292  
  23540869.383   123708234.086    23540866.699    96396058.508  
  24838875.117   130529226.717    24838874.578   101711035.149  
  23020342.438   120972690.491    23020337.906    94264441.537  
  21403924.328   112478615.093    21403925.117    87645639.293  
  23503001.672   123509148.332    23503004.160    96240932.484  
  20441034.867   107418467.055    20441032.137    83702755.539  
  20624673.281   108383519.004    20624673.707    84454793.646  
 21  8 28  0 45  0.0000000  0 10G 1G 3G10G12G21G22G25G26G31G32
  23938896.938   125799717.688    23938900.195    98025774.903  
  24269687.797   127538005.920    24269687.164    99380318.331  
  22640301.055   118975646.848    22640302.816    92708346.010  
  23556064.289   123788086.655    23556062.168    96458281.396  
  24847472.156   130574406.575    24847472.426   101746240.201  
  23007530.953   120905368.346    23007526.637    94211982.766  
  21410301.281   112512125.843    21410301.629    87671751.630  
  23481472.117   123396012.184    23481474.617    96152774.562  
  20435048.984   107387012.555    20435046.465    83678245.584  
  20628321.734   108402688.548    20628321.355    84469730.969  
 21  8 28  0 45 30.0000000  0 10G 1G 3G10G12G21G22G25G26G31G32
  23945556.375   125834711.438    23945559.246    98053042.773  
  24250846.250   127438994.013    24250846.484    99303166.108  
  22659974.047   119079027.627    22659975.215    92788902.454  
  23571343.445   123868376.999    23571340.547    96520845.369  
  24856119.086   130619848.147    24856118.734   101781649.185  
  22994794.648   120838441.625    22994791.047    94159832.117  
  21416796.273   112546257.384    21416797.000    87698347.676  
  23459966.742   123282999.831    23459968.961    96064713.071  
  20429145.016   107355987.614    20429142.684    83654070.348  
  20632028.508   108422169.202    20632028.195    84484910.730  
 21  8 28  0 46  0.0000000  0 10G 1G 3G10G12G21G22G25G26G31G32
  23952309.195   125870198.896    23952312.566    98080695.350  
  24232049.813   127340215.760    24232049.711    99226195.921  
  22679697.766   119182677.456    22679699.043    92869668.557  
  23586705.164   123949101.998    23586701.945    96583748.060  
  24864816.195   130665549.286    24864815.414   101817260.355  
  22982134.563   120771912.405    22982130.711    94107991.188  
  21423409.055   112581008.268    21423409.816    87725426.348  
  23438485.297   123170113.864    23438487.531    95976750.086  
  20423322.984   107325391.782    20423320.375    83630229.481  
  20635795.039   108441961.364    20635794.496    84500333.231  
 21  8 28  0 46 30.0000000  0 10G 1G 3G10G12G21G22G25G26G31G32
  23959155.875   125906178.192    23959159.344    98108731.175  
  24213297.805   127241674.023    24213298.059    99149410.062  
  22699472.125   119286593.895    22699473.629    92950642.424  
  23602148.820   124030259.024    23602144.957    96646987.362  
  24873561.383   130711507.699    24873561.289   101853072.171  
  22969551.195   120705782.870    22969547.023    94056461.714  
  21430139.148   112616377.274    21430139.680    87752986.656  
  23417028.227   123057357.174    23417031.039    95888887.850  
  20417582.195   107295224.976    20417579.797    83606722.917  
  20639620.703   108462065.704    20639620.488    84515998.973  
 21  8 28  0 47  0.0000000  0 10G 1G 3G10G12G21G22G25G26G31G32
  23966095.734   125942647.162    23966098.570    98137148.535  
  24194591.781   127143371.356    24194591.621    99072810.542  
  22719297.195   119390774.290    22719298.824    93031821.967  
  23617673.852   124111845.512    23617670.816    96710561.305  
  24882355.875   130757721.013    24882355.637   101889082.525  
  22957043.148   120640055.240    22957039.336    94005245.433  
  21436987.508   112652362.833    21436987.660    87781027.398  
  23395596.031   122944732.361    23395599.109    95801128.361  
  20411923.148   107265486.932    20411920.875    83583550.456  
  20643505.867   108482482.652    20643505.672    84531908.310  
 21  8 28  0 47 30.0000000  0 10G 1G 3G10G12G21G22G25G26G31G32
  23973128.445   125979603.541    23973131.238    98165945.694  
  24175931.211   127045310.433    24175931.465    98996399.437  
  22739171.672   119495216.092    22739172.855    93113205.191  
  23633280.539   124193858.528    23633277.676    96774467.637  
  24891197.656   130804187.054    24891197.629   101925289.769  
  22944612.492   120574731.426    22944608.746    93954343.802  
  21443952.078   112688963.523    21443952.395    87809547.469  
  23374189.797   122832242.149    23374193.113    95713473.789  
  20406345.906   107236177.145    20406343.188    83560711.703  
  20647450.500   108503212.679    20647450.508    84548061.604  
 21  8 28  0 48  0.0000000  0 10G 1G 3G10G12G21G22G25G26G31G32
  23980253.094   126017045.434    23980256.266    98195121.175  
  24157317.305   126947493.910    24157317.449    98920178.715  
  22759095.078   119599916.828    22759097.156    93194790.175  
  23648968.156   124276295.476    23648966.160    96838704.289  
  24900088.750   130850903.479    24900087.516   101961692.178  
  22932258.555   120509813.776    22932255.133    93903758.673  
  21451033.750   112726178.025    21451034.391    87838545.826  
  23352809.617   122719889.376    23352813.258    95625926.304  
  20400849.703   107207295.360    20400847.063    83538206.465  
  20651454.984   108524256.444    20651454.992    84564459.379  
 21  8 28  0 48 30.0000000  0 10G 1G 3G10G12G21G22G25G26G31G32
  23987470.547   126054970.589    23987473.359    98224673.166  
  24138750.234   126849924.635    24138750.629    98844150.663  
  22779067.836   119704873.863    22779069.402    93276574.883  
  23664734.977   124359153.720    23664733.172    96903269.230  
  24909024.531   130897868.088    24909024.906   101998287.896  
  22919983.227   120445304.601    22919979.426    93853491.841  
  21458231.852   112764004.845    21458232.242    87868021.310  
  23331456.984   122607676.786    23331459.496    95538488.043  
  20395435.188   107178841.208    20395432.438    83516034.445  
  20655519.375   108545614.437    20655519.320    84581101.985  
 21  8 28  0 49  0.0000000  0 10G 1G 3G10G12G21G22G25G26G31G32
  23994778.672   126093376.890    23994782.355    98254600.2171 
  24120231.086   126752605.219    24120231.230    98768317.364  
  22799088.688   119810084.672    22799090.066    93358557.338  
  23680582.039   124442430.508    23680579.727    96968160.322  
  24918009.281   130945078.797    24918008.273   102035075.427  
  22907785.969   120381205.286    22907781.762    93803544.383  
  21465545.727   112802442.481    21465546.773    87897972.770  
  23310129.766   122495607.104    23310133.340    95451161.139  
  20390101.633   107150814.479    20390099.129    83494195.472  
  20659643.523   108567287.133    20659643.637    84597989.847  
 21  8 28  0 49 30.0000000  0 10G 1G 3G10G12G21G22G25G26G31G32
  24002178.258   126132262.228    24002181.809    98284900.452  
  24101760.352   126655538.447    24101759.969    98692680.893  
  22819157.945   119915546.715    22819159.031    93440735.575  
  23696508.414   124526123.183    23696505.891    97033375.434  
  24927039.609   130992533.012    24927038.973   102072052.626  
  22895666.609   120317518.110    22895662.621    93753918.062  
  21472976.773   112841489.493    21472977.121    87928399.058  
  23288831.555   122383683.119    23288834.363    95363947.790  
  20384850.016   107123214.474    20384847.219    83472689.021  
  20663827.773   108589275.182    20663827.641    84615123.425  
 21  8 28  0 50  0.0000000  0 10G 1G 3G10G12G21G22G25G26G31G32
  24009668.477   126171624.272    24009671.648    98315572.208  
  24083337.359   126558726.881    24083337.242    98617243.270  
  22839273.914   120021257.316    22839275.762    93523107.451  
  23712512.563   124610229.070    23712509.742    97098912.577  
  24936115.180   131040228.531    24936114.309   102109217.944  
  22883626.023   120254245.072    22883622.070    93704614.460  
  21480522.695   112881144.175    21480523.285    87959298.848  
  23267561.727   122271907.469    23267563.602    95276849.977  
  20379678.523   107096040.874    20379675.828    83451514.824  
  20668071.867   108611578.912    20668071.918    84632502.987  
 21  8 28  0 50 30.0000000  0 10G 1G 3G10G12G21G22G25G26G31G32
  24017248.992   126211460.749    24017252.074    98346613.580  
  24064964.234   126462173.267    24064964.094    98542006.702  
  22859436.766   120127213.792    22859438.176    93605670.933  
  23728596.102   124694745.387    23728592.953    97164769.514  
  24945237.992   131088163.210    24945236.746   102146569.628  
  22871664.633   120191388.685    22871660.824    93655635.509  
  21488183.906   112921404.972    21488184.566    87990670.941  
  23246319.500   122160282.871    23246322.422    95189869.891  
  20374588.672   107069293.432    20374585.910    83430672.711  
  20672375.891   108634198.829    20672376.281    84650128.920  
 21  8 28  0 51  0.0000000  0 10G 1G 3G10G12G21G22G25G26G31G32
  24024919.758   126251769.525    24024923.203    98378022.997  
  24046640.188   126365880.326    24046640.191    98466973.233  
  22879645.984   120233413.724    22879647.047    93688424.144  
  23744756.617   124779669.093    23744753.410    97230943.932  
  24954404.852   131136334.776    24954403.207   102184105.907  
  22859783.117   120128950.503    22859778.961    93606982.419  
  21495960.367   112962270.394    21495961.035    88022514.166  
  23225107.508   122048812.212    23225110.648    95103009.785  
  20369579.859   107042971.703    20369577.234    83410162.316  
  20676740.867   108657135.539    20676740.672    84668001.710  
 21  8 28  0 51 30.0000000  0 10G 1G 3G10G12G21G22G25G26G31G32
  24032679.930   126292548.348    24032683.117    98409798.729  
  24028366.281   126269850.822    24028366.543    98392145.040  
  22899901.063   120339854.485    22899902.293    93771365.002  
  23760993.781   124864997.410    23760991.043    97297433.584  
  24963615.813   131184740.630    24963615.180   102221824.704  
  22847980.961   120066932.581    22847977.328    93558656.816  
  21503851.758   113003738.849    21503851.840    88054827.286  
  23203925.242   121937498.153    23203928.672    95016271.684  
  20364651.664   107017075.325    20364649.160    83389983.377  
  20681165.844   108680389.522    20681165.844    84686121.733  
 21  8 28  0 52  0.0000000  0 10G 1G 3G10G12G21G22G25G26G31G32
  24040528.563   126333794.959    24040531.930    98441938.932  
  24010142.766   126174087.388    24010143.273    98317524.198  
  22920200.930   120446533.440    22920202.750    93854491.459  
  23777307.484   124950727.935    23777304.918    97364236.687  
  24972870.789   131233378.718    24972870.301   102259724.500  
  22836259.914   120005337.080    22836256.133    93510660.390  
  21511856.914   113045808.597    21511857.332    88087608.959  
  23182773.258   121826343.405    23182775.840    94929657.729  
  20359804.734   106991603.590    20359802.148    83370135.313  
  20685651.086   108703961.238    20685651.258    84704489.321  
 21  8 28  0 52 30.0000000  0 10G 1G 3G10G12G21G22G25G26G31G32
  24048465.891   126375507.238    24048469.809    98474441.994  
  23991970.898   126078592.963    23991971.297    98243112.947  
  22940546.859   120553448.198    22940548.273    93937801.675  
  23793697.234   125036858.488    23793695.547    97431351.455  
  24982170.648   131282247.099    24982169.992   102297803.705  
  22824619.586   119944166.223    22824615.578    93462994.841  
  21519976.555   113088478.322    21519977.371    88120858.121  
  23161652.281   121715350.998    23161654.234    94843170.245  
  20355038.289   106966556.617    20355035.953    83350618.235  
  20690197.328   108727851.405    20690197.367    84723105.071  
 21  8 28  0 53  0.0000000  0 10G 1G 3G10G12G21G22G25G26G31G32
  24056491.977   126417682.731    24056495.195    98507306.028  
  23973850.734   125983370.128    23973850.590    98168913.318  
  22960936.008   120660596.003    22960937.691    94021293.453  
  23810163.313   125123385.561    23810161.457    97498775.214  
  24991513.578   131331342.929    24991512.910   102336060.072  
  22813059.898   119883421.775    22813056.191    93415661.548  
  21528210.711   113131746.059    21528211.305    88154573.296  
  23140562.508   121604523.482    23140564.160    94756811.258  
  20350353.031   106941933.594    20350350.176    83331431.501  
  20694804.430   108752060.357    20694804.129    84741969.204  
 21  8 28  0 53 30.0000000  0 10G 1G 3G10G12G21G22G25G26G31G32
  24064605.469   126460318.852    24064608.828    98540528.946  
  23955782.523   125888421.297    23955782.605    98094927.187  
  22981369.336   120767973.924    22981370.965    94104964.567  
  23826703.633   125210305.503    23826701.305    97566505.116  
  25000898.664   131380663.647    25000898.707   102374491.741  
  22801582.750   119823105.312    22801578.406    93368661.749  
  21536557.734   113175609.871    21536558.277    88188752.921  
  23119504.047   121493863.285    23119506.516    94670582.638  
  20345747.523   106917733.706    20345744.902    83312574.478  
  20699471.938   108776588.230    20699471.645    84761081.863  
 21  8 28  0 54  0.0000000  0 10G 1G 3G10G12G21G22G25G26G31G32
  24072806.070   126503413.418    24072809.031    98574109.137  
  23937766.852   125793749.363    23937767.328    98021156.766  
  23001846.117   120875579.576    23001847.426    94188813.136  
  23843317.930   125297616.710    23843315.559    97634539.916  
  25010325.727   131430207.066    25010326.441   102413097.050  
  22790186.156   119763219.418    22790182.637    93321997.454  
  21545017.359   113220068.249    21545018.414    88223395.841  
  23098478.336   121383373.418    23098481.211    94584486.759  
  20341222.813   106893956.776    20341220.254    83294047.041  
  20704200.055   108801435.776    20704200.188    84780443.613  
 21  8 28  0 54 30.0000000  0 10G 1G 3G10G12G21G22G25G26G31G32
  24081093.703   126546964.323    24081097.086    98608044.879  
  23919804.844   125699357.199    23919804.750    97947604.412  
  23022365.891   120983410.505    23022366.957    94272837.258  
  23860006.844   125385316.710    23860004.227    97702877.658  
  25019796.344   131479971.011    25019796.008   102451874.143  
  22778871.961   119703765.558    22778868.742    93275669.809  
  21553590.234   113265119.588    21553591.125    88258500.830  
  23077485.484   121273056.734    23077488.633    94498525.840  
  20336778.641   106870602.590    20336776.172    83275849.008  
  20708989.875   108826603.596    20708989.305    84800054.935  
 21  8 28  0 55  0.0000000  0 10G 1G 3G10G12G21G22G25G26G31G32
  24089467.547   126590968.733    24089470.582    98642334.014  
  23901896.453   125605247.108    23901896.402    97874271.835  
  23042927.781   121091463.699    23042929.504    94357034.548  
  23876768.820   125473401.746    23876766.742    97771515.410  
  25029307.523   131529953.0211   25029307.570   102490821.182  
  22767641.313   119644745.642    22767637.695    93229680.300  
  21562276.117   113310761.731    21562276.582    88294066.171  
  23056526.438   121162915.636    23056528.699    94412701.694  
  20332414.945   106847669.999    20332412.313    83257979.498  
  20713839.547   108852091.773    20713839.387    84819915.878  
 21  8 28  0 55 30.0000000  0 10G 1G 3G10G12G21G22G25G26G31G32
  24097927.047   126635424.881    24097930.203    98676975.163  
  23884041.992   125511422.485    23884042.098    97801161.688  
  23063531.797   121199737.092    23063533.262    94441403.404  
  23893603.219   125561869.600    23893601.457    97840451.453  
  25038861.266   131580150.887    25038859.473   102529936.4141 
  22756493.328   119586162.183    22756489.539    93184030.918  
  21571073.211   113356993.460    21571073.664    88330090.931  
  23035601.695   121052953.404    23035603.625    94327016.934  
  20328131.406   106825159.348    20328128.469    83240438.760  
  20718750.922   108877901.338    20718750.902    84840027.264  
 21  8 28  0 56  0.0000000  0 10G 1G 3G10G12G21G22G25G26G31G32
  24106472.164   126680330.312    24106475.535    98711966.385  
  23866242.336   125417885.931    23866242.555    97728276.046  
  23084177.023   121308227.999    23084177.988    94525941.785  
  23910510.203   125650717.378    23910508.719    97909683.539  
  25048452.938   131630557.5921                                 
  22745428.617   119528017.009    22745424.758    93138723.028  
  21579982.898   113403812.942    21579982.836    88366573.690  
  23014710.594   120943172.741    23014713.391    94241473.674  
  20323927.750   106803070.022    20323924.863    83223226.338  
  20723723.508   108904032.717    20723723.570    84860389.390  
 21  8 28  0 56 30.0000000  0 10G 1G 3G10G12G21G22G25G26G31G32
  24115102.414   126725681.954    24115105.887    98747305.289  
  23848498.094   125324639.489    23848499.488    97655616.454  
  23104862.094   121416933.175    23104863.984    94610647.111  
  23927489.422   125739941.882    23927486.695    97979209.196  
  25058086.289   131681180.1021                                 
  22734447.859   119470311.414    22734443.684    93093757.682  
  21589003.313   113451217.652    21589003.895    88403512.479  
  22993855.086   120833575.897    22993857.148    94156073.638  
  20319804.383   106781400.909    20319801.402    83206341.343  
  20728757.336   108930485.714    20728757.000    84881002.135  
 21  8 28  0 57  0.0000000  0 10G 1G 3G10G12G21G22G25G26G31G32
  24123816.977   126771477.531    24123820.664    98782990.162  
  23830809.633   125231685.995    23830810.934    97583185.187  
  23125588.781   121525850.119    23125589.480    94695517.464  
  23944539.219   125829540.240    23944535.891    98049026.219  
  25067759.375   131732011.097                                  
  22723550.445   119413047.454    22723546.789    93049136.462  
  21598135.680   113499205.937    21598135.762    88440905.975  
  22973034.906   120724165.473    22973037.145    94070818.842  
  20315760.672   106760151.219    20315757.898    83189783.171  
  20733852.555   108957260.958    20733852.328    84901865.976  
 21  8 28  0 57 30.0000000  0 10G 1G 3G10G12G21G22G25G26G31G32
  24132615.547   126817715.105    24132619.129    98819019.432  
  23813177.961   125139028.841    23813178.398    97510984.806  
  23146354.422   121634976.758    23146356.125    94780551.212  
  23961660.664   125919509.998    23961657.137    98119132.611  
  25077472.148   131783048.460                                  
  22712737.797   119356227.579    22712734.289    93004861.269  
  21607378.023   113547776.415    21607378.457    88478753.136  
  22952250.242   120614944.866    22952253.184    93985711.986  
  20311796.969   106739321.137    20311793.938    83173551.969  
  20739009.492   108984359.383    20739008.902    84922981.662  
 21  8 28  0 58  0.0000000  0 10G 1G 3G10G12G21G22G25G26G31G32
  24141498.313   126864391.826    24141501.664    98855390.899  
  23795602.891   125046670.171    23795603.500    97439017.022  
  23167159.641   121744309.969    23167161.703    94865745.902  
  23978850.367   126009848.645    23978848.211    98189526.451  
  25087222.828   131834285.2821                                 
  22702010.328   119299853.198    22702006.156    92960933.246  
  21616731.164   113596926.808    21616731.484    88517052.195  
  22931503.539   120505916.446    22931504.984    93900754.879  
  20307912.242   106718909.705    20307909.797    83157646.984  
  20744227.625   109011781.045    20744227.031    84944349.208  
 21  8 28  0 58 30.0000000  0 10G 1G 3G10G12G21G22G25G26G31G32
  24150463.570   126911504.985    24150467.176    98892102.459  
  23778083.922   124954612.458    23778085.363    97367283.725  
  23188004.141   121853846.878    23188005.617    94951099.328  
  23996110.680   126100552.497    23996108.031    98260204.821  
  25097010.984   131885727.789                                  
  22691368.109   119243926.137    22691363.773    92917353.765  
  21626193.672   113646654.910    21626195.328    88555801.392  
  22910792.789   120397082.647    22910794.742    93815949.396  
  20304107.984   106698916.070    20304105.098    83142067.560  
  20749507.016   109039526.098    20749506.734    84965968.756  
 21  8 28  0 59  0.0000000  0 10G 1G 3G10G12G21G22G25G26G31G32
  24159511.258   126959052.232    24159515.105    98929152.286  
  23760623.938   124862858.699    23760624.922    97295787.305  
  23208886.516   121963585.135    23208887.242    95036609.650  
  24013440.641   126191619.024    24013438.582    98331165.796  
  25106839.047   131937369.158                                  
  22680810.586   119188448.188    22680806.656    92874124.242  
  21635766.422   113696959.082    21635767.941    88594999.451  
  22890120.008   120288446.484    22890122.262    93731297.938  
  20300382.531   106679340.127    20300379.852    83126813.604  
  20754848.516   109067595.250    20754848.539    84987840.845  
 21  8 28  0 59 30.0000000  0 10G 1G 3G10G12G21G22G25G26G31G32
  24168641.539   127007031.413    24168645.016    98966538.664  
  23743223.258   124771411.943    23743223.301    97224530.118  
  23229806.906   122073522.312    23229807.586    95122274.986  
  24030839.102   126283045.498    24030836.172    98402407.298  
  25116702.570   131989207.525                                  
  22670339.539   119133421.619    22670335.406    92831246.448  
  21645447.859   113747837.590    21645449.730    88634645.072  
  22869485.000   120180010.999    22869487.969    93646802.854  
  20296736.578   106660181.546    20296734.180    83111884.866  
  20760251.570   109095989.135    20760251.539    85009965.985  
 21  8 28  1  0  0.0000000  0 10G 1G 3G10G12G21G22G25G26G31G32
  24177853.180   127055439.666    24177856.348    99004259.391  
  23725879.930   124680274.540    23725880.473    97153513.998  
  23250764.500   122183655.430    23250766.617    95208092.973  
  24048304.000   126374828.802    24048301.480    98473926.830  
  25126604.813   132041239.895    25126605.051   102889246.8071 
  22659954.258   119078847.894    22659950.340    92788721.491  
  21655238.859   113799288.156    21655239.785    88674736.456  
  22848889.078   120071778.565    22848891.418    93562465.994  
  20293170.313   106641439.037    20293167.535    83097280.342  
  20765716.797   109124707.975    20765716.344    85032344.304  
 21  8 28  1  0 30.0000000  0 10G 1G 3G10G12G21G22G25G26G31G32
  24187146.203   127104274.650    24187149.016    99042312.649  
  23708596.617   124589449.375    23708597.020    97082741.181  
  23271759.016   122293982.022    23271761.055    95294061.719  
  24065837.578   126466966.421    24065834.410    98545722.446  
  25136542.703   132093464.505    25136549.004   102929970.0731 
  22649655.898   119024729.110    22649652.074    92746551.072  
  21665137.953   113851308.953    21665139.340    88715272.181  
  22828332.203   119963752.135    22828335.082    93478289.631  
  20289682.906   106623112.534    20289680.051    83082999.982  
  20771243.703   109153752.292    20771243.473    85054976.268  
 21  8 28  1  1  0.0000000  0 10G 1G 3G10G12G21G22G25G26G31G32
  24196520.000   127153534.029    24196523.309    99080696.571  
  23691373.039   124498939.284    23691373.336    97012213.847  
  23292789.867   122404499.673    23292791.441    95380179.372  
  24083437.508   126559455.713    24083433.910    98617792.071  
  25146517.203   132145879.147                                  
  22639444.164   118971067.207    22639440.328    92704736.645  
  21675145.602   113903898.217    21675146.660    88756250.856  
  22807815.711   119855934.610    22807816.645    93394276.064  
  20286274.273   106605201.442    20286271.770    83069043.316  
  20776832.430   109183122.757    20776832.480    85077862.354  
 21  8 28  1  1 30.0000000  0 10G 1G 3G10G12G21G22G25G26G31G32
  24205974.195   127203214.733    24205977.668    99119408.813  
  23674209.742   124408746.666    23674210.457    96941933.896  
  23313856.188   122515205.300    23313857.129    95466443.520  
  24101103.297   126652293.404    24101101.203    98690133.166  
  25156526.117   132198480.222                                  
  22629319.969   118917863.474    22629316.238    92663279.248  
  21685260.547   113957053.484    21685261.211    88797670.568  
  22787339.164   119748328.334    22787340.965    93310427.117  
  20282944.828   106587704.897    20282942.113    83055409.673  
  20782483.477   109212819.271    20782483.559    85101002.513  
 21  8 28  1  2  0.0000000  0 10G 1G 3G10G12G21G22G25G26G31G32
  24215507.742   127253314.612    24215510.879    99158447.675  
  23657107.484   124318874.530    23657108.523    96871903.663  
  23334958.523   122626096.565    23334959.969    95552852.285  
  24118835.867   126745476.944    24118832.395    98762743.778  
  25166571.461   132251266.2361                                 
  22619282.789   118865119.961    22619279.141    92622180.445  
  21695483.445   114010772.997    21695483.727    88839529.959  
  22766902.234   119640936.365    22766904.816    93226745.164  
  20279694.258   106570622.387    20279691.418    83042098.638  
  20788196.438   109242842.647    20788196.945    85124397.369  
 21  8 28  1  2 30.0000000  0 10G 1G 3G10G12G21G22G25G26G31G32
  24225120.820   127303830.907    24225123.781    99197811.016  
  23640067.234   124229325.410    23640067.695    96802125.155  
  23356095.180   122737170.664    23356097.547    95639403.509  
  24136633.656   126839003.322    24136629.598    98835621.565  
  25176651.406   132304232.5141                                 
  22609333.961   118812838.583    22609330.285    92581441.749  
  21705812.320   114065054.603    21705813.000    88881827.348  
  22746507.734   119533761.291    22746509.906    93143232.217  
  20276522.250   106553953.178    20276519.355    83029109.675  
  20793972.250   109273193.128    20793972.293    85148047.115  
 21  8 28  1  3  0.0000000  0 10G 1G 3G10G12G21G22G25G26G31G32
  24234812.211   127354760.811    24234815.402    99237496.639  
  23623088.508   124140101.816    23623089.160    96732600.293  
  23377266.422   122848424.683    23377268.211    95726094.939  
  24154495.633   126932869.354    24154490.555    98908763.988  
  25186764.500   132357380.3791                                 
  22599473.609   118761020.670    22599469.664    92541064.196  
  21716248.594   114119895.888    21716249.813    88924560.849  
  22726155.000   119426805.592    22726156.203    93059890.200  
  20273428.555   106537696.393    20273425.727    83016442.082  
  20799810.219   109303870.844    20799810.039    85171951.838  
 21  8 28  1  3 30.0000000  0 10G 1G 3G10G12G21G22G25G26G31G32
  24244582.133   127406101.859    24244585.066    99277502.663  
  23606172.133   124051206.619    23606172.754    96663331.323  
  23398471.320   122959856.263    23398472.227    95812924.688  
  24172421.641   127027072.415    24172418.457    98982169.042  
  25196911.969   132410705.696                                  
  22589701.609   118709668.347    22589697.461    92501049.464  
  21726790.406   114175295.027    21726791.844    88967729.034  
  22705844.227   119320072.199    22705845.953    92976721.400  
  20270413.352   106521851.586    20270410.535    83004095.506  
  20805710.383   109334876.398    20805710.141    85196112.027  
 21  8 28  1  4  0.0000000  0 10G 1G 3G10G12G21G22G25G26G31G32
  24254429.680   127457851.269    24254433.086    99317826.854  
  23589318.500   123962642.365    23589319.445    96594320.242  
  23419708.773   123071462.453    23419709.398    95899890.569  
  24190411.164   127121609.698    24190408.219    99055834.497  
  25207092.422   132464205.757                                  
  22580018.727   118658783.074    22580014.297    92461398.645  
  21737437.875   114231249.740    21737439.035    89011330.126  
  22685576.094   119213563.692    22685578.148    92893727.846  
  20267476.391   106506417.965    20267473.527    82992069.334  
  20811672.516   109366210.062    20811672.438    85220527.876  
 21  8 28  1  4 30.0000000  0 10G 1G 3G10G12G21G22G25G26G31G32
  24264354.430   127510006.499    24264358.102    99358467.308  
  23572528.961   123874411.806    23572529.832    96525569.195  
  23440979.195   123183240.719    23440981.469    95986990.526  
  24208464.039   127216478.025    24208461.590    99129757.957  
  25217306.602   132517878.228                                  
  22570424.594   118608366.321    22570420.191    92422112.908  
  21748191.773   114287757.865    21748192.508    89055362.464  
  22665351.320   119107282.802    22665353.984    92810911.675  
  20264617.891   106491394.794    20264614.883    82980362.993  
  20817697.828   109397872.191    20817697.457    85245199.674  
 21  8 28  1  5  0.0000000  0  9G 1G 3G10G12G22G25G26G31G32
  24274355.992   127562564.981    24274359.191    99399421.983  
  23555802.977   123786517.789    23555804.047    96457080.378  
  23462282.391   123295188.506    23462283.660    96074222.550  
  24226578.820   127311674.852    24226576.918    99203937.341  
  22560919.906   118558420.292    22560915.879    92383193.970  
  21759049.375   114344817.438    21759050.613    89099824.488  
  22645170.625   119001232.461    22645172.391    92728275.128  
  20261836.703   106476781.663    20261833.930    82968976.156  
  20823785.500   109429863.335    20823785.078    85270127.855  
 21  8 28  1  5 30.0000000  0  9G 1G 3G10G12G22G25G26G31G32
  24284434.203   127615524.072    24284437.270    99440688.850  
  23539142.039   123698963.031    23539143.336    96388855.925  
  23483616.906   123407303.182    23483619.086    96161584.587  
  24244756.578   127407197.360    24244754.680    99278370.479  
  22551505.477   118508946.521    22551501.363    92344643.041  
  21770012.117   114402426.287    21770012.895    89144714.519  
  22625033.695   118895415.300    22625036.313    92645820.292  
  20259134.039   106462577.942    20259130.961    82957908.351  
  20829936.039   109462183.847    20829935.910    85295312.675  
 21  8 28  1  6  0.0000000  0  9G 1G 3G10G12G22G25G26G31G32
  24294587.781   127668880.827    24294590.535    99482265.542  
  23522546.305   123611749.847    23522546.785    96320897.638  
  23504982.875   123519581.753    23504985.684    96249074.352  
  24262994.875   127503042.062    24262992.988    99353054.720  
  22542180.648   118459946.568    22542177.176    92306461.296  
  21781078.867   114460581.928    21781079.520    89190030.628  
  22604942.805   118789833.815    22604943.855    92563549.071  
  20256508.875   106448782.515    20256505.789    82947158.692  
  20836149.063   109494833.848    20836149.000    85320754.241  
 21  8 28  1  6 30.0000000  0  9G 1G 3G10G12G22G25G26G31G32
  24304816.156   127722632.784    24304819.504    99524150.217  
  23506016.156   123524881.275    23506016.113    96253207.837  
  23526379.609   123632021.815    23526380.699    96336689.992  
  24281294.789   127599206.509    24281292.535    99427988.125  
  22532947.508   118411422.462    22532943.031    92268650.351  
  21792249.211   114519282.398    21792250.137    89235771.284  
  22584896.844   118684490.985    22584898.164    92481463.835  
  20253960.883   106435394.718    20253958.234    82936726.669  
  20842424.961   109527813.911    20842424.898    85346453.004  
 21  8 28  1  7  0.0000000  0  9G 1G 3G10G12G22G25G26G31G32
  24315119.367   127776777.093    24315122.586    99566340.596  
  23489551.344   123438359.872    23489551.797    96185788.604  
  23547806.688   123744620.631    23547808.055    96424429.336  
  24299653.883   127695687.695    24299652.031    99503168.293  
  22523803.938   118363375.261    22523799.883    92231211.039  
  21803522.359   114578525.348    21803523.293    89281934.637  
  22564896.031   118579389.344    22564898.449    92399566.534  
  20251491.219   106422413.804    20251488.070    82926611.698  
  20848763.430   109561124.264    20848763.613    85372409.132  
 21  8 28  1  7 30.0000000  0  9G 1G 3G10G12G22G25G26G31G32
  24325496.945   127831311.150    24325499.871    99608834.722  
  23473153.266   123352188.323    23473153.695    96118641.976  
  23569263.242   123857375.551    23569265.953    96512290.278  
  24318074.016   127792483.117    24318072.020    99578593.381  
  22514752.438   118315806.707    22514747.898    92194144.667  
  21814898.773   114638308.623    21814899.664    89328519.038  
  22544942.531   118474531.730    22544944.242    92317859.383  
  20249098.031   106409839.352    20249095.117    82916813.446  
  20855165.266   109594765.367    20855165.246    85398622.993  
 21  8 28  1  8  0.0000000  0  9G 1G 3G10G12G22G25G26G31G32
  24335948.445   127886232.392    24335951.316    99651630.494  
  23456822.602   123266369.604    23456822.844    96051770.282  
  23590748.953   123970284.091    23590751.156    96600270.921  
  24336552.563   127889589.900    24336551.047    99654261.036  
  22505791.195   118268718.908    22505787.508    92157452.930  
  21826377.555   114698630.170    21826378.918    89375522.872  
  22525035.672   118369920.991    22525037.328    92236344.601  
  20246782.406   106397670.779    20246779.613    82907331.464  
  20861630.359   109628737.758    20861629.961    85425094.986  
 21  8 28  1  8 30.0000000  0  9G 1G 3G10G12G22G25G26G31G32
  24346472.875   127941538.263    24346475.141    99694725.998  
  23440559.758   123180906.415    23440559.988    95985175.616  
  23612263.523   124083343.742    23612265.422    96688369.339  
  24355090.664   127987004.965    24355087.035    99730168.946  
  22496922.594   118222113.530    22496918.496    92121137.081  
  21837958.727   114759487.828    21837959.766    89422944.440  
  22505176.266   118265560.010    22505177.258    92155024.415  
  20244544.016   106385907.356    20244540.945    82898165.181  
  20868157.930   109663041.848    20868157.613    85451825.459  
 21  8 28  1  9  0.0000000  0  9G 1G 3G10G12G22G25G26G31G32
  24357069.570   127997225.593    24357072.426    99738118.645  
  23424364.109   123095801.086    23424364.496    95918859.773  
  23633806.953   124196551.460    23633806.797    96776583.189  
  24373685.695   128084725.259    24373683.371    99806314.637  
  22488145.664   118175991.624    22488141.961    92085197.985  
  21849640.797   114820878.880    21849642.527    89470781.654  
  22485364.664   118161451.017    22485366.625    92073900.581  
  20242382.211   106374547.898    20242379.164    82889313.666  
  20874748.867   109697677.591    20874749.000    85478814.357  
 21  8 28  1  9 30.0000000  0  9G 1G 3G10G12G22G25G26G31G32
  24367737.875   128053291.019    24367741.688    99781806.002  
  23408237.422   123011055.765    23408238.297    95852824.540  
  23655376.617   124309904.037    23655378.508    96864909.823  
  24392338.813   128182747.157    24392335.867    99882695.348  
  22479460.969   118130354.455    22479457.422    92049636.593  
  21861424.469   114882800.505    21861425.824    89519032.283  
  22465602.445   118057596.216    22465604.117    91992974.876  
  20240297.219   106363591.277    20240294.254    82880776.063  
  20881402.789   109732644.797    20881403.098    85506061.528  
 21  8 28  1 10  0.0000000  0  9G 1G 3G10G12G22G25G26G31G32
  24378478.594   128109732.383    24378481.777    99825786.305  
  23392179.961   122926673.653    23392181.051    95787072.290  
  23676973.633   124423399.344    23676976.141    96953347.662  
  24411049.305   128281068.749    24411045.680    99959309.598  
  22470869.789   118085203.843    22470865.496    92014454.331  
  21873308.086   114945250.928    21873309.504    89567694.971  
  22445887.961   117953998.898    22445890.031    91912249.747  
  20238288.781   106353037.007    20238285.852    82872551.974  
  20888120.297   109767944.287    20888120.316    85533567.634  
 21  8 28  1 10 30.0000000  0 10G 1G 3G10G12G22G25G26G29G31G32
  24389289.203   128166546.616    24389293.418    99870057.087  
  23376192.227   122842656.994    23376193.195    95721604.774  
  23698597.977   124537034.240    23698599.777    97041894.323  
  24429815.703   128379686.615    24429811.836   100036154.692  
  22462370.406   118040541.120    22462366.250    91979652.260  
  21885291.914   115008227.464    21885292.758    89616767.607  
  22426223.359   117850661.285    22426225.273    91831727.002  
  25282226.773   132858977.5471   25282226.508   103526494.4451 
  20236356.805   106342884.268    20236353.770    82864640.780  
  20894900.781   109803576.034    20894900.594    85561332.629  
 21  8 28  1 11  0.0000000  0 10G 1G 3G10G12G22G25G26G29G31G32
  24400171.516   128223731.053    24400175.488    99914616.344  
  23360274.602   122759008.688    23360275.297    95656424.313  
  23720248.352   124650806.397    23720249.734    97130547.947  
  24448637.430   128478598.128    24448635.148   100113228.650  
  22453964.273   117996368.165    22453960.348    91945231.805  
  21897376.133   115071727.966    21897376.547    89666248.551  
  22406609.133   117747586.340    22406610.391    91751408.951  
  25268012.836   132784286.1101   25268010.535   103468293.383  
  20234500.977   106333132.202    20234497.906    82857041.797  
  20901744.531   109839540.563    20901744.297    85589356.956  
 21  8 28  1 11 30.0000000  0 10G 1G 3G10G12G22G25G26G29G31G32
  24411122.953   128281283.234    24411127.508    99959462.147  
  23344427.813   122675731.746    23344428.004    95591533.221  
  23741923.688   124764713.480    23741924.863    97219306.656  
  24467515.273   128577800.500    24467513.254   100190529.204  
  22445652.063   117952686.896    22445647.887    91911194.489  
  21909558.656   115135750.402    21909559.566    89716136.196  
  22387044.563   117644777.062    22387046.891    91671297.879  
  25253828.602   132709741.720    25253826.289   103410207.005  
  20232721.313   106323780.167    20232718.414    82849754.519  
  20908651.578   109875838.513    20908651.422    85617641.073  
 21  8 28  1 12  0.0000000  0 10G 1G 3G10G12G22G25G26G29G31G32
  24422144.969   128339200.458    24422148.523   100004592.466  
  23328651.148   122592829.012    23328652.109    95526933.734  
  23763624.813   124878752.888    23763626.125    97308168.539  
  24486447.195   128677291.145    24486445.094   100268054.386  
  22437433.625   117909498.838    22437429.488    91877541.504  
  21921840.828   115200292.530    21921841.430    89766428.790  
  22367532.188   117542236.263    22367534.031    91591396.035  
  25239672.055   132635347.808    25239670.457   103352237.7841 
  20231017.711   106314828.024    20231014.688    82842778.852  
  20915622.602   109912470.322    20915621.859    85646185.340  
 21  8 28  1 12 30.0000000  0 10G 1G 3G10G12G22G25G26G29G31G32
  24433234.898   128397479.105    24433238.660   100050004.398  
  23312947.844   122510302.122    23312947.691    95462627.087  
  23785350.922   124992921.107    23785351.742    97397130.792  
  24505433.727   128777065.957    24505431.684   100345801.025  
  22429309.586   117866804.220    22429304.895    91844273.010  
  21934220.977   115265351.090    21934221.957    89817123.798  
  22348070.469   117439965.780    22348072.391    91511704.806  
  25225543.508   132561106.305    25225542.441   103294387.350  
  20229389.664   106306273.637    20229386.840    82836113.115  
  20922656.797   109949435.386    20922656.156    85674989.289  
 21  8 28  1 13  0.0000000  0 10G 1G 3G10G12G22G25G26G29G31G32
  24444393.148   128456116.445    24444396.867   100095695.786  
  23297315.172   122428153.967    23297315.777    95398615.571  
  23807100.336   125107215.617    23807101.844    97486191.424  
  24524474.023   128877122.795    24524472.188   100423767.387  
  22421279.000   117824604.867    22421274.715    91811390.426  
  21946698.930   115330923.787    21946699.750    89868219.436  
  22328661.180   117337968.373    22328663.156    91432226.388  
  25211446.047   132487020.709    25211444.262   103236658.440  
  20227837.906   106298116.633    20227834.801    82829757.033  
  20929754.633   109986734.130    20929754.000    85704053.250  
 21  8 28  1 13 30.0000000  0 10G 1G 3G10G12G22G25G26G29G31G32
  24455619.633   128515109.984    24455622.934   100141664.770  
  23281755.313   122346387.459    23281755.980    95334901.432  
  23828873.219   125221634.101    23828874.465    97575348.610  
  24543567.422   128977458.961    24543564.250   100501951.386  
  22413343.297   117782902.604    22413338.949    91778895.204  
  21959274.539   115397008.561    21959275.922    89919714.082  
  22309304.055   117236247.049    22309305.418    91352963.090  
  25197378.281   132413094.417    25197376.645   103179053.661  
  20226361.000   106290356.499    20226357.977    82823710.201  
  20936915.844   110024367.140    20936915.590    85733377.674  
 21  8 28  1 14  0.0000000  0 10G 1G 3G10G12G22G25G26G29G31G32
  24466912.469   128574456.510    24466916.074   100187908.780  
  23266269.063   122265004.909    23266269.352    95271486.496  
  23850669.297   125336173.572    23850670.895    97664600.126  
  24562713.000   129078070.669    24562709.531   100580350.123  
  22405502.641   117741698.912    22405497.949    91746788.466  
  21971946.852   115463602.662    21971948.301    89971605.584  
  22289999.953   117134804.197    22290001.348    91273916.747  
  25183340.750   132339330.299    25183340.145   103121575.187  
  20224959.625   106282992.186    20224956.555    82817971.805  
  20944140.930   110062334.403    20944140.898    85762962.561  
 21  8 28  1 14 30.0000000  0 10G 1G 3G10G12G22G25G26G29G31G32
  24478272.844   128634153.642    24478276.316   100234426.000  
  23250855.711   122184009.340    23250855.895    95208373.126  
  23872488.367   125450831.672    23872489.691    97753944.100  
  24581911.102   129178955.805    24581907.949   100658961.960  
  22397756.492   117700994.736    22397752.500    91715070.969  
  21984715.578   115530703.953    21984716.711    90023892.332  
  22270749.633   117033642.810    22270751.281    91195089.756  
  25169335.508   132265731.532    25169334.258   103064225.691  
  20223633.383   106276022.920    20223630.230    82812541.234  
  20951429.242   110100636.535    20951429.395    85792808.370  
 21  8 28  1 15  0.0000000  0 11G 1G 3G10G12G21G22G25G26G29G31G32
  24489698.953   128694197.857    24489701.895   100281213.717  
  23235516.742   122103402.755    23235517.203    95145562.852  
  23894328.992   125565605.285    23894330.355    97843378.100  
  24601159.742   129280110.915    24601157.477   100737784.124  
  25438540.531   133680567.1131                                 
  22390106.148   117660791.488    22390101.953    91683743.807  
  21997580.813   115598309.494    21997581.660    90076571.994  
  22251553.180   116932764.986    22251554.594    91116483.711  
  25155362.094   132192300.965    25155360.934   103007007.183  
  20222382.180   106269447.469    20222379.066    82807417.535  
  20958781.875   110139273.207    20958781.750    85822914.872  
 21  8 28  1 15 30.0000000  0 11G 1G 3G10G12G21G22G25G26G29G31G32
  24501189.742   128754587.179    24501193.883   100328270.339  
  23220252.492   122023188.646    23220253.004    95083058.387  
  23916191.711   125680492.505    23916193.527    97932900.566  
  24620460.391   129381534.135    24620457.273   100816815.255  
  25449355.859   133737406.420                                  
  22382551.586   117621091.271    22382547.148    91652808.616  
  22010541.680   115666417.596    22010541.504    90129643.279  
  22232411.703   116832174.210    22232412.766    91038101.348  
  25141421.133   132119042.570    25141420.734   102949922.854  
  20221205.625   106263266.022    20221202.797    82802600.844  
  20966197.719   110178245.550    20966198.020    85853282.935  
 21  8 28  1 16  0.0000000  0 11G 1G 3G10G12G21G22G25G26G29G31G32
  24512747.430   128815318.007    24512750.426   100375593.026  
  23205063.430   121943368.822    23205063.652    95020861.161  
  23938074.219   125795489.922    23938077.063    98022508.871  
  24639811.102   129483221.818    24639808.402   100896052.396  
  25460193.445   133794360.962                                  
  22375092.734   117581894.985    22375088.344    91622266.099  
  22023597.172   115735025.038    22023596.297    90183103.643  
  22213324.609   116731872.365    22213325.949    90959944.120  
  25127513.586   132045958.779    25127512.395   102892974.591  
  20220104.195   106257476.723    20220100.871    82798089.719  
  20973678.063   110217553.007    20973677.770    85883912.120  
 21  8 28  1 16 30.0000000  0 11G 1G 3G10G12G21G22G25G26G29G31G32
  24524367.797   128876387.840    24524372.051   100423179.865  
  23189949.875   121863946.376    23189950.141    94958973.568  
  23959977.555   125910595.365    23959980.578    98112201.395  
  24659210.797   129585171.314    24659208.363   100975493.640  
  25471052.703   133851428.969                                  
  22367729.570   117543203.935    22367725.797    91592117.271  
  22036746.977   115804129.810    22036747.227    90236951.557  
  22194293.273   116631862.589    22194294.586    90882014.486  
  25113640.227   131973053.142    25113639.457   102836165.076  
  20219076.922   106252079.080    20219073.910    82793883.785  
  20981222.320   110257196.345    20981221.383    85914803.037  
 21  8 28  1 17  0.0000000  0 10G 1G 3G10G21G22G25G26G29G31G32
  24536053.195   128937793.391    24536056.668   100471028.392  
  23174911.945   121784923.469    23174912.668    94897397.322  
  23981902.156   126025805.768    23981903.301    98201975.741  
  25481933.602   133908606.705                                  
  22360463.320   117505019.365    22360459.289    91562363.095  
  22049991.820   115873728.952    22049991.980    90291184.672  
  22175317.922   116532147.078    22175319.344    90804314.132  
  25099801.195   131900328.403    25099799.910   102779496.513  
  20218124.172   106247071.808    20218120.984    82789982.030  
  20988829.695   110297175.360    20988829.344    85945955.513  
 21  8 28  1 17 30.0000000  0 10G 1G 3G10G21G22G25G26G29G31G32
  24547801.852   128999531.870    24547805.203   100519136.257  
  23159951.180   121706302.842    23159951.430    94836134.519  
  24003844.852   126141118.567    24003846.449    98291829.852  
  25492834.008   133965891.925                                  
  22353293.945   117467342.754    22353289.664    91533004.734  
  22063329.531   115943820.047    22063330.824    90345801.112  
  22156399.328   116432728.538    22156401.059    90726845.191  
  25085997.031   131827787.840    25085995.758   102722971.548  
  20217245.258   106242454.209    20217242.250    82786383.927  
  20996501.320   110337490.343    20996501.051    85977369.793  
 21  8 28  1 18  0.0000000  0 10G 1G 3G10G21G22G25G26G29G31G32
  24559613.367   129061600.643    24559616.703   100567501.530  
  23145066.992   121628087.304    23145067.316    94775187.370  
  24025806.813   126256531.376    24025809.504    98381761.879  
  25503755.813   134023282.7371                                 
  22346221.688   117430175.607    22346216.961    91504043.361  
  22076760.633   116014400.832    22076760.973    90400799.121  
  22137537.648   116333609.905    22137538.875    90649609.942  
  25072228.281   131755434.821    25072227.344   102666592.651  
  20216440.531   106238225.935    20216437.637    82783089.189  
  21004236.703   110378141.826    21004236.699    86009046.266  
 21  8 28  1 18 30.0000000  0 11G 1G 3G10G12G21G22G25G26G29G31G32
  24571486.188   129123995.961    24571489.867   100616121.228  
  23130260.867   121550278.689    23130260.676    94714557.318  
  24047788.148   126372040.735    24047790.457    98471769.149  
  24737299.938   129995520.4381   24737295.625   101295087.7561 
  25514696.695   134080775.6681                                 
  22339245.188   117393518.264    22339241.371    91475479.222  
  22090284.148   116085468.040    22090284.441    90456176.170  
  22118733.773   116234793.040    22118734.934    90572609.851  
  25058496.266   131683271.510    25058495.492   102610361.647  
  20215709.688   106234385.280    20215706.883    82780096.492  
  21012036.867   110419129.234    21012036.422    86040984.517  
 21  8 28  1 19  0.0000000  0 10G 1G 3G10G12G22G25G26G29G31G32
  24583421.078   129186715.775    24583425.160   100664993.806  
  23115532.203   121472880.393    23115532.582    94654246.968  
  24069787.453   126487644.875    24069788.563    98561850.287  
  24756941.500   130098734.943    24756937.094   101375514.6361 
  22332367.391   117357373.005    22332363.270    91447314.127  
  22103899.836   116157019.911    22103899.676    90511930.887  
  22099986.969   116136281.368    22099988.707    90495847.570  
  25044800.680   131611301.696    25044799.059   102554281.355  
  20215052.641   106230931.706    20215049.406    82777405.404  
  21019900.367   110460453.614    21019900.477    86073185.329  
 21  8 28  1 19 30.0000000  0 10G 1G 3G10G12G22G25G26G29G31G32
  24595418.148   129249756.843    24595421.578   100714116.679  
  23100882.445   121395894.657    23100882.512    94594258.125  
  24091803.273   126603340.893    24091804.398    98652002.986  
  24776628.477   130202193.699    24776625.426   101456131.8401 
  22325586.492   117321740.768    22325582.547    91419548.779  
  22117607.258   116229053.569    22117606.672    90568061.055  
  22081299.281   116038077.215    22081300.629    90419324.884  
  25031142.641   131539528.703    25031142.102   102498354.444  
  20214468.867   106227864.289    20214465.793    82775015.230  
  21027828.313   110502114.863    21027828.285    86105648.646  
 21  8 28  1 20  0.0000000  0  9G 1G 3G10G22G25G26G29G31G32
  24607474.922   129313116.404    24607478.516   100763487.782  
  23086311.289   121319324.249    23086311.445    94534592.913  
  24113836.352   126719126.275    24113837.547    98742225.365  
  22318904.336   117286622.874    22318899.965    91392184.230  
  22131406.328   116301566.685    22131405.055    90624564.814  
  22062670.523   115940183.344    22062672.207    90343044.005  
  25017522.203   131467955.769    25017521.816   102442583.486  
  20213958.563   106225182.556    20213955.352    82772925.588  
  21035820.531   110544113.352    21035820.484    86138374.749  
 21  8 28  1 20 30.0000000  0  9G 1G 3G10G22G25G26G29G31G32
  24619591.672   129376791.178    24619595.766   100813104.494  
  23071819.695   121243171.274    23071819.898    94475252.977  
  24135886.477   126834997.922    24135888.277    98832514.926  
  22312319.070   117252020.091    22312314.922    91365221.048  
  22145295.602   116374556.227    22145295.750    90681439.804  
  22044101.672   115842601.975    22044103.031    90267006.633  
  25003941.484   131396585.589    25003939.531   102386970.401  
  20213521.289   106222885.099    20213518.188    82771135.376  
  21043876.430   110586448.895    21043876.488    86171363.478  
 21  8 28  1 21  0.0000000  0  9G 1G 3G10G22G25G26G29G31G32
  24631768.125   129440778.268    24631771.422   100862964.581  
  23057408.297   121167438.503    23057408.531    94416240.457  
  24157952.250   126950953.370    24157954.438    98922869.811  
  22305832.961   117217933.973    22305828.414    91338660.473  
  22159275.422   116448019.742    22159275.309    90738684.114  
  22025592.680   115745335.832    22025594.121    90191214.872  
  24990399.328   131325420.808    24990398.023   102331517.406  
  20213156.930   106220970.859    20213154.023    82769643.777  
  21051996.984   110629121.753    21051996.699    86204615.057  
 21  8 28  1 21 30.0000000  0  9G 1G 3G10G22G25G26G29G31G32
  24644003.320   129505074.761    24644007.086   100913065.648  
  23043077.719   121092128.291    23043077.527    94357557.212  
  24180033.281   127066989.959    24180034.973    99013287.893  
  22299444.891   117184365.319    22299440.781    91312503.131  
  22173344.695   116521954.570    22173344.668    90796295.671  
  22007143.961   115648387.448    22007145.441    90115670.747  
  24976897.078   131254465.375    24976895.332   102276227.487  
  20212865.375   106219439.029    20212862.414    82768450.158  
  21060181.359   110672132.055    21060180.906    86238129.576  
 21  8 28  1 22  0.0000000  0  9G 1G 3G10G22G25G26G29G31G32
  24656297.070   129569677.326    24656300.457   100963405.290  
  23028827.047   121017242.999    23028827.313    94299205.087  
  24202128.945   127183104.888    24202130.324    99103767.027  
  22293155.625   117151315.164    22293151.500    91286749.800  
  22187503.180   116596357.861    22187503.617    90854272.271  
  21988756.133   115551759.186    21988757.430    90040376.025  
  24963434.484   131183721.846    24963433.379   102221102.709  
  20212646.828   106218288.636    20212643.637    82767553.775  
  21068430.258   110715479.800    21068430.012    86271907.041  
 21  8 28  1 22 30.0000000  0 10G 1G 3G10G12G22G25G26G29G31G32
  24668648.789   129634583.439    24668652.074   101013981.463  
  23014658.656   120942785.540    23014658.605    94241186.312  
  24224239.727   127299295.743    24224240.438    99194305.331  
  24895698.930   130827905.4491   24895697.980   101943725.5171 
  22286965.102   117118785.310    22286961.207    91261401.900  
  22201750.438   116671227.394    22201750.676    90912612.191  
  21970429.852   115455453.973    21970431.117    89965333.068  
  24950013.328   131113193.904    24950011.695   102166145.937  
  20212500.359   106217518.933    20212497.105    82766954.017  
  21076743.125   110759165.489    21076742.789    86305947.836  
 21  8 28  1 23  0.0000000  0 11G 1G 3G10G12G16G22G25G26G29G31G32
  24681056.281   129699789.783    24681060.227   101064791.569  
  23000571.406   120868758.137    23000571.930    94183502.639  
  24246363.750   127415559.679    24246364.977    99284900.585  
  24915696.469   130932994.2311   24915695.914   102025612.8871 
  25219676.805   132530291.4091                                 
  22280874.242   117086776.431    22280869.910    91236459.949  
  22216085.602   116746560.275    22216085.754    90971313.135  
  21952165.273   115359474.139    21952166.609    89890543.622  
  24936633.719   131042884.171    24936630.891   102111359.202  
  20212426.008   106217128.669    20212422.910    82766649.938  
  21085120.688   110803189.026    21085119.934    86340251.885  
 21  8 28  1 23 30.0000000  0 11G 1G 3G10G12G16G22G25G26G29G31G32
  24693521.391   129765293.142    24693525.059   101115833.109  
  22986566.391   120795163.026    22986566.574    94126155.833  
  24268501.758   127531893.827    24268502.945    99375550.528  
  24935736.352   131038304.2011   24935735.164   102107672.6081 
  25196176.828   132406793.033    25196175.891   103174130.6561 
  22274882.203   117055289.388    22274878.133    91211924.609  
  22230508.258   116822353.538    22230507.164    91030372.862  
  21933963.023   115263821.972    21933965.215    89816009.515  
  24923296.383   130972795.566    24923293.227   102056744.772  
  20212423.789   106217116.842    20212420.602    82766640.739  
  21093562.320   110847550.235    21093561.957    86374819.066  
 21  8 28  1 24  0.0000000  0 11G 1G 3G10G12G16G22G25G26G29G31G32
  24706043.070   129831090.589    24706045.844   101167103.733  
  22972644.828   120722002.610    22972644.672    94069147.745  
  24290652.172   127648295.468    24290653.227    99466253.054  
  24955817.734   131143832.0741   24955815.773   102189902.1551 
  25172670.172   132283268.653    25172669.184   103077878.007  
  22268989.758   117024324.893    22268985.844    91187796.464  
  22245018.758   116898604.536    22245017.641    91089789.264  
  21915823.891   115168499.977    21915825.059    89741732.669  
  24910001.484   130902931.501    24909999.008   102002305.269  
  20212493.344   106217482.295    20212490.188    82766925.532  
  21102068.484   110892249.226    21102068.137    86409649.461  
 21  8 28  1 24 30.0000000  0 11G 1G 3G10G12G16G22G25G26G29G31G32
  24718618.797   129897179.063    24718622.074   101218601.228  
  22958806.148   120649279.479    22958805.977    94012480.426  
  24312814.547   127764762.067    24312815.809    99557006.219  
  24975941.773   131249575.652    24975936.848   102272299.768  
  25149159.805   132159721.206    25149159.254   102981607.418  
  22263197.383   116993884.557    22263193.230    91164076.744  
  22259615.320   116975310.615    22259615.273    91149560.260  
  21897748.188   115073510.744    21897749.359    89667715.131  
  24896750.789   130833294.776    24896748.156   101948042.983  
  20212634.000   106218224.222    20212631.418    82767503.668  
  21110638.438   110937286.222    21110638.402    86444743.218  
 21  8 28  1 25  0.0000000  0 11G 1G 3G10G12G16G22G25G26G29G31G32
  24731249.430   129963555.759    24731253.250   101270323.280  
  22945050.898   120576996.146    22945050.621    93956155.773  
  24334989.367   127881291.077    24334989.594    99647808.051  
  24996104.742   131355532.082    24996100.773   102354863.224  
  25125644.820   132036152.818    25125644.980   102885320.438  
  22257504.703   116963969.425    22257500.453    91140766.285  
  22274297.977   117052469.262    22274297.969    91209683.882  
  21879735.813   114978856.927    21879737.238    89593958.946  
  24883542.266   130763888.647    24883539.969   101893960.339  
  20212847.047   106219341.745    20212843.855    82768374.480  
  21119273.305   110982661.382    21119272.883    86480100.495  
 21  8 28  1 25 30.0000000  0 11G 1G 3G10G12G16G22G25G26G29G31G32
  24743935.125   130030217.787    24743938.590   101322267.671  
  22931379.805   120505155.296    22931379.801    93900175.929  
  24357176.336   127997880.065    24357176.305    99738656.575  
  25016307.430   131461698.554    25016301.844   102437590.323  
  25102127.594   131912566.520    25102127.285   102789019.502  
  22251912.477   116934580.407    22251907.961    91117865.794  
  22289066.070   117130077.914    22289066.594    91270158.169  
  21861788.805   114884541.198    21861789.457    89520466.231  
  24870379.398   130694715.758    24870376.934   101840059.467  
  20213130.766   106220833.919    20213127.797    82769537.234  
  21127972.375   111028375.059    21127971.855    86515721.538  
 21  8 28  1 26  0.0000000  0 11G 1G 3G10G12G16G22G25G26G29G31G32
  24756674.234   130097162.032    24756677.977   101374432.004  
  22917793.945   120433759.193    22917793.336    93844542.657  
  24379371.891   128114526.365    24379373.957    99829549.771  
  25036550.516   131568072.199    25036543.520   102520479.008  
  25078607.617   131788964.886    25078607.574   102692706.681  
  22246419.648   116905718.628    22246415.574    91095376.123  
  22303919.891   117208133.811    22303920.289    91330980.944  
  21843905.461   114790566.021    21843906.672    89447238.853  
  24857261.742   130625780.025    24857256.789   101786343.4391 
  20213485.953   106222699.820    20213482.961    82770991.203  
  21136735.672   111074427.184    21136735.406    86551606.309  
 21  8 28  1 26 30.0000000  0 10G 1G 3G10G16G22G25G26G29G31G32
  24769466.430   130164385.329    24769470.172   101426813.734  
  22904291.914   120362810.241    22904292.465    93789257.782  
  24401579.820   128231227.116    24401582.297    99920485.358  
  25055084.461   131665350.202    25055083.445   102596383.667  
  22241028.055   116877384.887    22241023.973    91073297.904  
  22318857.484   117286634.074    22318857.992    91392149.981  
  21826087.516   114696933.740    21826089.145    89374278.663  
  24844188.328   130557084.383    24844187.059   101732814.366  
  20213911.891   106224938.231    20213908.969    82772735.450  
  21145563.617   111120817.747    21145563.094    86587754.797  
 21  8 28  1 27  0.0000000  0 10G 1G 3G10G16G22G25G26G29G31G32
  24782311.063   130231884.631    24782314.867   101479410.571  
  22890876.836   120292310.765    22890876.797    93734323.154  
  24423796.797   128347979.723    24423799.445   100011461.366  
  25031558.547   131541724.921    25031558.340   102500052.336  
  22235737.195   116849580.252    22235732.730    91051631.997  
  22333880.383   117365575.996    22333879.844    91453663.200  
  21808336.039   114603646.846    21808337.035    89301587.624  
  24831162.703   130488631.549    24831157.332   101679474.6241 
  20214408.938   106227548.469    20214405.598    82774769.418  
  21154455.672   111167546.803    21154455.309    86624167.047  
 21  8 28  1 27 30.0000000  0 10G 1G 3G10G16G22G25G26G29G31G32
  24795207.570   130299656.798    24795211.191   101532219.975  
  22877547.141   120222263.094    22877546.957    93679740.585  
  24446024.375   128464781.379    24446025.773   100102475.616  
  25008031.836   131418091.414    25008031.387   102403714.591  
  22230546.977   116822305.515    22230542.520    91030378.977  
  22348985.656   117444956.715    22348985.836    91515518.329  
  21790650.055   114510707.682    21790651.512    89229167.531  
  24818183.969   130420424.707    24818180.914   101626326.485  
  20214975.727   106230529.004    20214972.711    82777091.935  
  21163411.984   111214614.284    21163411.762    86660843.000  
 21  8 28  1 28  0.0000000  0 10G 1G 3G10G16G22G25G26G29G31G32
  24808155.664   130367698.885    24808159.234   101585239.760  
  22864304.070   120152669.789    22864304.375    93625512.064  
  24468259.852   128581629.737    24468261.031   100193526.259  
  24984503.352   131294452.750    24984503.477   102307372.909  
  22225457.813   116795561.201    22225453.266    91009539.271  
  22364174.500   117524773.714    22364174.414    91577713.409  
  21773030.992   114418118.935    21773032.254    89157020.510  
  24805251.234   130352466.860    24805247.617   101573372.3811 
  20215613.484   106233879.137    20215610.078    82779702.457  
  21172433.602   111262020.439    21172433.105    86697782.854  
 21  8 28  1 28 30.0000000  0 10G 1G 3G10G16G22G25G26G29G31G32
  24821154.633   130436007.780    24821158.195   101638467.457  
  22851147.367   120083533.047    22851147.832    93571639.324  
  24490503.719   128698521.973    24490505.082   100284611.107  
  24960975.797   131170811.424    24960974.832   102211029.060  
  22220469.383   116769348.922    22220465.246    90989114.157  
  22379445.555   117605024.089    22379446.316    91640246.204  
  21755478.820   114325882.935    21755480.336    89085148.328  
  24792367.898   130284761.271    24792363.598   101520614.799  
  20216320.758   106237597.913    20216317.840    82782600.221  
  21181518.750   111309765.227    21181518.723    86734986.592  
 21  8 28  1 29  0.0000000  0 10G 1G 3G10G16G22G25G26G29G31G32
  24834203.266   130504579.946    24834206.805   101691900.289  
  22838079.156   120014854.863    22838078.648    93518123.877  
  24512755.289   128815455.014    24512757.414   100375727.712  
  24937447.523   131047169.441    24937446.332   102114684.755  
  22215582.648   116743668.814    22215578.449    90969103.701  
  22394798.711   117685704.620    22394799.320    91703114.152  
  21737994.672   114234001.648    21737995.500    89013552.554  
  24779531.617   130217310.302    24779528.387   101468055.543  
  20217098.570   106241683.919    20217095.398    82785784.147  
  21190668.688   111357848.136    21190668.266    86772453.799  
 21  8 28  1 29 30.0000000  0 10G 1G 3G10G16G22G25G26G29G31G32
  24847301.625   130573412.325    24847305.875   101745535.878  
  22825097.203   119946637.597    22825097.297    93464967.593  
  24535013.914   128932426.289    24535015.801   100466874.095  
  24913919.023   130923529.365    24913918.086   102018341.865  
  22210797.430   116718521.630    22210793.242    90949508.516  
  22410232.969   117766812.585    22410233.395    91766315.163  
  21720578.281   114142477.572    21720579.691    88942235.131  
  24766746.063   130150117.006    24766742.555   101415697.195  
  20217945.461   106246135.957    20217942.441    82789253.276  
  21199883.211   111406269.295    21199882.891    86810184.572  
 21  8 28  1 30  0.0000000  0 10G 1G 3G10G16G22G25G26G29G31G32
  24860449.203   130642502.815    24860452.559   101799372.592  
  22812203.750   119878884.535    22812204.430    93412173.033  
  24557280.422   129049434.063    24557281.277   100558048.963  
  24890392.484   130799894.953    24890391.539   101922003.440  
  22206113.758   116693909.242    22206109.391    90930330.052  
  22425747.930   117848346.165    22425747.988    91829847.847  
  21703230.422   114051314.105    21703231.844    88871198.703  
  24754008.531   130083185.568    24754006.172   101363542.851  
  20218862.242   106250953.962    20218859.367    82793007.589  
  21209161.875   111455029.649    21209161.352    86848179.652  
 21  8 28  1 30 30.0000000  0 10G 1G 3G10G16G22G25G26G29G31G32
  24873645.289   130711848.133    24873648.945   101853407.883  
  22799399.984   119811597.853    22799399.996    93359741.875  
  24579552.664   129166475.745    24579553.570   100649250.240  
  24866866.922   130676268.064    24866865.949   101825670.886  
  22201532.266   116669832.015    22201527.566    90911568.604  
  22441343.969   117930302.467    22441343.742    91893709.905  
  21685951.375   113960513.487    21685953.316    88800445.008  
  24741321.531   130016518.828    24741318.883   101311594.749  
  20219848.609   106256136.590    20219845.574    82797046.013  
  21218505.352   111504129.072    21218505.125    86886438.948  
 21  8 28  1 31  0.0000000  0 10G 1G 3G10G16G22G25G26G29G31G32
  24886889.055   130781445.099    24886893.082   101907639.252  
  22786685.078   119744779.562    22786685.195    93307675.708  
  24601830.102   129283548.258    24601832.051   100740475.542  
  24843343.086   130552651.500    24843342.109   101729346.389  
  22197052.539   116646290.789    22197047.789    90893224.822  
  22457019.500   118012678.354    22457018.996    91957898.938  
  21668742.484   113870077.889    21668743.984    88729975.752  
  24728686.617   129950119.305    24728683.707   101259854.905  
  20220903.922   106261682.895    20220900.953    82801367.830  
  21227912.648   111553567.256    21227912.945    86924962.208  
 21  8 28  1 31 30.0000000  0 10G 1G 3G10G16G22G25G26G29G31G32
  24900180.195   130851290.444    24900183.934   101962064.174  
  22774059.133   119678431.964    22774059.496    93255976.306  
  24624113.586   129400649.095    24624115.961   100831722.906  
  24819822.094   130429047.831    24819820.770   101633031.892  
  22192674.313   116623286.114    22192670.195    90875299.116  
  22472774.414   118095471.047    22472774.762    92022412.753  
  21651602.828   113780009.631    21651603.980    88659792.735  
  24716103.469   129883990.200    24716097.883   101208325.770  
  20222028.086   106267591.614    20222025.371    82805972.036  
  21237385.289   111603344.153    21237384.871    86963749.393  
 21  8 28  1 32  0.0000000  0 10G 1G 3G10G16G22G25G26G29G31G32
  24913518.063   130921381.051    24913521.750   102016680.222  
  22761524.063   119612557.295    22761524.117    93204645.422  
  24646402.172   129517775.514    24646404.965   100922990.222  
  24796303.656   130305459.449    24796302.738   101536729.364  
  22188399.109   116600818.716    22188394.758    90857792.077  
  22488608.023   118178677.734    22488608.742    92087249.134  
  21634533.742   113690311.204    21634534.754    88589897.880  
  24703570.750   129818134.426    24703566.184   101157009.5821 
  20223221.641   106273861.744    20223218.383    82810857.870  
  21246921.719   111653459.810    21246921.379    87002800.563  
 21  8 28  1 32 30.0000000  0 10G 1G 3G10G16G22G25G26G29G31G32
  24926901.945   130991713.944    24926905.777   102071485.085  
  22749078.930   119547157.993    22749078.391    93153684.945  
  24668695.563   129634925.062    24668697.219   101014275.566  
  24772788.922   130181889.240    24772788.754   101440440.997  
  22184226.047   116578889.417    22184221.828    90840704.334  
  22504520.008   118262295.634    22504520.875    92152405.938  
  21617535.297   113600984.935    21617536.496    88520293.032  
  24691091.836   129752555.214    24691088.250   101105908.889  
  20224483.234   106280492.131    20224480.238    82816024.427  
  21256522.648   111703914.179    21256522.168    87042115.655  
 21  8 28  1 33  0.0000000  0 10G 1G 3G10G16G22G25G26G29G31G32
  24940331.586   131062285.933    24940334.895   102126476.196  
  22736724.680   119482236.167    22736724.762    93103096.542  
  24690992.102   129752095.034    24690993.930   101105576.831  
  24749278.688   130058339.722    24749277.723   101344168.753  
  22180155.492   116557499.076    22180151.047    90824036.550  
  22520509.281   118346321.921    22520510.273    92217880.977  
  21600608.383   113512033.199    21600609.574    88450980.039  
  24678665.797   129687255.673    24678662.188   101055026.210  
  20225813.258   106287481.726    20225810.211    82821470.878  
  21266188.375   111754707.213    21266187.789    87081694.644  
 21  8 28  1 33 30.0000000  0 10G 1G 3G10G16G22G25G26G29G31G32
  24953806.203   131133093.755    24953809.621   102181651.129  
  22724461.219   119417793.988    22724461.824    93052881.873  
  24713291.969   129869282.676    24713294.414   101196891.844  
  24725772.273   129934813.406    24725770.531   101247914.554  
  22176188.609   116536648.273    22176183.352    90807789.197  
  22536576.906   118430753.600    22536576.563    92283671.904  
  21583752.891   113423458.217    21583754.145    88381960.615  
  24666293.898   129622238.540    24666290.500   101004363.568  
  20227211.805   106294829.523    20227208.445    82827196.444  
  21275918.523   111805838.708    21275917.922    87121537.364  
 21  8 28  1 34  0.0000000  0 10G 1G 3G10G16G22G25G26G29G31G32
  24967324.383   131204134.457    24967328.363   102237007.467  
  22712290.242   119353833.736    22712290.129    93003042.732  
  24735594.852   129986485.455    24735596.883   101288218.663  
  24702270.789   129811312.981    24702269.969   101151680.585  
  22172322.992   116516337.395    22172318.535    90791962.561  
  22552719.961   118515587.977    22552720.121    92349776.633  
  21566969.953   113335262.403    21566971.027    88313236.644  
  24653975.398   129557506.975    24653971.715   100953923.449  
  20228677.617   106302534.395    20228674.563    82833200.268  
  21285712.844   111857308.685    21285712.660    87161643.842  
 21  8 28  1 34 30.0000000  0 10G 1G 3G10G16G22G25G26G29G31G32
  24980886.734   131275404.816    24980890.324   102292542.802  
  22700211.148   119290357.626    22700211.129    92953580.857  
  24757900.117   130103700.817    24757902.121   101379555.264  
  24678774.500   129687841.011    24678774.070   101055468.793  
  22168560.328   116496566.879    22168556.375    90776556.980  
  22568940.156   118600822.125    22568940.063    92416192.877  
  21550259.797   113247448.083    21550260.328    88244809.932  
  24641712.125   129493063.579    24641707.023   100903707.833  
  20230212.008   106310595.095    20230208.461    82839481.345  
  21295571.766   111909117.093    21295571.441    87202014.012  
 21  8 28  1 35  0.0000000  0 10G 1G 3G10G16G22G25G26G29G31G32
  24994492.945   131346901.852    24994495.484   102348254.713  
  22688224.531   119227367.978    22688224.695    92904498.033  
  24780207.789   130220926.232    24780209.148   101470899.694  
  24655284.469   129564399.974    24655284.063   100959281.087  
  22164901.836   116477337.524    22164897.230    90761573.096  
  22585235.047   118686453.386    22585235.039    92482918.539  
  21533621.906   113160017.693    21533623.137    88176682.392  
  24629504.180   129428911.629    24629500.844   100853719.395  
  20231812.961   106319010.799    20231809.879    82846039.055  
  21305494.734   111961263.860    21305494.895    87242647.859  
 21  8 28  1 35 30.0000000  0 10G 1G 3G10G16G22G25G26G29G31G32
  25008140.625   131418622.440    25008143.910   102404140.848  
  22676330.984   119164866.879    22676331.188    92855795.913  
  24802516.203   130338159.060    24802517.859   101562249.937  
  24631801.094   129440992.672    24631800.051   100863119.652  
  22161344.984   116458650.640    22161340.941    90747011.904  
  22601604.789   118772478.821    22601606.039    92549951.360  
  21517057.867   113072973.505    21517059.156    88108855.788  
  24617352.813   129365054.025    24617350.438   100803960.342  
  20233481.891   106327780.394    20233478.746    82852872.520  
  21315482.352   112013748.954    21315482.285    87283545.338  
 21  8 28  1 36  0.0000000  0 10G 1G 3G10G16G22G25G26G29G31G32
  25021829.883   131490563.279    25021834.191   102460198.616  
  22664530.703   119102856.443    22664530.836    92807476.126  
  24824825.602   130455396.583    24824828.316   101653603.809  
  24608324.180   129317621.757    24608323.414   100766986.609  
  22157892.586   116440506.138    22157888.270    90732873.351  
  22618049.414   118858895.471    22618051.051    92617289.003  
  21500567.898   112986317.721    21500568.820    88041331.836  
  24605257.664   129301494.016    24605253.203   100754433.127  
  20235217.742   106336902.845    20235214.738    82859980.932  
  21325534.383   112066572.144    21325534.563    87324706.246  
 21  8 28  1 36 30.0000000  0 10G 1G 3G10G16G22G25G26G29G31G32
  25035561.227   131562721.386    25035565.539   102516425.679  
  22652824.680   119041338.909    22652824.680    92759540.408  
  24847135.758   130572636.281    24847138.055   101744959.374  
  24584855.344   129194289.844    24584853.844   100670883.942  
  22154542.820   116422904.646    22154538.773    90719157.913  
  22634567.906   118945700.516    22634569.285    92684929.303  
  21484152.070   112900052.649    21484153.141    87974112.335  
  24593219.695   129238234.460    24593216.422   100705139.984  
  20237020.742   106346377.024    20237017.523    82867363.421  
  21335650.664   112119733.348    21335650.770    87366130.568  
 21  8 28  1 37  0.0000000  0 10G 1G 3G10G16G22G25G26G29G31G32
  25049333.656   131635093.703    25049336.816   102572819.660  
  22641212.586   118980316.368    22641212.539    92711990.406  
  24869445.797   130689875.739    24869446.801   101836314.801  
  24561393.938   129070999.519    24561392.215   100574813.659  
  22151296.820   116405846.393    22151292.980    90705865.778  
  22651159.328   119032891.157    22651160.730    92752870.041  
  21467811.266   112814180.628    21467812.195    87907199.096  
  24581239.625   129175277.818    24581237.137   100656082.825  
  20238890.195   106356201.785    20238887.313    82875019.083  
  21345831.398   112173232.497    21345830.789    87407818.208  
 21  8 28  1 37 30.0000000  0 10G 1G 3G10G16G22G25G26G29G31G32
  25063145.328   131707676.828    25063149.309   102629377.907  
  22629694.352   118919791.025    22629694.449    92664827.810  
  24891755.273   130807112.185    24891756.551   101927667.810  
  24537940.234   128947753.214    24537938.484   100478777.661  
  22148154.414   116389332.131    22148150.043    90692997.556  
  22667823.914   119120464.472    22667825.445    92821108.999  
  21451545.875   112728703.849    21451546.102    87840593.851  
  24569316.406   129112627.383    24569313.313   100607264.382  
  20240826.313   106366376.081    20240823.297    82882947.131  
  21356076.008   112227069.420    21356076.168    87449769.053  
 21  8 28  1 38  0.0000000  0 10G 1G 3G10G16G22G25G26G29G31G32
  25076997.773   131780468.072    25077000.828   102686098.3281 
  22618271.688   118859765.040    22618271.859    92618054.343  
  24914063.461   130924343.244    24914065.113   102019016.658  
  24514496.547   128824553.975    24514495.242   100382778.360  
  22145115.398   116373362.587    22145111.000    90680553.784  
  22684561.148   119208417.764    22684562.438    92889644.066  
  21435355.477   112643624.819    21435356.496    87774298.532  
  24557453.992   129050286.503    24557451.867   100558687.134  
  20242828.703   106376898.800    20242825.621    82891146.668  
  21366385.492   112281244.202    21366385.109    87491983.146  
 21  8 28  1 38 30.0000000  0 10G 1G 3G10G16G22G25G26G29G31G32
  25090888.031   131853464.084    25090890.996   102742978.226  
  22606944.938   118800240.533    22606944.898    92571671.629  
  24936370.445   131041566.287    24936371.754   102110359.270  
  24491061.641   128701404.298    24491061.023   100286817.689  
  22142180.477   116357937.789    22142175.969    90668534.482  
  22701370.008   119296748.068    22701371.074    92958472.896  
  21419241.531   112558945.647    21419242.496    87708314.785  
  24545650.367   128988257.655    24545647.699   100510353.011  
  20244897.469   106387768.949    20244894.254    82899616.918  
  21376758.648   112335756.543    21376758.422    87534460.286  
 21  8 28  1 39  0.0000000  0 10G 1G 3G10G16G22G25G26G29G31G32
  25104817.258   131926661.575    25104820.703   102800015.225  
  22595713.703   118741219.426    22595713.207    92525681.192  
  24958675.922   131158778.631    24958677.063   102201693.474  
  24467637.000   128578306.922    24467635.777   100190897.767  
  22139348.391   116343058.334    22139344.398    90656940.112  
  22718250.000   119385452.460    22718251.293    93027593.217  
  21403204.188   112474668.511    21403205.309    87642644.315  
  24533906.578   128926543.964    24533903.445   100462264.449  
  20247031.625   106398985.347    20247028.379    82908356.984  
  21387196.289   112390606.229    21387195.957    87577200.299  
 21  8 28  1 39 30.0000000  0 10G 1G 3G10G16G22G25G26G29G31G32
  25118784.117   132000057.628    25118787.820   102857206.938  
  22584578.305   118682704.041    22584578.512    92480084.818  
  24980978.102   131275977.908    24980979.582   102293017.538  
  24444222.578   128455264.604    24444220.996   100095020.704  
  22136621.109   116328724.792    22136616.922    90645771.127  
  22735200.320   119474528.233    22735202.109    93097002.894  
  21387243.680   112390795.780    21387245.063    87577288.987  
  24522223.664   128865148.448    24522220.078   100414423.782  
  20249231.633   106410546.907    20249228.574    82917366.007  
  21397697.766   112445793.313    21397697.777    87620203.209  
 21  8 28  1 40  0.0000000  0 10G 1G 3G10G16G22G25G26G29G31G32
  25132787.406   132073648.818    25132791.633   102914550.732  
  22573539.609   118624696.147    22573539.984    92434883.895  
  25003277.484   131393161.307    25003278.895   102384329.214  
  24420818.664   128332279.699    24420818.613    99999188.406  
  22133997.828   116314937.348    22133993.137    90635027.686  
  22752220.492   119563972.239    22752223.000    93166699.491  
  21371360.508   112307329.446    21371361.801    87512250.324  
  24510600.641   128804073.697    24510598.395   100366833.134  
  20251497.242   106422452.440    20251494.207    82926643.056  
  21408264.008   112501317.337    21408263.578    87663468.678  
 21  8 28  1 40 30.0000000  0 10G 1G 3G10G16G22G25G26G29G31G32
  25146828.977   132147432.284    25146832.219   102972044.2981 
  22562598.422   118567197.974    22562598.574    92390080.145  
  25025573.086   131510326.199    25025575.301   102475626.482  
  24397427.594   128209354.865    24397426.328    99903402.948  
  22131477.953   116301696.536    22131473.582    90624710.176  
  22769310.688   119653781.754    22769312.414    93236680.946  
  21355554.984   112224271.898    21355555.938    87447530.187  
  24499041.195   128743322.703    24499038.938   100319494.772  
  20253828.375   106434700.866    20253824.984    82936187.303  
  21418893.898   112557178.329    21418893.578    87706996.724  
 21  8 28  1 41  0.0000000  0 10G 1G 3G10G16G22G25G26G29G31G32
  25160905.086   132221404.981    25160908.758   103029685.270  
  22551753.984   118510211.613    22551754.164    92345675.201  
  25047865.164   131627470.439    25047866.801   102566907.614  
  24374047.156   128086493.046    24374045.969    99807666.628  
  22129062.258   116289002.673    22129057.859    90614818.868  
  22786470.492   119743953.982    22786471.664    93306945.037  
  21339828.281   112141625.359    21339828.691    87383130.322  
  24487542.586   128682898.614    24487540.242   100272411.090  
  20256223.836   106447291.323    20256220.805    82945998.058  
  21429587.742   112613376.161    21429587.750    87750787.225  
 21  8 28  1 41 30.0000000  0 10G 1G 3G10G16G22G25G26G29G31G32
  25175016.953   132295563.753    25175020.879   103087471.354  
  22541007.586   118453739.003    22541007.449    92301670.588  
  25070152.516   131744591.334    25070154.059   102658170.596  
  24350680.023   127963696.661    24350678.211    99711981.183  
  22126750.867   116276856.075    22126746.383    90605354.000  
  22803697.609   119834485.995    22803699.336    93377489.491  
  21324179.578   112059391.956    21324180.238    87319052.380  
  24476106.336   128622804.262    24476105.602   100225584.370  
  20258685.016   106460222.422    20258681.316    82956074.253  
  21440345.961   112669910.564    21440345.570    87794839.994  
 21  8 28  1 42  0.0000000  0 10G 1G 3G10G16G22G25G26G29G31G32
  25189163.898   132369905.451    25189167.125   103145399.818  
  22530359.547   118397782.107    22530359.594    92258067.854  
  25092434.039   131861686.491    25092436.531   102749413.489  
  24327324.813   127840968.664    24327323.734    99616349.069  
  22124543.766   116265257.185    22124539.344    90596315.928  
  22820993.406   119925374.839    22820994.207    93448311.968  
  21308610.055   111977573.863    21308610.973    87255298.041  
  24464734.703   128563042.026    24464731.266   100179016.497  
  20261209.922   106473493.085    20261206.707    82966415.043  
  21451168.313   112726781.338    21451167.641    87839154.875  
 21  8 28  1 42 30.0000000  0  9G 1G 3G16G22G25G26G29G31G32
  25203344.813   132444426.849    25203348.730   103203471.395  
  22519809.695   118342342.990    22519809.711    92214868.561  
  24303984.594   127718311.400    24303983.008    99520772.075  
  22122440.719   116254206.217    22122436.313    90587704.789  
  22838356.305   120016617.728    22838357.684    93519410.335  
  21293119.867   111896173.257    21293120.910    87191869.033  
  24453424.977   128503615.203    24453424.582   100132709.902  
  20263799.805   106487102.314    20263796.414    82977019.638  
  21462054.125   112783988.312    21462053.719    87883731.733  
 21  8 28  1 43  0.0000000  0  8G 3G16G22G25G26G29G31G32
  22509359.148   118287423.503    22509358.773    92172074.192  
  24280656.922   127595727.855    24280656.129    99425252.514  
  22120442.094   116243703.056    22120437.512    90579520.516  
  22855785.953   120108211.613    22855787.820    93590782.204  
  21277709.578   111815192.189    21277710.934    87128766.929  
  24442181.109   128444526.851    24442179.438   100086667.023  
  20266453.469   106501048.986    20266450.367    82987887.186  
  21473004.250   112841531.160    21473004.008    87928570.317  
 21  8 28  1 43 30.0000000  0  8G 3G16G22G25G26G29G31G32
  22499007.094   118233025.818    22499007.238    92129686.396  
  24257345.180   127473220.660    24257343.848    99329792.508  
  22118547.773   116233748.455    22118543.156    90571763.700  
  22873282.055   120200153.864    22873283.504    93662425.514  
  21262379.617   111734632.821    21262381.113    87065993.421  
  24431002.242   128385779.912    24431000.531   100040890.224  
  20269171.648   106515332.044    20269168.367    82999016.855  
  21484018.469   112899409.893    21484018.645    87973670.620  
 21  8 28  1 44  0.0000000  0  8G 3G16G22G25G26G29G31G32
  22488755.250   118179151.684    22488755.457    92087706.586  
  24234047.313   127350792.435    24234046.508    99234393.942  
  22116757.516   116224342.294    22116752.988    90564434.216  
  22890844.125   120292441.357    22890845.055    93734337.863  
  21247130.594   111654497.511    21247131.590    87003550.348  
  24419888.773   128327376.867    24419887.563    99995381.407  
  20271953.453   106529950.279    20271950.004    83010407.683  
  21495095.602   112957624.079    21495096.316    88019032.306  
 21  8 28  1 44 30.0000000  0  8G 3G16G22G25G26G29G31G32
  22478603.313   118125802.938    22478603.449    92046136.153  
  24210765.016   127228445.699    24210764.168    99139058.886  
  22115072.094   116215484.896    22115067.695    90557532.352  
  22908470.258   120385071.161    22908471.055    93806516.950  
  21231962.305   111574788.062    21231963.570    86941439.105  
  24408840.664   128269320.194    24408838.773    99950142.503  
  20274798.969   106544902.511    20274795.320    83022058.785  
  21506237.734   113016173.402    21506237.922    88064655.138  
 21  8 28  1 45  0.0000000  0  8G 3G16G22G25G26G29G31G32
  22468551.781   118072981.484    22468551.852    92004976.596  
  24187499.828   127106183.033    24187498.332    99043789.424  
  22113491.258   116207176.249    22113486.813    90551058.086  
  22926162.094   120478040.417    22926161.723    93878960.528  
  21216875.422   111495506.568    21216876.387    86879661.342  
  24397859.594   128211613.331    24397858.676    99905176.151  
  20277706.906   106560187.537    20277704.059    83033969.205  
  21517442.867   113075057.588    21517443.184    88110538.924  
 21  8 28  1 45 30.0000000  0  8G 3G16G22G25G26G29G31G32
  22458600.781   118020689.559    22458600.945    91964229.676  
  24164250.914   126984007.908    24164249.395    98948588.070  
  22112015.063   116199417.053    22112010.281    90545011.984  
  22943917.688   120571346.565    22943917.520    93951666.654  
  21201870.359   111416655.526    21201871.785    86818219.002  
  24386945.477   128154259.267    24386943.676    99860484.698  
  20280679.328   106575804.608    20280675.816    83046138.358  
  21528711.875   113134276.815    21528712.090    88156683.753  
 21  8 28  1 46  0.0000000  0  8G 3G16G22G25G26G29G31G32
  22448751.195   117968929.215    22448751.141    91923896.970  
  24141018.453   126861923.049    24141017.258    98853457.113  
  22110642.820   116192207.483    22110638.656    90539394.144  
  22961737.008   120664986.834    22961737.145    94024633.115  
  21186948.039   111338237.093    21186949.465    86757113.760  
  24376098.656   128097260.910    24376098.582    99816070.436  
  20283714.109   106591752.958    20283710.598    83058565.647  
  21540044.703   113193830.898    21540044.625    88203089.519  
 21  8 28  1 46 30.0000000  0  8G 3G16G22G25G26G29G31G32
  22439003.375   117917701.654    22439002.949    91883979.393  
  24117804.063   126739930.185    24117802.586    98758397.819  
  22109375.492   116185546.999    22109370.996    90534204.169  
  22979618.813   120758957.758    22979619.152    94097857.225  
  21172108.164   111260252.743    21172109.141    86696346.773  
  24365321.039   128040620.597    24365319.684    99771935.157  
  20286811.594   106608030.636    20286808.199    83071249.562  
  21551441.203   113253718.936    21551440.777    88249755.520  
 21  8 28  1 47  0.0000000  0  8G 3G16G22G25G26G29G31G32
  22429356.344   117867008.759    22429356.297    91844478.477  
  24094608.211   126618032.462    24094605.887    98663412.683  
  22108212.305   116179435.884    22108207.703    90529442.268  
  22997563.313   120853256.505    22997562.875    94171336.747  
  21157351.188   111182704.597    21157352.125    86635919.669  
  24354610.719   127984340.782    24354610.434    99728080.813  
  20289971.484   106624636.641    20289968.164    83084189.317  
  21562901.008   113313940.760    21562900.906    88296681.612  
 21  8 28  1 47 30.0000000  0  8G 3G16G22G25G26G29G31G32
  22419811.789   117816852.351    22419811.965    91805395.574  
  24071429.750   126496232.313    24071428.160    98568503.582  
  22107153.961   116173874.168    22107149.207    90525108.477  
  23015569.203   120947880.101    23015568.227    94245069.438  
  21142677.320   111105594.638    21142678.262    86575834.025  
  24343970.188   127928424.572    24343969.879    99684509.739  
  20293194.125   106641569.752    20293190.531    83097383.956  
  21574424.289   113374496.017    21574424.398    88343867.514  
 21  8 28  1 48  0.0000000  0  8G 3G16G22G25G26G29G31G32
  22410370.453   117767234.313    22410369.816    91766732.182  
  24048271.188   126374532.687    24048269.035    98473672.760  
  22106200.438   116168861.875    22106195.445    90521202.800  
  23033637.414   121042825.770    23033635.121    94319053.096  
  21128087.984   111028924.989    21128088.664    86516091.463  
  24333399.688   127872874.751    24333398.867    99641224.231  
  20296478.141   106658828.998    20296474.781    83110832.731  
  21586010.992   113435384.485    21586011.402    88391313.050  
 21  8 28  1 48 30.0000000  0  8G 3G16G22G25G26G29G31G32
  22401030.148   117718156.037    22401030.660    91728489.401  
  24025132.305   126252935.840    24025129.973    98378922.072  
  22105351.023   116164398.658    22105346.141    90517724.975  
  23051765.484   121138090.278    23051763.996    94393285.246  
  21113581.961   110952697.310    21113583.078    86456693.313  
  24322899.227   127817693.588    24322898.492    99598225.962  
  20299824.383   106676413.033    20299820.848    83124534.581  
  21597661.227   113496605.535    21597661.148    88439017.769  
 21  8 28  1 49  0.0000000  0  9G 3G 4G16G22G25G26G29G31G32
  22391794.539   117669620.197    22391794.461    91690669.277  
  25308490.234   132997017.801    25308488.242   103634027.155  
  24002013.086   126131445.396    24002011.879    98284254.283  
  22104606.484   116160485.322    22104601.691    90514675.625  
  23069954.031   121233671.614    23069953.098    94467764.222  
  21099161.211   110876914.428    21099162.035    86397641.751  
  24312469.227   127762884.687    24312468.430    99555517.739  
  20303232.133   106694321.468    20303228.730    83138489.222  
  21609374.242   113558159.643    21609374.262    88486981.995  
 21  8 28  1 49 30.0000000  0  9G 3G 4G16G22G25G26G29G31G32
  22382662.211   117621627.778    22382661.824    91653272.608  
  25289943.141   132899553.402    25289941.785   103558080.956  
  23978914.883   126010063.556    23978912.770    98189671.069  
  22103965.719   116157121.357    22103961.656    90512054.368  
  23088202.234   121329566.173    23088201.121    94542487.241  
  21084825.023   110801577.612    21084826.180    86338937.761  
  24302110.656   127708450.577    24302110.328    99513101.569  
  20306701.078   106712552.543    20306697.945    83152695.257  
  21621150.508   113620045.839    21621150.277    88535204.979  
 21  8 28  1 50  0.0000000  0  9G 3G 4G16G22G25G26G29G31G32
  22373632.883   117574180.872    22373633.133    91616300.998  
  25271387.367   132802043.940    25271385.996   103482099.580  
  23955837.211   125888793.086    23955836.309    98095174.736  
  22103430.000   116154306.773    22103426.063    90509861.192  
  23106508.883   121425771.370    23106508.316    94617452.336  
  21070574.133   110726689.200    21070575.426    86280583.192  
  24291823.820   127654393.917    24291822.648    99470979.560  
  20310232.086   106731105.450    20310228.512    83167152.088  
  21632990.391   113682264.059    21632989.820    88583686.704  
 21  8 28  1 50 30.0000000  0  9G 3G 4G16G22G25G26G29G31G32
  22364707.703   117527281.004    22364708.543    91579755.672  
  25252823.219   132704490.262    25252822.148   103406083.788  
  23932782.242   125767636.444    23932781.141    98000767.005  
  22102999.477   116152041.609    22102995.023    90508096.138  
  23124874.945   121522284.178    23124873.051    94692657.128  
  21056409.047   110652250.962    21056410.129    86222579.393  
  24281609.664   127600716.978    24281608.832    99429153.418  
  20313823.070   106749978.668    20313819.984    83181858.495  
  21644893.625   113744813.861    21644892.625    88632426.811  
 21  8 28  1 51  0.0000000  0  9G 3G 4G16G22G25G26G29G31G32
  22355887.859   117480929.665    22355887.859    91543637.760  
  25234251.352   132606893.271    25234250.184   103330034.246  
  23909748.836   125646596.385    23909747.125    97906450.170  
  22102672.961   116150325.599    22102668.652    90506758.999  
  23143298.500   121619101.516    23143295.949    94768099.256  
  21042329.789   110578264.640    21042330.953    86164927.737  
  24271468.258   127547422.915    24271468.344    99387625.574  
  20317475.688   106769171.232    20317472.070    83196813.749  
  21656859.344   113807694.648    21656858.852    88681424.833  
 21  8 28  1 51 30.0000000  0  9G 3G 4G16G22G25G26G29G31G32
  22347172.313   117435128.679    22347172.426    91507948.701  
  25215671.203   132509253.970    25215670.488   103253951.750  
  23886738.797   125525675.927    23886736.520    97812226.543  
  22102450.695   116149158.340    22102446.180    90505849.453  
  23161780.055   121716220.625    23161778.699    94843776.543  
  21028337.133   110504732.317    21028338.344    86107629.860  
  24261399.438   127494514.158    24261399.480    99346398.021  
  20321188.492   106788682.016    20321184.980    83212016.969  
  21668888.141   113870906.225    21668887.977    88730680.582  
 21  8 28  1 52  0.0000000  0  9G 3G 4G16G22G25G26G29G31G32
  22338561.906   117389879.997    22338561.863    91472689.999  
  25197082.836   132411574.008    25197081.824   103177837.536  
  23863751.211   125404877.669    23863749.891    97718098.066  
  22102333.031   116148540.382    22102328.625    90505367.935  
  23180317.758   121813638.939    23180317.371    94919686.923  
  21014431.719   110431656.138    21014432.207    86050687.407  
  24251405.875   127441993.739    24251405.477    99305473.059  
  20324961.305   106808510.258    20324958.250    83227467.557  
  21680979.422   113934448.461    21680979.672    88780193.999  
 21  8 28  1 52 30.0000000  0  9G 3G 4G16G22G25G26G29G31G32
  22330056.297   117345185.087    22330056.523    91437862.804  
  25178487.750   132313854.120    25178486.246   103101692.200  
  23840787.336   125284204.491    23840786.531    97624067.114  
  22102319.703   116148471.448    22102315.508    90505314.233  
  23198911.953   121911353.437    23198911.926    94995828.073  
  21000612.555   110359037.906    21000613.477    85994101.806  
  24241485.789   127389864.555    24241485.949    99264852.964  
  20328795.023   106828654.437    20328791.293    83243164.332  
  21693134.711   113998320.820    21693134.391    88829964.670  
 21  8 28  1 53  0.0000000  0  9G 3G 4G16G22G25G26G29G31G32
  22321657.000   117301045.438    22321657.117    91403468.289  
  25159885.258   132216095.337    25159883.547   103025516.597  
  23817848.938   125163658.999    23817846.961    97530135.616  
  22102411.070   116148951.166    22102406.707    90505688.036  
  23217562.516   122009361.079    23217561.863    95072197.685  
  20986881.141   110286879.375    20986881.984    85937874.404  
  24231640.273   127338128.790    24231639.434    99224539.407  
  20332687.844   106849113.620    20332684.676    83259106.557  
  21705351.484   114062522.883    21705351.699    88879992.210  
 21  8 28  1 53 30.0000000  0  9G 3G 4G16G22G25G26G29G31G32
  22313363.211   117257462.191    22313363.488    91369507.325  
  25141274.938   132118298.323    25141273.297   102949311.181  
  23794934.664   125043243.361    23794932.797    97436305.335  
  22102606.656   116149978.726    22102602.398    90506488.733  
  23236268.078   122107658.583    23236267.023    95148793.188  
  20973237.570   110215181.985    20973238.461    85882006.333  
  24221870.555   127286788.395    24221870.336    99184533.939  
  20336641.094   106869885.951    20336637.512    83275292.790  
  21717631.469   114127053.769    21717631.352    88930275.996  
 21  8 28  1 54  0.0000000  0  9G 3G 4G16G22G25G26G29G31G32
  22305175.984   117214437.438    22305176.242    91335981.556  
  25122657.586   132020464.617    25122656.180   102873077.182  
  23772045.789   124922960.988    23772043.652    97342578.849  
  22102906.695   116151554.435    22102902.176    90507716.551  
  23255027.883   122206243.530    23255027.426    95225612.665  
  20959682.258   110143948.028    20959682.715    85826499.379  
  24212176.711   127235846.738    24212176.652    99144839.176  
  20340653.266   106890971.006    20340649.719    83291722.721  
  21729974.086   114191913.508    21729973.559    88980816.038  
 21  8 28  1 54 30.0000000  0  9G 3G 4G16G22G25G26G29G31G32
  22297094.984   117171972.647    22297095.410    91302892.112  
  25104033.219   131922595.219    25104031.738   102796815.372  
  23749182.219   124802814.406    23749180.879    97248958.235  
  22103310.797   116153678.122    22103306.102    90509371.376  
  23273842.273   122305113.039    23273841.504    95302653.855  
  20946215.344   110073179.315    20946215.977    85771354.946  
  24202559.320   127185306.883    24202558.566    99105457.477  
  20344724.961   106912367.523    20344721.504    83308395.322  
  21742378.516   114257101.653    21742378.684    89031611.983  
 21  8 28  1 55  0.0000000  0  9G 3G 4G16G22G25G26G29G31G32
  22289121.398   117130069.339    22289121.297    91270240.205  
  25085403.094   131824691.285    25085401.219   102720526.625  
  23726345.453   124682806.357    23726343.305    97155445.529  
  22103819.391   116156349.836    22103814.727    90511453.235  
  23292709.570   122404264.187    23292710.246    95379914.510  
  20932837.523   110002877.659    20932837.973    85716574.469  
  24193018.914   127135171.120    24193018.285    99066390.689  
  20348855.328   106934074.463    20348852.258    83325309.831  
  21754845.703   114322617.788    21754845.707    89082663.506  
 21  8 28  1 55 30.0000000  0  9G 3G 4G16G22G25G26G29G31G32
  22281254.477   117088728.966    22281254.480    91238026.938  
  25066765.922   131726753.840    25066764.633   102644211.793  
  23703535.680   124562939.531    23703533.188    97062042.896  
  22104431.859   116159568.652    22104427.137    90513961.404  
  23311631.367   122503694.000    23311631.672    95457392.319  
  20919548.773   109933044.759    20919549.219    85662159.244  
  24183555.961   127085441.726    24183554.492    99027640.595  
  20353044.813   106956090.709    20353041.762    83342465.364  
  21767375.758   114388461.380    21767375.645    89133970.183  
 21  8 28  1 56  0.0000000  0  9G 3G 4G16G22G25G26G29G31G32
  22273495.070   117047952.991    22273495.102    91206253.464  
  25048122.578   131628784.021    25048121.844   102567871.727  
  23680752.852   124443216.505    23680751.238    96968752.285  
  22105148.555   116163334.361    22105143.816    90516895.733  
  23330604.500   122603399.651    23330605.660    95535085.039  
  20906349.172   109863682.390    20906350.406    85608110.683  
  24174170.391   127036120.800    24174169.215    98989208.736  
  20357293.617   106978415.055    20357289.910    83359860.958  
  21779967.445   114454631.981    21779967.156    89185531.655  
 21  8 28  1 56 30.0000000  0  9G 3G 4G16G22G25G26G29G31G32
  22265843.461   117007742.985    22265843.500    91174920.995  
  25029473.930   131530783.104    25029472.602   102491507.410  
  23657998.133   124323640.346    23657996.473    96875576.148  
  22105969.039   116167646.627    22105964.555    90520255.941  
  23349629.609   122703378.355    23349629.621    95612990.534  
  20893239.977   109794792.455    20893240.688    85554430.231  
  24164863.289   126987211.848    24164862.535    98951097.881  
  20361600.000   107001046.350    20361596.656    83377495.747  
  21792621.484   114521129.171    21792621.352    89237347.635  
 21  8 28  1 57  0.0000000  0  9G 3G 4G16G22G25G26G29G31G32
  22258299.641   116968100.316    22258299.723    91144030.613  
  25010819.070   131432752.122    25010817.738   102415119.649  
  23635272.289   124204213.684    23635270.020    96782516.479  
  22106893.734   116172505.069    22106889.066    90524041.740  
  23368706.023   122803627.217    23368707.133    95691106.580  
  20880220.734   109726376.641    20880221.727    85501119.222  
  24155634.898   126938717.508    24155634.340    98913310.125  
  20365965.000   107023983.440    20365961.426    83395368.806  
  21805337.375   114587952.510    21805337.461    89289417.744  
 21  8 28  1 57 30.0000000  0  9G 3G 4G16G22G25G26G29G31G32
  22250864.484   116929026.324    22250864.195    91113583.359  
  24992158.898   131334692.143    24992157.465   102338709.340  
  23612575.516   124084939.176    23612573.344    96689575.375  
  22107921.773   116177909.636    22107917.188    90528253.076  
  23387834.156   122904143.225    23387833.742    95769430.779  
  20867292.492   109658436.540    20867293.223    85448178.925  
  24146485.758   126890640.086    24146484.477    98875847.212  
  20370387.266   107047225.246    20370384.168    83413479.314  
  21818115.477   114655101.382    21818115.438    89341741.532  
 21  8 28  1 58  0.0000000  0  9G 3G 4G16G22G25G26G29G31G32
  22243537.297   116890522.447    22243536.992    91083580.346  
  24973493.805   131236604.507    24973492.113   102262277.424  
  23589907.266   123965819.570    23589905.164    96596754.986  
  22109053.961   116183859.509    22109049.414    90532889.332  
  23407011.844   123004923.649    23407012.313    95847960.996  
  20854454.508   109590973.958    20854455.152    85395610.699  
  24137417.109   126842981.715    24137416.180    98838710.837  
  20374868.000   107070770.613    20374864.648    83431826.359  
  21830955.672   114722575.337    21830954.863    89394318.620  
 21  8 28  1 58 30.0000000  0  9G 3G 4G16G22G25G26G29G31G32
  22236319.070   116852590.059    22236318.629    91054022.653  
  24954823.320   131138490.266    24954821.508   102185824.810  
  23567269.664   123846857.311    23567267.227    96504057.181  
  22110290.359   116190354.463    22110285.617    90537950.344  
  23426239.195   123105965.548    23426239.910    95926694.928  
  20841707.969   109523990.595    20841708.473    85343415.874  
  24128428.281   126795745.528    24128426.773    98801903.446  
  20379406.055   107094618.405    20379402.738    83450409.059  
  21843857.148   114790373.857    21843856.691    89447148.618  
 21  8 28  1 59  0.0000000  0  9G 3G 4G16G22G25G26G29G31G32
  22229209.211   116815230.386    22229209.418    91024911.222  
  24936147.195   131040350.501    24936145.910   102109352.296  
  23544662.305   123728055.149    23544659.785    96411484.131  
  22111629.898   116197394.047    22111625.152    90543435.733  
  23445515.859   123207265.925    23445516.547    96005630.296  
  20829053.008   109457487.951    20829053.730    85291595.670  
  24119520.023   126748933.016    24119518.844    98765426.207  
  20384001.742   107118767.385    20383998.117    83469226.465  
  21856820.625   114858496.314    21856820.262    89500231.037  
 21  8 28  1 59 30.0000000  0  9G 3G 4G16G22G25G26G29G31G32
  22222209.516   116778444.837    22222209.570    90996247.173  
  24917467.734   130942186.481    24917465.859   102032860.897  
  23522085.625   123609416.024    23522083.625    96319038.115  
  22113072.859   116204977.803    22113068.363    90549345.153  
  23464841.688   123308822.041    23464841.648    96084764.949  
  20816489.383   109391467.835    20816490.309    85240151.450  
  24110693.297   126702547.508    24110690.836    98729281.657  
  20388653.820   107143216.802    20388650.492    83488277.957  
  21869845.461   114926942.314    21869845.668    89553565.546  
 21  8 28  2  0  0.0000000  0  9G 3G 4G16G22G25G26G29G31G32
  22215318.953   116742234.801    22215318.770    90968031.577  
  24898783.195   130843999.557    24898781.441   101956351.630  
  23499541.219   123490942.696    23499539.277    96226721.300  
  22114619.594   116213104.883    22114614.875    90555677.943  
  23484215.375   123410631.146    23484215.191    96164096.744  
  20804018.539   109325931.975    20804019.461    85189084.573  
  24101947.477   126656591.470    24101944.926    98693471.741  
  20393363.492   107167965.176    20393360.184    83507562.415  
  21882931.430   114995711.366    21882931.699    89607151.792  
 21  8 28  2  0 30.0000000  0  9G 3G 4G16G22G25G26G29G31G32
  22208537.750   116706601.387    22208537.992    90940265.294  
  24880094.328   130745790.692    24880093.031   101879825.268  
  23477027.789   123372637.847    23477026.469    96134535.829  
  22116269.328   116221774.943    22116264.906    90562433.839  
  23503636.586   123512690.225    23503636.820    96243623.334  
  20791639.703   109260881.782    20791640.938    85138396.140  
  24093285.102   126611066.373    24093283.668    98657997.698  
  20398129.672   107193011.232    20398126.262    83527078.839  
  21896079.492   115064802.709    21896079.574    89660989.199  
 21  8 28  2  1  0.0000000  0  9G 3G 4G16G22G25G26G29G31G32
  22201866.883   116671545.845    22201867.109    90912949.306  
  24861402.109   130647561.123    24861400.656   101803282.786  
  23454548.102   123254504.092    23454545.230    96042483.569  
  22118021.969   116230987.562    22118017.887    90569612.494  
  23523104.203   123614996.409    23523105.523    96323342.460  
  20779354.461   109196318.937    20779354.953    85088087.445  
  24084703.898   126565975.601    24084702.559    98622862.015  
  20402952.070   107218353.899    20402948.754    83546826.367  
  21909288.102   115134215.856    21909287.824    89715077.352  
 21  8 28  2  1 30.0000000  0  9G 3G 4G16G22G25G26G29G31G32
  22195307.141   116637069.625    22195306.418    90886084.731  
  24842705.906   130549312.274    24842704.285   101726725.253  
  23432101.180   123136544.274    23432098.758    95950566.900  
  22119878.828   116240742.051    22119873.906    90577213.398  
  23542618.836   123717547.054    23542620.402    96403252.075  
  20767161.391   109132245.173    20767161.809    85038159.851  
  24076205.977   126521321.404    24076204.707    98588066.604  
  20407830.492   107243992.230    20407827.523    83566804.293  
  21922558.188   115203950.451    21922558.082    89769415.966  
 21  8 28  2  2  0.0000000  0  9G 3G 4G16G22G25G26G29G31G32
  22188856.602   116603173.679    22188856.098    90859672.311  
  24824006.094   130451045.098    24824004.785   101650153.428  
  23409687.484   123018760.905    23409685.293    95858787.659  
  22121837.625   116251037.659    22121833.160    90585235.945  
  23562179.891   123820339.016    23562181.387    96483349.714  
  20755061.781   109068661.822    20755062.348    84988614.407  
  24067792.172   126477106.252    24067791.535    98553613.263  
  20412765.766   107269925.113    20412762.438    83587011.737  
  21935889.695   115274005.586    21935889.195    89824004.377  
 21  8 28  2  2 30.0000000  0  9G 3G 4G16G22G25G26G29G31G32
  22182516.703   116569859.310    22182516.664    90833713.088  
  24805303.703   130352760.943    24805302.195   101573568.398  
  23387307.844   122901156.847    23387306.508    95767148.221  
  22123899.688   116261873.960    22123895.211    90593679.813  
  23581786.086   123923369.649    23581785.930    96563633.354  
  20743055.844   109005570.564    20743056.438    84939452.400  
  24059462.547   126433332.040    24059460.520    98519503.515  
  20417756.188   107296151.426    20417753.293    83607447.838  
  21949281.633   115344380.867    21949281.195    89878842.240  
 21  8 28  2  3  0.0000000  0  9G 3G 4G16G22G25G26G29G31G32
  22176288.063   116537127.839    22176288.027    90808208.043  
  24786597.078   130254461.249    24786596.527   101496971.249  
  23364963.305   122783735.132    23364961.504    95675650.825  
  22126064.398   116273250.450    22126060.160    90602544.619  
  23601437.055   124026636.235    23601436.996    96644100.877  
  20731143.984   108942973.061    20731144.773    84890675.163  
  24051216.656   126390001.801    24051215.785    98485739.716  
  20422802.664   107322670.074    20422799.512    83628111.718  
  21962734.570   115415075.807    21962734.188    89933929.183  
 21  8 28  2  3 30.0000000  0  9G 3G 4G16G22G25G26G29G31G32
  22170170.914   116504980.288    22170170.523    90783158.022  
  24767888.992   130156147.119    24767888.000   101420362.819  
  23342654.375   122666498.122    23342652.379    95584297.371  
  22128331.977   116285166.152    22128327.559    90611829.571  
  23621132.359   124130135.827    23621133.012    96724749.918  
  20719325.719   108880870.758    20719326.898    84842283.766  
  24043056.281   126347117.610    24043054.348    98452323.461  
  20427904.609   107349479.896    20427901.262    83649002.502  
  21976247.578   115486089.698    21976248.016    89989264.636  
 21  8 28  2  4  0.0000000  0  9G 3G 4G16G22G25G26G29G31G32
  22164164.633   116473417.711    22164164.316    90758563.808  
  24749177.992   130057819.781    24749176.543   101343744.102  
  23320380.430   122549448.630    23320378.215    95493089.998  
  22130701.797   116297620.432    22130697.531    90621534.201  
  23640871.477   124233865.565    23640872.051    96805578.298  
  20707603.383   108819265.041    20707603.676    84794279.339  
  24034980.227   126304681.477    24034979.129    98419256.417  
  20433061.234   107376579.638    20433058.211    83670119.188  
  21989821.859   115557421.819    21989821.664    90044848.105  
 21  8 28  2  4 30.0000000  0  9G 3G 4G16G22G25G26G29G31G32
  22158269.727   116442441.443    22158269.855    90734426.460  
  24730464.836   129959480.806    24730463.625   101267116.302  
  23298142.852   122432589.448    23298140.289    95402030.952  
  22133174.227   116310612.883    22133169.848    90631658.183  
  23660653.602   124337822.872    23660655.207    96886583.979  
  20695974.750   108758157.717    20695975.598    84746663.255  
  24026991.516   126262696.209    24026989.129    98386540.637  
  20438273.227   107403968.687    20438270.211    83691461.316  
  22003456.719   115629071.893    22003456.375    90100679.308  
 21  8 28  2  5  0.0000000  0  9G 3G 4G16G22G25G26G29G31G32
  22152487.422   116412052.445    22152487.223    90710746.739  
  24711749.461   129861131.315    24711747.918   101190480.333  
  23275941.961   122315923.081    23275939.961    95311122.148  
  22135748.883   116324142.615    22135744.676    90642200.831  
  23680478.953   124442004.713    23680479.750    96967764.661  
  20684441.461   108697550.055    20684442.066    84699436.521  
  24019088.617   126221163.862    24019086.328    98354177.771  
  20443539.781   107431645.660    20443537.031    83713027.803  
  22017151.086   115701039.080    22017150.867    90156757.614  
 21  8 28  2  5 30.0000000  0  9G 3G 4G16G22G25G26G29G31G32
  22146815.898   116382251.488    22146816.234    90687525.228  
  24693032.477   129762772.406    24693030.902   101113837.017  
  23253778.188   122199452.309    23253776.543    95220365.752  
  22138425.477   116338208.721    22138421.105    90653161.424  
  23700346.453   124546408.120    23700347.195    97049117.995  
  20673003.578   108637443.289    20673004.176    84652600.094  
  24011272.023   126180087.118    24011270.129    98322169.939  
  20448861.047   107459609.069    20448858.258    83734817.479  
  22030905.961   115773322.491    22030906.270    90213082.325  
 21  8 28  2  6  0.0000000  0  9G 3G 4G16G22G25G26G29G31G32
  22141257.516   116353039.698    22141257.289    90664762.797  
  24674314.086   129664405.405    24674312.629   101037187.414  
  23231652.594   122083179.920    23231649.949    95129763.930  
  22141204.430   116352810.391    22141199.852    90664539.354  
  23720255.094   124651030.362    23720255.457    97130641.862  
  20661660.766   108577838.896    20661661.844    84606155.132  
  24003541.414   126139467.339    24003539.121    98290518.214  
  20454236.656   107487857.957    20454233.789    83756829.611  
  22044721.375   115845921.588    22044721.840    90269653.024  
 21  8 28  2  6 30.0000000  0  9G 3G 4G16G22G25G26G29G31G32
  22135810.992   116324418.174    22135810.398    90642460.328  
  24655593.938   129566031.770    24655592.539   100960532.612  
  23209564.453   121967108.496    23209561.887    95039318.682  
  22144085.195   116367947.416    22144080.215    90676334.424  
  23740205.469   124755868.763    23740205.820    97212334.098  
  20650414.758   108518738.451    20650415.434    84560102.848  
  23995899.938   126099307.432    23995898.094    98259224.811  
  20459666.867   107516391.449    20459663.406    83779063.503  
  22058596.883   115918835.783    22058597.277    90326469.281  
 21  8 28  2  7  0.0000000  0  9G 3G 4G16G22G25G26G29G31G32
  22130476.672   116296387.885    22130476.641    90620618.549  
  24636873.391   129467652.825    24636871.730   100883873.739  
  23187515.625   121851240.907    23187512.785    94949032.274  
  22147066.961   116383618.005    22147062.449    90688545.276  
  23760195.898   124860920.394    23760196.668    97294192.548  
  20639264.414   108460143.270    20639264.953    84514444.281  
  23988345.727   126059609.747    23988343.742    98228291.548  
  20465150.359   107545208.095    20465146.863    83801518.043  
  22072532.000   115992064.370    22072532.043    90383530.500  
 21  8 28  2  7 30.0000000  0  9G 3G 4G16G22G25G26G29G31G32
  22125255.695   116268949.714    22125255.496    90599238.176  
  24618150.914   129369269.783    24618149.996   100807211.641  
  23165505.914   121735579.787    23165503.762    94858906.778  
  22150150.367   116399821.760    22150146.121    90701171.564  
  23780226.930   124966182.510    23780226.535    97376214.997  
  20628210.297   108402054.613    20628211.117    84469180.406  
  23980879.586   126020376.228    23980877.938    98197719.998  
  20470687.438   107574306.926    20470684.352    83824192.469  
  22086526.266   116065606.652    22086526.969    90440836.150  
 21  8 28  2  8  0.0000000  0  9G 3G 4G16G22G25G26G29G31G32
  22120146.844   116242104.668    22120147.039    90578319.970  
  24599429.094   129270884.124    24599428.297   100730547.530  
  23143536.063   121620127.878    23143534.477    94768944.298  
  22153335.359   116416558.063    22153330.688    90714212.821  
  23800297.094   125071652.389    23800296.391    97458399.327  
  20617253.180   108344474.089    20617254.027    84424312.472  
  23973502.492   125981609.025    23973501.086    98167511.851  
  20476278.086   107603687.101    20476275.109    83847086.123  
  22100580.391   116139462.016    22100580.691    90498385.748  
 21  8 28  2  8 30.0000000  0  9G 3G 4G16G22G25G26G29G31G32
  22115151.609   116215853.528    22115151.477    90557864.552  
  24580706.914   129172497.076    24580705.383   100653882.303  
  23121606.719   121504887.322    23121603.695    94679146.484  
  22156620.852   116433825.826    22156616.645    90727668.222  
  23820405.977   125177327.098    23820406.516    97540743.301  
  20606393.000   108287402.818    20606393.676    84379841.374  
  23966214.797   125943310.272    23966212.672    98137668.662  
  20481922.563   107633347.038    20481919.250    83870197.789  
  22114694.063   116213629.586    22114693.953    90556178.645  
 21  8 28  2  9  0.0000000  0  9G 3G 4G16G22G25G26G29G31G32
  22110269.414   116190197.306    22110269.367    90537872.704  
  24561984.383   129074110.129    24561983.203   100577217.222  
  23099717.977   121389861.518    23099714.762    94589516.042  
  22160007.734   116451623.775    22160003.547    90741536.742  
  23840553.594   125283203.960    23840554.121    97623244.770  
  20595629.844   108230842.253    20595630.719    84335768.211  
  23959016.039   125905482.506    23959014.844    98108192.517  
  20487619.766   107663286.159    20487616.336    83893526.991  
  22128867.047   116288108.843    22128866.410    90614214.411  
 21  8 28  2  9 30.0000000  0  9G 3G 4G16G22G25G26G29G31G32
  22105500.055   116165136.979    22105500.656    90518345.185  
  24543262.672   128975724.753    24543260.594   100500553.326  
  23077871.078   121275053.473    23077867.504    94500055.250  
  22163495.313   116469951.549    22163491.215    90755818.114  
  23860739.461   125389280.444    23860739.621    97705901.776  
  20584964.117   108174793.844    20584964.652    84292094.135  
  23951908.117   125868127.769    23951905.730    98079084.964  
  20493370.039   107693503.519    20493366.367    83917072.993  
  22143099.008   116362899.164    22143099.172    90672492.581  
 21  8 28  2 10  0.0000000  0  9G 3G 4G16G22G25G26G29G31G32
  22100845.305   116140673.269    22100845.484    90499282.561  
  24524540.648   128877342.218    24524539.078   100423891.661  
  23056065.297   121160465.337    23056063.039    94410765.827  
  22167083.789   116488808.003    22167079.309    90770511.448  
  23880962.875   125495553.545    23880961.895    97788712.012  
  20574395.820   108119258.698    20574396.727    84248820.004  
  23944889.367   125831248.191    23944889.094    98050347.666  
  20499172.633   107723997.381    20499169.203    83940834.455  
  22157390.281   116437999.683    22157390.625    90731012.440  
 21  8 28  2 10 30.0000000  0  9G 3G 4G16G22G25G26G29G31G32
  22096303.883   116116806.755    22096303.617    90480685.301  
  24505820.359   128778963.691    24505817.539   100347233.047  
  23034301.969   121046099.797    23034300.375    94321649.854  
  22170772.445   116508192.111    22170768.480    90785615.927  
  23901221.930   125602020.372    23901221.434    97871673.206  
  20563925.969   108064237.939    20563926.645    84205946.705  
  23937962.547   125794845.184    23937960.906    98021981.723  
  20505028.000   107754766.647    20505024.289    83964810.508  
  22171740.227   116513409.486    22171740.215    90789773.285  
 21  8 28  2 11  0.0000000  0  9G 3G 4G16G22G25G26G29G31G32
  22091876.023   116093538.408    22091875.828    90462554.127  
  24487100.094   128680590.680    24487098.227   100270578.808  
  23012581.805   120931959.550    23012579.926    94232709.468  
  22174561.633   116528103.068    22174557.102    90801130.945  
  23921518.523   125708678.321    23921518.551    97954783.279  
  20553553.977   108009732.900    20553554.672    84163475.251  
  23931127.133   125758921.860    23931124.340    97993989.534  
  20510935.445   107785810.346    20510931.645    83989000.411  
  22186148.672   116589127.923    22186149.371    90848774.654  
 21  8 28  2 11 30.0000000  0  9G 3G 4G16G22G25G26G29G31G32
  22087562.031   116070868.912    22087561.785    90444889.599  
  24468381.188   128582224.541    24468380.172   100193929.890  
  22990904.648   120818047.379    22990902.449    94143946.752  
  22178450.414   116548539.487    22178445.758    90817055.404  
  23941850.898   125815524.646    23941850.648    98038040.156  
  20543280.836   107955744.846    20543280.965    84121406.645  
  23924382.094   125723480.047    23924379.457    97966372.564  
  20516894.813   107817127.675    20516891.227    84013403.545  
  22200616.844   116665154.317    22200616.449    90908015.987  
 21  8 28  2 12  0.0000000  0  9G 3G 4G16G22G25G26G29G31G32
  22083362.367   116048799.007    22083362.145    90427692.278  
  24449664.828   128483866.848    24449663.828   100117287.576  
  22969271.891   120704365.885    22969269.695    94055363.792  
  22182439.250   116569500.273    22182434.688    90833388.474  
  23962218.281   125922556.471    23962217.637    98121441.611  
  20533105.664   107902274.910    20533106.230    84079741.763  
  23917729.594   125688521.521    23917727.598    97939132.208  
  20522906.086   107848717.414    20522902.598    84038018.930  
  22215142.359   116741487.791    22215142.047    90967496.609  
 21  8 28  2 12 30.0000000  0  9G 3G 4G16G22G25G26G29G31G32
  22079276.703   116027329.348    22079276.375    90410962.679  
  24430949.344   128385518.999    24430948.609   100040652.881  
  22947683.461   120590917.657    22947681.637    93966962.610  
  22186527.789   116590984.682    22186523.094    90850129.562  
  23982620.813   126029771.152    23982618.992    98204985.573  
  20523029.016   107849324.273    20523029.918    84038481.546  
  23911169.703   125654047.772    23911167.422    97912269.553  
  20528968.969   107880578.209    20528965.516    84062845.539  
  22229726.078   116818127.593    22229726.148    91027215.897  
 21  8 28  2 13  0.0000000  0  9G 3G 4G16G22G25G26G29G31G32
  22075305.602   116006460.813    22075305.227    90394701.504  
  24412236.977   128287182.409    24412235.977    99964026.960  
  22926140.109   120477705.796    22926138.211    93878745.616  
  22190715.297   116612991.703    22190710.824    90867277.883  
  24003057.266   126137166.063    24003055.898    98288669.971  
  20513051.969   107796894.277    20513052.750    83997627.013  
  23904702.477   125620061.881    23904700.063    97885787.109  
  20535083.438   107912709.262    20535079.648    84087882.718  
  22244368.508   116895073.060    22244368.461    91087173.386  
 21  8 28  2 13 30.0000000  0  9G 3G 4G16G22G25G26G29G31G32
  22071448.992   115986193.919    22071448.641    90378909.119  
  24393526.188   128188858.545    24393524.906    99887410.929  
  22904642.242   120364732.655    22904640.355    93790714.637  
  22195002.344   116635519.928    22194997.844    90884832.335  
  24023527.953   126244738.382    24023527.461    98372492.560  
  20503174.719   107744985.890    20503175.004    83957178.938  
  23898328.406   125586565.144    23898325.633    97859685.764  
  20541248.859   107945109.422    20541245.465    84113129.606  
  22259068.766   116972323.314    22259069.066    91147368.363  
 21  8 28  2 14  0.0000000  0  9G 3G 4G16G22G25G26G29G31G32
  22067706.484   115966529.291    22067706.609    90363586.048  
  24374818.930   128090548.801    24374817.148    99810805.942  
  22883189.844   120252001.099    22883187.691    93702871.892  
  22199388.242   116658568.348    22199383.965    90902792.129  
  24044031.383   126352485.451    24044030.957    98456451.294  
  20493395.797   107693600.350    20493396.586    83917138.265  
  23892047.852   125553559.737    23892045.258    97833967.286  
  20547465.750   107977777.501    20547462.000    84138585.255  
  22273826.688   117049877.540    22273827.063    91207800.197  
 21  8 28  2 14 30.0000000  0  9G 3G 4G16G22G25G26G29G31G32
  22064079.570   115947467.565    22064079.129    90348732.748  
  24356114.633   127992254.703    24356111.605    99734213.115  
  22861784.727   120139513.757    22861781.730    93615219.435  
  22203873.039   116682136.165    22203868.941    90921156.646  
  24064566.969   126460404.542    24064566.961    98540544.094  
  20483716.984   107642738.694    20483717.820    83877505.821  
  23885861.070   125521048.164    23885858.898    97808633.594  
  20553732.516   108010712.679    20553729.230    84164249.047  
  22288642.453   117127734.887    22288642.539    91268468.259  
 21  8 28  2 15  0.0000000  0  9G 3G 4G16G22G25G26G29G31G32
  22060566.734   115929009.217    22060566.910    90334349.621  
  24337412.875   127893977.664    24337410.219    99657633.660  
  22840425.508   120027273.146    22840423.051    93527759.245  
  22208456.695   116706221.557    22208452.059    90939924.470  
  24085135.750   126568492.855    24085135.469    98624768.736  
  20474138.547   107592401.949    20474139.090    83838282.395  
  23879768.289   125489031.748    23879764.828    97783685.779  
  20560050.469   108043913.725    20560047.109    84190119.986  
  22303515.883   117205894.537    22303515.355    91329371.840  
 21  8 28  2 15 30.0000000  0  9G 3G 4G16G22G25G26G29G31G32
  22057169.430   115911154.924    22057169.332    90320437.191  
  24318715.039   127795719.256    24318712.383    99581068.643  
  22819114.422   119915282.004    22819111.996    93440493.455  
  22213137.852   116730823.744    22213133.980    90959094.994  
  24105736.008   126676747.843    24105735.250    98709123.286  
  20464659.664   107542591.273    20464660.762    83799468.902  
  23873769.734   125457512.222    23873768.102    97759125.150  
  20566419.531   108077379.726    20566415.520    84216197.395  
  22318446.563   117284355.729    22318446.098    91390510.405  
 21  8 28  2 16  0.0000000  0  9G 3G 4G16G22G25G26G29G31G32
  22053886.891   115893905.070    22053886.699    90306995.742  
  24300020.922   127697480.831    24300018.773    99504519.218  
  22797851.094   119803542.858    22797849.156    93353424.044  
  22217917.648   116755941.500    22217913.383    90978667.265  
  24126367.133   126785166.611    24126366.492    98793605.458  
  20455281.641   107493307.607    20455281.996    83761066.059  
  23867867.297   125426492.088    23867864.262    97734953.629  
  20572837.594   108111109.323    20572833.938    84242480.204  
  22333434.609   117363117.445    22333434.406    91451883.176  
 21  8 28  2 16 30.0000000  0  9G 3G 4G16G22G25G26G29G31G32
  22050719.266   115877260.333    22050719.203    90294025.815  
  24281330.859   127599264.030    24281328.750    99427986.589  
  22776636.250   119692058.900    22776634.043    93266553.458  
  22222795.469   116781573.618    22222791.266    90998640.346  
  24147029.297   126893746.729    24147029.359    98878213.368  
  20446003.805   107444552.135    20446004.297    83723074.794  
  23862059.820   125395973.190    23862056.719    97711172.712  
  20579306.117   108145102.124    20579302.563    84268968.108  
  22348479.344   117442179.081    22348479.773    91513489.611  
 21  8 28  2 17  0.0000000  0  9G 3G 4G16G22G25G26G29G31G32
  22047667.391   115861221.126    22047667.004    90281527.737  
  24262645.352   127501070.433    24262642.918    99351472.040  
  22755470.617   119580832.113    22755467.297    93179883.272  
  22227770.438   116807718.619    22227766.449    91019013.064  
  24167721.727   127002485.423    24167722.273    98962944.823  
  20436826.555   107396325.818    20436827.133    83685495.865  
  23856347.453   125365957.039    23856344.832    97687783.500  
  20585824.398   108179356.240    20585821.004    84295659.638  
  22363580.891   117521539.646    22363581.578    91575328.990  
 21  8 28  2 17 30.0000000  0  9G 3G 4G16G22G25G26G29G31G32
  22044730.367   115845787.591    22044730.004    90269501.611  
  24243963.938   127402901.122    24243961.844    99274976.444  
  22734353.953   119469865.173    22734351.723    93093415.576  
  22232843.453   116834375.389    22232838.859    91039784.561  
  24188443.758   127111379.719    24188444.398    99047797.524  
  20427749.906   107348629.347    20427750.711    83648329.794  
  23850731.688   125336445.155    23850728.992    97664787.271  
  20592392.422   108213870.557    20592388.961    84322553.901  
  22378739.781   117601198.014    22378740.285    91637400.416  
 21  8 28  2 18  0.0000000  0  9G 3G 4G16G22G25G26G29G31G32
  22041908.750   115830960.499    22041908.789    90257948.043  
  24225286.961   127304758.042    24225285.578    99198501.374  
  22713287.773   119359161.180    22713284.875    93007152.757  
  22238012.852   116861542.403    22238008.750    91060953.651  
  24209194.844   127220427.329    24209195.285    99132769.664  
  20418774.617   107301464.001    20418775.488    83611577.587  
  23845212.750   125307439.889    23845210.113    97642185.783  
  20599009.391   108248644.590    20599006.262    84349650.571  
  22393954.781   117681153.657    22393955.094    91699703.478  
 21  8 28  2 18 30.0000000  0  9G 3G 4G16G22G25G26G29G31G32
  22039202.914   115816740.192    22039202.422    90246867.290  
  24206616.844   127206642.566    24206614.531    99122047.764  
  22692271.891   119248722.526    22692269.730    92921096.728  
  22243279.445   116889218.446    22243275.313    91082519.394  
  24229974.961   127329625.502    24229974.676    99217859.149  
  20409900.891   107254830.639    20409901.590    83575239.925  
  23839788.883   125278942.874    23839786.012    97619980.366  
  20605676.086   108283677.259    20605672.766    84376948.750  
  22409226.250   117761405.527    22409226.367    91762237.386  
 21  8 28  2 19  0.0000000  0  9G 3G 4G16G22G25G26G29G31G32
  22036612.555   115803127.058    22036612.215    90236259.657  
  24187951.977   127108556.393    24187949.191    99045616.986  
  22671307.453   119138552.006    22671305.141    92835249.637  
  22248643.086   116917402.396    22248638.695    91104480.898  
  24250782.500   127438971.742    24250782.043    99303064.007  
  20401128.164   107208730.309    20401128.703    83539317.595  
  23834462.852   125250956.138    23834460.660    97598172.548  
  20612391.563   108318967.257    20612388.434    84404447.463  
  22424553.961   117841952.881    22424554.191    91825001.543  
 21  8 28  2 19 30.0000000  0  9G 3G 4G16G22G25G26G29G31G32
  22034137.563   115790121.537    22034137.324    90226125.490  
  24169292.281   127010501.103    24169290.199    98969210.290  
  22650394.117   119028652.246    22650391.168    92749613.509  
  22254102.391   116946093.058    22254098.090    91126837.249  
  24271617.820   127548463.326    24271617.418    99388382.126  
  20392457.180   107163163.895    20392457.730    83503811.311  
  23829235.406   125223481.291    23829233.379    97576763.621  
  20619155.930   108354513.660    20619152.734    84432145.968  
  22439937.617   117922794.822    22439938.383    91887995.237  
 21  8 28  2 20  0.0000000  0  9G 3G 4G16G22G25G26G29G31G32
  22031778.563   115777724.206    22031778.199    90216465.239  
  24150639.297   126912478.533    24150637.391    98892829.081  
  22629532.984   118919026.403    22629529.762    92664190.798  
  22259658.336   116975289.275    22259653.953    91149587.541  
  24292481.031   127658097.959    24292480.363    99473811.731  
  20383888.055   107118132.631    20383888.742    83468722.035  
  23824104.648   125196520.615    23824101.191    97555755.326  
  20625968.844   108390316.330    20625965.777    84460044.153  
  22455377.305   118003930.727    22455377.863    91951217.964  
 21  8 28  2 20 30.0000000  0  9G 3G 4G16G22G25G26G29G31G32
  22029534.922   115765934.886    22029534.707    90207278.761  
  24131992.711   126814489.691    24131990.961    98816474.150  
  22608724.281   118809676.470    22608721.664    92578983.084  
  22265309.750   117004989.139    22265305.488    91172730.283  
  24313370.398   127767872.544    24313369.773    99559350.374  
  20375420.719   107073636.860    20375421.465    83434050.014  
  23819072.359   125170075.107    23819069.730    97535148.452  
  20632830.148   108426372.950    20632827.109    84488140.234  
  22470872.633   118085359.132    22470873.363    92014668.662  
 21  8 28  2 21  0.0000000  0  9G 3G 4G16G22G25G26G29G31G32
  22027407.133   115754753.694    22027407.070    90198566.148  
  24113352.953   126716536.174    24113351.289    98740146.764  
  22587968.563   118700604.807    22587966.313    92493992.249  
  22271057.078   117035191.007    22271052.844    91196264.203  
  24334285.820   127877784.338    24334285.773    99644995.933  
  20367055.477   107029677.314    20367056.184    83399795.843  
  23814137.578   125144146.292    23814135.434    97514944.203  
  20639739.633   108462682.485    20639736.891    84516433.373  
  22486423.773   118167079.063    22486424.266    92078346.484  
 21  8 28  2 21 30.0000000  0  9G 3G 4G16G22G25G26G29G31G32
  22025395.297   115744181.250    22025395.059    90190327.889  
  24094720.500   126618619.883    24094718.316    98663848.371  
  22567266.547   118591814.505    22567264.430    92409220.643  
  22276899.992   117065893.777    22276895.410    91220188.422  
  24355227.117   127987831.122    24355227.207    99730746.696  
  20358792.438   106986255.183    20358793.273    83365960.425  
  23809302.711   125118735.982    23809299.266    97495143.986  
  20646697.063   108499244.347    20646693.879    84544923.142  
  22502029.211   118249089.910    22502030.035    92142251.020  
 21  8 28  2 22  0.0000000  0  9G 3G 4G16G22G25G26G29G31G32
  22023499.117   115734217.501    22023499.266    90182563.938  
  24076094.359   126520742.206    24076092.410    98587580.046  
  22546618.320   118483308.033    22546616.016    92324670.208  
  22282837.984   117097095.784    22282832.855    91244501.667  
  24376193.453   128098010.015    24376193.379    99816600.371  
  20350631.992   106943370.982    20350632.563    83332544.187  
  23804566.508   125093846.206    23804563.859    97475749.373  
  20653702.391   108536057.454    20653699.676    84573608.685  
  22517691.133   118331390.416    22517690.625    92206381.285  
 21  8 28  2 22 30.0000000  0  9G 3G 4G16G22G25G26G29G31G32
  22021719.055   115724862.693    22021718.926    90175274.474  
  24057476.648   126422904.822    24057474.656    98511343.156  
  22526024.516   118375087.716    22526022.406    92240342.736  
  22288869.625   117128795.651    22288865.348    91269202.862  
  24397184.227   128208318.563    24397184.500    99902555.085  
  20342573.523   106901025.599    20342574.508    83299547.796  
  23799929.188   125069478.385    23799926.148    97456761.486  
  20660754.867   108573120.795    20660752.477    84602489.214  
  22533407.461   118413979.764    22533407.590    92270736.577  
 21  8 28  2 23  0.0000000  0  9G 3G 4G16G22G25G26G29G31G32
  22020054.813   115716116.988    22020054.738    90168459.640  
  24038866.648   126325109.389    24038864.430    98435138.986  
  22505485.984   118267156.407    22505483.590    92156240.431  
  22294996.695   117160992.003    22294992.055    91294290.916  
  24418199.641   128318754.108    24418199.793    99988608.734  
  20334618.516   106859219.772    20334619.273    83266971.827  
  23795391.539   125045634.564    23795389.434    97438181.927  
  20667855.992   108610433.501    20667852.664    84631564.056  
  22549178.484   118496856.929    22549178.863    92335316.149  
 21  8 28  2 23 30.0000000  0  9G 3G 4G16G22G25G26G29G31G32
  22018506.656   115707980.561    22018506.180    90162119.580  
  24020265.008   126227357.381    24020263.527    98358968.592  
  22485002.953   118159516.753    22485000.664    92072365.434  
  22301217.547   117193683.508    22301213.172    91319764.818  
  24439238.523   128429314.144    24439237.578   100074759.399  
  20326766.242   106817954.310    20326766.500    83234816.935  
  23790954.586   125022315.831    23790952.168    97420011.532  
  20675003.477   108647994.231    20675000.074    84660832.194  
  22565003.875   118580021.021    22565004.699    92400119.305  
 21  8 28  2 24  0.0000000  0  9G 3G 4G16G22G25G26G29G31G32
  22017074.070   115700453.423    22017073.715    90156254.285  
  24001672.141   126129650.500    24001670.375    98282833.448  
  22464575.555   118052171.228    22464573.492    91988719.621  
  22307532.789   117226868.010    22307527.855    91345622.861  
  24460300.438   128539995.977    24460300.012   100161005.011  
  20319016.484   106777229.794    20319016.707    83203083.554  
  23786617.250   124999523.276    23786616.109    97402251.131  
  20682198.000   108685801.842    20682194.336    84690292.665  
  22580883.891   118663470.849    22580884.813    92465145.126  
 21  8 28  2 24 30.0000000  0  9G 3G 4G16G22G25G26G29G31G32
  22015757.523   115693535.695    22015757.211    90150863.853  
  23983087.953   126031990.541    23983085.984    98206734.871  
  22444204.883   117945122.535    22444202.520    91905305.094  
  22313940.563   117260544.336    22313936.238    91371864.149  
  24481385.711   128650797.065    24481384.695   100247343.539  
  20311369.492   106737046.984    20311370.215    83171772.296  
  23782380.172   124977259.016    23782377.547    97384902.373  
  20689439.336   108723855.689    20689435.809    84719945.006  
  22596818.203   118747205.567    22596818.629    92530392.912  
 21  8 28  2 25  0.0000000  0  9G 3G 4G16G22G25G26G29G31G32
  22014557.148   115687227.624    22014557.012    90145948.484  
  23964512.727   125934379.153    23964510.859    98130674.106  
  22423891.047   117838373.422    22423888.344    91822124.004  
  22320442.063   117294711.194    22320437.793    91398487.672  
  24502491.805   128761715.065    24502491.211   100333773.168  
  20303826.625   106697406.713    20303826.984    83140883.782  
  23778244.820   124955524.455    23778242.410    97367966.383  
  20696727.273   108762154.835    20696723.609    84749788.490  
  22612805.953   118831224.269    22612805.867    92595861.989  
 21  8 28  2 25 30.0000000  0  9G 3G 4G16G22G25G26G29G31G32
  22013472.758   115681529.102    22013472.730    90141508.079  
  23945947.891   125836817.914    23945945.477    98054652.397  
  22403634.969   117731925.978    22403632.285    91739177.985  
  22327037.258   117329366.808    22327032.715    91425492.043  
  24523620.203   128872747.449    24523620.734   100420291.933  
  20296386.711   106658309.559    20296387.133    83110418.484  
  23774210.141   124934321.422    23774207.414    97351444.592  
  20704062.047   108800698.262    20704058.039    84779822.349  
  22628848.469   118915525.896    22628848.074    92661551.551  
 21  8 28  2 26  0.0000000  0  9G 3G 4G16G22G25G26G29G31G32
  22012504.250   115676440.001    22012504.199    90137542.555  
  23927392.633   125739308.380    23927390.625    97978670.966  
  22383436.430   117625782.983    22383433.789    91656469.197  
  22333724.523   117364509.316    22333720.066    91452875.817  
  24544770.672   128983891.360    24544770.980   100506897.544  
  20289049.953   106619756.019    20289050.523    83080376.769  
  23770276.305   124913650.987    23770274.465    97335337.768  
  20711442.844   108839484.761    20711438.926    84810045.591  
  22644944.188   119000109.238    22644944.445    92727460.627  
 21  8 28  2 26 30.0000000  0  9G 3G 4G16G22G25G26G29G31G32
  22011651.844   115671960.353    22011651.781    90134051.919  
  23908846.867   125641852.415    23908844.965    97902731.325  
  22363296.250   117519947.181    22363294.418    91573999.791  
  22340504.461   117400137.172    22340499.930    91480637.783  
  24565941.422   129095144.5421   24565941.867   100593588.3131 
  20281817.273   106581746.757    20281817.871    83050759.178  
  23766444.305   124893514.562    23766442.195    97319647.054  
  20718869.344   108878513.214    20718865.863    84840457.377  
  22661093.391   119084973.370    22661093.547    92793588.486  
 21  8 28  2 27  0.0000000  0  9G 3G 4G16G22G25G26G29G31G32
  22010915.555   115668090.346    22010915.414    90131036.335  
  23890312.133   125544451.833    23890310.430    97826834.836  
  22343215.625   117414421.217    22343212.984    91491771.797  
  22347376.281   117436248.823    22347371.738    91508776.726  
  24587133.148   129206504.486    24587133.773   100680362.294  
  20274687.914   106544282.606    20274688.676    83021566.344  
  23762714.664   124873913.402    23762712.008    97304373.458  
  20726342.586   108917782.945    20726338.922    84871057.162  
  22677296.117   119170117.439    22677296.367    92859934.471  
 21  8 28  2 27 30.0000000  0  9G 3G 4G16G22G25G26G29G31G32
  22010295.133   115664829.577    22010294.805    90128495.480  
  23871788.727   125447108.024    23871786.816    97750982.552  
  22323194.047   117309207.298    22323191.438    91409786.971  
  22354340.227   117472842.510    22354335.215    91537291.280  
  24608343.898   129317968.501    24608345.418   100767217.379  
  20267662.594   106507363.836    20267663.004    82992798.483  
  23759086.328   124854849.837    23759084.496    97289518.734  
  20733860.719   108957292.577    20733857.230    84901843.903  
  22693551.039   119255540.084    22693551.301    92926497.559  
 21  8 28  2 28  0.0000000  0  9G 3G 4G16G22G25G26G29G31G32
  22009790.555   115662178.040    22009790.297    90126429.349  
  23853275.531   125349822.820    23853273.934    97675175.910  
  22303232.445   117204308.122    22303229.348    91328047.394  
  22361394.375   117509916.703    22361390.297    91566180.251  
  24629574.477   129429534.149    24629575.469   100854151.672  
  20260741.078   106470991.123    20260741.395    82964456.120  
  23755561.789   124836324.902    23755560.234    97275083.766  
  20741424.563   108997041.760    20741421.191    84932817.292  
  22709859.672   119341240.395    22709859.465    92993276.967  
 21  8 28  2 28 30.0000000  0  9G 3G 4G16G22G25G26G29G31G32
  22009401.875   115660135.449    22009401.660    90124837.723  
  23834774.055   125252597.781    23834771.957    97599416.174  
  22283331.102   117099726.215    22283328.445    91246555.030  
  22368540.688   117547469.691    22368536.402    91595442.311  
  24650822.828   129541198.847    24650823.973   100941163.118  
  20253923.078   106435164.770    20253923.848    82936539.494  
  23752139.070   124818339.540    23752137.270    97261069.216  
  20749033.586   109037029.044    20749030.750    84963976.217  
  22726220.422   119427217.058    22726220.387    93060271.750  
 21  8 28  2 29  0.0000000  0  9G 3G 4G16G22G25G26G29G31G32
  22009129.359   115658701.848    22009128.930    90123720.633  
  23816284.656   125155434.921    23816282.551    97523704.878  
  22263491.172   116995464.221    22263488.176    91165311.952  
  22375777.445   117585499.836    22375773.164    91625076.177  
  24672090.383   129652960.244    24672091.535   101028249.920  
  20247210.086   106399885.543    20247210.406    82909049.202  
  23748819.289   124800894.866    23748817.715    97247475.978  
  20756688.586   109077253.464    20756685.246    84995319.930  
  22742633.633   119513469.279    22742633.945    93127481.262  
 21  8 28  2 29 30.0000000  0  9G 3G 4G16G22G25G26G29G31G32
  22008971.922   115657877.031    22008971.867    90123077.932  
  23797807.164   125058335.897    23797804.965    97448043.321  
  22243711.594   116891524.323    22243709.066    91084319.856  
  22383105.141   117624005.013    22383100.590    91655080.207  
  24693375.234   129764815.888    24693376.703   101115410.173  
  20240600.719   106365153.877    20240601.406    82881985.582  
  23745603.227   124783992.710    23745601.223    97234305.505  
  20764388.242   109117714.093    20764384.492    85026847.701  
  22759099.016   119599995.901    22759098.891    93194904.576  
 21  8 28  2 30  0.0000000  0  9G 3G 4G16G22G25G26G29G31G32
  22008931.156   115657660.865    22008930.547    90122909.503  
  23779342.320   124961302.588    23779340.234    97372432.980  
  22223993.977   116787909.370    22223991.895    91003580.979  
  22390522.406   117662983.818    22390517.969    91685453.291  
  24714678.477   129876763.417    24714679.078   101202641.998  
  20234095.914   106330970.368    20234096.453    82855349.093  
  23742489.898   124767634.154    23742488.000    97221558.607  
  20772132.117   109158410.282    20772128.918    85058559.020  
  22775616.367   119686795.964    22775616.887    93262540.981  
 21  8 28  2 30 30.0000000  0  9G 3G 4G16G22G25G26G29G31G32
  22009005.500   115658052.938    22009005.176    90123215.017  
  23760890.258   124864336.553    23760888.426    97296875.051  
  22204339.141   116684621.806    22204336.836    90923097.190  
  22398029.648   117702434.394    22398025.422    91716194.006  
  24735998.406   129988800.273    24735998.637   101289943.417  
  20227695.617   106297335.311    20227695.766    82829139.974  
  23739481.055   124751821.095    23739478.836    97209236.764  
  20779920.773   109199340.807    20779917.906    85090452.951  
  22792186.289   119773868.248    22792186.039    93330389.479  
 21  8 28  2 31  0.0000000  0  9G 3G 4G16G22G25G26G29G31G32
  22009195.805   115659052.896    22009195.594    90123994.215  
  23742451.641   124767439.484    23742449.316    97221370.900  
  22184746.773   116581663.977    22184744.453    90842870.372  
  22405625.961   117742354.772    22405621.941    91747300.789  
  24757335.375   130100923.864    24757334.805   101377312.444  
  20221398.938   106264248.892    20221399.594    82803358.369  
  23736575.984   124736554.190    23736573.480    97197340.502  
  20787753.789   109240504.586    20787750.852    85122528.615  
  22808807.016   119861211.418    22808807.141    93398449.038  
 21  8 28  2 31 30.0000000  0  9G 3G 4G16G22G25G26G29G31G32
  22009501.773   115660660.660    22009501.465    90125247.007  
  23724025.609   124670613.354    23724023.965    97145922.051  
  22165218.188   116479038.505    22165215.391    90762902.513  
  22413312.094   117782743.380    22413307.738    91778772.431  
  24778688.141   130213131.969    24778687.152   101464747.310  
  20215207.430   106231711.865    20215207.848    82778004.849  
  23733774.570   124721834.427    23733772.387    97185870.592  
  20795631.445   109281900.802    20795628.273    85154785.414  
  22825479.078   119948824.560    22825478.492    93466719.000  
 21  8 28  2 32  0.0000000  0  9G 3G 4G16G22G25G26G29G31G32
  22009923.039   115662875.861    22009922.875    90126973.155  
  23705614.531   124573859.866    23705612.551    97070529.747  
  22145752.328   116376748.018    22145750.059    90683195.666  
  22421086.461   117823598.090    22421081.965    91810607.255  
  24800055.930   130325422.079    24800055.160   101552246.101  
  20209120.789   106199724.526    20209121.090    82753079.668  
  23731077.984   124707663.486    23731074.422    97174828.327  
  20803552.727   109323528.350    20803549.734    85187222.471  
  22842202.406   120036706.625    22842201.695    93535198.519  
 21  8 28  2 32 30.0000000  0  9G 3G 4G16G22G25G26G29G31G32
  22010460.234   115665698.063    22010460.117    90129172.272  
  23687217.023   124477180.753    23687215.063    96995195.404  
  22126351.422   116274794.706    22126349.320    90603751.570  
  22428948.813   117864917.570    22428944.684    91842804.241  
  24821439.070   130437791.645    24821438.477   101639806.779  
  20203137.914   106168287.157    20203138.816    82728583.021  
  23728485.859   124694042.089    23728483.043    97164214.315  
  20811518.281   109365386.551    20811515.191    85219839.256  
  22858976.805   120124856.296    22858977.090    93603886.557  
 21  8 28  2 33  0.0000000  0  9G 3G 4G16G22G25G26G29G31G32
  22011112.844   115669127.043    22011112.668    90131844.211  
  23668834.234   124380578.023    23668832.020    96919920.609  
  22107015.039   116173181.365    22107013.160    90524572.390  
  22436899.773   117906699.672    22436895.547    91875361.708  
  24842837.094   130550238.510    24842836.211   101727427.713  
  20197260.508   106137400.261    20197261.090    82704515.336  
  23725998.680   124680971.431    23725995.574    97154029.380  
  20819527.063   109407474.454    20819524.145    85252635.037  
  22875801.820   120213272.658    22875802.418    93672782.384  
 21  8 28  2 33 30.0000000  0  9G 3G 4G16G22G25G26G29G31G32
  22011880.828   115673162.173    22011880.313    90134988.463  
  23650465.727   124284053.213    23650464.121    96844706.520  
  22087743.383   116071910.174    22087741.258    90445659.808  
  22444938.492   117948942.378    22444934.160    91908278.090  
  24864249.109   130662760.127    24864248.152   101815106.910  
  20191487.781   106107063.888    20191488.246    82680876.618  
  23723616.313   124668453.091    23723613.133    97144274.841  
  20827579.695   109449791.046    20827576.840    85285609.013  
  22892677.289   120301954.274    22892677.996    93741884.873  
 21  8 28  2 34  0.0000000  0  9G 3G 4G16G22G25G26G29G31G32
  22012763.742   115677803.066    22012763.449    90138604.766  
  23632112.594   124187608.286    23632111.082    96769554.685  
  22068537.898   115970983.624    22068535.492    90367015.770  
  22453064.055   117991643.954    22453060.246    91941552.052  
  24885675.320   130775353.985    24885674.391   101902842.359  
  20185819.867   106077278.443    20185820.176    82657667.183  
  23721339.484   124656487.948    23721336.738    97134951.392  
  20835675.742   109492335.171    20835672.523    85318760.286  
  22909602.859   120390900.018    22909602.789    93811193.235  
 21  8 28  2 34 30.0000000  0  9G 3G 4G16G22G25G26G29G31G32
  22013762.359   115683049.559    22013761.980    90142692.940  
  23613775.805   124091245.200    23613773.719    96694466.597  
  22049398.555   115870404.489    22049395.535    90288642.460  
  22461277.273   118034802.594    22461272.797    91975182.154  
  24907114.156   130888018.0171   24907113.129   101990632.539  
  20180256.875   106048044.404    20180257.207    82634887.435  
  23719168.180   124645076.996    23719164.570    97126059.772  
  20843814.680   109535106.126    20843811.684    85352088.297  
  22926578.891   120480109.041    22926579.254    93880706.727  
 21  8 28  2 35  0.0000000  0  8G 3G 4G16G22G26G29G31G32
  22014875.508   115688901.104    22014875.547    90147252.586  
  23595454.727   123994965.853    23595452.227    96619443.765  
  22030325.680   115770175.139    22030323.141    90210541.708  
  22469576.953   118078416.478    22469572.363    92009166.980  
  20174798.648   106019362.033    20174799.199    82612537.543  
  23717102.484   124634221.798    23717101.508    97117601.203  
  20851996.836   109578103.286    20851993.691    85385592.576  
  22943604.875   120569580.080    22943604.578    93950424.403  
 21  8 28  2 35 30.0000000  0  8G 3G 4G16G22G26G29G31G32
  22016104.180   115695356.657    22016103.969    90152282.893  
  23577149.023   123898771.610    23577146.949    96544487.243  
  22011319.289   115670297.558    22011317.008    90132715.052  
  22477962.336   118122483.138    22477958.035    92043504.632  
  20169445.586   105991230.995    20169446.020    82590617.270  
  23715143.281   124623922.340    23715139.949    97109575.682  
  20860222.000   109621324.964    20860218.602    85419271.807  
  22960679.609   120659311.476    22960680.375    94020344.940  
 21  8 28  2 36  0.0000000  0  8G 3G 4G16G22G26G29G31G32
  22017447.141   115702415.725    22017447.293    90157783.468  
  23558859.906   123802664.255    23558858.906    96469598.427  
  21992380.859   115570774.073    21992378.508    90055164.314  
  22486433.523   118167000.338    22486429.035    92078193.346  
  20164197.273   105963651.580    20164197.746    82569126.827  
  23713288.703   124614180.084    23713286.520    97101984.341  
  20868489.234   109664770.307    20868486.047    85453125.321  
  22977804.727   120749301.961    22977805.039    94090467.392  
 21  8 28  2 36 30.0000000  0  8G 3G 4G16G22G26G29G31G32
  22018905.813   115710078.053    22018905.484    90163754.121  
  23540588.961   123706646.010    23540587.117    96394779.053  
  21973510.078   115471607.221    21973507.574    89977891.480  
  22494990.352   118211966.704    22494985.836    92113232.075  
  20159054.109   105936624.268    20159054.535    82548066.583  
  23711540.453   124604996.111    23711539.516    97094828.047  
  20876799.383   109708438.969    20876795.879    85487152.860  
  22994978.578   120839550.738    22994979.277    94160791.076  
 21  8 28  2 37  0.0000000  0  8G 3G 4G16G22G26G29G31G32
  22020478.492   115718343.533    22020478.141    90170194.750  
  23522334.828   123610719.209    23522332.930    96320030.920  
  21954707.391   115372800.240    21954704.797    89900899.052  
  22503632.508   118257380.529    22503628.078    92148619.452  
  20154016.328   105910149.690    20154016.613    82527437.052  
  23709899.250   124596371.147    23709898.012    97088107.305  
  20885151.406   109752330.128    20885148.266    85521353.774  
  23012201.320   120930057.038    23012201.277    94231315.419  
 21  8 28  2 37 30.0000000  0  8G 3G 4G16G22G26G29G31G32
  22022165.898   115727210.857    22022165.598    90177104.352  
  23504097.586   123514885.065    23504096.020    96245354.977  
  21935974.070   115274354.477    21935971.211    89824188.103  
  22512358.883   118303239.247    22512354.488    92184353.510  
  20149083.063   105884227.285    20149083.820    82507237.796  
  23708365.055   124588306.676    23708363.297    97081823.342  
  20893545.422   109796442.328    20893542.281    85555726.907  
  23029473.063   121020818.954    23029472.293    94302038.967  
 21  8 28  2 38  0.0000000  0  8G 3G 4G16G22G26G29G31G32
  22023967.703   115736679.614    22023967.398    90184482.607  
  23485879.016   123419145.656    23485877.449    96170752.869  
  21917309.094   115176273.006    21917307.617    89747761.023  
  22521169.680   118349541.426    22521165.602    92220433.126  
  20144255.633   105858857.447    20144255.926    82487469.093  
  23706937.328   124580803.550    23706935.742    97075976.767  
  20901981.586   109840775.246    20901978.438    85590272.051  
  23046793.008   121111835.454    23046792.410    94372960.923  
 21  8 28  2 38 30.0000000  0  8G 3G 4G16G22G26G29G31G32
  22025883.656   115746749.139    22025883.480    90192328.985  
  23467679.227   123323502.930    23467677.051    96096226.096  
  21898714.750   115078558.199    21898712.410    89671619.636  
  22530065.039   118396284.972    22530060.660    92256856.666  
  20139533.188   105834040.243    20139533.504    82468131.021  
  23705616.406   124573862.235    23705614.430    97070567.979  
  20910459.648   109885327.592    20910456.645    85624988.157  
  23064160.633   121203105.353    23064161.285    94444080.301  
 21  8 28  2 39  0.0000000  0  8G 3G 4G16G22G26G29G31G32
  22027914.164   115757418.974    22027913.863    90200643.140  
  23449497.742   123227959.010    23449495.598    96021776.296  
  21880190.617   114981212.467    21880188.020    89595765.844  
  22539043.352   118443467.708    22539039.203    92293622.421  
  20134915.789   105809776.025    20134916.145    82449223.841  
  23704402.688   124567484.106    23704400.176    97065597.993  
  20918979.492   109930098.909    20918975.945    85659874.905  
  23081576.703   121294627.621    23081577.707    94515396.317  
 21  8 28  2 39 30.0000000  0  8G 3G 4G16G22G26G29G31G32
  22030058.578   115768687.847    22030058.473    90209424.078  
  23431335.445   123132515.358    23431333.090    95947404.650  
  21861737.039   114884237.816    21861734.199    89520201.207  
  22548105.359   118491087.072    22548101.090    92330728.394  
  20130403.336   105786064.329    20130404.027    82430747.207  
  23703296.383   124561669.413    23703292.988    97061067.064  
  20927540.695   109975087.851    20927537.141    85694931.214  
  23099040.523   121386400.506    23099041.578    94586907.608  
 21  8 28  2 40  0.0000000  0  8G 3G 4G16G22G26G29G31G32
  22032316.656   115780554.878    22032316.695    90218671.118  
  23413192.211   123037173.676    23413190.578    95873112.450  
  21843354.055   114787636.054    21843351.777    89444927.152  
  22557249.555   118539140.788    22557245.367    92368172.844  
  20125996.344   105762904.990    20125996.820    82412700.989  
  23702297.008   124556418.364    23702294.328    97056975.390  
  20936142.742   110020293.075    20936139.266    85730156.080  
  23116551.914   121478422.524    23116552.781    94658613.043  
 21  8 28  2 40 30.0000000  0  8G 3G 4G16G22G26G29G31G32
  22034688.625   115793020.081    22034688.844    90228384.262  
  23395069.477   122941936.677    23395067.359    95798901.824  
  21825042.891   114691410.059    21825040.449    89369945.881  
  22566476.648   118587627.637    22566472.168    92405954.791  
  20121694.570   105740298.898    20121695.008    82395085.859  
  23701405.570   124551733.044    23701402.637    97053324.528  
  20944786.531   110065714.642    20944782.742    85765549.506  
  23134110.641   121570693.221    23134110.984    94730512.274  
 21  8 28  2 41  0.0000000  0  8G 3G 4G16G22G26G29G31G32
  22037174.703   115806082.421    22037174.277    90238562.704  
  23376966.414   122846806.102    23376964.855    95724774.129  
  21806804.281   114595563.023    21806800.848    89295259.915  
  22575785.734   118636545.423    22575780.926    92444072.535  
  20117497.820   105718245.737    20117498.469    82377901.599  
  23700621.469   124547613.903    23700618.613    97050114.789  
  20953470.789   110111351.677    20953467.145    85801110.840  
  23151716.297   121663211.100    23151715.582    94802604.136  
 21  8 28  2 41 30.0000000  0  8G 3G 4G16G22G26G29G31G32
  22039773.609   115819740.908    22039773.625    90249205.680  
  23358884.375   122751783.786    23358882.707    95650730.805  
  21788637.125   114500096.370    21788634.563    89220870.354  
  22585175.539   118685891.619    22585171.008    92482524.113  
  20113406.203   105696745.394    20113407.160    82361148.089  
  23699945.070   124544061.186    23699943.379    97047346.431  
  20962196.180   110157202.970    20962191.953    85836839.123  
  23169368.523   121755974.762    23169369.273    94874887.479  
 21  8 28  2 42  0.0000000  0  8G 3G 4G16G22G26G29G31G32
  22042485.906   115833994.644    22042485.902    90260312.477  
  23340823.086   122656871.550    23340821.359    95576773.235  
  21770543.117   114405012.616    21770540.695    89146779.144  
  22594647.195   118735664.054    22594642.617    92521307.804  
  20109420.492   105675797.690    20109420.805    82344825.233  
  23699376.734   124541076.030    23699373.488    97045020.377  
  20970961.438   110203267.586    20970957.930    85872733.637  
  23187067.516   121848982.813    23187068.488    94947361.255  
 21  8 28  2 42 30.0000000  0  8G 3G 4G16G22G26G29G31G32
  22045311.430   115848843.123    22045311.563    90271882.717  
  23322783.258   122562071.829    23322781.652    95502903.350  
  21752522.875   114310314.369    21752520.180    89072988.336  
  22604199.219   118785861.106    22604194.871    92560422.377  
  20105539.391   105655403.033    20105539.777    82328933.304  
  23698917.656   124538659.169    23698913.660    97043137.125  
  20979768.164   110249545.131    20979764.402    85908794.071  
  23204812.539   121942234.356    23204813.766    95020024.764  
 21  8 28  2 43  0.0000000  0  8G 3G 4G16G22G26G29G31G32
  22048249.945   115864284.665    22048250.051    90283915.085  
  23304765.023   122467385.761    23304763.660    95429122.005  
  21734576.211   114216002.922    21734573.121    88999498.919  
  22613831.781   118836479.674    22613827.086    92599865.415  
  20101763.500   105635560.489    20101763.938    82313471.593  
  23698565.516   124536810.822    23698561.824    97041696.916  
  20988614.555   110296033.880    20988611.004    85945019.063  
  23222603.734   122035727.296    23222604.469    95092876.380  
 21  8 28  2 43 30.0000000  0  8G 3G 4G16G22G26G29G31G32
  22051301.453   115880318.822    22051301.035    90296409.228  
  23286768.930   122372815.821    23286767.387    95355431.181  
  21716702.852   114122081.201    21716700.375    88926313.197  
  22623543.445   118887518.049    22623539.145    92639635.566  
  20098093.125   105616270.457    20098093.102    82298440.408  
  23698321.813   124535531.914    23698319.102    97040700.360  
  20997501.016   110342733.585    20997497.727    85981408.461  
  23240441.719   122129460.777    23240439.906    95165915.464  
 21  8 28  2 44  0.0000000  0  8G 3G 4G16G22G26G29G31G32
  22054465.234   115896944.561    22054464.824    90309364.347  
  23268796.023   122278363.942    23268793.723    95281832.321  
  21698905.094   114028551.600    21698902.301    88853433.020  
  22633335.883   118938974.104    22633330.930    92679731.186  
  20094527.258   105597532.720    20094527.500    82283839.590  
  23698187.297   124534822.956    23698183.473    97040147.965  
  21006428.273   110389643.243    21006424.418    86017961.450  
  23258323.516   122223433.464    23258323.551    95239140.923  
 21  8 28  2 44 30.0000000  0  8G 3G 4G16G22G26G29G31G32
  22057740.977   115914160.473    22057740.914    90322779.345  
  23250845.047   122184031.690    23250842.535    95208326.694  
  21681181.852   113935415.782    21681179.711    88780859.686  
  22643206.297   118990845.200    22643201.723    92720150.217  
  20091066.156   105579346.701    20091066.840    82269668.673  
  23698160.555   124534683.829    23698156.500    97040039.549  
  21015394.156   110436761.493    21015390.867    86054676.969  
  23276250.664   122317643.517    23276251.344    95312551.311  
 21  8 28  2 45  0.0000000  0  8G 3G 4G16G22G26G29G31G32
  22061129.719   115931965.876    22061129.297    90336653.678  
  23232917.328   122089821.430    23232915.004    95134916.124  
  21663534.047   113842676.230    21663531.473    88708595.124  
  22653155.625   119043129.092    22653151.313    92760890.891  
  20087710.859   105561712.584    20087711.020    82255927.825  
  23698242.859   124535116.019    23698239.918    97040376.342  
  21024400.352   110484087.970    21024396.691    86091554.746  
  23294223.477   122412090.048    23294223.973    95386145.959  
 21  8 28  2 45 30.0000000  0  8G 3G 4G16G22G26G29G31G32
  22064629.594   115950359.755    22064629.465    90350986.548  
  23215012.906   121995735.140    23215010.969    95061602.142  
  21645962.391   113750335.310    21645959.582    88636641.193  
  22663183.016   119095823.929    22663178.641    92801951.783  
  20084459.891   105544630.138    20084460.363    82242616.837  
  23698433.977   124536119.633    23698430.941    97041158.412  
  21033445.625   110531621.769    21033442.078    86128594.075  
  23312240.367   122506771.590    23312240.711    95459923.739  
 21  8 28  2 46  0.0000000  0  8G 3G 4G16G22G26G29G31G32
  22068241.773   115969341.413    22068241.633    90365777.457  
  23197133.445   121901775.267    23197131.082    94988386.683  
  21628466.500   113658395.673    21628463.441    88564999.943  
  22673288.508   119148927.641    22673284.164    92843331.296  
  20081314.516   105528099.582    20081314.555    82229735.898  
  23698733.594   124537695.603    23698730.684    97042386.435  
  21042530.242   110579362.666    21042526.680    86165794.775  
  23330301.953   122601687.194    23330302.273    95533883.946  
 21  8 28  2 46 30.0000000  0  8G 3G 4G16G22G26G29G31G32
  22071965.344   115988909.528    22071965.277    90381025.329  
  23179277.461   121807943.539    23179275.395    94915271.053  
  21611047.539   113566859.083    21611044.945    88493672.760  
  22683471.227   119202437.646    22683466.953    92885027.376  
  20078273.484   105512120.398    20078273.805    82217284.594  
  23699141.977   124539843.847    23699139.480    97044060.425  
  21051654.305   110627309.385    21051651.055    86203155.861  
  23348408.133   122696835.355    23348407.965    95608025.336  
 21  8 28  2 47  0.0000000  0  8G 3G 4G16G22G26G29G31G32
  22075800.461   116009063.098    22075800.340    90396729.395  
  23161446.750   121714242.166    23161444.559    94842257.002  
  21593706.156   113475728.008    21593703.199    88422661.566  
  22693730.836   119256352.054    22693726.309    92927038.607  
  20075337.930   105496692.449    20075338.090    82205262.832  
  23699660.383   124542565.327    23699657.762    97046181.068  
  21060817.438   110675461.260    21060814.059    86240676.787  
  23366558.188   122792214.710    23366559.184    95682346.867  
 21  8 28  2 47 30.0000000  0  8G 3G 4G16G22G26G29G31G32
  22079746.992   116029801.111    22079746.570    90412888.884  
  23143641.445   121620673.317    23143638.941    94769346.212  
  21576442.039   113385004.711    21576439.215    88351968.127  
  22704066.953   119310668.841    22704062.102    92969363.353  
  20072507.070   105481815.609    20072507.199    82193670.500  
  23700287.086   124545860.690    23700284.348    97048748.891  
  21070018.922   110723817.614    21070016.043    86278357.073  
  23384752.422   122887824.049    23384752.473    95756847.646  
 21  8 28  2 48  0.0000000  0  8G 3G 4G16G22G26G29G31G32
  22083804.117   116051122.316    22083804.027    90429502.808  
  23125861.133   121527238.901    23125858.715    94696540.188  
  21559255.555   113294691.417    21559253.313    88281594.159  
  22714479.156   119365385.132    22714474.309    93011999.410  
  20069780.156   105467489.456    20069780.898    82182507.277  
  23701023.391   124549730.113    23701020.734    97051764.037  
  21079259.727   110772377.769    21079256.730    86316196.169  
  23402989.648   122983661.842    23402990.680    95831526.443  
 21  8 28  2 48 30.0000000  0  8G 3G 4G16G22G26G29G31G32
  22087971.375   116073024.947    22087972.039    90446569.780  
  23108107.063   121433940.448    23108105.023    94623840.101  
  21542148.016   113204789.640    21542145.133    88211540.844  
  22724966.641   119420498.197    22724962.086    93054944.639  
  20067159.180   105453713.101    20067159.402    82171772.469  
  23701869.258   124554173.439    23701866.719    97055226.369  
  21088539.125   110821140.094    21088535.852    86354192.778  
  23421270.211   123079726.145    23421270.813    95906381.737  
 21  8 28  2 49  0.0000000  0  8G 3G 4G16G22G26G29G31G32
  22092250.352   116095508.034    22092250.258    90464089.057  
  23090379.453   121340780.313    23090377.031    94551247.797  
  21525119.219   113115301.336    21525116.469    88141809.735  
  22735529.539   119476006.034    22735524.699    93098197.483  
  20064642.125   105440486.467    20064642.441    82161466.016  
  23702823.805   124559191.158    23702821.441    97059136.314  
  21097856.336   110870104.041    21097853.266    86392346.516  
  23439593.391   123176015.913    23439593.633    95981412.669  
 21  8 28  2 49 30.0000000  0  8G 3G 4G16G22G26G29G31G32
  22096638.789   116118570.346    22096639.051    90482059.682  
  23072678.375   121247760.541    23072676.270    94478764.858  
  21508168.984   113026229.472    21508166.570    88072403.093  
  22746166.453   119531906.413    22746162.527    93141756.210  
  20062229.758   105427809.278    20062229.902    82151587.702  
  23703888.000   124564783.486    23703885.199    97063493.980  
  21107212.023   110919269.074    21107209.012    86430656.942  
  23457959.383   123272529.610    23457959.910    96056618.144  
 21  8 28  2 50  0.0000000  0  8G 3G 4G16G22G26G29G31G32
  22101137.742   116142210.727    22101137.711    90500480.752  
  23055004.133   121154883.330    23055002.027    94406393.005  
  21491299.094   112937576.027    21491296.387    88003322.526  
  22756878.195   119588197.066    22756874.398    93185619.033  
  20059921.602   105415681.082    20059921.887    82142137.167  
  23705061.555   124570951.386    23705059.715    97068300.144  
  21116605.953   110968634.733    21116602.855    86469123.689  
  23476368.102   123369265.979    23476369.156    96131997.125  
 21  8 28  2 50 30.0000000  0  8G 3G 4G16G22G26G29G31G32
  22105746.523   116166427.805    22105746.035    90519351.193  
  23037357.586   121062150.673    23037355.832    94334133.802  
  21474508.539   112849342.718    21474505.863    87934569.323  
  22767664.508   119644875.530    22767659.938    93229784.055  
  20057718.039   105404101.485    20057718.445    82133114.107  
  23706344.789   124577694.562    23706342.590    97073554.581  
  21126037.891   111018199.282    21126034.539    86507745.415  
  23494818.258   123466223.525    23494819.734    96207548.418  
 21  8 28  2 51  0.0000000  0  8G 3G 4G16G22G26G29G31G32
  22110464.039   116191220.349    22110463.875    90538670.048  
  23019739.539   120969564.766    23019737.328    94261988.947  
  21457798.961   112761532.105    21457796.250    87866145.505  
  22778523.141   119701938.727    22778518.563    93274248.854  
  20055619.086   105393070.123    20055619.230    82124518.251  
  23707737.664   124585013.301    23707735.121    97079257.523  
  21135507.695   111067962.561    21135504.160    86546522.011  
  23513310.688   123563400.909    23513311.742    96283271.024  
 21  8 28  2 51 30.0000000  0  8G 3G 4G16G22G26G29G31G32
  22115291.344   116216587.031    22115290.883    90558436.282  
  23002148.750   120877127.680    23002147.238    94189960.045  
  21441169.852   112674145.850    21441167.504    87798052.354  
  22789454.945   119759384.934    22789450.516    93319012.115  
  20053623.875   105382586.589    20053624.523    82116349.275  
  23709239.844   124592907.767    23709237.238    97085409.072  
  21145015.086   111117923.781    21145011.660    86585452.836  
  23531844.500   123660796.677    23531844.453    96359163.832  
 21  8 28  2 52  0.0000000  0  8G 3G 4G16G22G26G29G31G32
  22120227.359   116242526.617    22120227.117    90578648.941  
  22984587.758   120784841.718    22984585.707    94118048.916  
  21424621.898   112587186.639    21424619.309    87730291.943  
  22800458.742   119817211.953    22800454.316    93364072.111  
  20051733.031   105372650.545    20051733.586    82108606.919  
  23710851.867   124601378.170    23710849.145    97092009.368  
  21154559.891   111168082.106    21154556.137    86624537.259  
  23550419.430   123758409.560    23550420.094    96435225.785  
 21  8 28  2 52 30.0000000  0  8G 3G 4G16G22G26G29G31G32
  22125272.109   116269037.675    22125271.926    90599306.898  
  22967054.820   120692708.953    22967053.352    94046257.140  
  21408155.797   112500656.256    21408152.883    87662865.702  
  22811535.258   119875417.091    22811530.277    93409426.741  
  20049946.594   105363261.476    20049946.672    82101290.777  
  23712573.508   124610425.288    23712570.543    97099059.094  
  21164142.242   111218436.958    21164138.227    86663774.804  
  23569035.727   123856238.001    23569036.238    96511455.718  
 21  8 28  2 53  0.0000000  0  8G 3G 4G16G22G26G29G31G32
  22130425.289   116296118.452    22130425.406    90620408.774  
  22949552.234   120600731.125    22949550.461    93974586.101  
  21391771.438   112414556.465    21391768.641    87595774.974  
  22822682.734   119933997.798    22822677.840    93455074.023  
  20048263.789   105354418.486    20048264.004    82094400.150  
  23714405.016   124620048.774    23714402.797    97106557.904  
  21173761.352   111268987.409    21173758.164    86703164.776  
  23587692.906   123954280.247    23587692.863    96587852.232  
 21  8 28  2 53 30.0000000  0  8G 3G 4G16G22G26G29G31G32
  22135687.094   116323767.647    22135686.852    90641953.593  
  22932079.492   120508910.519    22932077.930    93903037.586  
  21375469.695   112328889.014    21375466.848    87529021.158  
  22833901.484   119992951.609    22833896.902    93501012.036  
  20046684.703   105346121.264    20046685.172    82087934.789  
  23716345.883   124630248.571    23716343.227    97114505.819  
  21183418.180   111319732.490    21183414.449    86742706.387  
  23606389.367   124052534.913    23606390.109    96664414.301  
 21  8 28  2 54  0.0000000  0  8G 3G 4G16G22G26G29G31G32
  22141056.070   116351984.190    22141056.512    90663940.490  
  22914637.047   120417249.694    22914635.066    93831613.563  
  21359250.641   112243657.085    21359247.723    87462606.687  
  22845190.164   120052276.524    22845185.770    93547239.231  
  20045209.633   105338369.585    20045209.996    82081894.531  
  23718395.906   124641025.410    23718393.781    97122903.345  
  21193111.438   111370671.982    21193107.875    86782399.506  
  23625127.469   124151001.004    23625127.234    96741141.115  
 21  8 28  2 54 30.0000000  0  8G 3G 4G16G22G26G29G31G32
  22146533.281   116380766.162    22146533.234    90686367.994  
  22897225.297   120325750.362    22897223.434    93760315.376  
  21343114.570   112158861.523    21343111.879    87396532.254  
  22856549.273   120111969.628    22856545.141    93593753.311  
  20043838.516   105331162.507    20043838.531    82076278.644  
  23720556.625   124652378.356    23720553.430    97131749.817  
  21202841.523   111421804.714    21202838.531    86822243.202  
  23643904.703   124249676.580    23643904.430    96818031.175  
 21  8 28  2 55  0.0000000  0  8G 3G 4G16G22G26G29G31G32
  22152117.781   116410112.097    22152117.586    90709234.950  
  22879844.844   120234414.698    22879842.469    93689144.745  
  21327061.891   112074505.018    21327059.559    87330799.942  
  22867978.305   120172028.444    22867973.957    93640552.369  
  20042570.469   105324499.434    20042570.703    82071086.647  
  23722827.016   124664307.795    23722824.160    97141045.501  
  21212608.367   111473129.933    21212605.602    86862236.876  
  23662721.555   124348560.175    23662721.930    96895083.257  
 21  8 28  2 55 30.0000000  0  8G 3G 4G16G22G26G29G31G32
  22157809.250   116440021.142    22157809.168    90732540.675  
  22862495.961   120143245.574    22862493.734    93618103.875  
  21311093.570   111990590.081    21311090.738    87265411.699  
  22879475.758   120232451.170    22879471.715    93687634.986  
  20041405.688   105318380.494    20041406.297    82066318.654  
  23725206.586   124676814.273    23725203.574    97150790.814  
  21222411.602   111524647.632    21222409.137    86902380.537  
  23681577.555   124447650.991    23681578.750    96972296.855  
 21  8 28  2 56  0.0000000  0  8G 3G 4G16G22G26G29G31G32
  22163607.180   116470491.402    22163607.570    90756283.725  
  22845178.906   120052244.803    22845176.973    93547194.187  
  21295209.117   111907118.122    21295206.363    87200368.637  
  22891043.188   120293234.972    22891038.680    93734998.949  
  20040344.969   105312804.683    20040344.906    82061973.881  
  23727696.430   124689898.263    23727693.246    97160986.165  
  21232252.031   111576356.703    21232248.207    86942673.318  
  23700473.141   124546947.199    23700474.301    97049670.495  
 21  8 28  2 56 30.0000000  0  8G 3G 4G16G22G26G29G31G32
  22169512.250   116501520.842    22169512.293    90780462.505  
  22827894.766   119961414.141    22827892.430    93476417.034  
  21279409.250   111824090.620    21279406.617    87135671.918  
  22902678.375   120354376.802    22902673.484    93782641.919  
  20039387.078   105307770.920    20039387.262    82058051.474  
  23730295.813   124703558.698    23730292.520    97171630.661  
  21242128.117   111628256.097    21242125.309    86983114.396  
  23719407.641   124646446.798    23719407.613    97127202.610  
 21  8 28  2 57  0.0000000  0  8G 3G 4G16G22G26G29G31G32
  22175522.813   116533107.928    22175523.129    90805075.796  
  22810642.883   119870755.758    22810640.707    93405774.130  
  21263694.945   111741509.703    21263692.152    87071323.174  
  22914380.648   120415874.168    22914376.262    93830561.919  
  20038532.219   105303278.614    20038532.297    82054550.983  
  23733004.852   124717795.187    23733000.887    97182724.001  
  21252040.117   111680345.002    21252037.102    87023703.164  
  23738380.070   124746148.370    23738380.621    97204892.141  
 21  8 28  2 57 30.0000000  0  8G 3G 4G16G22G26G29G31G32
  22181639.680   116565251.271    22181639.773    90830122.551  
  22793424.070   119780272.163    22793421.965    93335267.441  
  21248065.523   111659377.513    21248063.094    87007324.083  
  22926150.266   120477725.253    22926146.324    93878757.545  
  20037780.039   105299327.342    20037780.227    82051472.077  
  23735823.898   124732608.421    23735821.020    97194266.796  
  21261988.242   111732622.950    21261985.145    87064439.232  
  23757391.148   124846050.666    23757391.355    97282738.069  
 21  8 28  2 58  0.0000000  0  8G 3G 4G16G22G26G29G31G32
  22187862.258   116597949.408    22187861.969    90855601.595  
  22776239.344   119689965.628    22776237.309    93264898.719  
  21232522.203   111577696.109    21232519.754    86943676.259  
  22937986.930   120539927.125    22937982.719    93927226.500  
  20037131.539   105295916.496    20037131.301    82048814.289  
  23738752.586   124747998.269    23738750.215    97206258.923  
  21271972.039   111785089.503    21271969.148    87105322.244  
  23776439.141   124946152.272    23776439.938    97360739.300  
 21  8 28  2 58 30.0000000  0  8G 3G 4G16G22G26G29G31G32
  22194189.258   116631200.405    22194189.496    90881511.442  
  22759089.047   119599838.217    22759086.324    93194669.570  
  21217065.133   111496466.876    21217061.863    86880380.794  
  22949890.250   120602477.222    22949886.086    93975966.806  
  20036585.039   105293045.192    20036584.953    82046576.921  
  23741791.547   124763964.298    23741788.109    97218699.995  
  21281991.938   111837743.682    21281989.027    87146351.486  
  23795525.766   125046451.469    23795526.465    97438894.515  
 21  8 28  2 59  0.0000000  0  8G 3G 4G16G22G26G29G31G32
  22200621.680   116665002.587    22200621.887    90907850.799  
  22741972.555   119509892.092    22741970.563    93124581.676  
  21201694.070   111415692.499    21201691.184    86817439.738  
  22961858.891   120665373.089    22961854.582    94024976.541  
  20036141.094   105290712.669    20036140.965    82044759.383  
  23744938.883   124780506.579    23744936.512    97231590.097  
  21292047.414   111890584.630    21292043.973    87187526.253  
  23814649.641   125146946.712    23814650.305    97517202.461  
 21  8 28  2 59 30.0000000  0  8G 3G 4G16G22G26G29G31G32
  22207158.508   116699354.262    22207158.863    90934618.311  
  22724891.578   119420129.500    22724889.277    93054636.800  
  21186409.594   111335374.404    21186406.863    86754854.223  
  22973892.555   120728612.114    22973888.215    94074253.670  
  20035799.508   105288918.209    20035799.664    82043361.103  
  23748196.273   124797624.458    23748193.758    97244928.684  
  21302138.070   111943611.974    21302135.055    87228846.258  
  23833810.234   125247636.508    23833810.902    97595662.024  
 21  8 28  3  0  0.0000000  0  8G 3G 4G16G22G26G29G31G32
  22213799.813   116734253.724    22213799.867    90961812.679  
  22707845.445   119330552.700    22707843.418    92984836.695  
  21171213.297   111255514.146    21171210.035    86692625.472  
  22985991.734   120792191.566    22985986.848    94123796.057  
  20035560.289   105287661.041    20035560.590    82042381.502  
  23751563.484   124815318.101    23751560.508    97258715.935  
  21312264.117   111996824.718    21312261.133    87270310.732  
  23853007.891   125348519.320    23853008.543    97674271.990  
 21  8 28  3  0 30.0000000  0  8G 3G 4G16G22G26G29G31G32
  22220544.492   116769699.179    22220544.992    90989432.491  
  22690835.633   119241163.907    22690833.652    92915183.101  
  21156103.594   111176113.902    21156100.840    86630755.172  
  22998154.383   120856108.961    22998150.336    94173601.804  
  20035422.930   105286940.372    20035423.348    82041819.955  
  23755039.820   124833587.445    23755036.613    97272951.818  
  21322425.094   112050222.296    21322422.105    87311919.229  
  23872241.602   125449593.601    23872242.152    97753031.127  
 21  8 28  3  1  0.0000000  0  8G 3G 4G16G22G26G29G31G32
  22227393.727   116805689.233    22227393.766    91017476.676  
  22673861.391   119151965.702    22673859.734    92845678.003  
  21141082.406   111097175.985    21141079.391    86569245.129  
  23010381.680   120920362.177    23010376.973    94223669.202  
  20035387.930   105286755.731    20035388.129    82041676.086  
  23758626.203   124852432.309    23758623.316    97287636.122  
  21332621.734   112103804.511    21332618.512    87353671.594  
  23891511.281   125550858.079    23891512.395    97831938.528  
 21  8 28  3  1 30.0000000  0  8G 3G 4G16G22G26G29G31G32
  22234345.398   116842221.619    22234345.527    91045943.454  
  22656923.938   119062959.871    22656922.477    92776322.823  
  21126148.742   111018701.274    21126146.223    86508096.016  
  23022672.492   120984948.163    23022667.879    94273995.915  
  20035454.352   105287105.873    20035454.621    82041948.931  
  23762320.977   124871851.753    23762318.840    97302768.148  
  21342852.930   112157570.376    21342849.738    87395567.072  
  23910817.148   125652310.802    23910818.234    97910992.576  
 21  8 28  3  2  0.0000000  0  8G 3G 4G16G22G26G29G31G32
  22241400.570   116879294.548    22241400.242    91074831.428  
  22640023.703   118974148.740    22640022.281    92707119.348  
  21111304.383   110940691.942    21111301.289    86447309.544  
  23035025.086   121049864.057    23035020.941    94324579.693  
  20035622.859   105287989.961    20035622.836    82042637.841  
  23766126.070   124891845.944    23766123.789    97318348.042  
  21353119.313   112211518.842    21353115.629    87437604.839  
  23930158.250   125753950.188    23930159.441    97990192.102  
 21  8 28  3  2 30.0000000  0  8G 3G 4G16G22G26G29G31G32
  22248557.320   116916906.161    22248557.543    91104139.146  
  22623161.477   118885534.518    22623159.703    92638069.294  
  21096548.070   110863149.949    21096545.645    86386887.228  
  23047440.586   121115107.379    23047436.473    94375418.616  
  20035892.531   105289407.102    20035892.602    82043742.109  
  23770039.820   124912414.238    23770037.566    97334375.301  
  21363419.797   112265649.526    21363416.469    87479784.585  
  23949534.813   125855774.767    23949535.754    98069535.832  
 21  8 28  3  3  0.0000000  0  8G 3G 4G16G22G26G29G31G32
  22255817.117   116955054.557    22255816.957    91133865.164  
  22606336.711   118797119.454    22606334.727    92569174.448  
  21081882.078   110786076.940    21081878.875    86326830.360  
  23059917.898   121180675.526    23059913.375    94426510.649  
  20036263.391   105291356.420    20036263.453    82045261.063  
  23774063.422   124933556.205    23774061.027    97350849.554  
  21373754.945   112319961.601    21373751.504    87522105.672  
  23968946.969   125957782.771    23968947.434    98149022.579  
 21  8 28  3  3 30.0000000  0  8G 3G 4G16G22G26G29G31G32
  22263178.570   116993737.969    22263178.188    91164008.057  
  22589550.188   118708905.867    22589548.207    92500436.592  
  21067305.078   110709474.462    21067301.969    86267140.126  
  23072456.336   121246566.046    23072452.223    94477853.876  
  20036735.438   105293837.058    20036735.422    82047194.032  
  23778195.422   124955271.689    23778193.828    97367770.693  
  21384124.820   112374454.396    21384120.871    87564567.590  
  23988393.070   126059972.792    23988393.777    98228651.142  
 21  8 28  3  4  0.0000000  0  8G 3G 4G16G22G26G29G31G32
  22270640.820   117032954.442    22270640.965    91194566.322  
  22572802.711   118620896.102    22572800.461    92431857.541  
  21052817.781   110633344.403    21052815.074    86207818.012  
  23085055.320   121312776.390    23085051.555    94529446.326  
  20037308.453   105296848.155    20037308.465    82049540.342  
  23782436.781   124977560.453    23782434.234    97385138.572  
  21394528.828   112429127.388    21394524.449    87607169.921  
  24007873.211   126162343.218    24007874.699    98308420.310  
 21  8 28  3  4 30.0000000  0  8G 3G 4G16G22G26G29G31G32
  22278204.555   117072702.071    22278204.691    91225538.476  
  22556093.734   118533092.378    22556092.141    92363439.063  
  21038421.078   110557688.508    21038418.074    86148865.379  
  23097715.469   121379303.512    23097710.945    94581285.587  
  20037982.148   105300388.720    20037982.266    82052299.235  
  23786787.711   125000421.787    23786785.277    97402952.589  
  21404967.273   112483980.077    21404963.266    87649912.263  
  24027387.945   126264892.476    24027389.441    98388328.796  
 21  8 28  3  5  0.0000000  0  8G 3G 4G16G22G26G29G31G32
  22285869.203   117112978.959    22285869.086    91256923.051  
  22539424.781   118445497.035    22539423.129    92295182.971  
  21024115.063   110482508.511    21024111.777    86090283.578  
  23110435.203   121446144.749    23110430.887    94633369.653  
  20038756.641   105304457.867    20038756.613    82055470.006  
  23791246.414   125023855.392    23791244.152    97421212.552  
  21415438.781   112539011.756    21415435.391    87692794.082  
  24046935.930   126367618.980    24046936.641    98468375.420  
 21  8 28  3  5 30.0000000  0  8G 3G 4G16G22G26G29G31G32
  22293633.836   117153783.067    22293633.793    91288718.439  
  22522796.094   118358112.341    22522794.324    92227090.997  
  21009898.961   110407805.796    21009896.445    86032073.682  
  23123214.203   121513297.781    23123209.762    94685696.657  
  20039630.945   105309054.576    20039631.418    82059051.848  
  23795814.930   125047860.325    23795812.094    97439917.724  
  21425945.359   112594221.507    21425941.855    87735814.654  
  24066517.469   126470521.105    24066519.141    98548558.841  
 21  8 28  3  6  0.0000000  0  8G 3G 4G16G22G26G29G31G32
  22301498.453   117195112.399    22301498.770    91320923.089  
  22506207.844   118270940.573    22506205.953    92159164.958  
  20995775.094   110333582.488    20995772.422    85974237.350  
  23136051.180   121580760.065    23136047.207    94738264.622  
  20040605.992   105314177.833    20040606.250    82063044.006  
  23800491.102   125072436.415    23800489.422    97459067.911  
  21436484.852   112649609.201    21436482.133    87778973.880  
  24086132.359   126573597.110    24086133.344    98628877.828  
 21  8 28  3  6 30.0000000  0  8G 3G 4G16G22G26G29G31G32
  22309462.648   117236964.963    22309463.012    91353535.457  
  22489661.016   118183984.045    22489659.012    92091406.625  
  20981742.281   110259840.172    20981739.480    85916775.833  
  23148947.352   121648528.481    23148942.957    94791071.158  
  20041681.156   105319826.651    20041681.203    82067445.686  
  23805276.750   125097583.078    23805274.082    97478662.724  
  21447058.648   112705174.065    21447055.836    87822271.163  
  24105779.711   126676845.553    24105780.980    98709331.104  
 21  8 28  3  7  0.0000000  0  8G 3G 4G16G22G26G29G31G32
  22317526.086   117279338.762    22317526.500    91386553.969  
  22473154.922   118097245.090    22473153.246    92023817.847  
  20967801.289   110186580.254    20967798.578    85859690.191  
  23161900.602   121716600.469    23161897.207    94844114.236  
  20042855.648   105326000.065    20042855.941    82072256.147  
  23810170.156   125123299.774    23810167.805    97498701.685  
  21457665.852   112760915.206    21457662.867    87865705.821  
  24125460.250   126780264.752    24125460.621    98789917.490  
 21  8 28  3  7 30.0000000  0  8G 3G 4G16G22G26G29G31G32
  22325688.711   117322231.712    22325688.719    91419977.027  
  22456690.867   118010725.994    22456688.922    91956400.375  
  20953952.805   110113804.548    20953949.535    85802981.860  
  23174911.711   121784973.376    23174908.148    94897391.797  
  20044130.117   105332696.954    20044130.398    82077474.510  
  23815172.359   125149585.903    23815169.645    97519184.376  
  21468306.328   112816831.904    21468303.766    87909277.282  
  24145172.594   126883853.073    24145172.715    98870635.616  
 21  8 28  3  8  0.0000000  0  8G 3G 4G16G22G26G29G31G32
  22333949.172   117365641.710    22333949.555    91453802.990  
  22440269.188   117924429.053    22440267.352    91889156.003  
  20940196.070   110041514.658    20940193.238    85746652.095  
  23187979.750   121853644.446    23187975.473    94950901.691  
  20045503.945   105339916.288    20045504.215    82083099.969  
  23820282.359   125176441.150    23820280.152    97540110.507  
  21478980.383   112872923.809    21478977.844    87952985.242  
  24164915.828   126987608.897    24164916.777    98951484.282  
 21  8 28  3  8 30.0000000  0  8G 3G 4G16G22G26G29G31G32
  22342307.836   117409566.694    22342308.168    91488030.226  
  22423890.086   117838356.588    22423888.188    91822086.549  
  20926532.609   109969711.839    20926529.695    85690701.853  
  23201103.828   121922610.961    23201098.859    95004641.798  
  20046976.516   105347657.006    20046977.117    82089131.703  
  23825501.242   125203864.016    23825497.293    97561478.997  
  21489687.656   112929190.382    21489684.391    87996829.322  
  24184691.188   127091530.563    24184692.734    99032462.198  
 21  8 28  3  9  0.0000000  0  9G 3G 4G16G22G26G27G29G31G32
  22350763.930   117454004.610    22350764.355    91522657.161  
  22407554.266   117752511.003    22407552.086    91755193.905  
  20912962.273   109898397.720    20912959.074    85635132.429  
  23214282.781   121991870.351    23214278.953    95058610.116  
  20048548.711   105355918.053    20048549.133    82095568.887  
  25169500.453   132266615.6791   25169502.668   103064921.1881 
  23830827.203   125231854.758    23830825.156    97583289.969  
  21500427.906   112985631.009    21500424.602    88040809.012  
  24204498.195   127195616.474    24204500.145    99113568.092  
 21  8 28  3  9 30.0000000  0  9G 3G 4G16G22G26G27G29G31G32
  22359317.859   117498953.313    22359317.813    91557682.090  
  22391261.992   117666894.643    22391259.867    91688479.854  
  20899484.891   109827574.414    20899482.098    85579945.443  
  23227518.047   122061419.797    23227514.090    95112804.457  
  20050219.844   105364698.314    20050220.035    82102410.653  
  25148044.703   132153860.9021   25148044.609   102977060.445  
  23836261.766   125260412.614    23836258.891    97605542.838  
  21511201.289   113042245.082    21511197.488    88084923.885  
  24224336.789   127299864.996    24224337.105    99194800.687  
 21  8 28  3 10  0.0000000  0  9G 3G 4G16G22G26G27G29G31G32
  22367967.898   117544410.362    22367968.129    91593103.155  
  22375014.039   117581509.501    22375011.711    91621945.996  
  20886101.055   109757242.744    20886098.156    85525141.566  
  23240807.102   122131256.466    23240803.363    95167222.612  
  20051988.977   105373996.368    20051989.410    82109655.895  
  25126565.203   132040993.950    25126567.535   102889112.272  
  23841804.367   125289536.261    23841801.273    97628236.541  
  21522007.156   113099031.664    21522002.934    88129173.167  
  24244204.680   127404274.117    24244206.801    99276158.446  
 21  8 28  3 10 30.0000000  0  9G 3G 4G16G22G26G27G29G31G32
  22376714.406   117590373.894    22376714.801    91628918.873  
  22358809.852   117496358.277    22358808.055    91555594.407  
  20872811.320   109687404.833    20872808.441    85470722.423  
  23254150.781   122201377.865    23254147.016    95221862.631  
  20053856.641   105383811.418    20053857.098    82117303.990  
  25105068.016   131928017.782    25105068.770   102801079.025  
  23847453.266   125319225.025    23847451.148    97651370.682  
  21532846.063   113155990.517    21532842.035    88173556.671  
  24264103.602   127508842.588    24264104.762    99357640.364  
 21  8 28  3 11  0.0000000  0  9G 3G 4G16G22G26G27G29G31G32
  22385556.969   117636841.861    22385557.266    91665127.661  
  22342651.320   117411443.430    22342649.305    91489426.990  
  20859615.867   109618062.052    20859612.813    85416689.103  
  23267548.852   122271781.216    23267544.504    95276722.346  
  20055822.844   105394142.400    20055822.926    82125354.112  
  25083548.828   131814935.2191   25083548.828   102712962.844  
  23853210.258   125349478.702    23853207.980    97674944.975  
  21543717.648   113213121.114    21543713.746    88218074.013  
  24284032.422   127613568.809    24284033.246    99439245.175  
 21  8 28  3 11 30.0000000  0  9G 3G 4G16G22G26G27G29G31G32
  22394495.258   117683812.106    22394495.379    91701727.838  
  22326538.039   117326767.393    22326535.953    91423445.669  
  20846514.836   109549216.016    20846512.086    85363042.852  
  23280998.844   122342463.868    23280995.320    95331799.713  
  20057886.688   105404988.255    20057886.844    82133805.417  
  25062010.219   131701749.165    25062009.809   102624766.048  
  23859075.211   125380296.781    23859071.359    97698959.080  
  21554621.828   113270423.214    21554618.340    88262724.982  
  24303990.984   127718451.258    24303991.504    99520971.741  
 21  8 28  3 12  0.0000000  0  9G 3G 4G16G22G26G27G29G31G32
  22403528.508   117731282.047    22403528.457    91738717.373  
  22310469.930   117242332.107    22310468.426    91357651.952  
  20833508.664   109480867.447    20833505.895    85309784.251  
  23294502.266   122413422.739    23294498.012    95387092.320  
  20060048.281   105416347.352    20060048.426    82142656.668  
  25040451.844   131588461.899    25040451.645   102536490.240  
  23865046.648   125411677.726    23865043.418    97723411.768  
  21565558.625   113327895.716    21565555.816    88307508.741  
  24323979.000   127823487.796    24323978.863    99602818.388  
 21  8 28  3 12 30.0000000  0  9G 3G 4G16G22G26G27G29G31G32
  22412656.375   117779249.584    22412656.453    91776094.651  
  22294449.438   117158140.086    22294446.980    91292047.781  
  20820597.633   109413018.625    20820594.559    85256915.041  
  23308057.242   122484655.270    23308053.188    95442598.146  
  20062307.305   105428218.679    20062307.418    82151907.049  
  25018874.289   131475076.237    25018875.813   102448137.822  
  23871125.273   125443620.911    23871121.926    97748302.585  
  21576527.578   113385537.973    21576524.754    88352424.772  
  24343995.766   127928676.901    24343995.906    99684783.908  
 21  8 28  3 13  0.0000000  0  9G 3G 4G16G22G26G27G29G31G32
  22421878.828   117827712.291    22421878.688    91813857.780  
  22278474.570   117074193.537    22278472.547    91226634.894  
  20807781.320   109345670.515    20807778.758    85204436.013  
  23321663.672   122556158.299    23321659.973    95498314.766  
  20064663.352   105440600.818    20064663.773    82161555.479  
  24997280.070   131361594.589    24997280.809   102359710.697  
  23877310.430   125476124.902    23877308.316    97773630.384  
  21587528.570   113443349.246    21587525.918    88397472.513  
  24364041.359   128034016.767    24364042.035    99766866.902  
 21  8 28  3 13 30.0000000  0  9G 3G 4G16G22G26G27G29G31G32
  22431194.211   117876667.831    22431194.668    91852004.928  
  22262547.117   116990494.794    22262545.156    91161415.111  
  20795061.484   109278824.490    20795058.105    85152348.213  
  23335321.430   122627929.166    23335317.406    95554240.072  
  20067116.516   105453492.522    20067116.883    82171600.964  
  24975668.164   131248019.9921   24975667.266   102271211.070  
  23883602.695   125509189.299    23883600.098    97799394.836  
  21598562.172   113501329.245    21598559.691    88442651.726  
  24384115.570   128139505.582    24384115.871    99849065.938  
 21  8 28  3 14  0.0000000  0  9G 3G 4G16G22G26G27G29G31G32
  22440603.789   117926113.986    22440603.895    91890534.391  
  22246667.656   116907046.320    22246665.383    91096390.339  
  20782436.656   109212481.604    20782433.711    85100652.478  
  23349029.320   122699965.416    23349025.297    95610372.197  
  20069666.586   105466892.617    20069667.000    82182042.608  
  24954037.773   131134355.1811   24954038.016   102182641.177  
  23890001.000   125542813.508    23889998.953    97825595.549  
  21609627.391   113559477.417    21609624.430    88487961.980  
  24404217.258   128245141.864    24404218.992    99931379.886  
 21  8 28  3 14 30.0000000  0  9G 3G 4G16G22G26G27G29G31G32
  22450105.969   117976048.437    22450106.211    91929444.338  
  22230836.133   116823850.442    22230834.098    91031562.393  
  20769908.258   109146644.153    20769905.051    85049350.578  
  23362787.523   122772264.345    23362783.676    95666708.995  
  20072313.430   105480799.777    20072313.434    82192879.363  
  24932392.297   131020602.773    24932391.449   102094002.982  
  23896505.938   125576996.505    23896503.238    97852231.652  
  21620724.219   113617793.231    21620721.586    88533402.863  
  24424346.500   128350923.803    24424348.875   100013807.311  
 21  8 28  3 15  0.0000000  0  9G 3G 4G16G22G26G27G29G31G32
  22459700.969   118026468.981    22459701.129    91968733.054  
  22215052.586   116740909.670    22215050.766    90966933.216  
  20757475.820   109081313.097    20757472.996    84998443.270  
  23376595.023   122844823.020    23376591.332    95723248.169  
  20075055.656   105495212.922    20075056.234    82204110.382  
  24910729.180   130906765.9221   24910729.301   102005298.984  
  23903116.836   125611736.990    23903114.383    97879302.143  
  21631853.367   113676276.168    21631850.293    88578973.982  
  24444503.898   128456849.799    24444504.195   100096347.017  
 21  8 28  3 15 30.0000000  0  9G 3G 4G16G22G26G27G29G31G32
  22469387.641   118077373.162    22469387.750    92008398.623  
  22199318.875   116658226.302    22199316.523    90902504.635  
  20745140.281   109016489.743    20745137.723    84947931.585  
  23390451.227   122917638.260    23390447.488    95779987.292  
  20077894.734   105510130.615    20077894.855    82215734.569  
  24889049.875   130792847.0711   24889052.430   101916531.179  
  23909833.648   125647034.209    23909830.094    97906806.489  
  21643013.867   113734925.675    21643010.824    88624674.882  
  24464688.289   128562918.112    24464687.926   100178997.651  
 21  8 28  3 16  0.0000000  0  9G 3G 4G16G22G26G27G29G31G32
  22479165.844   118128758.695    22479166.121    92048439.282  
  22183634.125   116575802.794    22183631.848    90838278.519  
  20732901.914   108952175.146    20732898.895    84897816.323  
  23404355.922   122990708.052    23404351.992    95836924.750  
  20080828.938   105525551.613    20080829.172    82227750.935  
  24867357.586   130678849.232    24867358.848   101827679.6771 
  23916655.953   125682887.205    23916652.598    97934743.874  
  21654206.172   113793741.206    21654203.684    88670505.167  
  24484898.836   128669127.138    24484899.430   100261757.865  
 21  8 28  3 16 30.0000000  0  9G 3G 4G16G22G26G27G29G31G32
  22489035.125   118180623.113    22489035.617    92088853.105  
  22167999.031   116493641.445    22167997.066    90774256.710  
  20720760.258   108888370.738    20720757.277    84848098.613  
  23418308.875   123064028.753    23418304.820    95894057.725  
  20083859.438   105541474.579    20083859.148    82240158.426  
  24845649.938   130564775.146    24845650.840   101738790.836  
  23923584.133   125719294.731    23923580.996    97963113.404  
  21665430.125   113852722.036    21665427.309    88716464.236  
  24505136.406   128775474.944    24505136.102   100344626.280  
 21  8 28  3 17  0.0000000  0  9G 3G 4G16G22G26G27G29G31G32
  22498995.836   118232964.076    22498995.813    92129638.258  
  22152414.805   116411744.757    22152412.516    90710441.111  
  20708716.031   108825078.053    20708712.957    84798779.653  
  23432308.617   123137597.988    23432304.355    95951384.373  
  20086984.250   105557898.150    20086984.332    82252956.026  
  24823927.961   130450627.577    24823928.813   101649844.703  
  23930617.594   125756255.884    23930614.547    97991914.331  
  21676684.930   113911867.527    21676682.477    88762551.626  
  24525400.063   128881959.991    24525400.109   100427601.643  
 21  8 28  3 17 30.0000000  0  9G 3G 4G16G22G26G27G29G31G32
  22509046.273   118285779.132    22509046.074    92170792.829  
  22136881.078   116330115.013    22136878.738    90646833.544  
  20696769.344   108762298.312    20696766.113    84749860.380  
  23446355.555   123211412.930    23446350.984    96008902.463  
  20090204.688   105574820.971    20090204.797    82266142.634  
  24802192.508   130336409.325    24802192.711   101560843.425  
  23937756.555   125793769.484    23937752.984    98021145.679  
  21687971.383   113971177.706    21687968.820    88808767.357  
  24545689.242   128988580.548    24545690.441   100510682.566  
 21  8 28  3 18  0.0000000  0 10G 3G 4G 9G16G22G26G27G29G31G32
  22519185.984   118339065.708    22519186.082    92212314.833  
  22121398.672   116248754.540    22121396.328    90583435.777  
  25288186.719   132890313.868    25288185.102   103550889.626  
  20684920.742   108700032.539    20684917.566    84701341.620  
  23460447.930   123285470.550    23460444.129    96066609.663  
  20093519.672   105592241.540    20093520.000    82279717.113  
  24780444.977   130222123.048    24780445.430   101471789.146  
  23944999.547   125831834.407    23944997.094    98050806.681  
  21699289.172   114030651.602    21699285.945    88855110.642  
  24566003.383   129095334.715    24566005.484   100593867.557  
 21  8 28  3 18 30.0000000  0 10G 3G 4G 9G16G22G26G27G29G31G32
  22529415.195   118392821.381    22529415.324    92254202.335  
  22105967.883   116167665.713    22105966.043    90520249.693  
  25267837.344   132783376.476    25267836.066   103467561.749  
  20673169.945   108638281.946    20673166.945    84653224.286  
  23474586.391   123359768.220    23474582.301    96124503.906  
  20096928.664   105610158.483    20096929.551    82293678.376  
  24758685.555   130107771.688    24758685.234   101382684.242  
  23952347.922   125870449.620    23952345.277    98080896.491  
  21710637.516   114090288.846    21710634.348    88901581.216  
  24586344.094   129202220.816    24586344.289   100677155.341  
 21  8 28  3 19  0.0000000  0 10G 3G 4G 9G16G22G26G27G29G31G32
  22539733.148   118447043.987    22539733.512    92296453.709  
  22090589.641   116086851.253    22090587.457    90457277.383  
  25247493.063   132676468.480    25247492.035   103384256.866  
  20661517.383   108577048.142    20661514.484    84605509.648  
  23488769.656   123434303.414    23488766.004    96182583.253  
  20100432.563   105628570.726    20100433.340    82308025.599  
  24736912.750   129993358.491    24736914.387   101293531.139  
  23959801.102   125909614.474    23959798.941    98111414.588  
  21722017.188   114150089.077    21722013.656    88948178.782  
  24606707.961   129309237.345    24606708.477   100760544.828  
 21  8 28  3 19 30.0000000  0 10G 3G 4G 9G16G22G26G27G29G31G32
  22550140.438   118501730.839    22550140.336    92339066.820  
  22075263.820   116006313.351    22075261.641    90394520.590  
  25227154.250   132569591.713    25227153.930   103300976.332  
  20649963.781   108516331.751    20649960.422    84558198.173  
  23502997.914   123509072.903    23502993.957    96240845.162  
  20104030.672   105647476.635    20104030.922    82322757.486  
  24715129.695   129878885.794    24715130.941   101204331.683  
  23967357.789   125949326.889    23967355.676    98142359.337  
  21733427.492   114210051.546    21733424.445    88994902.786  
  24627096.828   129416382.380    24627098.344   100844034.403  
 21  8 28  3 20  0.0000000  0 10G 3G 4G 9G16G22G26G27G29G31G32
  22560634.391   118556879.464    22560634.930    92382039.759  
  22059990.695   115926054.507    22059989.027    90331981.246  
  25206822.164   132462747.969    25206821.988   103217721.475  
  20638508.398   108456134.370    20638505.297    84511291.142  
  23517270.406   123584074.021    23517266.020    96299287.557  
  20107721.820   105666874.859    20107722.477    82337872.991  
  24693335.625   129764356.904    24693336.887   101115088.360  
  23975019.438   125989586.364    23975015.633    98173730.366  
  21744868.672   114270175.665    21744865.867    89041752.748  
  24647510.352   129523654.238    24647511.074   100927622.827  
 21  8 28  3 20 30.0000000  0 10G 3G 4G 9G16G22G26G27G29G31G32
  22571216.930   118612487.344    22571216.559    92425370.567  
  22044771.891   115846077.060    22044769.563    90269661.182  
  25186498.258   132355939.353    25186496.738   103134494.061  
  20627152.266   108396457.030    20627148.988    84464789.327  
  23531586.117   123659303.916    23531582.195    96357908.209  
  20111506.742   105686763.886    20111507.133    82353370.951  
  24671531.031   129649774.360    24671532.379   101025803.284  
  23982784.031   126030391.967    23982781.137    98205526.954  
  21756340.898   114330461.170    21756337.234    89088728.451  
  24667947.906   129631051.205    24667947.379   101011308.798  
 21  8 28  3 21  0.0000000  0 10G 3G 4G 9G16G22G26G27G29G31G32
  22581885.688   118668552.084    22581885.457    92469057.357  
  22029606.695   115766383.564    22029604.684    90207562.354  
  25166179.734   132249167.967    25166178.910   103051295.633  
  20615895.414   108337301.033    20615891.859    84418693.747  
  23545944.961   123734759.795    23545940.922    96416704.972  
  20115384.430   105707142.449    20115384.762    82369250.348  
  24649717.141   129535141.278    24649717.727   100936478.856  
  23990652.453   126071742.135    23990650.648    98237747.888  
  21767843.523   114390907.791    21767840.203    89135829.700  
  24688407.836   129738571.522    24688408.469   101095090.821  
 21  8 28  3 21 30.0000000  0 10G 3G 4G 9G16G22G26G27G29G31G32
  22592639.938   118725070.780    22592640.684    92513097.878  
  22014495.906   115686976.125    22014493.949    90145686.433  
  25145869.000   132142435.347    25145868.145   102968127.376  
  20604737.719   108278667.177    20604734.301    84373005.044  
  23560346.148   123810438.707    23560342.223    96475675.499  
  20119355.375   105728008.716    20119355.668    82385509.793  
  24627894.563   129420460.219    24627894.926   100847116.939  
  23998624.539   126113635.411    23998622.969    98270391.986  
  21779376.508   114451514.477    21779373.254    89183055.682  
  24708891.563   129846213.244    24708892.148   101178967.420  
 21  8 28  3 22  0.0000000  0 10G 3G 4G 9G16G22G26G27G29G31G32
  22603481.461   118782041.113    22603481.793    92557490.331  
  21999440.148   115607857.321    21999438.074    90084035.423  
  25125566.086   132035743.827    25125565.277   102884991.166  
  20593679.469   108220556.978    20593676.336    84327724.370  
  23574789.219   123886338.018    23574785.180    96534817.791  
  20123418.625   105749361.452    20123418.777    82402148.291  
  24606062.961   129305734.255    24606063.125   100757720.103  
  24006700.031   126156070.801    24006697.555    98303458.533  
  21790940.156   114512281.065    21790936.410    89230406.265  
  24729398.164   129953974.765    24729397.910   101262937.414  
 21  8 28  3 22 30.0000000  0 10G 3G 4G 9G16G22G26G27G29G31G32
  22614408.273   118839460.451    22614408.117    92602232.648  
  21984439.719   115529029.593    21984437.680    90022611.229  
  25105271.914   131929095.488    25105270.871   102801888.634  
  20582721.352   108162970.984    20582718.043    84282852.183  
  23589273.688   123962454.659    23589269.844    96594129.421  
  20127574.125   105771199.069    20127574.418    82419164.623  
  24584223.055   129190966.283    24584223.887   100668290.505  
  24014877.547   126199046.869    24014876.316    98336946.387  
  21802533.977   114573206.799    21802530.234    89277880.862  
  24749926.906   130061854.241    24749927.398   101346999.267  
 21  8 28  3 23  0.0000000  0 10G 3G 4G 9G16G22G26G27G29G31G32
  22625419.789   118897326.142    22625419.914    92647322.779  
  21969494.727   115450495.298    21969492.988    89961415.674  
  25084985.891   131822492.296    25084985.109   102718821.257  
  20571862.617   108105910.278    20571859.973    84238389.296  
  23603799.297   124038785.878    23603795.047    96653608.267  
  20131821.813   105793520.048    20131821.770    82436557.606  
  24562375.609   129076159.070    24562376.652   100578830.339  
  24023158.000   126242562.107    24023157.023    98370854.371  
  21814157.734   114634291.323    21814154.480    89325479.172  
  24770477.414   130169849.857    24770479.293   101431151.622  
 21  8 28  3 23 30.0000000  0 10G 3G 4G 9G16G22G26G27G29G31G32
  22636515.586   118955635.662    22636516.078    92692758.743  
  21954606.906   115372256.851    21954604.645    89900450.664  
  25064708.563   131715936.335    25064707.602   102635790.731  
  20561104.844   108049375.951    20561101.500    84194336.587  
  23618364.750   124115328.649    23618361.035    96713251.947  
  20136160.930   105816322.926    20136161.176    82454326.092  
  24540521.656   128961315.662    24540523.980   100489341.949  
  24031541.555   126286615.393    24031539.566    98405181.613  
  21825811.734   114695534.295    21825808.297    89373200.961  
  24791050.422   130277959.831    24791051.398   101515393.158  
 21  8 28  3 24  0.0000000  0 10G 3G 4G 9G16G22G26G27G29G31G32
  22647695.766   119014386.438    22647695.707    92738538.542  
  21939775.500   115294316.821    21939773.059    89839718.169  
  25044441.125   131609429.440    25044440.387   102552798.342  
  20550447.313   107993369.368    20550443.641    84150695.102  
  23632970.195   124192080.318    23632966.105    96773058.392  
  20140591.508   105839606.228    20140591.957    82472468.934  
  24518662.063   128846439.135    24518663.461   100399827.738  
  24040026.594   126331205.617    24040024.344    98439927.254  
  21837495.977   114756935.168    21837492.426    89421045.800  
  24811644.359   130386182.692    24811644.656   101599722.624  
 21  8 28  3 24 30.0000000  0 10G 3G 4G 9G16G22G26G27G29G31G32
  22658958.570   119073575.689    22658959.039    92784660.008  
  21925000.789   115216677.421    21924998.957    89779219.936  
  25024183.617   131502973.820    25024182.105   102469845.942  
  20539890.055   107937891.380    20539886.648    84107465.510  
  23647614.602   124269037.976    23647610.938    96833025.349  
  20145113.469   105863368.294    20145113.680    82490984.837  
  24496795.773   128731532.132    24496797.676   100310289.839  
  24048613.484   126376331.047    24048611.781    98475089.935  
  21849210.148   114818493.494    21849206.789    89469013.323  
  24832259.344   130494516.454    24832260.145   101684138.478  
 21  8 28  3 25  0.0000000  0 10G 3G 4G 9G16G22G26G27G29G31G32
  22670305.328   119133200.915    22670305.156    92831121.210  
  21910284.375   115139341.259    21910282.359    89718958.009  
  25003935.508   131396571.571    25003934.578   102386935.112  
  20529433.570   107882943.135    20529430.633    84064648.714  
  23662297.719   124346198.721    23662294.375    96893150.581  
  20149725.898   105887607.666    20149726.340    82509872.669  
  24474923.547   128616597.814    24474926.586   100220730.625  
  24057302.336   126421990.115    24057300.953    98510668.433  
  21860954.320   114880208.912    21860951.227    89517103.249  
  24852895.945   130602959.201    24852895.191   101768606.381  
 21  8 28  3 25 30.0000000  0  9G 3G 4G 9G16G22G26G27G29G31
  22681733.727   119193259.335    22681734.188    92877919.955  
  21895625.719   115062310.639    21895623.668    89658934.151  
  24983698.438   131290224.688    24983697.555   102304067.417  
  20519078.531   107828525.211    20519075.203    84022245.141  
  23677019.648   124423559.669    23677015.500    96953431.798  
  20154429.109   105912322.699    20154429.566    82529131.143  
  24453048.352   128501638.968    24453050.633   100131152.324  
  24066092.953   126468181.907    24066089.945    98546662.056  
  21872728.164   114942080.766    21872725.133    89565315.078  
 21  8 28  3 26  0.0000000  0  9G 3G 4G 9G16G22G26G27G29G31
  22693244.398   119253748.461    22693244.898    92925054.311  
  21881025.945   114985588.104    21881023.949    89599150.371  
  24963472.305   131183935.483    24963471.230   102221244.710  
  20508824.016   107774638.636    20508820.801    83980255.611  
  23691778.258   124501118.242    23691774.430    97013867.008  
  20159222.578   105937511.868    20159223.023    82548759.083  
  24431168.328   128386658.736    24431170.102   100041557.331  
  24074983.445   126514904.732    24074980.570    98583069.443  
  21884531.500   115004108.794    21884528.395    89613648.605  
 21  8 28  3 26 30.0000000  0 10G 3G 4G 9G16G22G26G27G29G31G32
  22704836.719   119314665.543    22704837.199    92972522.166  
  21866485.219   114909176.130    21866483.234    89539608.569  
  24943257.820   131077706.041    24943256.566   102138468.541  
  20498671.164   107721284.277    20498667.668    83938680.800  
  23706574.188   124578871.587    23706570.273    97074453.997  
  20164105.680   105963173.751    20164106.160    82568755.360  
  24409285.180   128271660.056    24409286.449    99951947.928  
  24083975.172   126562157.515    24083972.840    98619889.788  
  21896364.742   115066292.500    21896361.797    89662103.423  
  24914925.852   130928968.3211   24914926.676   102022605.7811 
 21  8 28  3 27  0.0000000  0 10G 3G 4G 9G16G22G26G27G29G31G32
  22716509.750   119376007.742    22716509.949    93020321.257  
  21852004.094   114833076.892    21852001.961    89480310.468  
  24923054.523   130971538.214    24923053.328   102055740.414  
  20488619.297   107668463.346    20488616.176    83897521.636  
  23721406.914   124656816.605    23721403.000    97135190.298  
  20169078.680   105989306.477    20169079.094    82589118.528  
  24387398.164   128156645.726    24387399.000    99862326.356  
  24093067.383   126609938.398    24093065.160    98657121.650  
  21908227.492   115128631.272    21908223.809    89710679.085  
  24935641.781   131037830.197    24935640.391   102107433.035  
 21  8 28  3 27 30.0000000  0  9G 3G 4G 9G16G22G26G27G29G31
  22728263.125   119437772.400    22728263.188    93068449.543  
  21837583.078   114757292.946    21837580.652    89421258.037  
  24902863.898   130865434.187    24902862.406   101973061.968  
  20478669.891   107616176.547    20478666.188    83856778.678  
  23736274.961   124734950.491    23736271.152    97196073.797  
  20174140.820   106015908.507    20174141.086    82609847.386  
  24365508.992   128041618.743    24365510.316    99772694.923  
  24102260.289   126658245.924    24102258.180    98694763.916  
  21920119.438   115191124.710    21920115.891    89759375.275  
 21  8 28  3 28  0.0000000  0  9G 3G 4G 9G16G22G26G27G29G31
  22740096.688   119499956.873    22740096.770    93116904.950  
  21823222.117   114681826.793    21823220.098    89362453.251  
  24882685.266   130759396.234    24882684.391   101890435.042  
  20468821.766   107564424.827    20468818.371    83816452.664  
  23751178.711   124813270.351    23751174.996    97257102.229  
  20179291.992   106042978.299    20179292.371    82630940.742  
  24343618.992   127926582.230    24343619.410    99683056.060  
  24111552.859   126707078.456    24111549.371    98732815.279  
  21932040.938   115253772.458    21932037.324    89808191.676  
 21  8 28  3 28 30.0000000  0  9G 3G 4G 9G16G22G26G27G29G31
  22752008.953   119562558.364    22752009.309    93165685.326  
  21808922.594   114606680.817    21808920.391    89303897.947  
  24862519.656   130653426.417    24862518.809   101807861.226  
  20459075.641   107513208.712    20459072.539    83776544.016  
  23766117.555   124891773.270    23766113.496    97318273.314  
  20184531.945   106070514.152    20184532.258    82652397.261  
  24321726.578   127811539.102    24321726.922    99593412.029  
  24120945.016   126756434.977    24120941.516    98771274.914  
  21943991.828   115316573.947    21943987.855    89857127.903  
 21  8 28  3 29  0.0000000  0 10G 3G 4G 9G16G22G26G27G29G31G32
  22764000.977   119625574.054    22764000.645    93214788.433  
  21794683.945   114531857.407    21794681.863    89245593.986  
  24842367.688   130547526.820    24842366.320   101725342.121  
  20449431.039   107462529.280    20449428.434    83737053.551  
  23781090.359   124970456.405    23781086.641    97379584.799  
  20189860.242   106098514.401    20189860.387    82674215.646  
  24299834.250   127696492.369    24299834.820    99503765.204  
  24130436.039   126806313.385    24130432.375    98810141.211  
  21955971.547   115379528.954    21955967.758    89906183.738  
  25018686.414   131474075.4741   25018692.551   102447341.2521 
 21  8 28  3 29 30.0000000  0 10G 3G 4G 9G16G22G26G27G29G31G32
  22776070.633   119689001.425    22776070.816    93264212.356  
  21780507.406   114457359.179    21780505.594    89187543.427  
  24822228.945   130441699.747    24822228.328   101642879.502  
  20439890.133   107412387.245    20439886.770    83697981.843  
  23796097.063   125049316.961    23796093.176    97441034.527  
  20195276.836   106126977.592    20195276.652    82696394.757  
  24277941.883   127581445.187    24277942.418    99414118.004  
  24140027.352   126856712.478    24140021.105    98849413.272  
  21967980.961   115442636.987    21967976.930    89955358.839  
  25039497.656   131583420.709    25039499.270   102532545.163  
 21  8 28  3 30  0.0000000  0 10G 3G 4G 9G16G22G26G27G29G31G32
  22788218.063   119752837.480    22788218.656    93313954.715  
  21766393.797   114383188.348    21766391.313    89129747.987  
  24802105.375   130335947.163    24802104.023   101560474.906  
  20430450.406   107362783.390    20430447.301    83659329.491  
  23811136.813   125128352.183    23811133.004    97502620.379  
  20200780.609   106155901.804    20200780.691    82718933.123  
  24256049.148   127466400.474    24256049.773    99324472.778  
  24149716.344   126907630.473    24149711.777    98889089.671  
  21980019.094   115505897.376    21980015.816    90004652.635  
  25060322.789   131692857.0651   25060324.070   102617820.179  
 21  8 28  3 30 30.0000000  0 10G 3G 4G 9G16G22G26G27G29G31G32
  22800442.688   119817079.484    22800443.102    93364013.381  
  21752341.625   114309347.445    21752339.516    89072209.610  
  24781996.109   130230271.331    24781994.602   101478130.120  
  20421114.078   107313718.460    20421110.750    83621097.094  
  23826210.383   125207559.035    23826206.160    97564339.955  
  20206371.727   106185285.480    20206372.344    82741829.498  
  24234158.406   127351361.282    24234158.277    99234831.807  
  24159504.070   126959065.579    24159501.566    98929168.966  
  21992085.742   115569309.905    21992082.715    90054064.987  
  25081163.664   131802382.788    25081164.180   102703164.8241 
 21  8 28  3 31  0.0000000  0  9G 3G 4G 9G16G22G26G27G29G31
  22812744.453   119881724.613    22812744.750    93414386.206  
  21738353.516   114235838.892    21738351.160    89014930.209  
  24761901.211   130124674.500    24761900.113   101395846.920  
  20411879.906   107265193.162    20411876.547    83583285.182  
  23841314.469   125286934.546    23841310.961    97626190.950  
  20212050.797   106215126.896    20212050.660    82765082.558  
  24212267.969   127236330.571    24212269.160    99145197.492  
  24169390.570   127011016.593    24169387.891    98969650.303  
  22004182.055   115632874.199    22004178.648    90103595.599  
 21  8 28  3 31 30.0000000  0  9G 3G 4G 9G16G22G26G27G29G31
  22825122.445   119946769.856    22825122.512    93465070.778  
  21724428.820   114162664.834    21724426.922    88957911.481  
  24741822.203   130019158.576    24741821.277   101313626.716  
  20402748.445   107217207.921    20402745.227    83545894.093  
  23856450.508   125366475.776    23856446.504    97688171.079  
  20217815.844   106245424.171    20217816.281    82788690.830  
  24190380.703   127121311.223    24190381.438    99055572.012  
  24179374.234   127063481.463    24179373.434    99010531.986  
  22016306.273   115696589.674    22016303.605    90153244.016  
 21  8 28  3 32  0.0000000  0  9G 3G 4G 9G16G22G26G27G29G31
  22837576.219   120012212.632    22837576.043    93516065.124  
  21710568.648   114089827.976    21710566.512    88901155.493  
  24721759.438   129913725.896    24721757.461   101231471.390  
  20393720.414   107169763.854    20393717.121    83508924.698  
  23871618.031   125446179.941    23871614.434    97750278.193  
  20223668.156   106276175.767    20223668.281    82812653.123  
  24168496.055   127006306.367    24168495.395    98965957.829  
  24189455.063   127116458.772    24189453.180    99051812.968  
  22028459.313   115760455.872    22028456.684    90203009.865  
 21  8 28  3 32 30.0000000  0  9G 3G 4G 9G16G22G26G27G29G31
  22850104.039   120078050.083    22850104.457    93567367.019  
  21696772.648   114017330.786    21696770.898    88844664.188  
  24701712.500   129808378.717    24701710.863   101149382.693  
  20384794.930   107122861.561    20384791.770    83472377.466  
  23886815.367   125526044.426    23886811.613    97812510.204  
  20229605.695   106307380.005    20229606.262    82836968.123  
  24146614.773   126891319.238    24146615.000    98876357.449  
  24199634.070   127169946.790    24199632.188    99093491.981  
  22040641.852   115824472.601    22040638.680    90252893.017  
 21  8 28  3 33  0.0000000  0  9G 3G 4G 9G16G22G26G27G29G31
  22862707.508   120144279.313    22862707.758    93618974.176  
  21683041.742   113945175.551    21683040.016    88788439.306  
  24681682.383   129703119.222    24681680.527   101067362.332  
  20375973.039   107076501.694    20375969.766    83436252.901  
  23902043.109   125606066.072    23902040.090    97874864.694  
  20235629.531   106339035.049    20235629.883    82861634.397  
  24124738.016   126776352.695    24124738.422    98786773.176  
  24209909.086   127223943.699    24209906.125    99135567.469  
  22052851.961   115888639.354    22052848.859    90302893.068  
 21  8 28  3 33 30.0000000  0  9G 3G 4G 9G16G22G26G27G29G31
  22875384.133   120210897.479    22875384.801    93670884.413  
  21669376.852   113873364.714    21669374.398    88732482.827  
  24661669.313   129597949.606    24661667.684   100985411.992  
  20367254.125   107030684.925    20367251.012    83400551.533  
  23917300.500   125686242.319    23917296.492    97937339.635  
  20241738.656   106371139.224    20241739.020    82886650.646  
  24102864.602   126661409.922    24102865.871    98697207.379  
  24220280.969   127278447.683    24220278.563    99178038.094  
  22065091.133   115952955.776    22065087.816    90353009.751  
 21  8 28  3 34  0.0000000  0  9G 3G 4G 9G16G22G26G27G29G31
  22888135.109   120277901.828    22888134.859    93723095.598  
  21655777.758   113801900.840    21655775.715    88676796.697  
  24641673.641   129492872.138    24641671.941   100903533.462  
  20358638.875   106985411.912    20358635.992    83365273.870  
  23932586.477   125766570.133    23932581.883    97999932.725  
  20247933.109   106403690.884    20247933.258    82912015.585  
  24080996.695   126546494.026    24080998.223    98607662.555  
  24230749.125   127333457.209    24230745.969    99220902.705  
  22077358.250   116017421.265    22077355.566    90403242.596  
 21  8 28  3 34 30.0000000  0  9G 3G 4G 9G16G22G26G27G29G31
  22900958.867   120345289.636    22900958.414    93775605.534  
  21642245.422   113730786.499    21642243.063    88621382.929  
  24621696.180   129387889.260    24621694.398   100821728.626  
  20350127.469   106940682.997    20350124.320    83330420.180  
  23947900.336   125847046.845    23947896.477    98062641.795  
  20254212.766   106436688.406    20254212.824    82937727.949  
  24059135.109   126431608.161    24059135.375    98518141.148  
  24241312.594   127388970.910    24241308.410    99264160.186  
  22089654.539   116082035.946    22089651.391    90453591.693  
 21  8 28  3 35  0.0000000  0  9G 3G 4G 9G16G22G26G27G29G31
  22913854.156   120413057.628    22913854.453    93828411.745  
  21628779.406   113660023.750    21628777.492    88566243.128  
  24601736.828   129283002.858    24601735.500   100739999.014  
  20341719.234   106896498.673    20341716.246    83295990.848  
  23963242.539   125927669.140    23963238.125    98125464.334  
  20260576.008   106470129.696    20260576.410    82963786.097  
  24037279.430   126316755.148    24037279.953    98428645.326  
  24251972.047   127444986.225    24251968.734    99307808.507  
  22101978.102   116146798.863    22101975.531    90504056.281  
 21  8 28  3 35 30.0000000  0  9G 3G 4G 9G16G22G26G27G29G31
  22926821.297   120481203.033    22926822.031    93881512.050  
  21615381.305   113589615.059    21615379.211    88511379.226  
  24581796.906   129178215.2961   24581794.293   100658346.412  
  20333415.125   106852859.722    20333412.148    83261986.491  
  23978611.344   126008434.197    23978608.422    98188398.104  
  20267023.797   106504013.042    20267024.133    82990188.717  
  24015429.875   126201938.182    24015430.730    98339177.588  
  24262726.094   127501501.902    24262724.063    99351846.691  
  22114330.461   116211709.945    22114327.988    90554636.346  
 21  8 28  3 36  0.0000000  0  9G 3G 4G 9G16G22G26G27G29G31
  22939860.719   120549722.829    22939860.906    93934904.044  
  21602050.266   113519562.781    21602048.664    88456793.048  
  24561875.141   129073528.6541   24561873.254   100576772.425  
  20325215.086   106809766.587    20325211.652    83228407.443  
  23994006.984   126089339.004    23994003.645    98251440.763  
  20273555.570   106538336.591    20273555.734    83016934.344  
  23993588.961   126087160.242    23993589.355    98249740.257  
  24273576.422   127558515.893    24273573.320    99396273.175  
  22126710.688   116276768.619    22126708.395    90605331.402  
 21  8 28  3 36 30.0000000  0  9G 3G 4G 9G16G22G26G27G29G31
  22952970.117   120618614.405    22952970.402    93988585.755  
  21588788.469   113449869.626    21588786.363    88402486.685  
  24541973.617   128968945.565    24541972.250   100495279.109  
  20317118.586   106767219.921    20317115.188    83195254.217  
  24009428.930   126170381.355    24009425.578    98314590.596  
  20280170.328   106573098.798    20280170.715    83044021.773  
  23971754.781   125972424.651    23971755.848    98160335.948  
  24284519.531   127616026.521    24284517.012    99441086.669  
  22139119.039   116341974.581    22139115.949    90656141.234  
 21  8 28  3 37  0.0000000  0  9G 3G 4G 9G16G22G26G27G29G31
  22966149.773   120687874.479    22966150.250    94042554.618  
  21575595.359   113380537.689    21575592.852    88348461.801  
  24522092.305   128864467.991    24522090.512   100413868.027  
  20309125.617   106725220.027    20309122.949    83162527.033  
  24024876.516   126251557.866    24024872.484    98377845.006  
  20286868.281   106608297.604    20286868.855    83071449.413  
  23949929.945   125857734.294    23949930.516    98070966.874  
  24295558.273   127674031.611    24295553.578    99486285.441  
  22151555.164   116407327.369    22151552.555    90707065.487  
 21  8 28  3 37 30.0000000  0  9G 3G 4G 9G16G22G26G27G29G31
  22979399.180   120757500.330    22979399.824    94096808.505  
  21562470.688   113311569.538    21562468.668    88294720.402  
  24502231.281   128760098.344    24502229.652   100332541.050  
  20301238.156   106683767.362    20301234.598    83130226.281  
  24040348.602   126332865.825    24040345.008    98441201.811  
  20293649.563   106643931.329    20293649.773    83099215.963  
  23928114.430   125743092.356    23928114.574    97981635.545  
  24306689.859   127732529.551    24306685.844    99531868.258  
  22164019.344   116472826.661    22164016.836    90758103.880  
 21  8 28  3 38  0.0000000  0  9G 3G 4G 9G16G22G26G27G29G31
  22992717.789   120827488.978    22992718.293    94151345.096  
  21549416.195   113242967.612    21549414.316    88241264.350  
  24482391.180   128655838.893    24482390.094   100251299.911  
  20293454.180   106642862.445    20293450.691    83098352.342  
  24055845.969   126414302.170    24055842.191    98504658.683  
  20300512.570   106679998.189    20300513.074    83127319.999  
  23906308.766   125628502.025    23906308.695    97892344.431  
  24317915.047   127791518.239    24317912.461    99577833.510  
  22176510.805   116538472.080    22176508.199    90809256.154  
 21  8 28  3 38 30.0000000  0  9G 3G 4G 9G16G22G26G27G29G31
  23006104.672   120897837.494    23006104.961    94206162.104  
  21536431.984   113174734.236    21536430.012    88188095.495  
  24462573.148   128551691.949    24462571.824   100170146.449  
  20285774.586   106602505.692    20285771.254    83066905.534  
  24071366.000   126495864.028    24071362.992    98568213.337  
  20307458.070   106716496.312    20307458.109    83155760.098  
  23884513.141   125513966.446    23884513.316    97803095.958  
  24329232.758   127850995.856    24329230.469    99624179.725  
  22189030.602   116604263.115    22189028.152    90860521.898  
 21  8 28  3 39  0.0000000  0  9G 3G 4G 9G16G22G26G27G29G31
  23019560.109   120968542.786    23019559.867    94261257.119  
  21523518.148   113106871.731    21523516.148    88135215.634  
  24442776.789   128447659.730    24442775.129   100089082.363  
  20278199.234   106562697.491    20278195.777    83035886.169  
  24086910.547   126577548.850    24086907.258    98631863.809  
  20314484.961   106753423.784    20314485.336    83184534.746  
  23862727.992   125399488.519    23862728.531    97713892.413  
  24340644.336   127910960.501    24340642.379    99670905.429  
  22201577.883   116670199.614    22201575.199    90911900.967  
 21  8 28  3 39 30.0000000  0  9G 3G 4G 9G16G22G26G27G29G31
  23033081.539   121039601.857    23033082.160    94316627.816  
  21510675.508   113039382.502    21510673.344    88082626.625  
  24423001.953   128343744.489    24423001.020   100008109.438  
  20270728.227   106523437.900    20270725.000    83005294.315  
  24102477.742   126659353.453    24102473.945    98695607.634  
  20321593.148   106790778.727    20321593.582    83213642.512  
  23840955.875   125285071.394    23840956.352    97624736.301  
  24352147.188   127971410.127    24352145.184    99718009.008  
  22214153.438   116736281.160    22214150.262    90963393.075  
 21  8 28  3 40  0.0000000  0  9G 3G 4G 9G16G22G26G27G29G31
  23046670.742   121111011.977    23046670.781    94372272.043  
  21497904.211   112972269.172    21497902.020    88030330.538  
  24403249.977   128239948.817    24403249.613    99927229.677  
  20263362.023   106484727.821    20263358.664    82975130.623  
  24118066.078   126741275.152    24118063.313    98759442.689  
  20328782.656   106828559.598    20328783.035    83243082.155  
  23819195.445   125170718.548    23819196.305    97535630.264  
  24363742.594   128032343.013    24363739.871    99765489.191  
  22226755.625   116802507.416    22226752.539    91014997.924  
 21  8 28  3 40 30.0000000  0  9G 3G 4G 9G16G22G26G27G29G31
  23060325.523   121182770.142    23060325.680    94428187.470  
  21485205.203   112905534.091    21485202.789    87978329.187  
  24383521.555   128136274.954    24383520.871    99846444.818  
  20256100.359   106446567.168    20256097.074    82945395.066  
  24133677.453   126823311.018    24133673.793    98823366.708  
  20336053.000   106866764.427    20336053.480    83272852.161  
  23797447.016   125056433.056    23797447.887    97446576.659  
  24375429.148   128093757.390    24375426.328    99813344.499  
  22239385.773   116868878.005    22239382.770    91066715.256  
 21  8 28  3 41  0.0000000  0  9G 3G 4G 9G16G22G26G27G29G31
  23074046.531   121254873.133    23074046.445    94484371.607  
  21472578.063   112839179.475    21472576.000    87926624.302  
  24363816.680   128032725.085    24363816.281    99765756.567  
  20248943.344   106408956.726    20248939.977    82916088.243  
  24149309.883   126905458.335    24149305.570    98887377.571  
  20343403.664   106905391.212    20343403.699    83302950.970  
  23775712.859   124942217.865    23775713.371    97357577.841  
  24387207.000   128155651.155    24387204.602    99861573.439  
  22252043.133   116935392.392    22252040.016    91118544.644  
 21  8 28  3 41 30.0000000  0  9G 3G 4G 9G16G22G26G27G29G31
  23087832.273   121327318.148    23087832.781    94540822.234  
  21460023.672   112773207.854    21460021.906    87875217.848  
  24344135.719   127929301.718    24344135.484    99685166.885  
  20241890.422   106371896.681    20241887.539    82887210.293  
  24164962.602   126987713.999    24164958.984    98951472.879  
  20350833.969   106944438.283    20350833.934    83333377.274  
  23753992.203   124828076.249    23753992.965    97268636.402  
  24399076.047   128218022.256    24399073.473    99910174.332  
  22264727.422   117002050.526    22264724.145    91170486.028  
 21  8 28  3 42  0.0000000  0  9G 3G 4G 9G16G22G26G27G29G31
  23101682.609   121400102.129    23101682.980    94597537.001  
  21447543.422   112707621.556    21447541.141    87824111.650  
  24324479.344   127826007.146    24324478.949    99604677.585  
  20234943.102   106335387.002    20234939.816    82858761.208  
  24180635.461   127070075.409    24180632.105    99015650.561  
  20358343.820   106983903.681    20358344.059    83364129.533  
  23732286.922   124714011.387    23732287.773    97179754.771  
  24411035.000   128280868.659    24411033.879    99959145.572  
  22277439.219   117068851.848    22277436.285    91222539.000  
 21  8 28  3 42 30.0000000  0  9G 3G 4G 9G16G22G26G27G29G31
  23115597.188   121473221.953    23115597.379    94654513.463  
  21435136.609   112642422.884    21435134.434    87773307.504  
  24304848.148   127722843.615    24304847.523    99524290.380  
  20228100.398   106299428.213    20228097.242    82830741.392  
  24196327.641   127152539.461    24196324.465    99079908.250  
  20365933.234   107023785.456    20365933.203    83395206.231  
  23710595.758   124600026.404    23710596.582    97090935.364  
  24423084.219   128344188.119    24423082.359   100008485.433  
  22290178.766   117135796.081    22290175.305    91274703.329  
 21  8 28  3 43  0.0000000  0  9G 3G 4G 9G16G22G26G27G29G31
  23129574.469   121546674.723    23129575.195    94711749.369  
  21422803.742   112577614.358    21422801.809    87722807.359  
  24285242.367   127619813.613    24285241.938    99444007.244  
  20221362.719   106264020.223    20221359.297    82803150.760  
  24212039.266   127235103.393    24212036.156    99144243.741  
  20373601.492   107064081.808    20373601.004    83426606.003  
  23688921.180   124486124.498    23688920.957    97002180.692  
  24435223.352   128407978.851    24435221.324   100058192.456  
  22302944.383   117202883.036    22302941.652    91326978.895  
 21  8 28  3 43 30.0000000  0  9G 3G 4G 9G16G22G26G27G29G31
  23143614.672   121620457.278    23143615.316    94769242.256  
  21410545.805   112513198.177    21410543.613    87672612.938  
  24265662.461   127516919.416    24265662.094    99363829.932  
  20214729.703   106229163.293    20214726.188    82775989.541  
  24227769.117   127317764.219    24227765.719    99208654.761  
  20381347.875   107104790.753    20381347.895    83458327.242  
  23667262.484   124372308.744    23667262.547    96913493.145  
  24447452.023   128472238.582    24447449.137   100108264.939  
  22315738.141   117270112.024    22315734.801    91379365.110  
