     2.11           OBSERVATION DATA    M (MIXED)           RINEX VERSION / TYPE
CONVBIN 2.4.3                           20210831 031206 UTC PGM / RUN BY / DATE 
log: ngs/tn312420.21o                                       COMMENT             
format: RINEX                                               COMMENT             
TN31                                                        MARKER NAME         
                                                            MARKER NUMBER       
                                                            OBSERVER / AGENCY   
401-01146           TPS NETG3           5.2.2 Dec,06,2018   REC # / TYPE / VERS 
374-0201            TPSG3_A1        NONE                    ANT # / TYPE        
   281409.8070 -5147273.9010  3743529.0020                  APPROX POSITION XYZ 
        0.0000        0.0000        0.0000                  ANTENNA: DELTA H/E/N
     1     1                                                WAVELENGTH FACT L1/2
     5    C1    L1    P1    P2    L2                        # / TYPES OF OBSERV 
    30.000                                                  INTERVAL            
  2021     8    30     0     0    0.0000000     GPS         TIME OF FIRST OBS   
  2021     8    30    18    59   30.0000000     GPS         TIME OF LAST OBS    
                                                            END OF HEADER       
 21  8 30  0  0  0.0000000  0 18R14R20R 4G22R16G32G26G 1R 5G12R21G31
                                G25G23R 6G10R15G21
  21017921.183   112037466.642    21017921.313    21017921.055    87140278.134  
  23466337.227   125485045.378    23466335.304    23466339.371    97599496.350  
  20849010.058   111645570.218    20849010.444    20849009.147    86835468.213  
  23842145.145   125291345.797    23842144.833    23842146.557    97629620.288  
  22933489.304   122506612.689    22933490.080    22933490.287    95282989.858  
  20989118.709   110298645.313    20989118.865    20989123.509    85947062.101  
  24713446.315   129870089.364    24713445.887    24713454.411   101197493.124  
  23268858.393   122278693.875    23268859.074    23268864.437    95282109.150  
  20159175.143   107762425.579    20159175.778    20159174.595    83815259.464  
  23820608.933   125178219.054    23820608.786    23820612.011    97541498.236  
  23506500.409   125788041.515    23506501.002    23506500.174    97835161.768  
  20633648.496   108430661.364    20633648.103    20633650.542    84491481.467  
  22210305.716   116715998.850    22210304.948    22210311.882    90947575.492  
  24476005.499   128622264.107    24476005.301    24476010.587   100225147.555  
  23930434.118   127697415.574    23930437.488                                  
  21606946.030   113545320.950    21606945.862    21606951.329    88476908.985  
  19641114.448   104956257.079    19641115.044    19641113.860    81632710.765  
  23655429.528   124310141.474    23655428.196    23655430.791    96865037.707  
 21  8 30  0  0 30.0000000  0 17R14R 4G22R16G32G26G 1R 5G12R21G31G25
                                G23R 6G10R15G21
  21029798.664   112100781.431    21029799.084    21029799.001    87189522.946  
  20854224.863   111673495.653    20854225.434    20854223.991    86857187.979  
  23822078.636   125185895.306    23822077.995    23822079.545    97547451.113  
  22905766.489   122358519.493    22905766.278    22905767.229    95167806.391  
  20989427.959   110300270.011    20989428.178    20989432.801    85948328.091  
  24689855.902   129746116.796    24689856.313    24689865.030   101100891.220  
  23261706.713   122241109.235    23261706.750    23261711.996    95252822.418  
  20148221.627   107703871.864    20148222.138    20148221.035    83769717.688  
  23825415.493   125203476.208    23825415.129    23825418.027    97561179.129  
  23506108.449   125785944.633    23506109.492    23506108.781    97833530.853  
  20621735.496   108368057.861    20621735.176    20621737.476    84442699.525  
  22206173.279   116694282.946    22206173.252    22206179.523    90930654.023  
  24493237.153   128712816.052    24493237.554    24493242.361   100295707.452  
  23909341.817   127584838.726    23909341.310                                  
  21617761.570   113602155.461    21617761.355    21617766.460    88521195.595  
  19630034.437   104897049.611    19630035.031    19630033.769    81586660.532  
  23654017.641   124302723.140    23654016.247    23654018.764    96859257.177  
 21  8 30  0  1  0.0000000  0 17R14R 4G22R16G32G26G 1R 5G12R21G31G25
                                G23R 6G10R15G21
  21041788.323   112164692.033    21041788.604    21041788.374    87239231.163  
  20859503.911   111701764.752    20859504.633    20859503.006    86879175.039  
  23802044.389   125080616.415    23802044.048    23802044.984    97465415.657  
  22878077.122   122210609.138    22878077.556    22878077.845    95052765.082  
  20989773.913   110302088.202    20989774.134    20989778.599    85949744.851  
  24666252.639   129622080.844    24666253.229    24666261.626   101004239.927  
  23254665.695   122204110.357    23254665.427    23254671.266    95223992.134  
  20137315.309   107645571.401    20137315.811    20137314.615    83724372.887  
  23830328.951   125229297.429    23830328.930    23830331.796    97581299.575  
  23505849.330   125784559.502    23505850.260    23505849.555    97832453.541  
  20609918.819   108305961.144    20609918.626    20609920.727    84394312.481  
  22202157.954   116673181.690    22202157.362    22202164.373    90914211.491  
  24510497.050   128803516.744    24510496.541    24510502.270   100366383.284  
  23888226.062   127472166.546    23888225.940                                  
  21628655.247   113659403.519    21628655.424    21628660.441    88565804.455  
  19619098.537   104838610.874    19619099.018    19619097.928    81541208.197  
  23652689.483   124295740.208    23652687.264    23652691.469    96853815.918  
 21  8 30  0  1 30.0000000  0 17R14R 4G22R16G32G26G 1R 5G12R21G31G25
                                G23R 6G10R15G21
  21053888.775   112229195.988    21053889.199    21053888.999    87289400.871  
  20864847.859   111730379.406    20864848.284    20864846.754    86901430.864  
  23782044.232   124975512.544    23782043.888    23782045.463    97383516.572  
  22850422.370   122062886.244    22850423.781    22850423.915    94937869.590  
  20990157.011   110304101.075    20990157.165    20990161.704    85951313.322  
  24642638.186   129497985.239    24642638.955    24642645.246   100907542.138  
  23247736.743   122167698.783    23247736.327    23247743.433    95195619.491  
  20126457.257   107587527.238    20126457.443    20126456.342    83679227.428  
  23835349.869   125255682.731    23835349.446    23835352.938    97601859.541  
  23505723.624   125783886.038    23505724.375    23505724.486    97831929.711  
  20598199.016   108244372.647    20598198.727    20598200.879    84346321.465  
  22198260.011   116652696.966    22198258.870    22198266.457    90898249.382  
  24527784.929   128894365.579    24527783.855    24527789.756   100437174.547  
  23867092.388   127359400.486    23867093.142                                  
  21639627.832   113717064.975    21639627.713    21639632.936    88610735.449  
  19608306.783   104780943.341    19608307.407    19608306.182    81496355.682  
  23651443.173   124289193.124    23651441.914    23651444.712    96848714.280  
 21  8 30  0  2  0.0000000  0 17R14R 4G22R16G32G26G 1R 5G12R21G31G25
                                G23R 6G10R15G21
  21066101.274   112294294.649    21066101.525    21066101.746    87340033.140  
  20870256.760   111759345.464    20870257.321    20870255.745    86923960.004  
  23762077.817   124870590.902    23762077.975    23762079.472    97301759.460  
  22822805.491   121915359.465    22822805.697    22822806.434    94823126.621  
  20990578.024   110306313.856    20990578.271    20990582.698    85953037.561  
  24619013.771   129373837.658    24619013.094    24619021.281   100810803.800  
  23240920.762   122131880.016    23240920.638    23240927.393    95167708.767  
  20115647.790   107529747.191    20115648.341    20115647.265    83634287.394  
  23840478.874   125282635.613    23840478.829    23840481.675    97622861.778  
  23505732.471   125783928.002    23505733.141    23505732.577    97831962.317  
  20586576.740   108183297.982    20586576.473    20586578.718    84298730.835  
  22194480.326   116632834.624    22194479.715    22194486.020    90882772.256  
  24545101.900   128985365.812    24545101.045    24545106.594   100508083.796  
  23845945.060   127246548.298    23845945.627                                  
  21650679.929   113775143.759    21650679.577    21650684.958    88655991.624  
  19597660.818   104724053.961    19597661.373    19597660.194    81452108.398  
  23650280.951   124283086.200    23650279.171    23650281.799    96843955.648  
 21  8 30  0  2 30.0000000  0 17R14R 4G22R16G32G26G 1R 5G12R21G31G25
                                G23R 6G10R15G21
  21078424.016   112359981.943    21078424.170    21078424.569    87391123.236  
  20875731.526   111788661.134    20875731.883    20875730.170    86946761.060  
  23742146.512   124765851.045    23742146.485    23742147.871    97220144.022  
  22795224.732   121768030.361    22795225.572    22795225.800    94708537.387  
  20991036.510   110308724.100    20991036.855    20991041.265    85954915.673  
  24595379.656   129249638.171    24595379.751    24595388.199   100714025.049  
  23234217.370   122096651.747    23234216.143    23234223.789    95140258.180  
  20104888.105   107472230.257    20104888.616    20104887.816    83589552.007  
  23845715.387   125310152.363    23845715.273    23845717.454    97644303.403  
  23505872.417   125784680.927    23505873.938    23505873.580    97832547.911  
  20575051.765   108122734.910    20575051.612    20575053.977    84251538.853  
  22190818.633   116613592.760    22190818.226    22190823.851    90867778.607  
  24562446.571   129076513.073    24562446.691    24562451.355   100579107.576  
  23824780.155   127133610.594    23824780.563                                  
  21661810.705   113833635.993    21661810.374    21661815.861    88701569.965  
  19587160.233   104667941.577    19587160.748    19587159.543    81408465.443  
  23649202.090   124277415.688    23649200.467    23649203.559    96839537.047  
 21  8 30  0  3  0.0000000  0 17R14R 4G22R16G32G26G 1R 5G12R21G31G25
                                G23R 6G10R15G21
  21090856.844   112426255.743    21090857.193    21090857.382    87442669.509  
  20881271.885   111818328.773    20881272.278    20881270.413    86969835.873  
  23722250.341   124661296.998    23722250.591    23722251.925    97138673.382  
  22767682.397   121620904.087    22767682.689    22767682.794    94594105.934  
  20991533.328   110311333.617    20991533.465    20991537.939    85956949.056  
  24571735.812   129125391.105    24571735.889    24571745.197   100617209.224  
  23227626.664   122062015.966    23227626.355    23227632.178    95113269.253  
  20094178.418   107414980.255    20094178.923    20094177.872    83545024.227  
  23851059.119   125338233.597    23851058.955    23851061.703    97666184.881  
  23506146.361   125786145.150    23506147.635    23506147.552    97833686.726  
  20563624.973   108062685.844    20563624.765    20563626.921    84204747.391  
  22187275.717   116594973.811    22187274.684    22187281.483    90853270.348  
  24579819.222   129167807.305    24579818.450    24579824.966   100650245.861  
  23803599.285   127020583.712    23803599.603                                  
  21673020.145   113892542.130    21673020.071    21673025.203    88747470.828  
  19576805.544   104612609.229    19576806.118    19576804.829    81365429.181  
  23648206.284   124272182.546    23648204.610    23648206.667    96835459.259  
 21  8 30  0  3 30.0000000  0 17R14R 4G22R16G32G26G 1R 5G12R21G31G25
                                G23R 6G10R15G21
  21103398.296   112493107.677    21103398.552    21103398.547    87494665.430  
  20886877.110   111848344.098    20886877.486    20886875.627    86993181.106  
  23702389.263   124556926.115    23702389.085    23702391.112    97057345.434  
  22740177.305   121473979.663    22740177.966    22740178.990    94479831.481  
  20992066.917   110314137.826    20992067.103    20992071.613    85959134.153  
  24548083.315   129001094.434    24548081.812    24548091.522   100520354.782  
  23221147.416   122027968.262    23221147.147    23221153.656    95086738.585  
  20083518.322   107357994.877    20083518.708    20083517.526    83500702.271  
  23856508.849   125366873.114    23856508.011    23856511.954    97688501.392  
  23506552.405   125788314.225    23506553.130    23506552.279    97835373.776  
  20552294.988   108003146.354    20552294.519    20552296.831    84158353.001  
  22183850.298   116576973.640    22183850.122    22183856.037    90839244.261  
  24597217.517   129259241.992    24597215.947    24597222.951   100721493.534  
  23782400.473   126907466.955    23782401.585                                  
  21684307.349   113951856.167    21684306.992    21684312.399    88793689.535  
  19566596.234   104558053.669    19566596.710    19566595.604    81322997.091  
  23647293.003   124267381.149    23647290.843    23647294.783    96831717.909  
 21  8 30  0  4  0.0000000  0 18R14R 4G22R16G 3G32G26G 1R 5G12R21G31
                                G25G23R 6G10R15G21
  21116047.742   112560536.062    21116048.032    21116048.085    87547109.703  
  20892547.667   111878710.158    20892547.918    20892546.238    87016799.135  
  23682564.054   124452742.534    23682563.689    23682565.328    96976163.459  
  22712711.984   121327263.068    22712712.350    22712712.619    94365718.656  
  25327322.950   133095977.452    25327322.379    25327328.533   103711165.912  
  20992637.973   110317138.829    20992638.170    20992642.705    85961472.594  
  24524420.685   128876752.783    24524420.158    24524430.533   100423465.273  
  23214780.789   121994510.942    23214779.965    23214786.253    95060667.943  
  20072908.159   107301277.634    20072908.470    20072907.319    83456588.867  
  23862064.885   125396072.029    23862064.595    23862068.159    97711253.783  
  23507089.952   125791188.557    23507089.672    23507089.029    97837609.375  
  20541062.182   107944118.691    20541061.895    20541064.351    84112357.438  
  22180543.439   116559594.946    22180542.826    22180548.707    90825702.426  
  24614644.918   129350817.347    24614644.715    24614651.324   100792850.803  
  23761186.749   126794263.712    23761187.514                                  
  21695672.138   114011578.853    21695671.989    21695677.730    88840226.667  
  19556532.917   104504278.351    19556533.524    19556532.476    81281171.849  
  23646460.986   124263012.454    23646459.368    23646463.138    96828313.719  
 21  8 30  0  4 30.0000000  0 18R14R 4G22R16G 3G32G26G 1R 5G12R21G31
                                G25G23R 6G10R15G21
  21128804.668   112628538.516    21128804.990    21128804.942    87600000.488  
  20898283.974   111909428.662    20898284.214    20898282.599    87040691.291  
  23662774.901   124348750.175    23662774.049    23662776.713    96895130.473  
  22685286.022   121180758.705    22685287.207    22685286.976    94251770.869  
  25304292.769   132974959.783    25304293.153    25304300.719   103616866.502  
  20993246.841   110320338.170    20993246.880    20993251.426    85963965.587  
  24500751.572   128752370.200    24500749.525    24500760.650   100326543.973  
  23208526.523   121961645.519    23208525.654    23208532.048    95035058.527  
  20062348.967   107244832.424    20062349.189    20062347.953    83412687.042  
  23867727.522   125425830.303    23867727.413    23867730.997    97734442.033  
  23507757.122   125794767.837    23507758.257    23507758.176    97840393.267  
  20529927.461   107885604.849    20529927.183    20529929.584    84066762.258  
  22177354.793   116542839.663    22177354.064    22177360.872    90812646.387  
  24632098.621   129442533.021    24632097.976    24632102.596   100864317.447  
  23739957.733   126680975.344    23739956.091                                  
  21707114.751   114071710.218    21707114.679    21707120.030    88887082.251  
  19546616.026   104451285.859    19546616.598    19546615.514    81239955.479  
  23645712.642   124259077.003    23645711.019    23645713.870    96825247.095  
 21  8 30  0  5  0.0000000  0 18R14R 4G22R16G 3G32G26G 1R 5G12R21G31
                                G25G23R 6G10R15G21
  21141668.305   112697107.601    21141668.610    21141668.364    87653331.975  
  20904085.646   111940496.636    20904085.975    20904084.339    87064855.256  
  23643021.488   124244947.600    23643021.932    23643023.317    96814245.403  
  22657900.441   121034467.308    22657900.808    22657901.093    94137988.692  
  25281268.125   132853961.866    25281268.239    25281275.727   103522582.437  
  20993892.613   110323732.280    20993892.746    20993897.413    85966610.347  
  24477075.114   128627945.686    24477075.235    24477083.032   100229589.961  
  23202384.311   121929368.560    23202383.852    23202390.115    95009907.646  
  20051840.211   107188657.494    20051840.558    20051839.492    83368995.446  
  23873496.060   125456142.807    23873495.496    23873498.555    97758062.182  
  23508556.872   125799046.508    23508557.403    23508558.293    97843721.089  
  20518889.800   107827601.633    20518889.439    20518891.815    84021564.966  
  22174284.475   116526704.628    22174283.493    22174290.026    90800073.653  
  24649577.433   129534383.318    24649576.971    24649582.040   100935889.018  
  23718709.454   126567600.066    23718710.563                                  
  21718634.323   114132245.264    21718634.031    21718639.626    88934252.389  
  19536845.142   104399073.688    19536845.624    19536844.730    81199346.025  
  23645045.125   124255569.861    23645042.920    23645046.748    96822514.237  
 21  8 30  0  5 30.0000000  0 18R14R 4G22R16G 3G32G26G 1R 5G12R21G31
                                G25G23R 6G10R15G21
  21154637.916   112766244.379    21154638.257    21154638.467    87707105.008  
  20909953.891   111971919.863    20909954.217    20909952.222    87089295.527  
  23623306.273   124141341.625    23623305.780    23623307.752    96733513.489  
  22630555.281   120888396.736    22630556.157    22630556.499    94024378.311  
  25258248.036   132732990.670    25258249.152    25258253.781   103428319.199  
  20994576.640   110327326.234    20994576.685    20994581.473    85969410.828  
  24453391.310   128503486.988    24453391.928    24453399.104   100132609.238  
  23196355.132   121897685.137    23196355.089    23196361.335    94985219.275  
  20041383.539   107132759.944    20041383.807    20041382.758    83325519.577  
  23879370.737   125487013.058    23879370.309    23879373.571    97782116.910  
  23509487.349   125804027.964    23509488.070    23509487.988    97847595.568  
  20507950.182   107770113.988    20507949.893    20507952.174    83976769.415  
  22171333.000   116511195.364    22171332.466    22171339.007    90787988.528  
  24667082.305   129626371.399    24667081.461    24667086.569   101007567.983  
  23697446.324   126454143.286    23697448.170                                  
  21730231.092   114193187.583    21730231.072    21730236.865    88981739.877  
  19527221.545   104347648.103    19527221.992    19527221.196    81159348.360  
  23644459.960   124252495.098    23644458.456    23644461.257    96820118.304  
 21  8 30  0  6  0.0000000  0 18R14R 4G22R16G 3G32G26G 1R 5G12R21G31
                                G25G23R 6G10R15G21
  21167713.865   112835944.955    21167714.057    21167714.018    87761316.547  
  20915888.457   112003698.372    20915888.728    20915887.122    87114012.128  
  23603628.901   124037934.182    23603627.090    23603629.791    96652936.298  
  22603252.782   120742551.076    22603253.477    22603252.834    93910942.860  
  25235233.827   132612047.813    25235233.528    25235240.073   103334078.023  
  20995298.542   110331119.734    20995298.659    20995303.154    85972366.803  
  24429702.080   128378996.234    24429702.317    24429709.589   100035603.539  
  23190438.694   121866595.026    23190438.605    23190445.019    94960993.194  
  20030978.836   107077141.571    20030979.323    20030977.937    83282260.854  
  23885350.853   125518439.529    23885350.508    23885354.087    97806605.079  
  23510550.252   125809709.758    23510550.877    23510550.388    97852014.702  
  20497108.884   107713141.918    20497108.715    20497110.776    83932375.612  
  22168500.594   116496311.944    22168500.064    22168506.504    90776391.069  
  24684612.854   129718495.072    24684612.454    24684616.532   101079352.601  
  23676171.154   126340606.474    23676171.632                                  
  21741905.455   114254535.383    21741905.228    21741910.834    89029543.335  
  19517745.221   104297009.878    19517745.791    19517744.870    81119963.084  
  23643957.065   124249851.323    23643955.117    23643958.232    96818058.186  
 21  8 30  0  6 30.0000000  0 18R14R 4G22R16G 3G32G26G 1R 5G12R21G31
                                G25G23R 6G10R15G21
  21180894.267   112906204.800    21180894.549    21180894.495    87815963.065  
  20921888.847   112035832.294    20921889.298    20921887.685    87139005.175  
  23583988.588   123934726.610    23583988.647    23583989.876    96572514.843  
  22575993.574   120596933.147    22575993.263    22575993.497    93797684.555  
  25212224.501   132491134.629    25212226.405    25212229.883   103239860.029  
  20996058.285   110335112.360    20996058.294    20996063.219    85975477.939  
  24406006.036   128254475.603    24406006.362    24406012.680    99938574.538  
  23184635.315   121836097.769    23184634.380    23184642.417    94937229.114  
  20020626.663   107021803.499    20020627.091    20020625.988    83239220.146  
  23891436.172   125550419.549    23891435.298    23891439.456    97831524.566  
  23511741.773   125816089.580    23511743.156    23511742.621    97856976.802  
  20486365.504   107656685.468    20486365.342    20486367.503    83888383.589  
  22165787.707   116482054.256    22165786.845    22165793.505    90765281.197  
  24702168.350   129810752.001    24702168.337    24702173.006   101151241.057  
  23654879.358   126226989.043    23654880.496                                  
  21753656.464   114316286.754    21753656.072    21753661.737    89077661.255  
  19508416.462   104247159.759    19508416.822    19508416.373    81081190.786  
  23643535.794   124247637.040    23643534.254    23643537.209    96816332.740  
 21  8 30  0  7  0.0000000  0 18R14R 4G22R16G 3G32G26G 1R 5G12R21G31
                                G25G23R 6G10R15G21
  21194178.905   112977018.460    21194178.991    21194179.121    87871040.345  
  20927955.422   112068320.477    20927955.864    20927954.764    87164273.760  
  23564387.081   123831719.767    23564385.954    23564388.411    96492249.798  
  22548775.099   120451544.771    22548775.670    22548776.282    93684604.826  
  25189220.942   132370251.589    25189221.526    25189227.685   103145665.443  
  20996855.563   110339302.521    20996855.712    20996860.284    85978742.995  
  24382304.850   128129926.013    24382303.433    24382309.802    99841522.898  
  23178944.303   121806191.665    23178944.298    23178950.862    94913925.644  
  20010327.004   106966746.557    20010327.511    20010326.284    83196398.092  
  23897627.240   125582950.737    23897626.750    23897630.053    97856873.544  
  23513063.627   125823163.995    23513064.732    23513064.239    97862479.113  
  20475719.996   107600742.698    20475719.693    20475721.844    83844791.836  
  22163193.122   116468421.053    22163192.604    22163199.645    90754657.914  
  24719748.693   129903138.480    24719748.377    24719755.129   101223230.471  
  23633573.207   126113290.784    23633573.585                                  
  21765483.467   114378438.557    21765483.125    21765488.914    89126091.211  
  19499235.019   104198096.815    19499235.405    19499234.910    81043030.730  
  23643195.367   124245849.238    23643193.617    23643197.009    96814939.609  
 21  8 30  0  7 30.0000000  0 18R14R 4G22R16G 3G32G26G 1R 5G12R21G31
                                G25G23R 6G10R15G21
  21207565.797   113048379.537    21207566.029    21207566.328    87926543.393  
  20934088.585   112101161.344    20934088.861    20934087.732    87189816.635  
  23544824.017   123728913.638    23544823.102    23544825.207    96412141.165  
  22521601.700   120306387.572    22521602.233    22521601.392    93571704.873  
  25166223.476   132249398.247    25166223.770    25166229.664   103051494.055  
  20997690.215   110343688.106    20997690.164    20997694.899    85982160.337  
  24358598.679   128005347.909    24358598.619    24358606.026    99744449.086  
  23173365.497   121776874.573    23173365.674    23173371.244    94891081.151  
  20000080.019   106911970.369    20000080.482    20000079.385    83153794.397  
  23903921.389   125616028.944    23903920.929    23903924.673    97882648.776  
  23514516.235   125830928.422    23514516.422    23514515.064    97868518.116  
  20465171.874   107545311.832    20465171.730    20465173.759    83801598.970  
  22160717.511   116455410.427    22160717.240    22160723.313    90744519.764  
  24737353.051   129995650.572    24737352.773    24737357.945   101295317.749  
  23612249.806   125999511.437    23612250.167                                  
  21777386.007   114440987.117    21777385.799    21777391.299    89174830.323  
  19490200.153   104149819.979    19490200.939    19490200.341    81005482.091  
  23642935.850   124244484.713    23642934.108    23642937.055    96813876.314  
 21  8 30  0  8  0.0000000  0 18R14R 4G22R16G 3G32G26G 1R 5G12R21G31
                                G25G23R 6G10R15G21
  21221055.275   113120284.974    21221055.274    21221055.568    87982469.820  
  20940287.439   112134355.722    20940287.725    20940286.398    87215634.465  
  23525298.861   123626311.009    23525298.951    23525300.710    96332191.086  
  22494472.143   120161465.803    22494472.612    22494472.675    93458988.022  
  25143231.848   132128577.144    25143230.582    25143238.689   102957347.776  
  20998561.983   110348269.722    20998561.978    20998566.837    85985730.431  
  24334887.774   127880744.483    24334887.293    24334893.990    99647355.564  
  23167899.034   121748146.945    23167899.011    23167904.900    94868695.968  
  19989886.150   106857477.516    19989886.470    19989885.263    83111411.069  
  23910320.364   125649653.526    23910319.827    23910323.653    97908849.725  
  23516094.795   125839381.476    23516095.780    23516095.198    97875092.714  
  20454721.211   107490393.522    20454720.937    20454723.244    83758805.495  
  22158360.037   116443023.249    22158358.842    22158366.206    90734867.423  
  24754981.155   130088286.890    24754979.283    24754983.215   101367501.921  
  23590913.295   125885650.614    23590913.097                                  
  21789363.992   114503931.493    21789363.850    21789369.130    89223877.858  
  19481313.433   104102330.695    19481313.897    19481313.360    80968545.998  
  23642756.493   124243542.851    23642755.025    23642758.718    96813142.373  
 21  8 30  0  8 30.0000000  0 18R14R 4G22R16G 3G32G26G 1R 5G12R21G31
                                G25G23R 6G10R15G21
  21234646.288   113192733.856    21234646.641    21234646.533    88038818.947  
  20946552.888   112167907.098    20946553.312    20946551.850    87241729.960  
  23505813.829   123523916.838    23505813.162    23505815.597    96252403.457  
  22467387.790   120016785.907    22467388.196    22467388.180    93346459.281  
  25120247.494   132007793.197    25120247.420    25120254.632   102863230.425  
  20999471.638   110353050.458    20999471.681    20999476.635    85989455.676  
  24311172.235   127756121.307    24311171.935    24311179.602    99550246.688  
  23162544.814   121720011.737    23162545.539    23162550.306    94846772.425  
  19979746.117   106803273.124    19979746.496    19979745.264    83069252.108  
  23916823.190   125683825.701    23916822.653    23916826.078    97935477.371  
  23517803.801   125848524.089    23517804.381    23517803.654    97882203.625  
  20444368.744   107435990.956    20444368.513    20444370.757    83716413.899  
  22156121.984   116431262.765    22156122.043    22156128.155    90725703.420  
  24772632.373   130181048.497    24772633.800    24772637.405   101439783.581  
  23569561.570   125771713.414    23569560.407                                  
  21801417.567   114567273.203    21801417.263    21801422.759    89273235.021  
  19472574.408   104055632.962    19472575.066    19472574.730    80932225.550  
  23642658.447   124243025.392    23642656.194    23642659.908    96812739.126  
 21  8 30  0  9  0.0000000  0 19R14R20R 4G22R16G 3G32G26G 1R 5G12R21
                                G31G25G23R 6G10R15G21
  21248339.164   113265723.017    21248339.301    21248339.535    88095588.267  
  23747191.873   126986884.455    23747191.890    23747194.504    98767618.300  
  20952885.501   112201816.882    20952885.604    20952884.397    87268104.217  
  23486369.104   123421734.174    23486368.870    23486370.727    96172780.631  
  22440349.643   119872352.360    22440350.300    22440349.756    93234122.143  
  25097270.707   131887049.253    25097270.919    25097279.008   102769144.295  
  21000419.497   110358031.165    21000419.423    21000424.438    85993336.738  
  24287452.972   127631481.842    24287453.476    24287460.884    99453125.159  
  23157303.776   121692469.674    23157304.118    23157309.482    94825311.064  
  19969660.407   106749359.954    19969660.984    19969659.644    83027319.653  
  23923429.871   125718544.429    23923429.495    23923432.395    97962530.903  
  23519640.989   125858354.781    23519641.428    23519641.471    97889849.723  
  20434114.553   107382105.021    20434114.238    20434116.493    83674424.870  
  22154003.450   116420130.081    22154003.432    22154009.624    90717028.610  
  24790309.233   130273934.235    24790309.158    24790313.658   101512161.937  
  23548196.312   125657701.253    23548195.786                                  
  21813546.545   114631011.505    21813546.071    21813551.447    89322901.208  
  19463983.978   104009728.401    19463984.619    19463984.222    80896522.022  
  23642640.613   124242931.752    23642639.030    23642641.499    96812666.148  
 21  8 30  0  9 30.0000000  0 19R14R20R 4G22R16G 3G32G26G 1R 5G12R21
                                G31G25G23R 6G10R15G21
  21262131.710   113339244.401    21262131.629    21262131.673    88152771.548  
  23763167.709   127072319.287    23763167.849    23763170.786    98834067.561  
  20959283.706   112236081.579    20959284.409    20959283.061    87294754.519  
  23466964.417   123319761.076    23466963.957    23466965.668    96093321.111  
  22413357.311   119728164.117    22413357.762    22413357.300    93121975.805  
  25074300.697   131766343.258    25074301.065    25074308.749   102675087.732  
  21001404.759   110363207.938    21001404.737    21001409.546    85997370.575  
  24263731.814   127506824.652    24263731.765    24263741.069    99355989.880  
  23152174.800   121665516.575    23152174.301    23152181.465    94804308.657  
  19959629.049   106695736.225    19959629.494    19959628.103    82985612.316  
  23930139.399   125753804.820    23930138.599    23930141.824    97990006.544  
  23521605.222   125868867.756    23521605.748    23521606.406    97898026.445  
  20423958.139   107328731.994    20423957.660    20423960.030    83632835.518  
  22152003.828   116409621.351    22152003.719    22152009.451    90708839.983  
  24808007.096   130366938.075    24808007.028    24808012.054   101584632.362  
  23526814.502   125543611.412    23526814.955                                  
  21825749.699   114695140.826    21825749.707    21825754.958    89372872.092  
  19455541.313   103964613.879    19455542.050    19455541.629    80861432.962  
  23642702.243   124243256.980    23642700.820    23642703.730    96812919.556  
 21  8 30  0 10  0.0000000  0 19R14R20R 4G22R16G 3G32G26G 1R 5G12R21
                                G31G25G23R 6G10R15G21
  21276023.327   113413295.522    21276023.550    21276023.487    88210366.841  
  23779177.554   127157933.003    23779179.030    23779182.240    98900655.881  
  20965749.808   112270702.841    20965749.972    20965748.303    87321682.136  
  23447599.786   123218000.835    23447599.898    23447601.011    96014027.457  
  22386411.563   119584226.929    22386412.617    22386412.201    93010024.733  
  25051339.678   131645678.527    25051339.199    25051346.221   102581063.287  
  21002427.273   110368582.292    21002427.410    21002432.264    86001558.376  
  24240008.074   127382153.998    24240008.005    24240015.223    99258844.016  
  23147158.443   121639153.718    23147157.272    23147164.738    94783766.150  
  19949652.414   106642405.242    19949652.892    19949651.519    82944132.665  
  23936952.323   125789606.109    23936951.959    23936955.405    98017903.648  
  23523696.356   125880062.077    23523697.347    23523697.646    97906733.109  
  20413899.355   107275873.167    20413898.944    20413901.368    83591646.828  
  22150123.347   116399738.190    22150122.669    22150128.853    90701138.815  
  24825727.870   130460059.555    24825726.567    24825732.776   101657194.481  
  23505418.381   125429448.385    23505419.866                                  
  21838027.806   114759661.034    21838027.266    21838033.051    89423147.554  
  19447247.186   103920291.370    19447247.580    19447247.130    80826959.910  
  23642843.468   124244001.191    23642842.665    23642844.871    96813499.447  
 21  8 30  0 10 30.0000000  0 19R14R20R 4G22R16G 3G32G26G 1R 5G12R21
                                G31G25G23R 6G10R15G21
  21290013.112   113487869.407    21290013.349    21290013.548    88268368.736  
  23795221.549   127243717.157    23795221.406    23795222.811    98967376.809  
  20972280.929   112305678.268    20972281.624    20972279.720    87348885.229  
  23428275.943   123116452.779    23428275.603    23428277.477    95934899.134  
  22359512.742   119440540.896    22359513.312    22359513.524    92898269.030  
  25028385.704   131525054.029    25028386.471    25028391.282   102487070.238  
  21003487.001   110374151.295    21003487.143    21003492.059    86005897.859  
  24216281.483   127257469.448    24216281.090    24216289.843    99161687.323  
  23142253.342   121613377.937    23142252.998    23142259.623    94763681.116  
  19939730.441   106589366.117    19939730.829    19939729.611    82902880.017  
  23943866.849   125825943.303    23943866.916    23943871.072    98046218.313  
  23525915.292   125891932.340    23525916.351    23525915.754    97915965.520  
  20403937.640   107223525.525    20403937.471    20403939.782    83550856.472  
  22148361.191   116390477.824    22148360.462    22148366.891    90693922.947  
  24843469.703   130553293.684    24843469.400    24843474.562   101729844.348  
  23484011.045   125315206.177    23484011.840                                  
  21850378.890   114824567.612    21850378.930    21850384.379    89473724.087  
  19439100.658   103876758.672    19439101.135    19439100.613    80793101.162  
  23643064.425   124245159.886    23643062.566    23643065.923    96814402.315  
 21  8 30  0 11  0.0000000  0 19R14R20R 4G22R16G 3G32G26G 1R 5G12R21
                                G31G25G23R 6G10R15G21
  21304101.646   113562968.456    21304101.726    21304101.863    88326779.101  
  23811295.379   127329673.553    23811295.095    23811299.210    99034231.624  
  20978879.802   112341014.660    20978880.370    20978878.788    87376369.070  
  23408994.298   123015125.419    23408994.190    23408995.474    95855942.783  
  22332662.614   119297116.369    22332663.326    22332664.435    92786716.719  
  25005440.160   131404478.080    25005438.871    25005446.407   102393114.962  
  21004585.088   110379921.274    21004585.181    21004590.201    86010393.937  
  24192553.697   127132779.950    24192553.738    24192562.366    99064526.748  
  23137461.507   121588195.249    23137461.126    23137466.266    94744058.259  
  19929864.262   106536627.314    19929864.832    19929863.429    82861860.955  
  23950884.749   125862821.501    23950884.729    23950887.811    98074954.554  
  23528260.476   125904482.792    23528261.522    23528260.086    97925726.958  
  20394075.279   107171695.706    20394074.796    20394077.026    83510469.606  
  22146718.313   116381846.515    22146718.109    22146724.945    90687197.252  
  24861234.031   130646644.798    24861233.757    24861240.794   101802585.336  
  23462589.079   125200893.553    23462589.270                                  
  21862804.614   114889865.144    21862804.385    21862810.033    89524605.266  
  19431103.212   103834022.821    19431103.836    19431103.126    80759862.177  
  23643364.948   124246738.387    23643362.828    23643366.514    96815632.308  
 21  8 30  0 11 30.0000000  0 19R14R20R 4G22R16G 3G32G26G 1R 5G12R21
                                G31G25G23R 6G10R15G21
  21318286.295   113638581.274    21318286.570    21318286.695    88385589.050  
  23827397.587   127415790.834    23827399.051    23827402.342    99101211.738  
  20985544.780   112376705.065    20985545.250    20985543.362    87404128.254  
  23389753.406   122914014.129    23389753.284    23389755.056    95777154.782  
  22305860.839   119153949.492    22305862.299    22305862.812    92675364.863  
  24982503.388   131283945.364    24982502.727    24982511.086   102299193.418  
  21005719.955   110385885.196    21005720.168    21005724.795    86015041.145  
  24168824.009   127008080.932    24168823.655    24168831.639    98967358.740  
  23132780.247   121563598.220    23132780.521    23132786.112    94724891.765  
  19920053.585   106484183.498    19920054.063    19920052.744    82821071.326  
  23958003.180   125900231.290    23958003.265    23958005.979    98104105.039  
  23530732.470   125917703.846    23530733.426    23530730.393    97936009.980  
  20384309.109   107120376.022    20384308.815    20384311.199    83470480.247  
  22145194.418   116373837.220    22145193.299    22145200.759    90680956.254  
  24879018.792   130740104.052    24879017.944    24879024.976   101875410.726  
  23441151.147   125086505.365    23441153.600                                  
  21875302.935   114955544.950    21875302.821    21875308.593    89575784.327  
  19423253.717   103792076.987    19423254.354    19423253.529    80727237.649  
  23643743.207   124248728.080    23643741.653    23643744.339    96817182.725  
 21  8 30  0 12  0.0000000  0 19R14R20R 4G22R16G 3G32G26G 1R 5G12R21
                                G31G25G23R 6G10R15G21
  21332567.837   113714711.370    21332568.315    21332568.212    88444801.333  
  23843534.482   127502070.870    23843533.857    23843536.513    99168318.352  
  20992277.014   112412757.170    20992277.808    20992276.130    87432168.758  
  23370555.371   122813128.300    23370554.650    23370556.400    95698542.484  
  22279110.378   119011051.171    22279111.291    22279111.671    92564221.815  
  24959577.498   131163465.354    24959576.924    24959584.057   102205312.924  
  21006893.177   110392050.323    21006893.081    21006898.036    86019845.129  
  24145094.772   126883382.348    24145095.038    24145101.661    98870191.046  
  23128212.292   121539593.884    23128211.587    23128218.444    94706187.098  
  19910299.801   106432044.155    19910300.384    19910299.070    82780518.502  
  23965224.843   125938179.009    23965224.366    23965228.350    98133674.670  
  23533328.574   125931600.457    23533329.483    23533328.031    97946818.504  
  20374641.999   107069573.918    20374641.637    20374643.886    83430894.199  
  22143790.245   116366457.279    22143789.761    22143796.176    90675205.645  
  24896824.588   130833676.483    24896824.191    24896830.329   101948324.301  
  23419704.293   124972049.488    23419703.811                                  
  21887874.799   115021612.644    21887874.985    21887880.736    89627265.620  
  19415553.606   103750929.537    19415554.118    19415553.369    80695234.087  
  23644201.042   124251134.987    23644199.112    23644202.096    96819058.240  
 21  8 30  0 12 30.0000000  0 19R14R20R 4G22R16G 3G32G26G 1R 5G12R21
                                G31G25G23R 6G10R15G21
  21346944.989   113791349.346    21346945.457    21346945.520    88504408.633  
  23859698.505   127588504.236    23859698.751    23859701.764    99235544.160  
  20999076.967   112449166.383    20999077.124    20999075.248    87460487.014  
  23351399.758   122712464.671    23351399.259    23351400.873    95620103.328  
  22252410.912   118868419.953    22252411.276    22252411.405    92453286.487  
  24936659.858   131043034.719    24936659.663    24936666.962   102111470.919  
  21008103.866   110398411.669    21008103.783    21008108.666    86024802.018  
  24121365.040   126758681.728    24121364.322    24121372.202    98773021.769  
  23123756.642   121516176.833    23123756.104    23123762.425    94687940.064  
  19900602.576   106380206.049    19900603.133    19900601.654    82740199.978  
  23972547.065   125976657.434    23972546.576    23972550.362    98163657.856  
  23536049.924   125946164.934    23536050.589    23536050.377    97958146.412  
  20365072.226   107019284.592    20365071.763    20365073.820    83391707.720  
  22142504.410   116359701.619    22142503.927    22142509.713    90669941.492  
  24914651.379   130927355.159    24914650.008    24914656.500   102021320.696  
  23398240.275   124857520.525    23398241.694                                  
  21900520.249   115088061.386    21900520.008    21900525.948    89679043.834  
  19408001.771   103710575.410    19408002.398    19408001.613    80663847.555  
  23644737.448   124253952.416    23644735.268    23644738.970    96821253.619  
 21  8 30  0 13  0.0000000  0 19R14R20R 4G22R16G 3G32G26G 1R 5G12R21
                                G31G25G23R 6G10R15G21
  21361417.784   113868496.197    21361417.895    21361418.091    88564411.696  
  23875889.494   127675090.966    23875890.927    23875892.406    99302889.374  
  21005943.636   112485937.612    21005943.881    21005942.273    87489086.836  
  23332287.676   122612029.857    23332286.913    23332288.974    95541842.469  
  22225761.930   118726064.093    22225762.241    22225762.122    92342565.300  
  24913753.039   130922660.388    24913753.705    24913759.654   102017672.759  
  21009352.644   110404974.114    21009352.695    21009357.481    86029915.605  
  24097636.346   126633986.505    24097635.921    24097644.813    98675856.692  
  23119413.046   121493351.430    23119412.763    23119418.742    94670154.036  
  19890962.768   106328676.159    19890963.330    19890961.830    82700121.175  
  23979970.529   126015669.142    23979969.847    23979973.769    98194056.549  
  23538896.674   125961399.962    23538897.250    23538897.439    97969995.859  
  20355600.777   106969512.446    20355600.493    20355602.682    83352924.238  
  22141338.550   116353574.966    22141338.228    22141344.701    90665167.486  
  24932497.696   131021142.633    24932497.608    24932503.972   102094401.813  
  23376765.841   124742926.962    23376766.425                                  
  21913238.353   115154894.344    21913237.911    21913243.813    89731121.443  
  19400599.560   103671020.273    19400600.156    19400599.167    80633082.457  
  23645352.525   124257183.736    23645351.068    23645354.045    96823771.519  
 21  8 30  0 13 30.0000000  0 19R14R20R 4G22R16G 3G32G26G 1R 5G12R21
                                G31G25G23R 6G10R15G21
  21375985.091   113946148.610    21375985.501    21375985.536    88624808.016  
  23892108.665   127761827.081    23892109.774    23892113.825    99370350.725  
  21012878.072   112523072.125    21012878.442    21012876.790    87517969.217  
  23313219.506   122511827.098    23313218.977    23313220.894    95463762.422  
  22199164.922   118583988.008    22199165.287    22199164.543    92232061.720  
  24890858.021   130802345.121    24890858.108    24890863.724   101923920.732  
  21010639.778   110411738.561    21010639.939    21010644.525    86035186.601  
  24073908.830   126509300.216    24073908.578    24073916.636    98578698.601  
  23115182.228   121471118.236    23115181.937    23115188.245    94652829.477  
  19881381.195   106277457.419    19881381.746    19881380.480    82660284.373  
  23987496.018   126055213.781    23987495.530    23987498.626    98224870.538  
  23541866.756   125977303.872    23541867.951    23541870.204    97982365.564  
  20346228.064   106920258.236    20346227.819    20346229.892    83314544.346  
  22140292.542   116348078.138    22140292.179    22140298.502    90660884.241  
  24950365.783   131115037.991    24950365.227    24950370.972   102167566.979  
  23355280.544   124628269.726    23355279.168                                  
  21926029.099   115222110.719    21926028.921    21926034.659    89783497.812  
  19393346.903   103632265.140    19393347.572    19393346.770    80602939.587  
  23646046.197   124260828.560    23646044.000    23646047.074    96826611.659  
 21  8 30  0 14  0.0000000  0 19R14R20R 4G22R16G 3G32G26G 1R 5G12R21
                                G31G25G23R 6G10R15G21
  21390646.459   114024301.022    21390646.519    21390646.875    88685593.192  
  23908356.201   127848706.427    23908356.806    23908361.046    99437923.514  
  21019880.315   112560568.952    21019880.554    21019878.948    87547133.398  
  23294195.924   122411857.166    23294195.593    23294197.204    95385863.796  
  22172620.749   118442193.679    22172620.862    22172620.449    92121777.270  
  24867973.946   130682089.503    24867972.948    24867980.606   101830215.059  
  21011965.188   110418703.520    21011965.411    21011970.013    86040613.843  
  24050183.202   126384623.937    24050181.421    24050191.855    98481548.378  
  23111063.073   121449475.180    23111062.889    23111068.371    94635964.775  
  19871858.285   106226550.257    19871858.509    19871857.240    82620689.915  
  23995122.030   126095287.587    23995121.751    23995124.366    98256096.885  
  23544965.501   125993872.801    23544965.717    23544966.442    97995252.371  
  20336953.571   106871520.714    20336953.184    20336955.522    83276567.070  
  22139366.120   116343209.456    22139365.638    22139372.127    90657090.467  
  24968252.874   131209037.487    24968252.201    24968258.410   102240813.244  
  23333780.445   124513547.904    23333779.780                                  
  21938892.199   115289707.204    21938892.006    21938897.734    89836170.382  
  19386244.097   103594309.067    19386244.694    19386243.902    80573418.208  
  23646818.093   124264883.886    23646815.511    23646819.600    96829771.630  
 21  8 30  0 14 30.0000000  0 19R14R20R 4G22R16G 3G32G26G 1R 5G12R21
                                G31G25G23R 6G10R15G21
  21405400.288   114102948.610    21405400.766    21405400.797    88746763.529  
  23924629.877   127935723.362    23924630.777    23924631.419    99505603.253  
  21026949.830   112598427.542    21026950.318    21026948.821    87576578.953  
  23275216.990   122312121.380    23275216.761    23275218.166    95308147.611  
  22146129.835   118300684.072    22146129.300    22146129.676    92011714.304  
  24845100.326   130561894.599    24845100.205    24845109.611   101736556.810  
  21013328.574   110425868.342    21013328.779    21013333.438    86046196.823  
  24026460.603   126259959.614    24026459.696    24026468.099    98384407.434  
  23107057.152   121428421.168    23107056.565    23107062.663    94619559.063  
  19862393.511   106175956.079    19862393.751    19862392.580    82581338.886  
  24002847.370   126135887.623    24002847.067    24002850.719    98287733.273  
  23548185.591   126011102.882    23548186.662    23548185.755    98008653.513  
  20327777.120   106823298.239    20327776.788    20327779.088    83238991.129  
  22138559.077   116338968.092    22138558.255    22138564.982    90653785.504  
  24986159.900   131303138.383    24986160.207    24986164.844   102314138.550  
  23312269.771   124398762.656    23312270.034                                  
  21951827.214   115357681.368    21951827.073    21951832.754    89889137.245  
  19379290.377   103557151.331    19379291.274    19379290.156    80544517.759  
  23647666.745   124269347.734    23647665.094    23647668.328    96833249.956  
 21  8 30  0 15  0.0000000  0 19R14R20R 4G22R16G 3G32G26G 1R 5G12R21
                                G31G25G23R 6G10R15G21
  21420247.214   114182089.724    21420247.406    21420247.875    88808317.684  
  23940927.529   128022879.112    23940928.571    23940932.333    99573391.068  
  21034087.937   112636650.607    21034088.235    21034086.836    87606307.978  
  23256283.310   122212624.242    23256282.985    23256284.258    95230617.383  
  22119691.571   118159464.649    22119692.652    22119692.734    91901877.050  
  24822242.231   130441765.225    24822242.133    24822247.247   101642949.492  
  21014730.630   110433235.535    21014730.834    21014735.412    86051937.490  
  24002740.901   126135312.334    24002740.998    24002748.687    98287279.802  
  23103162.588   121407958.097    23103163.413    23103169.358    94603613.851  
  19852988.156   106125679.254    19852988.496    19852987.316    82542234.682  
  24010673.527   126177015.230    24010673.154    24010677.433    98319780.699  
  23551529.223   126028994.460    23551530.038    23551528.446    98022569.235  
  20318699.137   106775593.525    20318698.910    20318701.005    83201818.638  
  22137872.133   116335356.350    22137871.514    22137877.699    90650971.165  
  25004087.036   131397341.248    25004086.887    25004091.837   102387543.495  
  23290746.331   124283913.882    23290747.189                                  
  21964833.945   115426033.920    21964834.114    21964839.898    89942398.946  
  19372487.190   103520795.075    19372487.557    19372486.514    80516240.679  
  23648594.356   124274220.713    23648592.130    23648596.028    96837047.076  
 21  8 30  0 15 30.0000000  0 19R14R20R 4G22R16G 3G32G26G 1R 5G12R21
                                G31G25G23R 6G10R15G21
  21435184.926   114261715.762    21435184.955    21435185.276    88870249.033  
  23957248.501   128110158.100    23957248.953    23957252.249    99641274.206  
  21041292.846   112675234.013    21041293.285    21041292.016    87636317.274  
  23237394.408   122113363.330    23237393.933    23237396.020    95153271.244  
  22093309.425   118018534.915    22093310.191    22093310.290    91792265.094  
  24799393.261   130321698.572    24799393.765    24799400.025   101549391.154  
  21016170.082   110440800.751    21016170.224    21016175.024    86057832.465  
  23979024.551   126010680.467    23979023.889    23979032.835    98190164.123  
  23099380.573   121388081.192    23099379.893    23099386.330    94588125.344  
  19843641.673   106075717.443    19843642.154    19843641.049    82503375.485  
  24018599.620   126218663.505    24018599.482    24018602.003    98352233.904  
  23554994.971   126047540.247    23554995.653    23554994.443    98036993.732  
  20309718.790   106728401.693    20309718.770    20309720.743    83165045.788  
  22137303.297   116332369.622    22137302.849    22137309.469    90648643.843  
  25022031.427   131491639.628    25022030.529    25022036.440   102461022.761  
  23269213.708   124169004.039    23269214.611                                  
  21977912.188   115494758.723    21977911.752    21977917.913    89995950.710  
  19365832.850   103485236.033    19365833.383    19365832.263    80488583.646  
  23649598.669   124279496.982    23649596.711    23649600.729    96841158.456  
 21  8 30  0 16  0.0000000  0 19R14R20R 4G22R16G 3G32G26G 1R 5G12R21
                                G31G25G23R 6G10R15G21
  21450213.755   114341826.514    21450213.724    21450213.808    88932557.375  
  23973591.106   128197562.362    23973594.236    23973597.810    99709255.159  
  21048565.810   112714181.779    21048566.307    21048565.193    87666609.963  
  23218552.259   122014345.148    23218551.497    23218553.245    95076114.237  
  22066982.965   117877902.019    22066983.558    22066983.305    91682884.022  
  24776559.478   130201700.833    24776559.081    24776565.077   101455886.448  
  21017648.339   110448567.935    21017648.458    21017653.093    86063884.817  
  23955312.173   125886070.432    23955312.091    23955320.956    98093065.469  
  23095710.302   121368793.621    23095709.782    23095716.309    94573096.082  
  19834355.426   106026076.750    19834355.826    19834354.593    82464766.056  
  24026623.735   126260834.686    24026623.899    24026627.012    98385094.577  
  23558581.012   126066741.536    23558582.062    23558582.995    98051928.093  
  20300837.153   106681726.969    20300836.781    20300838.952    83128675.883  
  22136854.994   116330011.501    22136853.962    22136860.291    90646806.354  
  25039993.899   131586035.270    25039993.771    25039999.736   102534577.821  
  23247668.349   124054036.079    23247668.497                                  
  21991061.346   115563857.851    21991060.862    21991066.928    90049794.146  
  19359328.378   103450478.090    19359328.916    19359327.630    80461549.701  
  23650679.696   124285178.999    23650677.780    23650681.594    96845585.990  
 21  8 30  0 16 30.0000000  0 19R14R20R 4G22R16G 3G32G26G 1R 5G12R21
                                G31G25G23R 6G10R15G21
  21465331.802   114422416.234    21465332.015    21465332.417    88995238.240  
  23989963.579   128285086.313    23989963.454    23989965.645    99777329.193  
  21055907.065   112753492.644    21055907.397    21055906.076    87697185.046  
  23199755.644   121915569.769    23199755.083    23199756.875    94999146.425  
  22040712.165   117737567.682    22040712.941    22040713.016    91573735.132  
  24753737.158   130081772.099    24753736.922    24753744.855   101362435.547  
  21019164.311   110456535.452    21019164.536    21019169.221    86070093.274  
  23931604.183   125761483.265    23931603.545    23931612.306    97995984.636  
  23092151.822   121350093.257    23092150.831    23092157.030    94558524.367  
  19825129.046   105976757.406    19825129.511    19825128.575    82426406.562  
  24034747.816   126303524.721    24034746.873    24034751.793    98418359.494  
  23562290.700   126086594.150    23562291.958    23562293.668    98067368.970  
  20292053.058   106635567.084    20292052.605    20292054.995    83092707.153  
  22136525.332   116328280.140    22136524.579    22136531.023    90645457.245  
  25057974.908   131680524.554    25057974.397    25057980.475   102608205.836  
  23226111.772   123939008.937    23226112.831                                  
  22004281.071   115633327.818    22004280.936    22004286.645    90103926.553  
  19352973.603   103416519.689    19352974.072    19352972.841    80435137.614  
  23651837.425   124291263.777    23651834.850    23651838.612    96850327.335  
 21  8 30  0 17  0.0000000  0 19R14R20R 4G22R16G 3G32G26G 1R 5G12R21
                                G31G25G23R 6G10R15G21
  21480539.749   114503481.919    21480540.164    21480540.081    89058289.300  
  24006350.273   128372725.539    24006351.971    24006354.339    99845492.942  
  21063316.365   112793167.922    21063316.471    21063315.208    87728043.561  
  23181005.929   121817040.689    23181005.575    23181007.046    94922370.530  
  22014498.481   117597537.130    22014499.075    22014498.898    91464822.530  
  24730929.352   129961915.933    24730928.902    24730935.845   101269041.124  
  21020718.784   110464704.605    21020719.025    21020723.750    86076458.852  
  23907901.048   125636922.764    23907899.946    23907909.060    97898924.583  
  23088704.641   121331980.648    23088704.417    23088711.428    94544410.646  
  19815963.548   105927762.624    19815964.087    19815962.902    82388299.507  
  24042970.317   126346732.906    24042970.261    24042973.871    98452028.162  
  23566124.133   126107096.474    23566125.561    23566125.936    98083315.108  
  20283367.108   106589922.930    20283366.905    20283369.137    83057140.289  
  22136315.435   116327176.424    22136314.825    22136321.067    90644597.207  
  25075973.236   131775106.535    25075973.107    25075978.048   102681906.072  
  23204546.030   123823925.397    23204546.553                                  
  22017571.708   115703168.040    22017571.523    22017576.580    90158347.483  
  19346768.654   103383362.247    19346769.169    19346767.713    80409348.496  
  23653071.744   124297750.749    23653069.609    23653073.561    96855382.136  
 21  8 30  0 17 30.0000000  0 18R14R20R 4G22R16G 3G32G26G 1R 5G12R21
                                G31G25G23G10R15G21
  21495835.519   114585017.243    21495835.713    21495835.762    89121705.648  
  24022761.921   128460471.025    24022760.740    24022764.265    99913739.102  
  21070792.943   112833205.767    21070793.292    21070791.872    87759184.089  
  23162303.436   121718757.687    23162303.213    23162304.698    94845786.404  
  21988341.484   117457811.303    21988342.434    21988341.636    91356146.934  
  24708135.374   129842131.771    24708134.960    24708140.476   101175702.869  
  21022311.220   110473073.257    21022311.552    21022316.212    86082979.886  
  23884203.032   125512389.513    23884201.948    23884209.450    97801885.748  
  23085369.543   121314452.997    23085369.167    23085375.640    94530752.759  
  19806858.884   105879092.483    19806859.250    19806858.253    82350444.952  
  24051289.994   126390455.148    24051290.307    24051292.390    98486097.455  
  23570077.020   126128243.276    23570077.957    23570076.517    98099762.600  
  20274779.163   106544792.166    20274778.800    20274780.925    83021973.471  
  22136224.272   116326697.840    22136223.784    22136229.627    90644224.286  
  25093988.537   131869776.964    25093988.618    25093994.352   102755675.204  
  22030931.467   115773374.534    22030931.430    22030936.398    90213053.813  
  19340713.104   103351003.544    19340713.660    19340712.355    80384180.622  
  23654382.718   124304636.302    23654380.407    23654383.564    96860747.459  
 21  8 30  0 18  0.0000000  0 17R14R 4G22R16G 3G32G26G 1R 5G12R21G31
                                G25G23G10R15G21
  21511219.935   114667022.939    21511220.074    21511219.982    89185487.829  
  21078338.610   112873611.202    21078338.711    21078337.556    87790610.506  
  23143649.089   121620727.605    23143648.800    23143649.654    94769399.335  
  21962242.960   117318398.629    21962243.883    21962243.064    91247714.890  
  24685355.428   129722426.890    24685354.369    24685362.924   101082426.312  
  21023942.508   110481646.304    21023942.674    21023947.770    86089660.194  
  23860511.389   125387890.891    23860510.827    23860519.910    97704873.934  
  23082146.363   121297514.535    23082146.369    23082152.968    94517553.945  
  19797816.086   105830753.451    19797816.635    19797815.241    82312847.928  
  24059708.615   126434694.726    24059707.689    24059711.617    98520569.850  
  23574149.334   126150036.793    23574149.771    23574148.811    98116713.146  
  20266289.504   106500179.198    20266289.145    20266291.459    82987210.129  
  22136252.776   116326848.859    22136252.485    22136259.106    90644341.966  
  25112021.297   131964538.754    25112021.107    25112025.770   102829515.525  
  22044361.827   115843950.257    22044361.829    22044366.576    90268047.861  
  19334808.116   103319448.648    19334808.471    19334807.048    80359637.930  
  23655769.257   124311923.477    23655767.655    23655770.942    96866425.750  
 21  8 30  0 18 30.0000000  0 17R14R 4G22R16G 3G32G26G 1R 5G12R21G31
                                G25G23G10R15G21
  21526690.650   114749492.697    21526690.822    21526691.103    89249630.950  
  21085952.394   112914382.057    21085952.612    21085951.178    87822321.145  
  23125042.765   121522950.564    23125041.753    23125043.639    94693209.455  
  21936203.585   117179300.086    21936203.894    21936203.586    91139527.203  
  24662592.395   129602800.783    24662592.544    24662598.043   100989211.206  
  21025612.431   110490421.560    21025612.401    21025617.377    86096498.061  
  23836826.784   125263427.399    23836825.911    23836833.434    97607889.416  
  23079034.420   121281162.279    23079033.480    23079040.688    94504811.916  
  19788835.266   105782745.574    19788835.845    19788834.505    82275508.468  
  24068225.091   126479446.935    24068225.637    24068228.367    98555441.654  
  23578340.381   126172472.110    23578340.767    23578341.012    98134162.864  
  20257897.940   106456081.502    20257897.600    20257899.853    82952848.298  
  22136401.038   116327626.898    22136400.438    22136407.214    90644948.230  
  25130068.358   132059387.610    25130070.137    25130075.511   102903423.663  
  22057861.278   115914891.118    22057861.369    22057866.659    90323326.429  
  19329052.800   103288695.118    19329053.344    19329052.180    80335718.525  
  23657231.249   124319608.382    23657229.577    23657232.450    96872413.981  
 21  8 30  0 19  0.0000000  0 18R14R 6R 4G22R16G 3G32G26G 1R 5G12R21
                                G31G25G23G10R15G21
  21542248.077   114832422.003    21542248.392    21542248.635    89314131.511  
  23118178.381   123363029.815    23118178.146                                  
  21093634.212   112955518.253    21093634.454    21093633.394    87854315.938  
  23106484.643   121425428.065    23106484.322    23106485.887    94617217.926  
  21910222.987   117040518.977    21910223.920    21910223.302    91031586.395  
  24639843.329   129483255.402    24639843.202    24639850.451   100896058.937  
  21027320.858   110499398.719    21027320.771    21027325.811    86103493.258  
  23813148.999   125139001.383    23813148.045    23813156.522    97510934.177  
  23076034.062   121265395.179    23076033.800    23076040.104    94492525.884  
  19779916.971   105735070.581    19779917.285    19779915.929    82238427.916  
  24076838.162   126524709.184    24076838.164    24076841.111    98590710.929  
  23582651.215   126195545.948    23582651.893    23582652.923    98152109.147  
  20249604.424   106412498.110    20249604.163    20249606.161    82918887.224  
  22136668.279   116329031.095    22136667.376    22136673.901    90646042.416  
  25148135.256   132154321.150    25148132.693    25148141.088   102977397.675  
  22071429.800   115986194.940    22071429.697    22071434.983    90378887.818  
  19323447.543   103258742.537    19323448.239    19323446.770    80312422.077  
  23658768.705   124327689.407    23658766.390    23658771.209    96878710.852  
 21  8 30  0 19 30.0000000  0 18R14R 6R 4G22R16G 3G32G26G 1R 5G12R21
                                G31G25G23G10R15G21
  21557891.296   114915808.146    21557891.404    21557891.584    89378987.371  
  23096560.493   123247683.166    23096560.720                                  
  21101384.934   112997021.446    21101384.982    21101383.618    87886596.167  
  23087975.809   121328164.031    23087975.669    23087976.766    94541427.787  
  21884302.778   116902060.326    21884303.688    21884303.392    90923896.407  
  24617111.323   129363794.171    24617111.005    24617117.107   100802972.366  
  21029067.746   110508579.319    21029067.944    21029072.743    86110646.979  
  23789479.333   125014617.004    23789478.376    23789486.884    97414011.305  
  23073144.916   121250214.016    23073144.850    23073151.356    94480696.403  
  19771061.124   105687731.857    19771061.458    19771060.059    82201608.913  
  24085547.836   126570480.982    24085546.981    24085550.221    98626377.239  
  23587085.149   126219256.807    23587085.959    23587084.646    98170550.823  
  20241408.801   106369430.545    20241408.491    20241410.784    82885328.092  
  22137054.955   116331062.661    22137054.333    22137060.281    90647625.464  
  25166216.348   132249338.567    25166214.496    25166221.377   103051437.141  
  22085067.697   116057861.353    22085067.332    22085072.820    90434731.753  
  19317992.586   103229592.301    19317993.121    19317991.749    80289749.676  
  23660382.273   124336166.231    23660379.877    23660383.256    96885316.153  
 21  8 30  0 20  0.0000000  0 18R14R 6R 4G22R16G 3G32G26G 1R 5G12R21
                                G31G25G23G10R15G21
  21573619.043   114999645.925    21573619.110    21573619.124    89444194.522  
  23074937.053   123132288.298    23074938.104                                  
  21109203.472   113038891.027    21109203.971    21109202.590    87919161.371  
  23069516.320   121231159.983    23069516.442    23069518.075    94465840.242  
  21858443.973   116763926.939    21858444.922    21858444.364    90816459.382  
  24594392.882   129244418.476    24594391.552    24594399.766   100709952.330  
  21030853.469   110517962.814    21030853.637    21030858.320    86117958.799  
  23765817.563   124890276.226    23765818.220    23765825.088    97317122.464  
  23070367.445   121235617.216    23070367.507    23070373.013    94469322.273  
  19762268.383   105640730.721    19762268.953    19762267.473    82165052.489  
  24094354.953   126616759.551    24094353.812    24094356.978    98662438.475  
  23591634.636   126243600.954    23591635.111    23591634.552    98189485.184  
  20233311.397   106326877.677    20233310.979    20233313.060    82852170.024  
  22137560.104   116333720.228    22137560.346    22137566.164    90649696.296  
  25184313.748   132344437.246    25184312.914    25184318.276   103125539.999  
  22098773.659   116129887.645    22098773.670    22098778.878    90490856.106  
  19312687.429   103201243.353    19312687.951    19312686.699    80267700.499  
  23662070.547   124345036.282    23662069.025    23662071.070    96892227.849  
 21  8 30  0 20 30.0000000  0 17R14R 6R 4G22R16G 3G32G26G 1R 5G12R21
                                G31G25G10R15G21
  21589430.506   115083930.424    21589430.640    21589430.487    89509749.111  
  23053300.744   123016844.447    23053302.656                                  
  21117090.635   113081125.798    21117090.977    21117089.628    87952010.612  
  23051106.932   121134416.684    23051106.103    23051107.993    94390455.866  
  21832647.014   116626120.746    21832647.148    21832646.904    90709276.831  
  24571694.930   129125129.322    24571694.350    24571701.418   100616999.754  
  21032677.471   110527548.018    21032677.475    21032682.502    86125427.790  
  23742165.230   124765980.536    23742165.245    23742172.623    97220268.748  
  23067701.029   121221602.857    23067701.057    23067707.105    94458401.966  
  19753539.496   105594068.147    19753539.666    19753538.210    82128759.388  
  24103257.151   126663541.664    24103256.491    24103260.567    98698892.042  
  23596299.781   126268574.491    23596300.044    23596301.259    98208909.022  
  20225311.325   106284837.821    20225311.158    20225313.304    82819411.704  
  22138184.821   116337002.176    22138184.736    22138191.039    90652253.648  
  22112547.198   116202270.783    22112547.321    22112552.741    90547258.524  
  19307532.257   103173694.532    19307532.627    19307531.294    80246273.649  
  23663832.540   124354296.973    23663830.768    23663833.700    96899443.948  
 21  8 30  0 21  0.0000000  0 17R14R 6R 4G22R16G 3G32G26G 1R 5G12R21
                                G31G25G10R15G21
  21605325.436   115168658.629    21605325.455    21605325.438    89575648.798  
  23031660.029   122901355.041    23031659.694                                  
  21125046.667   113123727.537    21125046.771    21125045.467    87985145.267  
  23032747.687   121037937.277    23032746.888    23032748.834    94315277.123  
  21806911.601   116488646.943    21806911.930    21806911.908    90602352.811  
  24549010.997   129005929.947    24549010.793    24549016.429   100524117.171  
  21034540.224   110537336.505    21034540.157    21034545.115    86133055.189  
  23718522.178   124641734.110    23718521.487    23718530.402    97123453.415  
  23065144.815   121208171.558    23065145.116    23065150.846    94447936.024  
  19744874.170   105547747.724    19744874.497    19744873.143    82092732.413  
  24112254.245   126710826.176    24112253.516    24112258.217    98735737.091  
  23601082.530   126294175.639    23601083.441    23601084.542    98228821.007  
  20217409.082   106243311.987    20217408.863    20217411.062    82787053.921  
  22138928.519   116340909.427    22138928.251    22138934.359    90655298.263  
  22126389.268   116275010.346    22126388.991    22126394.888    90603938.667  
  19302526.708   103146946.990    19302527.144    19302525.883    80225470.010  
  23665668.643   124363947.857    23665666.683    23665670.179    96906964.073  
 21  8 30  0 21 30.0000000  0 17R14R 6R 4G22R16G 3G32G26G 1R 5G12R21
                                G31G25G10R15G21
  21621303.081   115253828.830    21621303.248    21621303.508    89641892.273  
  23010009.925   122785823.768    23010008.442                                  
  21133070.854   113166698.822    21133071.364    21133069.910    88018567.352  
  23014439.318   120941726.942    23014438.458    23014440.313    94240308.050  
  21781239.779   116351510.761    21781239.741    21781239.202    90495691.395  
  24526346.510   128886825.383    24526346.944    24526353.696   100431308.406  
  21036441.990   110547330.830    21036442.158    21036447.022    86140842.975  
  23694889.178   124517542.206    23694889.010    23694897.207    97026680.574  
  23062700.123   121195324.994    23062700.377    23062705.709    94437925.715  
  19736273.795   105501773.858    19736274.033    19736272.935    82056974.977  
  24121348.743   126758614.097    24121348.300    24121350.499    98772974.408  
  23605985.986   126320404.187    23605986.917    23605985.962    98249220.878  
  20209605.234   106202302.288    20209605.098    20209607.230    82755098.318  
  22139791.396   116345443.936    22139790.351    22139796.922    90658831.663  
  22140299.235   116348106.852    22140299.311    22140304.910    90660896.949  
  19297671.808   103121002.864    19297672.041    19297670.699    80205291.252  
  23667579.867   124373990.041    23667577.484    23667581.326    96914789.116  
 21  8 30  0 22  0.0000000  0 17R14R 6R 4G22R16G 3G32G26G 1R 5G12R21
                                G31G25G10R15G21
  21637362.251   115339435.660    21637362.574    21637362.697    89708475.339  
  22988349.696   122670250.650    22988351.143                                  
  21141164.197   113210038.208    21141164.730    21141163.049    88052275.740  
  22996182.344   120845786.285    22996181.799    22996183.991    94165549.130  
  21755630.742   116214715.181    21755631.379    21755631.148    90389294.897  
  24503699.164   128767815.977    24503701.844    24503704.124   100338573.931  
  21038382.664   110557529.678    21038382.836    21038387.697    86148790.129  
  23671267.257   124393406.082    23671266.584    23671274.589    96929951.234  
  23060366.120   121183060.868    23060366.464    23060371.881    94428369.241  
  19727738.383   105456147.283    19727738.842    19727737.470    82021487.658  
  24130536.907   126806901.645    24130536.874    24130540.113    98810601.107  
  23611004.115   126347255.396    23611005.235    23611003.313    98270105.144  
  20201899.397   106161806.998    20201899.107    20201901.073    82723543.555  
  22140773.472   116350603.808    22140773.365    22140779.355    90662852.324  
  22154276.272   116421556.992    22154276.022    22154282.350    90718130.779  
  19292966.718   103095860.415    19292966.980    19292965.624    80185736.018  
  23669565.226   124384420.568    23669563.819    23669565.806    96922916.758  
 21  8 30  0 22 30.0000000  0 17R14R 6R 4G22R16G 3G32G26G 1R 5G12R21
                                G31G25G10R15G21
  21653503.547   115425477.404    21653504.348    21653503.999    89775396.686  
  22966685.012   122554639.424    22966686.165                                  
  21149327.022   113253748.519    21149327.176    21149325.742    88086272.627  
  22977977.785   120750119.937    22977977.445    22977978.906    94091003.932  
  21730087.248   116078265.727    21730087.762    21730087.749    90283167.603  
  24481071.265   128648906.741    24481070.136    24481079.530   100245917.354  
  21040362.992   110567935.700    21040363.081    21040367.805    86156898.720  
  23647656.129   124269331.007    23647654.855    23647664.491    96833269.422  
  23058143.910   121171380.900    23058144.362    23058149.295    94419267.928  
  19719268.672   105410872.677    19719269.127    19719267.809    81986274.092  
  24139821.272   126855688.695    24139821.045    24139825.207    98848616.966  
  23616138.067   126374728.906    23616139.007    23616137.661    98291473.454  
  20194291.519   106121828.150    20194291.407    20194293.470    82692391.217  
  22141874.849   116356390.867    22141874.585    22141879.922    90667361.735  
  22168321.001   116495361.411    22168320.528    22168326.561    90775640.680  
  19288411.792   103071521.854    19288412.397    19288411.021    80166806.037  
  23671623.726   124395239.655    23671622.344    23671624.890    96931347.218  
 21  8 30  0 23  0.0000000  0 17R14R 6R 4G22R16G 3G32G26G 1R 5G12R21
                                G31G25G10R15G21
  21669725.633   115511949.253    21669726.111    21669726.347    89842652.534  
  22945012.906   122438990.867    22945012.655                                  
  21157558.790   113297829.037    21157559.056    21157557.549    88120557.452  
  22959825.564   120654729.188    22959825.335    22959826.386    94016673.514  
  21704608.543   115942164.927    21704609.147    21704608.774    90177311.492  
  24458463.895   128530098.646    24458465.249    24458469.706   100153339.755  
  21042382.480   110578548.115    21042382.522    21042387.364    86165168.139  
  23624056.647   124145318.769    23624057.279    23624065.076    96736636.623  
  23056032.141   121160283.257    23056031.352    23056038.721    94410620.413  
  19710865.155   105365950.948    19710865.568    19710864.339    81951334.985  
  24149199.944   126904972.401    24149199.564    24149203.173    98887019.790  
  23621386.278   126402820.910    23621387.334    23621388.180    98313322.774  
  20186781.777   106082364.213    20186781.585    20186783.722    82661640.100  
  22143094.850   116362803.642    22143093.824    22143099.903    90672358.698  
  22182432.776   116569517.234    22182432.392    22182437.961    90833424.411  
  19284007.470   103047985.955    19284007.898    19284006.716    80148500.345  
  23673755.303   124406444.893    23673753.780    23673757.846    96940078.553  
 21  8 30  0 23 30.0000000  0 17R14R 6R 4G22R16G 3G32G26G 1R 5G12R21
                                G31G25G10R15G21
  21686027.775   115598847.269    21686028.076    21686028.365    89910239.874  
  22923334.951   122323306.236    22923334.514                                  
  21165859.948   113342280.370    21165860.030    21165858.734    88155130.688  
  22941725.772   120559616.760    22941725.380    22941727.028    93942559.958  
  21679196.183   115806416.997    21679196.509    21679196.305    90071729.826  
  24435874.200   128411394.604    24435872.772    24435879.904   100060843.107  
  21044441.409   110589367.680    21044441.651    21044446.200    86173598.966  
  23600470.253   124021372.868    23600470.727    23600478.255    96640055.473  
  23054030.693   121149767.642    23054030.649    23054037.265    94402426.405  
  19702528.155   105321384.938    19702528.594    19702527.400    81916672.549  
  24158672.376   126954751.480    24158672.244    24158674.202    98925808.714  
  23626751.434   126431528.795    23626752.504    23626754.339    98335651.026  
  20179370.040   106043415.136    20179369.939    20179371.935    82631290.176  
  22144434.306   116369842.116    22144433.323    22144439.600    90677843.224  
  22196610.955   116644023.162    22196610.482    22196616.068    90891480.949  
  19279752.977   103025252.840    19279753.690    19279752.390    80130819.038  
  23675961.119   124418035.362    23675958.373    23675963.180    96949110.026  
 21  8 30  0 24  0.0000000  0 17R14R 6R 4G22R16G 3G32G26G 1R 5G12R21
                                G31G25G10R15G21
  21702407.941   115686162.614    21702408.305    21702408.421    89978151.770  
  22901647.107   122207582.313    22901646.352                                  
  21174228.799   113387097.654    21174229.050    21174227.828    88189988.564  
  22923679.297   120464779.846    22923678.485    22923680.200    93868661.092  
  21653849.687   115671020.355    21653850.063    21653849.600    89966421.400  
  24413306.224   128292791.877    24413306.618    24413311.035    99968425.502  
  21046538.795   110600389.611    21046538.909    21046543.711    86182187.485  
  23576896.812   123897491.013    23576895.826    23576905.367    96543524.278  
  23052139.857   121139828.288    23052139.702    23052145.892    94394681.409  
  19694257.166   105277171.736    19694257.563    19694256.385    81882284.517  
  24168237.333   127005018.705    24168236.752    24168241.424    98964977.979  
  23632231.981   126460844.371    23632232.505    23632232.274    98358451.921  
  20172055.388   106004975.814    20172055.212    20172057.321    82601337.466  
  22145892.009   116377500.749    22145891.723    22145897.649    90683810.977  
  22210854.101   116718872.351    22210853.952    22210858.888    90949804.966  
  19275648.032   103003316.990    19275648.596    19275647.417    80113757.827  
  23678239.203   124430004.441    23678237.013    23678240.682    96958436.553  
 21  8 30  0 24 30.0000000  0 17R14R 6R 4G22R16G 3G32G26G 1R 5G12R21
                                G31G25G10R15G21
  21718865.626   115773892.995    21718866.061    21718866.067    90046386.483  
  22879953.656   122091823.083    22879953.520                                  
  21182666.837   113432283.098    21182667.335    21182665.856    88225132.770  
  22905685.880   120370222.917    22905684.810    22905686.439    93794980.404  
  21628569.332   115535980.563    21628570.484    21628569.585    89861390.478  
  24390755.439   128174294.713    24390755.657    24390761.746    99876090.158  
  21048675.088   110611616.187    21048675.242    21048680.232    86190935.467  
  23553336.159   123773678.280    23553335.381    23553343.555    96447046.878  
  23050358.562   121130466.289    23050358.416    23050363.563    94387386.337  
  19686052.946   105233315.893    19686053.407    19686052.149    81848174.430  
  24177896.479   127055773.536    24177896.126    24177899.675    99004527.155  
  23637823.153   126490766.701    23637823.841    23637822.012    98381724.839  
  20164838.025   105967047.808    20164837.824    20164839.693    82571783.183  
  22147467.246   116385780.997    22147466.956    22147472.936    90690263.132  
  22225162.813   116794065.159    22225162.675    22225167.980    91008396.745  
  19271692.883   102982180.188    19271693.218    19271692.035    80097318.095  
  23680589.431   124442352.521    23680587.426    23680590.233    96968058.398  
 21  8 30  0 25  0.0000000  0 17R14R 6R 4G22R16G 3G32G26G 1R 5G12R21
                                G31G25G10R15G21
  21735401.220   115862036.291    21735401.769    21735401.995    90114942.348  
  22858253.288   121976028.235    22858253.582                                  
  21191174.046   113477838.498    21191174.447    21191173.008    88260564.736  
  22887745.937   120275949.641    22887745.443    22887746.793    93721520.731  
  21603357.894   115401302.773    21603358.661    21603357.730    89756641.125  
  24368227.737   128055907.112    24368228.032    24368234.955    99783840.134  
  21050850.803   110623049.194    21050850.977    21050855.843    86199844.300  
  23529789.497   123649938.960    23529789.393    23529795.895    96350626.717  
  23048686.406   121121682.339    23048687.042    23048693.293    94380541.714  
  19677916.335   105189820.716    19677916.722    19677915.472    81814344.862  
  24187647.293   127107016.036    24187647.417    24187650.707    99044456.391  
  23643527.288   126521294.136    23643528.407    23643526.215    98405468.477  
  20157717.999   105929632.113    20157717.743    20157719.752    82542628.109  
  22149161.484   116394683.799    22149161.330    22149166.742    90697200.363  
  22239536.367   116869600.927    22239536.177    22239542.001    91067255.765  
  19267887.120   102961843.500    19267887.557    19267886.116    80081500.672  
  23683011.078   124455079.370    23683009.257    23683012.810    96977975.405  
 21  8 30  0 25 30.0000000  0 17R14R 6R 4G22R16G 3G32G26G 1R 5G12R21
                                G31G25G10R15G21
  21752013.883   115950589.978    21752013.858    21752014.075    90183817.401  
  22836550.907   121860207.195    22836550.489                                  
  21199750.423   113523765.603    21199750.716    21199749.321    88296285.800  
  22869861.008   120181964.027    22869860.647    22869862.309    93648285.233  
  21578215.361   115266992.226    21578215.461    21578214.203    89652177.399  
  24345720.470   127937632.876    24345721.231    24345724.980    99691678.458  
  21053066.037   110634690.578    21053066.041    21053071.014    86208915.496  
  23506257.148   123526277.718    23506257.372    23506264.688    96254267.352  
  23047125.285   121113477.210    23047124.161    23047132.086    94374148.067  
  19669847.855   105146690.439    19669848.296    19669846.861    81780799.102  
  24197490.848   127158745.354    24197490.163    24197493.831    99084764.929  
  23649342.868   126552425.680    23649343.554    23649345.762    98429681.874  
  20150695.807   105892729.952    20150695.507    20150697.485    82513873.181  
  22150974.222   116404210.153    22150973.190    22150979.805    90704623.516  
  22253975.760   116945479.652    22253975.408    22253981.233    91126382.013  
  19264231.189   102942308.142    19264231.681    19264230.194    80066306.510  
  23685504.112   124468184.948    23685502.514    23685507.035    96988187.534  
 21  8 30  0 26  0.0000000  0 17R14R 6R 4G22R16G 3G32G26G 1R 5G12R21
                                G31G25G10R15G21
  21768701.641   116039547.828    21768702.201    21768702.302    90253006.830  
  22814837.125   121744356.079    22814838.795                                  
  21208396.132   113570062.420    21208396.495    21208395.214    88332294.411  
  22852031.118   120088266.384    22852030.872    22852031.883    93575274.115  
  21553140.911   115133050.061    21553141.193    21553140.710    89548000.183  
  24323235.188   127819472.338    24323236.411    24323242.155    99599605.368  
  21055320.587   110646538.530    21055320.623    21055325.768    86218147.659  
  23482740.540   123402695.343    23482740.381    23482748.053    96157969.435  
  23045673.625   121105847.939    23045673.468    23045679.085    94368203.168  
  19661847.636   105103925.007    19661848.140    19661846.777    81747537.110  
  24207427.231   127210957.132    24207426.549    24207429.976    99125449.414  
  23655275.091   126584155.982    23655275.975    23655276.303    98454360.855  
  20143770.812   105856339.109    20143770.515    20143772.573    82485516.685  
  22152905.483   116414357.392    22152905.069    22152910.743    90712530.440  
  22268479.449   117021697.410    22268479.273    22268485.034    91185772.437  
  19260724.738   102923571.477    19260725.444    19260724.058    80051733.552  
  23688070.605   124481665.957    23688069.050    23688072.083    96998692.157  
 21  8 30  0 26 30.0000000  0 17R14R 6R 4G22R16G 3G32G26G 1R 5G12R21
                                G31G25G10R15G21
  21785464.613   116128901.055    21785464.602    21785465.082    90322503.729  
  22793121.767   121628472.593    22793123.091                                  
  21217110.094   113616724.453    21217110.344    21217109.175    88368587.080  
  22834255.224   119994854.169    22834255.203    22834256.575    93502485.401  
  21528135.313   114999475.402    21528135.489    21528134.842    89444108.830  
  24300770.668   127701423.134    24300772.622    24300777.180    99507619.107  
  21057613.784   110658588.613    21057613.742    21057618.703    86227537.322  
  23459238.297   123279190.012    23459238.274    23459245.481    96061731.568  
  23044329.654   121098788.797    23044330.175    23044335.286    94362702.515  
  19653915.212   105061521.747    19653915.726    19653914.498    81714556.809  
  24217452.795   127263644.378    24217452.318    24217456.590    99166504.411  
  23661315.423   126616476.729    23661316.201    23661316.280    98479499.157  
  20136941.997   105820454.163    20136941.772    20136944.017    82457554.398  
  22154953.300   116425120.062    22154953.484    22154958.919    90720916.952  
  22283046.436   117098247.591    22283045.986    22283051.746    91245421.887  
  19257366.892   102905628.250    19257367.460    19257366.293    80037777.715  
  23690705.263   124495515.518    23690703.401    23690707.347    97009484.004  
 21  8 30  0 27  0.0000000  0 17R14R 6R 4G22R16G 3G32G26G 1R 5G12R21
                                G31G25G10R15G21
  21802301.397   116218652.033    21802301.424    21802302.098    90392310.032  
  22771401.107   121512563.889    22771400.743                                  
  21225893.439   113663758.234    21225893.597    21225892.056    88405168.894  
  22816535.357   119901735.966    22816534.328    22816536.266    93429925.789  
  21503199.157   114866277.969    21503200.529    21503200.038    89340510.880  
  24278330.697   127583493.995    24278329.763    24278336.146    99415726.244  
  21059946.464   110670847.346    21059946.681    21059951.490    86237089.576  
  23435752.385   123155770.966    23435752.192    23435759.292    95965560.935  
  23043096.565   121092305.215    23043096.726    23043101.174    94357650.371  
  19646052.246   105019489.374    19646052.746    19646051.349    81681864.973  
  24227569.618   127316811.722    24227569.280    24227572.331    99207933.460  
  23667466.471   126649391.487    23667466.529    23667464.800    98505099.564  
  20130210.789   105785080.947    20130210.681    20130212.622    82429990.854  
  22157119.862   116436503.844    22157119.189    22157125.178    90729787.409  
  22297677.782   117175134.555    22297677.814    22297683.465    91305333.778  
  19254158.766   102888484.021    19254159.225    19254157.948    80024443.320  
  23693412.991   124509738.242    23693410.147    23693413.756    97020566.630  
 21  8 30  0 27 30.0000000  0 17R14R 6R 4G22R16G 3G32G26G 1R 5G12R21
                                G31G25G10R15G21
  21819211.752   116308793.581    21819211.899    21819212.471    90462420.079  
  22749672.918   121396631.872    22749674.943                                  
  21234745.225   113711160.341    21234745.517    21234744.335    88442037.171  
  22798871.120   119808910.732    22798870.237    22798872.096    93357594.470  
  21478335.292   114733458.096    21478335.920    21478335.402    89237206.593  
  24255911.853   127465683.852    24255911.576    24255918.135    99323926.241  
  21062318.391   110683311.784    21062318.503    21062323.320    86246802.119  
  23412282.604   123032437.817    23412282.377    23412290.248    95869457.256  
  23041970.833   121086392.835    23041971.003    23041977.207    94353043.317  
  19638258.372   104977826.881    19638258.790    19638257.540    81649460.824  
  24237778.200   127370453.875    24237777.873    24237780.803    99249732.573  
  23673724.612   126682893.752    23673725.631    23673724.367    98531156.956  
  20123575.999   105750215.811    20123575.837    20123578.037    82402823.228  
  22159403.510   116448504.691    22159403.110    22159409.063    90739138.728  
  22312372.238   117252353.261    22312372.011    22312377.199    91365504.168  
  19251099.186   102872134.965    19251099.797    19251098.554    80011727.393  
  23696188.879   124524329.287    23696186.793    23696190.334    97031936.281  
 21  8 30  0 28  0.0000000  0 17R14R 6R 4G22R16G 3G32G26G 1R 5G12R21
                                G31G25G10R15G21
  21836194.977   116399323.097    21836195.121    21836195.249    90532831.902  
  22727944.991   121280673.891    22727945.282                                  
  21243666.446   113758932.851    21243666.782    21243665.619    88479193.540  
  22781263.655   119716382.212    22781262.946    22781264.990    93285494.348  
  21453543.271   114601020.861    21453543.852    21453543.148    89134199.890  
  24233516.323   127347996.772    24233516.776    24233523.061    99232222.079  
  21064729.642   110695983.834    21064729.946    21064734.851    86256676.437  
  23388830.230   122909195.164    23388829.483    23388837.607    95773424.092  
  23040955.243   121081052.330    23040953.377    23040961.614    94348881.857  
  19630534.713   104936538.122    19630534.993    19630533.650    81617347.354  
  24248075.893   127424569.072    24248075.927    24248079.545    99291900.238  
  23680095.469   126716982.006    23680096.870    23680096.667    98557669.960  
  20117038.306   105715859.623    20117038.242    20117040.203    82376052.174  
  22161804.796   116461123.496    22161804.302    22161809.861    90748971.572  
  22327129.571   117329903.331    22327129.185    22327134.882    91425932.774  
  19248188.742   102856582.193    19248189.233    19248188.013    79999630.805  
  23699035.809   124539288.486    23699033.560    23699036.781    97043592.785  
 21  8 30  0 28 30.0000000  0 17R14R 6R 4G22R16G 3G32G26G 1R 5G12R21
                                G31G25G10R15G21
  21853250.490   116490238.285    21853250.763    21853250.971    90603543.677  
  22706211.240   121164696.006    22706209.773                                  
  21252657.449   113807077.350    21252657.785    21252656.191    88516639.238  
  22763713.287   119624154.549    22763712.567    22763714.501    93213628.662  
  21428823.960   114468970.925    21428824.248    21428823.112    89031494.407  
  24211145.844   127230436.612    24211145.860    24211151.563    99140616.759  
  21067181.024   110708865.291    21067181.098    21067186.079    86266713.926  
  23365395.153   122786047.407    23365394.465    23365402.908    95677464.910  
  23040047.588   121076284.229    23040047.779    23040053.789    94345166.462  
  19622881.189   104895626.717    19622881.729    19622880.225    81585527.374  
  24258463.076   127479157.340    24258463.128    24258466.730    99334436.514  
  23686577.039   126751654.371    23686577.645    23686577.184    98584637.281  
  20110597.626   105682013.713    20110597.465    20110599.526    82349678.741  
  22164323.965   116474361.005    22164322.903    22164329.262    90759286.510  
  22341949.741   117407784.403    22341949.870    22341955.431    91486619.294  
  19245427.428   102841826.423    19245428.003    19245426.780    79988154.105  
  23701952.244   124554615.640    23701949.960    23701954.701    97055535.985  
 21  8 30  0 29  0.0000000  0 17R14R 6R 4G22R16G 3G32G26G 1R 5G12R21
                                G31G25G10R15G21
  21870377.030   116581530.925    21870377.260    21870377.242    90674549.049  
  22684471.546   121048695.864    22684471.966                                  
  21261716.899   113855589.793    21261717.160    21261715.727    88554371.126  
  22746219.912   119532226.256    22746219.656    22746220.898    93141996.248  
  21404176.170   114337308.059    21404176.342    21404175.713    88929089.993  
  24188798.119   127113001.852    24188797.366    24188803.212    99049109.216  
  21069671.410   110721952.503    21069671.553    21069676.449    86276911.744  
  23341979.333   122662993.593    23341978.685    23341987.553    95581578.884  
  23039247.773   121072083.442    23039248.252    23039253.957    94341893.107  
  19615298.189   104855090.945    19615298.625    19615297.155    81553999.554  
  24268940.694   127534213.279    24268940.520    24268942.963    99377337.242  
  23693163.560   126786903.881    23693163.717    23693164.210    98612053.527  
  20104253.291   105648673.424    20104252.994    20104255.011    82323699.303  
  22166959.715   116488212.457    22166958.777    22166964.814    90770079.857  
  22356831.869   117485990.672    22356832.237    22356837.503    91547559.220  
  19242814.453   102827862.871    19242814.753    19242813.485    79977293.572  
  23704937.711   124570305.396    23704936.637    23704940.019    97067761.755  
 21  8 30  0 29 30.0000000  0 17R14R 6R 4G22R16G 3G32G26G 1R 5G12R21
                                G31G25G10R15G21
  21887573.287   116673196.297    21887573.273    21887573.766    90745844.284  
  22662728.876   120932673.980    22662728.981                                  
  21270844.580   113904469.409    21270845.061    21270843.659    88592388.589  
  22728783.668   119440598.865    22728783.363    22728784.997    93070598.311  
  21379601.447   114206035.381    21379602.009    21379601.802    88826989.049  
  24166475.792   126995694.213    24166476.142    24166482.358    98957700.651  
  21072201.105   110735245.073    21072200.958    21072206.084    86287269.581  
  23318581.293   122540035.959    23318580.964    23318588.659    95485767.820  
  23038556.102   121068448.263    23038556.613    23038562.693    94339060.505  
  19607785.456   104814932.325    19607786.010    19607784.780    81522765.081  
  24279505.440   127589733.033    24279505.235    24279508.606    99420599.402  
  23699855.207   126822726.193    23699856.354    23699857.551    98639915.293  
  20098004.733   105615837.402    20098004.331    20098006.554    82298112.804  
  22169712.426   116502676.345    22169711.969    22169717.552    90781350.421  
  22371775.362   117564519.448    22371775.257    22371780.888    91608750.443  
  19240348.986   102814689.888    19240349.568    19240348.385    79967047.928  
  23707992.130   124586355.161    23707989.658    23707992.525    97080268.033  
 21  8 30  0 30  0.0000000  0 17R14R 6R 4G22R16G 3G32G26G 1R 5G12R21
                                G31G25G10R15G21
  21904838.449   116765230.895    21904839.018    21904838.777    90817426.725  
  22640983.056   120816636.238    22640982.935                                  
  21280041.455   113953716.886    21280041.725    21280040.408    88630692.151  
  22711405.318   119349274.602    22711404.981    22711406.349    92999436.564  
  21355100.360   114075156.284    21355101.281    21355100.015    88725194.231  
  24144176.202   126878516.321    24144176.616    24144182.697    98866393.298  
  21074769.651   110748743.622    21074769.669    21074774.494    86297787.926  
  23295202.433   122417177.767    23295203.067    23295209.551    95390034.233  
  23037972.051   121065377.817    23037971.978    23037977.691    94336667.936  
  19600344.237   104775153.295    19600344.556    19600343.295    81491825.837  
  24290157.845   127645714.638    24290157.800    24290162.321    99464221.426  
  23706658.188   126859118.717    23706658.850    23706656.931    98668220.585  
  20091852.154   105583505.588    20091851.837    20091853.908    82272919.188  
  22172580.757   116517752.086    22172580.491    22172586.544    90793097.755  
  22386779.943   117643369.133    22386779.900    22386785.769    91670191.725  
  19238031.728   102802307.053    19238032.157    19238031.225    79957416.845  
  23711114.636   124602763.087    23711112.942    23711116.288    97093053.423  
 21  8 30  0 30 30.0000000  0 17R14R 6R 4G22R16G 3G32G26G 1R 5G12R21
                                G31G25G10R15G21
  21922173.718   116857635.928    21922173.819    21922174.377    90889297.258  
  22619235.467   120700583.096    22619234.833                                  
  21289307.647   114003337.054    21289307.944    21289306.559    88669285.594  
  22694085.420   119258261.020    22694085.271    22694087.107    92928516.908  
  21330675.124   113944679.474    21330675.501    21330674.152    88623712.297  
  24121905.643   126761475.865    24121904.827    24121911.616    98775192.883  
  21077378.602   110762453.514    21077378.831    21077383.426    86308470.951  
  23271843.640   122294427.067    23271843.411    23271850.287    95294384.373  
  23037496.457   121062876.087    23037496.080    23037501.964    94334718.550  
  19592975.103   104735761.338    19592975.598    19592974.190    81461187.650  
  24300900.184   127702161.115    24300899.836    24300903.908    99508205.659  
  23713566.756   126896082.921    23713567.311    23713566.026    98696970.527  
  20085796.399   105551682.358    20085796.073    20085798.317    82248121.877  
  22175566.830   116533443.961    22175566.421    22175572.086    90805325.170  
  22401846.027   117722542.884    22401845.786    22401851.935    91731885.527  
  19235863.119   102790718.732    19235863.678    19235862.554    79948403.710  
  23714305.671   124619532.804    23714303.011    23714307.172    97106120.705  
 21  8 30  0 31  0.0000000  0 17R14R 6R 4G22R16G 3G32G26G 1R 5G12R21
                                G31G25G10R15G21
  21939576.551   116950403.635    21939576.787    21939577.076    90961449.904  
  22597482.312   120584515.865    22597484.217                                  
  21298642.954   114053326.902    21298643.029    21298641.883    88708166.562  
  22676825.636   119167557.155    22676825.471    22676826.727    92857838.583  
  21306324.881   113814604.861    21306324.898    21306324.275    88522543.191  
  24099659.266   126644571.713    24099659.317    24099665.923    98684098.822  
  21080027.202   110776371.730    21080027.414    21080032.063    86319316.314  
  23248505.232   122171783.442    23248505.676    23248510.955    95198817.941  
  23037127.301   121060938.653    23037127.336    23037133.405    94333208.878  
  19585678.337   104696755.265    19585678.654    19585677.161    81430849.594  
  24311728.928   127759066.715    24311728.825    24311730.954    99552547.674  
  23720578.504   126933612.150    23720579.239    23720580.476    98726159.901  
  20079836.728   105520363.709    20079836.296    20079838.397    82223717.745  
  22178669.299   116549747.685    22178668.365    22178675.047    90818029.382  
  22416973.017   117802035.414    22416972.782    22416978.676    91793827.718  
  19233842.428   102779920.570    19233842.943    19233841.722    79940005.140  
  23717564.739   124636659.213    23717562.143    23717565.876    97119465.939  
 21  8 30  0 31 30.0000000  0 17R14R 6R 4G22R16G 3G32G26G 1R 5G12R21
                                G31G25G10R15G21
  21957046.910   117043529.886    21957047.115    21957047.386    91033881.375  
  22575729.369   120468436.312    22575730.446                                  
  21308046.739   114103686.067    21308047.244    21308046.142    88747334.783  
  22659624.692   119077164.805    22659623.761    22659625.373    92787402.996  
  21282050.311   113684935.681    21282050.741    21282050.223    88421689.430  
  24077439.028   126527806.094    24077438.803    24077445.471    98593112.593  
  21082715.458   110790498.202    21082715.512    21082720.205    86330323.955  
  23225188.128   122049249.528    23225188.154    23225194.076    95103336.971  
  23036865.635   121059563.872    23036865.294    23036871.961    94332137.624  
  19578454.074   104658136.724    19578454.312    19578452.846    81400812.951  
  24322643.822   127816428.778    24322643.444    24322647.343    99597245.429  
  23727694.771   126971702.944    23727696.350    23727698.584    98755785.959  
  20073972.672   105489548.642    20073972.330    20073974.555    82199706.010  
  22181888.216   116566661.992    22181887.145    22181893.732    90831209.349  
  22432159.726   117881844.391    22432159.997    22432166.240    91856016.498  
  19231969.292   102769911.097    19231969.806    19231968.478    79932220.004  
  23720891.532   124654140.021    23720889.543    23720892.813    97133087.280  
 21  8 30  0 32  0.0000000  0 17R14R 6R 4G22R16G 3G32G26G 1R 5G12R21
                                G31G25G10R15G21
  21974583.210   117137010.007    21974583.372    21974583.832    91106588.110  
  22553974.670   120352345.121    22553975.095                                  
  21317519.860   114154413.702    21317520.128    21317519.246    88786789.579  
  22642483.036   118987085.612    22642482.967    22642484.072    92717211.434  
  21257852.161   113555674.629    21257852.340    21257852.022    88321153.108  
  24055246.518   126411180.781    24055246.722    24055252.812    98502235.789  
  21085443.036   110804832.630    21085443.210    21085447.888    86341493.639  
  23201892.139   121926827.633    23201891.638    23201897.917    95007943.323  
  23036710.874   121058749.997    23036711.054    23036717.030    94331503.442  
  19571302.460   104619907.623    19571302.708    19571301.308    81371079.207  
  24333646.815   127874244.031    24333646.650    24333650.064    99642296.206  
  23734919.817   127010350.944    23734920.825    23734918.840    98785845.537  
  20068204.470   105459236.018    20068204.227    20068206.227    82176085.791  
  22185222.134   116584185.230    22185221.842    22185228.151    90844863.823  
  22447406.653   117961967.223    22447406.393    22447412.854    91918449.819  
  19230243.679   102760688.861    19230243.921    19230242.739    79925047.157  
  23724285.102   124671972.772    23724283.219    23724286.911    97146982.931  
 21  8 30  0 32 30.0000000  0 17R14R 6R 4G22R16G 3G32G26G 1R 5G12R21
                                G31G25G10R15G21
  21992186.070   117230842.679    21992186.553    21992186.731    91179569.043  
  22532219.340   120236247.397    22532219.301                                  
  21327062.242   114205512.715    21327062.681    21327061.240    88826533.236  
  22625402.116   118897324.887    22625401.594    22625403.125    92647268.031  
  21233732.426   113426828.013    21233732.133    21233731.650    88220939.116  
  24033080.389   126294701.001    24033080.311    24033084.831    98411472.336  
  21088210.916   110819378.141    21088211.008    21088215.795    86352827.800  
  23178617.553   121804523.538    23178618.134    23178624.593    94912641.492  
  23036663.210   121058498.545    23036663.681    23036669.965    94331307.510  
  19564224.238   104582072.777    19564224.965    19564223.775    81341652.106  
  24344734.190   127932513.813    24344734.402    24344737.886    99687701.251  
  23742245.987   127049555.663    23742246.856    23742245.592    98816338.153  
  20062531.937   105429427.813    20062531.742    20062533.961    82152858.629  
  22188672.865   116602319.340    22188672.687    22188679.342    90858994.292  
  22462714.052   118042404.764    22462713.273    22462719.917    91981128.369  
  19228665.207   102752255.439    19228665.842    19228664.620    79918487.832  
  23727745.263   124690158.630    23727743.359    23727746.749    97161153.691  
 21  8 30  0 33  0.0000000  0 17R14R 6R 4G22R16G 3G32G26G 1R 5G12R21
                                G31G25G10R15G21
  22009853.890   117325022.323    22009854.217    22009854.834    91252819.832  
  22510460.670   120120142.854    22510459.579                                  
  21336673.442   114256981.422    21336673.732    21336672.829    88866564.429  
  22608382.016   118807882.669    22608381.339    22608382.552    92577572.806  
  21209689.268   113298397.519    21209690.129    21209689.037    88121048.768  
  24010943.699   126178367.430    24010943.615    24010951.082    98320822.840  
  21091018.788   110834133.221    21091018.935    21091023.560    86364325.269  
  23155366.854   121682338.421    23155365.521    23155373.426    94817432.373  
  23036721.938   121058806.505    23036721.419    23036728.246    94331547.481  
  19557220.681   104544632.676    19557220.966    19557219.507    81312532.026  
  24355907.999   127991233.681    24355907.606    24355911.780    99733457.002  
  23749673.995   127089311.843    23749674.577    23749676.506    98847259.593  
  20056955.259   105400121.558    20056954.930    20056957.038    82130022.593  
  22192239.480   116621061.420    22192238.870    22192245.025    90873598.509  
  22478080.443   118123153.151    22478079.899    22478086.081    92044049.153  
  19227234.274   102744608.172    19227234.670    19227233.392    79912539.963  
  23731272.368   124708693.781    23731270.659    23731273.236    97175596.638  
 21  8 30  0 33 30.0000000  0 17R14R 6R 4G22R16G 3G32G26G 1R 5G12R21
                                G31G25G10R15G21
  22027586.188   117419543.490    22027586.360    22027586.811    91326336.276  
  22488701.213   120004032.067    22488701.623                                  
  21346353.384   114308818.418    21346353.606    21346353.046    88906882.064  
  22591422.381   118718760.513    22591421.857    22591423.313    92508126.995  
  21185725.883   113170385.172    21185725.988    21185724.624    88021483.645  
  23988833.496   126062181.217    23988834.177    23988836.683    98230288.202  
  21093866.445   110849096.937    21093866.278    21093871.235    86375985.299  
  23132138.139   121560273.945    23132137.961    23132145.540    94722317.259  
  23036886.790   121059671.268    23036885.820    23036892.168    94332221.341  
  19550290.420   104507587.977    19550290.918    19550289.691    81283719.480  
  24367167.941   128050399.638    24367167.648    24367170.792    99779560.307  
  23757207.148   127129614.876    23757208.011    23757208.659    98878606.249  
  20051473.595   105371315.487    20051473.302    20051475.369    82107576.313  
  22195921.318   116640409.232    22195920.503    22195927.577    90888674.714  
  22493504.739   118204209.167    22493504.593    22493510.084    92107209.657  
  19225949.615   102737744.477    19225950.088    19225948.974    79907201.533  
  23734864.885   124727575.203    23734863.503    23734867.645    97190309.391  
 21  8 30  0 34  0.0000000  0 17R14R 6R 4G22R16G 3G32G26G 1R 5G12R21
                                G31G25G10R15G21
  22045382.052   117514406.417    22045382.537    22045382.924    91400118.493  
  22466942.827   119887921.703    22466942.139                                  
  21356103.415   114361027.762    21356103.916    21356103.154    88947489.290  
  22574525.355   118629964.583    22574524.649    22574526.138    92438935.385  
  21161841.314   113042798.623    21161841.672    21161840.155    87922249.695  
  23966753.514   125946149.041    23966753.131    23966760.884    98139873.581  
  21096754.410   110864273.784    21096754.392    21096759.248    86387811.412  
  23108934.163   121438337.332    23108934.149    23108942.417    94627301.787  
  23037157.318   121061095.834    23037157.176    23037163.566    94333331.389  
  19543435.748   104470945.220    19543436.074    19543435.087    81255219.560  
  24378510.943   128110013.165    24378510.443    24378514.079    99826012.450  
  23764840.941   127170465.214    23764841.840    23764840.811    98910378.782  
  20046087.933   105343012.996    20046087.615    20046089.655    82085522.427  
  22199718.999   116660365.824    22199718.362    22199724.929    90904225.309  
  22508987.899   118285575.013    22508987.690    22508993.827    92170611.593  
  19224812.262   102731667.432    19224812.964    19224811.827    79902474.949  
  23738525.120   124746805.210    23738522.965    23738526.429    97205293.750  
 21  8 30  0 34 30.0000000  0 17R14R 6R 4G22R16G 3G32G26G 1R 5G12R21
                                G31G25G10R15G21
  22063240.373   117609602.405    22063241.164    22063241.427    91474159.798  
  22445183.591   119771807.909    22445182.338                                  
  21365922.026   114413604.637    21365922.142    21365921.136    88988382.392  
  22557689.523   118541492.297    22557689.073    22557690.634    92369995.957  
  21138036.071   112915636.632    21138036.378    21138035.287    87823345.968  
  23944702.247   125830268.589    23944702.071    23944707.529    98049577.158  
  21099682.168   110879659.249    21099682.253    21099686.868    86399800.083  
  23085755.047   121316526.736    23085754.614    23085761.663    94532384.492  
  23037533.790   121063073.930    23037533.574    23037540.639    94334872.786  
  19536655.731   104434701.822    19536656.066    19536654.796    81227030.243  
  24389939.582   128170068.137    24389938.810    24389943.561    99872808.473  
  23772574.862   127211854.739    23772575.638    23772575.152    98942570.697  
  20040796.919   105315208.668    20040796.467    20040798.620    82063856.725  
  22203631.303   116680925.377    22203631.472    22203637.138    90920245.713  
  22524529.067   118367243.809    22524528.835    22524534.900    92234249.572  
  19223821.014   102726371.059    19223821.760    19223820.607    79898355.548  
  23742249.566   124766377.134    23742247.676    23742250.956    97220544.554  
 21  8 30  0 35  0.0000000  0 17R14R 6R 4G22R16G 3G32G26G 1R 5G12R21
                                G31G25G10R15G21
  22081161.404   117705128.422    22081161.506    22081161.955    91548457.754  
  22423422.159   119655693.610    22423423.438                                  
  21375808.907   114466549.968    21375809.391    21375808.302    89029562.064  
  22540916.248   118453347.151    22540915.443    22540916.708    92301311.446  
  21114310.953   112788902.958    21114311.410    21114310.479    87724775.371  
  23922679.815   125714543.248    23922678.524    23922686.333    97959401.619  
  21102649.813   110895254.671    21102650.172    21102654.562    86411952.367  
  23062599.820   121194846.075    23062599.466    23062606.360    94437568.430  
  23038014.790   121065605.316    23038014.758    23038021.360    94336845.296  
  19529950.982   104398860.889    19529951.470    19529950.191    81199153.960  
  24401451.516   128230562.596    24401450.412    24401454.712    99919946.977  
  23780410.198   127253780.987    23780411.302    23780411.752    98975179.872  
  20035600.645   105287902.382    20035600.318    20035602.453    82042579.109  
  22207657.950   116702087.715    22207657.827    22207664.695    90936735.843  
  22540126.924   118449214.582    22540127.498    22540133.312    92298122.869  
  19222976.019   102721855.043    19222976.714    19222975.286    79894843.091  
  23746039.398   124786290.021    23746037.351    23746040.960    97236061.060  
 21  8 30  0 35 30.0000000  0 17R14R 6R 4G22R16G 3G32G26G 1R 5G12R21
                                G31G25G10R15G21
  22099143.064   117800982.981    22099143.657    22099143.813    91623011.293  
  22401663.207   119539584.032    22401664.245                                  
  21385765.400   114519866.425    21385766.304    21385764.750    89071030.381  
  22524205.560   118365533.843    22524205.109    22524206.424    92232885.518  
  21090667.240   112662604.432    21090668.094    21090667.374    87626543.239  
  23900688.469   125598978.250    23900689.092    23900694.741    97869351.035  
  21105657.973   110911063.070    21105658.196    21105662.499    86424270.607  
  23039470.183   121073301.147    23039470.665    23039477.759    94342858.148  
  23038602.976   121068691.284    23038603.103    23038609.747    94339249.921  
  19523322.493   104363427.396    19523322.831    19523321.373    81171594.579  
  24413046.578   128291496.761    24413046.099    24413048.407    99967428.178  
  23788346.253   127296242.717    23788346.720    23788346.330    99008205.622  
  20030499.565   105261096.262    20030499.410    20030501.424    82021691.225  
  22211800.422   116723854.473    22211800.606    22211806.793    90953696.940  
  22555783.245   118531488.026    22555783.167    22555789.745    92362232.015  
  19222277.433   102718120.810    19222277.771    19222276.954    79891938.690  
  23749893.328   124806544.701    23749890.924    23749894.294    97251843.884  
 21  8 30  0 36  0.0000000  0 17R14R 6R 4G22R16G 3G32G26G 1R 5G12R21
                                G31G25G10R15G21
  22117186.200   117897161.855    22117186.484    22117187.086    91697817.045  
  22379905.013   119423480.417    22379906.311                                  
  21395791.630   114573553.396    21395792.118    21395790.373    89112786.880  
  22507559.007   118278054.449    22507558.104    22507559.915    92164719.775  
  21067105.705   112536743.571    21067106.612    21067105.780    87528651.530  
  23878728.010   125483575.584    23878727.687    23878734.571    97779426.931  
  21108706.517   110927084.286    21108706.935    21108711.526    86436754.678  
  23016368.319   120951894.411    23016367.425    23016374.660    94248255.539  
  23039294.930   121072329.901    23039295.623    23039301.602    94342085.219  
  19516770.488   104328403.075    19516770.872    19516769.363    81144353.445  
  24424725.176   128352867.677    24424724.889    24424729.002   100015249.625  
  23796379.068   127339236.192    23796379.840    23796379.566    99041645.013  
  20025493.545   105234789.056    20025493.300    20025495.228    82001192.105  
  22216057.361   116746223.946    22216056.580    22216062.598    90971127.698  
  22571496.132   118614061.571    22571496.230    22571503.020    92426574.979  
  19221724.500   102715166.550    19221725.033    19221723.977    79889640.932  
  23753812.641   124827138.857    23753810.320    23753813.757    97267891.219  
 21  8 30  0 36 30.0000000  0 17R14R 6R 4G22R16G 3G32G26G 1R 5G12R21
                                G31G25G10R15G21
  22135289.246   117993660.935    22135289.393    22135290.001    91772871.850  
  22358149.359   119307384.675    22358149.671                                  
  21405886.806   114627610.631    21405887.043    21405885.129    89154831.367  
  22490975.981   118190910.836    22490975.625    22490977.083    92096815.679  
  21043627.005   112411323.512    21043627.558    21043626.615    87431102.646  
  23856799.194   125368337.610    23856798.915    23856804.950    97689631.163  
  21111796.044   110943318.511    21111795.964    21111800.717    86449404.719  
  22993291.958   120830628.689    22993291.574    22993298.673    94153762.814  
  23040092.545   121076519.684    23040092.337    23040098.414    94345349.999  
  19510295.255   104293789.720    19510295.745    19510294.298    81117431.952  
  24436486.672   128414672.631    24436485.946    24436489.122   100063409.268  
  23804511.124   127382757.627    23804512.126    23804513.182    99075495.003  
  20020582.186   105208979.492    20020581.766    20020583.829    81981080.761  
  22220428.763   116769194.814    22220427.647    22220434.259    90989027.066  
  22587266.584   118696933.022    22587266.426    22587272.256    92491150.089  
  19221317.355   102712990.889    19221317.915    19221316.788    79887948.746  
  23757795.610   124848070.584    23757793.412    23757796.827    97284201.611  
 21  8 30  0 37  0.0000000  0 17R14R 6R 4G22R16G 3G32G26G 1R 5G12R21
                                G31G25G10R15G21
  22153450.689   118090472.907    22153451.165    22153451.350    91848170.025  
  22336394.960   119191295.427    22336394.989                                  
  21416049.962   114682035.004    21416050.345    21416048.183    89197161.425  
  22474456.843   118104102.259    22474456.283    22474457.859    92029172.653  
  21020230.490   112286344.129    21020231.133    21020230.550    87333896.507  
  23834900.694   125253263.709    23834901.350    23834907.096    97599963.235  
  21114925.389   110959762.912    21114925.321    21114930.257    86462218.535  
  22970242.043   120709503.820    22970241.458    22970248.691    94059379.819  
  23040993.455   121081255.995    23040992.573    23041000.374    94349040.603  
  19503896.987   104259586.483    19503897.225    19503895.871    81090829.443  
  24448329.067   128476906.294    24448328.864    24448332.404   100111903.088  
  23812743.450   127426800.274    23812744.470    23812743.000    99109750.320  
  20015764.845   105183664.160    20015764.382    20015766.614    81961354.530  
  22224913.494   116792762.721    22224912.640    22224919.593    91007391.660  
  22603092.568   118780097.200    22603092.035    22603098.615    92555953.295  
  19221055.034   102711589.207    19221055.545    19221054.573    79886858.555  
  23761842.076   124869334.274    23761839.806    23761844.148    97300770.660  
 21  8 30  0 37 30.0000000  0 17R14R 6R 4G22R16G 3G32G26G 1R 5G12R21
                                G31G25G10R15G21
  22171671.079   118187596.159    22171671.289    22171671.622    91923710.294  
  22314642.115   119075216.636    22314642.248                                  
  21426282.416   114736828.157    21426282.492    21426280.984    89239778.302  
  22458002.043   118017632.924    22458001.774    22458003.035    91961793.971  
  20996918.730   112161811.572    20996918.693    20996917.571    87237037.890  
  23813035.066   125138358.502    23813035.576    23813041.051    97510426.754  
  21118094.934   110976420.042    21118095.035    21118099.894    86475198.113  
  22947220.813   120588525.015    22947220.481    22947227.205    93965110.654  
  23041998.988   121086539.609    23041998.941    23042005.086    94353157.681  
  19497575.846   104225797.642    19497576.358    19497575.074    81064549.236  
  24460253.094   128539568.876    24460252.587    24460257.112   100160730.995  
  23821071.302   127471362.642    23821071.921    23821071.482    99144409.933  
  20011041.863   105158844.542    20011041.313    20011043.461    81942014.578  
  22229512.317   116816928.656    22229512.002    22229517.440    91026222.248  
  22618974.146   118863554.148    22618974.106    22618979.914    92620984.644  
  19220937.732   102710962.193    19220938.294    19220937.241    79886370.874  
  23765951.600   124890930.390    23765949.245    23765952.824    97317598.760  
 21  8 30  0 38  0.0000000  0 17R14R 6R 4G22R16G 3G32G26G 1R 5G12R21
                                G31G25G10R15G21
  22189948.915   118285029.041    22189949.364    22189950.184    91999491.395  
  22292892.419   118959152.502    22292892.110                                  
  21436584.051   114791992.559    21436584.024    21436582.834    89282683.927  
  22441613.087   117931507.699    22441612.787    22441613.804    91894683.420  
  20973690.142   112037730.799    20973690.691    20973688.947    87140530.661  
  23791202.693   125023626.733    23791203.089    23791208.212    97421025.431  
  21121305.719   110993292.358    21121305.825    21121310.428    86488345.368  
  22924228.203   120467697.478    22924227.386    22924235.528    93870959.354  
  23043108.252   121092371.206    23043109.254    23043115.741    94357701.770  
  19491333.213   104192427.709    19491333.681    19491332.575    81038594.857  
  24472259.482   128602659.507    24472259.002    24472262.183   100209892.487  
  23829494.942   127516443.170    23829495.683    23829496.296    99179472.513  
  20006413.453   105134521.719    20006412.827    20006415.069    81923061.728  
  22234224.876   116841693.503    22234224.275    22234229.805    91045519.530  
  22634911.743   118947304.094    22634911.450    22634916.786    92686244.304  
  19220965.427   102711110.705    19220966.015    19220965.167    79886486.384  
  23770124.489   124912859.068    23770122.306    23770126.393    97334685.984  
 21  8 30  0 38 30.0000000  0 17R14R 6R 4G22R16G 3G32G26G 1R 5G12R21
                                G31G25G10R15G21
  22208284.578   118382765.730    22208284.630    22208285.408    92075508.784  
  22271143.814   118843104.162    22271144.313                                  
  21446953.967   114847525.974    21446954.204    21446953.210    89325876.557  
  22425289.418   117845726.756    22425289.003    22425290.120    91827841.152  
  20950546.712   111914103.582    20950547.367    20950545.392    87044376.189  
  23769403.357   124909069.300    23769403.033    23769409.993    97331759.912  
  21124557.053   111010378.543    21124557.007    21124562.069    86501659.280  
  22901263.334   120347022.426    22901263.241    22901271.086    93776926.907  
  23044322.091   121098747.504    23044321.964    23044327.736    94362670.314  
  19485169.241   104159477.080    19485169.669    19485168.289    81012966.595  
  24484345.477   128666173.639    24484345.574    24484348.529   100259384.051  
  23838014.733   127562036.752    23838015.698    23838015.976    99214934.146  
  20001878.725   105110692.851    20001878.422    20001880.707    81904493.782  
  22239051.152   116867054.315    22239050.263    22239056.270    91065281.188  
  22650903.691   119031343.162    22650903.943    22650908.732    92751729.268  
  19221137.863   102712031.287    19221138.322    19221137.251    79887202.390  
  23774359.920   124935116.930    23774357.033    23774361.902    97352029.720  
 21  8 30  0 39  0.0000000  0 17R14R 6R 4G22R16G 3G32G26G 1R 5G12R21
                                G31G25G10R15G21
  22226675.524   118480802.369    22226675.794    22226676.083    92151759.476  
  22249400.075   118727072.472    22249399.773                                  
  21457392.695   114903428.367    21457393.269    21457392.541    89369356.175  
  22409032.131   117760292.495    22409031.605    22409032.492    91761269.027  
  20927488.680   111790933.193    20927489.332    20927488.106    86948577.039  
  23747637.501   124794688.564    23747637.751    23747642.583    97242632.117  
  21127849.054   111027678.847    21127849.221    21127854.195    86515140.030  
  22878328.846   120226502.864    22878328.689    22878336.273    93683015.640  
  23045638.783   121105666.995    23045638.628    23045645.603    94368062.085  
  19479083.729   104126947.758    19479084.255    19479083.097    80987666.023  
  24496512.070   128730109.430    24496511.896    24496515.344   100309204.096  
  23846630.250   127608139.379    23846631.265    23846630.501    99250791.772  
  19997438.390   105087357.265    19997437.764    19997439.988    81886310.214  
  22243990.166   116893009.630    22243989.277    22243994.674    91085506.102  
  22666950.325   119115669.224    22666950.260    22666955.620    92817437.872  
  19221454.384   102713722.696    19221454.828    19221453.782    79888517.936  
  23778658.066   124957701.712    23778656.667    23778659.818    97369628.179  
 21  8 30  0 39 30.0000000  0 17R14R 6R 4G22R16G 3G32G26G 1R 5G12R21
                                G31G25G10R15G21
  22245122.584   118579134.109    22245123.015    22245123.746    92228239.682  
  22227659.427   118611059.402    22227658.349                                  
  21467900.652   114959698.657    21467901.276    21467900.688    89413121.922  
  22392840.592   117675206.568    22392840.235    22392841.337    91694968.314  
  20904516.355   111668221.842    20904516.941    20904516.167    86853134.927  
  23725905.110   124680486.305    23725904.220    23725911.419    97153643.366  
  21131181.809   111045192.816    21131181.744    21131187.054    86528787.271  
  22855425.556   120106140.961    22855425.261    22855432.291    93589227.192  
  23047058.539   121113127.287    23047057.444    23047064.952    94373875.258  
  19473077.844   104094841.235    19473078.265    19473076.868    80962694.287  
  24508758.201   128794463.529    24508757.610    24508761.303   100359350.104  
  23855340.920   127654746.611    23855341.378    23855341.271    99287041.790  
  19993091.118   105064512.994    19993090.778    19993092.920    81868509.485  
  22249041.708   116919557.424    22249041.142    22249047.523    91106192.696  
  22683050.879   119200279.427    22683050.984    22683056.674    92883367.873  
  19221914.787   102716182.124    19221915.096    19221913.866    79890430.821  
  23783017.487   124980610.884    23783015.253    23783018.749    97387479.448  
 21  8 30  0 40  0.0000000  0 17R14R 6R 4G22R16G 3G32G26G 1R 5G12R21
                                G31G25G10R15G21
  22263624.224   118677756.982    22263624.132    22263625.067    92304946.335  
  22205921.908   118495066.929    22205922.218                                  
  21478478.075   115016336.791    21478478.472    21478477.810    89457173.763  
  22376715.747   117590470.715    22376715.682    22376716.791    91628940.381  
  20881631.410   111545972.780    20881631.882    20881630.576    86758052.352  
  23704207.459   124566465.128    23704208.540    23704213.649    97064795.722  
  21134555.401   111062920.875    21134555.230    21134560.782    86542601.339  
  22832552.457   119985939.890    22832551.457    22832558.646    93495564.056  
  23048581.079   121121126.880    23048580.893    23048587.266    94380108.710  
  19467150.984   104063159.637    19467151.516    19467150.047    80938053.059  
  24521084.252   128859233.527    24521083.155    24521087.376   100409820.203  
  23864142.299   127701854.845    23864143.459    23864145.620    99323681.438  
  19988837.380   105042159.482    19988837.041    19988839.077    81851091.165  
  22254206.358   116946696.412    22254205.821    22254211.342    91127339.945  
  22699205.125   119285171.721    22699205.003    22699210.557    92949517.676  
  19222518.240   102719408.183    19222518.642    19222517.634    79892939.978  
  23787438.217   125003842.253    23787436.997    23787440.391    97405581.775  
 21  8 30  0 40 30.0000000  0 17R14R 6R 4G22R16G 3G32G26G 1R 5G12R21
                                G31G25G10R15G21
  22282180.618   118776674.319    22282180.703    22282181.453    92381882.034  
  22184189.467   118379103.803    22184191.041                                  
  21489124.662   115073349.564    21489125.306    21489124.584    89501516.988  
  22360659.355   117506094.727    22360659.295    22360660.730    91563192.877  
  20858834.538   111424196.745    20858834.807    20858833.765    86663337.697  
  23682546.075   124452634.593    23682545.405    23682552.695    96976096.642  
  21137971.014   111080870.364    21137971.214    21137976.323    86556587.947  
  22809711.580   119865909.595    22809711.148    22809718.258    93402033.988  
  23050206.532   121129671.212    23050206.332    23050212.925    94386766.620  
  19461305.510   104031912.039    19461306.049    19461304.514    80913749.386  
  24533488.807   128924423.607    24533489.820    24533491.706   100460617.633  
  23873041.974   127749467.434    23873042.918    23873041.847    99360713.371  
  19984677.956   105020302.863    19984677.838    19984679.993    81834060.035  
  22259484.081   116974432.184    22259483.538    22259489.631    91148952.255  
  22715413.742   119370351.045    22715414.001    22715420.052    93015891.131  
  19223266.478   102723406.483    19223267.060    19223265.764    79896049.767  
  23791921.250   125027401.018    23791919.396    23791921.802    97423939.196  
 21  8 30  0 41  0.0000000  0 17R14R 6R 4G22R16G 3G32G26G 1R 5G12R21
                                G31G25G10R15G21
  22300790.055   118875874.108    22300790.585    22300791.399    92459037.394  
  22162463.511   118263164.496    22162463.635                                  
  21499840.384   115130728.854    21499840.499    21499839.592    89546145.289  
  22344670.761   117422072.486    22344670.545    22344671.583    91497721.011  
  20836124.799   111302888.880    20836125.745    20836124.758    86568987.184  
  23660921.073   124338989.453    23660921.026    23660925.728    96887542.022  
  21141427.741   111099033.789    21141427.372    21141432.929    86570741.254  
  22786902.117   119746045.311    22786901.587    22786909.335    93308633.280  
  23051934.363   121138750.858    23051934.077    23051940.855    94393841.633  
  19455540.080   104001092.791    19455540.534    19455539.108    80889778.872  
  24545972.343   128990023.403    24545972.394    24545975.367   100511734.352  
  23882032.181   127797572.493    23882032.704    23882030.312    99398128.517  
  19980611.740   104998934.564    19980611.742    19980613.770    81817409.412  
  22264874.120   117002755.543    22264873.423    22264879.257    91171022.397  
  22731675.942   119455807.417    22731675.742    22731682.397    93082480.439  
  19224157.425   102728167.227    19224158.072    19224157.040    79899752.568  
  23796464.720   125051277.078    23796463.203    23796466.642    97442543.869  
 21  8 30  0 41 30.0000000  0 17R14R 6R 4G22R16G 3G32G26G 1R 5G12R21
                                G31G25G10R15G21
  22319452.765   118975354.465    22319452.953    22319453.200    92536410.971  
  22140740.793   118147252.849    22140741.861                                  
  21510624.123   115188476.093    21510624.581    21510623.622    89591059.771  
  22328750.080   117338408.166    22328749.296    22328750.596    91432528.044  
  20813505.110   111182053.870    20813505.189    20813504.779    86475004.432  
  23639330.450   124225533.958    23639330.791    23639334.769    96799135.171  
  21144925.242   111117413.222    21144925.146    21144930.193    86585062.889  
  22764125.298   119626351.677    22764124.506    22764131.935    93215365.532  
  23053764.544   121148365.851    23053765.004    23053770.717    94401333.799  
  19449855.505   103970705.586    19449855.966    19449854.480    80866144.386  
  24558533.270   129056032.251    24558533.269    24558536.579   100563169.762  
  23891110.636   127846168.331    23891112.202    23891113.733    99435925.216  
  19976638.765   104978055.227    19976638.462    19976640.507    81801139.798  
  22270375.645   117031666.688    22270374.871    22270380.681    91193550.562  
  22747990.250   119541540.465    22747990.342    22747996.425    93149285.349  
  19225191.141   102733690.286    19225191.520    19225190.244    79904048.281  
  23801068.870   125075470.218    23801066.346    23801070.255    97461395.611  
 21  8 30  0 42  0.0000000  0 17R14R 6R 4G22R16G 3G32G26G 1R 5G12R21
                                G31G25G10R15G21
  22338166.910   119075110.196    22338166.840    22338167.310    92613998.720  
  22119025.153   118031369.506    22119025.083                                  
  21521476.506   115246590.077    21521476.986    21521475.496    89636259.522  
  22312897.473   117255103.037    22312897.330    22312898.424    91367614.978  
  20790973.035   111061694.226    20790974.077    20790973.372    86381391.411  
  23617776.916   124112269.618    23617777.172    23617783.199    96710877.272  
  21148463.679   111136007.964    21148463.603    21148468.767    86599552.285  
  22741380.649   119506830.703    22741379.997    22741387.964    93122232.347  
  23055695.826   121158513.421    23055695.543    23055702.974    94409241.003  
  19444252.021   103940751.496    19444252.483    19444251.167    80842846.770  
  24571171.621   129122446.257    24571170.750    24571174.904   100614920.939  
  23900285.465   127895249.805    23900286.135    23900285.200    99474099.545  
  19972758.188   104957662.383    19972757.717    19972759.853    81785249.271  
  22275988.523   117061163.217    22275987.906    22275993.495    91216534.866  
  22764357.390   119627546.941    22764357.257    22764362.944    93216303.322  
  19226366.175   102739972.956    19226367.058    19226366.013    79908934.805  
  23805732.341   125099977.683    23805730.690    23805734.467    97480492.321  
 21  8 30  0 42 30.0000000  0 17R14R 6R 4G22R16G 3G32G26G 1R 5G12R21
                                G31G25G10R15G21
  22356931.526   119175138.445    22356931.905    22356932.933    92691798.451  
  22097315.253   117915518.622    22097314.991                                  
  21532397.576   115305071.289    21532398.024    21532396.864    89681744.882  
  22297114.267   117172160.417    22297113.371    22297114.972    91302984.364  
  20768531.647   110941813.954    20768532.423    20768531.158    86288151.233  
  23596260.347   123999200.113    23596260.462    23596266.627    96622771.186  
  21152043.453   111154819.414    21152043.450    21152048.797    86614210.552  
  22718670.256   119387486.500    22718670.220    22718677.020    93029236.906  
  23057727.547   121169193.044    23057727.707    23057735.075    94417562.778  
  19438730.107   103911233.860    19438730.622    19438729.216    80819888.620  
  24583886.581   129189264.584    24583886.632    24583890.164   100666987.100  
  23909546.832   127944814.018    23909547.423    23909546.178    99512649.524  
  19968970.135   104937756.429    19968969.863    19968971.897    81769738.141  
  22281712.545   117091244.706    22281712.024    22281718.119    91239974.975  
  22780775.929   119713825.776    22780776.047    22780781.564    93283533.543  
  19227684.205   102747014.548    19227684.768    19227683.690    79914411.604  
  23810455.084   125124798.087    23810453.298    23810457.833    97499832.837  
 21  8 30  0 43  0.0000000  0 17R14R 6R 4G22R16G 3G32G26G 1R 5G12R21
                                G31G25G10R15G21
  22375747.109   119275437.528    22375747.268    22375748.352    92769808.816  
  22075609.753   117799703.379    22075611.179                                  
  21543387.885   115363921.756    21543388.135    21543386.776    89727517.441  
  22281400.403   117089584.138    22281399.970    22281400.874    91238639.215  
  20746180.618   110822418.038    20746181.262    20746180.260    86195287.773  
  23574781.968   123886329.942    23574782.136    23574787.925    96534820.437  
  21155664.840   111173849.874    21155664.934    21155669.897    86629039.474  
  22695993.394   119268323.950    22695993.150    22696001.292    92936383.046  
  23059861.414   121180404.914    23059860.968    23059867.930    94426299.278  
  19433290.771   103882156.830    19433291.083    19433289.702    80797273.160  
  24596678.285   129256485.823    24596677.899    24596681.117   100719367.308  
  23918898.245   127994859.468    23918898.632    23918899.436    99551573.712  
  19965274.689   104918338.241    19965274.670    19965276.785    81754607.083  
  22287548.312   117121911.588    22287547.293    22287553.859    91263871.242  
  22797246.309   119800376.795    22797245.902    22797251.908    93350975.861  
  19229143.925   102754815.223    19229144.595    19229143.629    79920478.799  
  23815238.084   125149931.715    23815236.639    23815241.057    97519417.459  
 21  8 30  0 43 30.0000000  0 17R14R 6R 4G22R16G 3G32G26G 1R 5G12R21
                                G31G25G10R15G21
  22394613.620   119376004.435    22394613.838    22394614.434    92848027.490  
  22053914.330   117683927.570    22053914.344                                  
  21554446.549   115423142.051    21554447.092    21554445.853    89773577.644  
  22265756.771   117007377.739    22265756.441    22265757.839    91174582.293  
  20723920.396   110703511.071    20723921.377    20723919.739    86102804.632  
  23553342.257   123773662.717    23553342.325    23553347.905    96447027.829  
  21159328.246   111193100.733    21159327.945    21159333.295    86644040.135  
  22673352.935   119149347.144    22673353.641    22673360.338    92843673.916  
  23062096.258   121192148.384    23062095.435    23062101.976    94435450.029  
  19427934.148   103853523.464    19427934.647    19427933.272    80775002.768  
  24609546.448   129324109.038    24609546.674    24609550.059   100772060.711  
  23928340.153   128045383.265    23928341.594    23928341.312    99590869.884  
  19961672.744   104899408.160    19961672.492    19961674.619    81739856.369  
  22293495.266   117153163.404    22293494.718    22293500.880    91288223.293  
  22813767.904   119887198.910    22813767.625    22813773.771    93418629.427  
  19230745.553   102763374.035    19230746.107    19230745.299    79927135.648  
  23820080.303   125175376.926    23820078.987    23820082.331    97539244.856  
 21  8 30  0 44  0.0000000  0 17R14R 6R 4G22R16G 3G32G26G 1R 5G12R21
                                G31G25G10R15G21
  22413527.221   119476827.071    22413527.855    22413528.305    92926445.078  
  22032223.346   117568184.829    22032223.885                                  
  21565572.755   115482723.329    21565573.370    21565572.114    89819918.617  
  22250182.794   116925535.226    22250182.232    22250183.547    91110808.930  
  20701751.432   110585087.178    20701752.019    20701750.768    86010697.195  
  23531939.367   123661192.568    23531939.819    23531945.462    96359388.782  
  21163031.854   111212563.901    21163031.811    21163036.949    86659206.239  
  22650747.335   119030550.711    22650746.197    22650754.313    92751105.308  
  23064430.040   121204413.168    23064429.886    23064435.967    94445007.018  
  19422659.299   103825326.929    19422659.953    19422658.479    80753072.136  
  24622489.306   129392122.981    24622489.001    24622492.978   100825058.502  
  23937869.177   128096372.779    23937869.780    23937870.140    99630528.364  
  19958161.524   104880956.552    19958161.261    19958163.223    81725478.497  
  22299551.622   117184990.124    22299550.564    22299557.399    91313023.329  
  22830338.874   119974281.532    22830338.842    22830344.704    93486485.980  
  19232487.261   102772680.617    19232487.769    19232486.805    79934374.103  
  23824979.608   125201123.292    23824977.743    23824981.208    97559306.956  
 21  8 30  0 44 30.0000000  0 17R14R 6R 4G22R16G 3G32G26G 1R 5G12R21
                                G31G25G10R15G21
  22432490.264   119577907.128    22432490.509    22432490.625    93005062.870  
  22010540.577   117452482.704    22010541.587                                  
  21576767.477   115542671.013    21576768.068    21576766.880    89866544.575  
  22234679.244   116844064.310    22234679.055    22234680.452    91047325.108  
  20679674.361   110467155.963    20679675.261    20679673.682    85918972.958  
  23510576.681   123548928.027    23510577.014    23510582.779    96271909.951  
  21166777.269   111232245.599    21166777.185    21166782.125    86674542.617  
  22628176.774   118911943.536    22628176.729    22628183.123    92658684.177  
  23066863.829   121217203.454    23066863.531    23066869.848    94454973.465  
  19417468.117   103797575.712    19417468.420    19417467.195    80731487.862  
  24635506.591   129460531.031    24635506.175    24635509.901   100878363.482  
  23947484.319   128147830.351    23947485.364    23947485.018    99670550.928  
  19954742.195   104862988.061    19954741.845    19954743.932    81711477.075  
  22305718.294   117217396.162    22305717.601    22305723.881    91338274.789  
  22846960.537   120061628.357    22846960.138    22846966.590    93554548.389  
  19234369.414   102782738.817    19234370.094    19234369.034    79942197.142  
  23829937.261   125227174.841    23829934.875    23829938.686    97579606.815  
 21  8 30  0 45  0.0000000  0 17R14R 6R 4G22R16G 3G32G26G 1R 5G12R21
                                G31G25G10R15G21
  22451500.041   119679242.264    22451500.421    22451500.926    93083879.056  
  21988866.542   117336822.043    21988867.036                                  
  21588031.115   115602986.458    21588031.718    21588030.236    89913456.565  
  22219247.604   116762968.604    22219246.668    22219248.075    90984133.663  
  20657690.166   110349720.973    20657690.974    20657689.255    85827634.680  
  23489253.385   123436872.944    23489253.547    23489258.661    96184594.334  
  21170564.474   111252147.515    21170564.732    21170569.353    86690050.605  
  22605643.722   118793529.945    22605644.061    22605650.922    92566413.866  
  23069397.907   121230518.736    23069397.612    23069405.127    94465348.951  
  19412360.625   103770273.194    19412360.904    19412359.547    80710252.576  
  24648599.478   129529331.774    24648599.632    24648602.217   100931974.457  
  23957188.237   128199753.463    23957188.524    23957188.144    99710935.542  
  19951414.885   104845503.081    19951414.478    19951416.582    81697852.416  
  22311994.793   117250381.156    22311994.367    22312000.931    91363977.363  
  22863631.875   120149238.477    22863631.401    22863637.754    93622815.982  
  19236392.402   102793548.153    19236392.993    19236391.880    79950604.404  
  23834952.679   125253530.877    23834951.019    23834954.440    97600143.972  
 21  8 30  0 45 30.0000000  0 17R14R 6R 4G22R16G 3G32G26G 1R 5G12R21
                                G31G25G10R15G21
  22470558.380   119780831.974    22470558.746    22470558.788    93162893.266  
  21967200.910   117221214.738    21967202.949                                  
  21599364.058   115663672.294    21599364.198    21599363.136    89960656.634  
  22203887.631   116682253.500    22203887.112    22203888.310    90921238.796  
  20635800.165   110232789.439    20635800.857    20635799.809    85736687.967  
  23467971.076   123325033.176    23467971.530    23467977.086    96097446.505  
  21174394.242   111272273.189    21174394.341    21174399.206    86705732.952  
  22583148.549   118675316.175    22583148.226    22583155.408    92474299.259  
  23072031.586   121244360.424    23072032.120    23072037.900    94476134.675  
  19407338.083   103743424.596    19407338.387    19407337.044    80689370.336  
  24661766.167   129598526.089    24661766.522    24661770.072   100985892.065  
  23966977.358   128252141.350    23966978.441    23966978.949    99751681.636  
  19948179.904   104828503.925    19948179.605    19948181.797    81684606.323  
  22318382.425   117283946.747    22318381.760    22318388.345    91390132.368  
  22880353.846   120237113.029    22880353.532    22880360.474    93691289.593  
  19238556.103   102805109.842    19238556.637    19238555.479    79959596.829  
  23840026.119   125280192.283    23840024.371    23840028.725    97620919.060  
 21  8 30  0 46  0.0000000  0 17R14R 6R 4G22R16G 3G32G26G 1R 5G12R21
                                G31G25G10R15G21
  22489662.287   119882664.850    22489662.327    22489662.379    93242096.590  
  21945546.468   117105652.434    21945545.888                                  
  21610763.970   115724720.900    21610764.290    21610763.650    90008138.848  
  22188599.578   116601913.776    22188599.077    22188600.219    90858636.430  
  20614003.281   110116356.952    20614004.372    20614003.209    85646129.410  
  23446728.761   123213404.134    23446728.654    23446734.917    96010462.844  
  21178265.407   111292615.875    21178265.504    21178270.081    86721584.391  
  22560690.778   118557298.074    22560690.861    22560697.659    92382337.133  
  23074764.251   121258719.462    23074764.147    23074770.440    94487323.535  
  19402399.336   103717024.407    19402399.713    19402398.385    80668836.854  
  24675006.953   129668104.030    24675007.096    24675010.280   101040108.597  
  23976853.261   128304982.683    23976854.253    23976854.229    99792780.342  
  19945035.920   104811982.066    19945035.676    19945037.915    81671732.147  
  22324878.844   117318084.162    22324878.209    22324884.434    91416732.929  
  22897124.263   120325242.635    22897123.585    22897130.396    93759961.954  
  19240858.784   102817414.611    19240859.345    19240858.275    79969167.198  
  23845156.017   125307150.000    23845153.587    23845157.177    97641925.064  
 21  8 30  0 46 30.0000000  0 17R14R 6R 4G22R16G 3G32G26G 1R 5G12R21
                                G31G25G10R15G21
  22508810.767   119984738.870    22508810.883    22508812.235    93321487.452  
  21923899.737   116990138.529    21923897.954                                  
  21622232.208   115786133.548    21622233.042    21622232.074    90055904.201  
  22173383.701   116521953.484    22173383.311    22173384.441    90796329.733  
  20592301.256   110000428.151    20592302.111    20592301.165    85555962.609  
  23425527.009   123101990.079    23425527.098    23425532.949    95923646.755  
  21182178.030   111313177.517    21182178.053    21182182.952    86737606.447  
  22538270.814   118439480.303    22538270.333    22538277.692    92290531.112  
  23077595.315   121273595.697    23077595.000    23077601.592    94498915.401  
  19397544.874   103691076.559    19397545.607    19397544.293    80648655.196  
  24688319.925   129738064.641    24688319.488    24688322.889   101094623.343  
  23986811.965   128358275.300    23986812.313    23986812.775    99834230.140  
  19941982.858   104795938.269    19941982.693    19941984.792    81659230.490  
  22331483.598   117352793.363    22331483.311    22331489.743    91443779.051  
  22913943.342   120413626.769    22913943.118    22913948.734    93828832.632  
  19243300.501   102830461.911    19243300.929    19243299.880    79979315.101  
  23850341.777   125334403.461    23850339.990    23850343.722    97663161.476  
 21  8 30  0 47  0.0000000  0 17R14R 6R 4G22R16G 3G32G26G 1R 5G12R21
                                G31G25G10R15G21
  22528004.455   120087049.944    22528004.503    22528004.576    93401062.704  
  21902262.128   116874675.578    21902261.544                                  
  21633768.974   115847909.465    21633769.384    21633768.150    90103952.094  
  22158240.309   116442374.940    22158240.017    22158241.462    90734320.501  
  20570694.096   109885005.287    20570694.849    20570693.885    85466189.305  
  23404367.338   122990793.181    23404366.556    23404372.082    95836999.864  
  21186132.346   111333957.974    21186132.467    21186137.407    86753799.008  
  22515889.413   118321865.418    22515888.414    22515896.838    92198883.185  
  23080524.166   121288986.802    23080523.489    23080531.158    94510908.427  
  19392775.697   103665582.660    19392776.251    19392774.958    80628826.608  
  24701705.529   129808404.652    24701705.193    24701707.903   101149433.685  
  23996854.276   128412015.037    23996855.739    23996855.347    99876027.562  
  19939020.717   104780370.802    19939020.207    19939022.292    81647100.005  
  22338197.349   117388072.233    22338196.299    22338202.928    91471269.067  
  22930810.844   120502262.694    22930811.004    22930816.459    93897899.560  
  19245880.583   102844249.174    19245880.928    19245880.050    79990038.527  
  23855584.365   125361950.129    23855582.227    23855585.353    97684626.401  
 21  8 30  0 47 30.0000000  0 17R14R 6R 4G22R16G 3G32G26G 1R 5G12R21
                                G31G25G10R15G21
  22547241.083   120189593.404    22547240.884    22547242.626    93480818.690  
  21880632.663   116759263.777    21880632.584                                  
  21645372.695   115910047.436    21645373.020    21645372.203    90152281.606  
  22143169.618   116363178.522    22143169.311    22143170.647    90672609.028  
  20549182.343   109770091.207    20549182.637    20549181.715    85376811.728  
  23383248.547   122879815.449    23383248.297    23383254.347    95750523.729  
  21190128.260   111354957.039    21190128.425    21190133.416    86770161.906  
  22493546.441   118204455.835    22493546.386    22493553.955    92107395.242  
  23083550.387   121304890.206    23083550.252    23083557.366    94523300.674  
  19388091.638   103640543.843    19388092.216    19388090.991    80609351.971  
  24715162.475   129879120.872    24715161.774    24715164.956   101204537.273  
  24006981.282   128466196.840    24006981.918    24006979.884    99918169.111  
  19936148.465   104765278.135    19936148.179    19936150.369    81635339.487  
  22345018.183   117423918.403    22345017.789    22345024.293    91499201.156  
  22947725.074   120591147.573    22947725.108    22947731.407    93967160.471  
  19248598.551   102858773.513    19248599.005    19248598.132    80001335.229  
  23860881.543   125389786.806    23860879.936    23860883.902    97706317.287  
 21  8 30  0 48  0.0000000  0 17R14R 6R 4G22R16G 3G32G26G 1R 5G12R21
                                G31G25G10R15G21
  22566520.129   120292365.623    22566520.868    22566521.658    93560752.653  
  21859014.818   116643908.281    21859016.062                                  
  21657044.311   115972547.038    21657044.610    21657043.306    90200892.369  
  22128172.236   116284366.949    22128171.902    22128173.023    90611197.432  
  20527765.614   109655688.410    20527766.142    20527765.216    85287831.823  
  23362172.720   122769059.438    23362173.024    23362178.353    95664220.410  
  21194166.039   111376175.007    21194166.151    21194170.991    86786695.386  
  22471243.604   118087254.462    22471243.543    22471251.201    92016069.560  
  23086673.813   121321303.922    23086672.962    23086680.182    94536090.569  
  19383493.262   103615962.629    19383493.763    19383492.528    80590233.241  
  24728690.186   129950210.433    24728689.170    24728693.466   101259931.688  
  24017186.376   128520816.989    24017187.328    24017188.845    99960651.351  
  19933366.569   104750659.386    19933366.275    19933368.449    81623948.255  
  22351947.398   117460330.200    22351946.942    22351953.170    91527573.962  
  22964686.650   120680279.230    22964686.216    22964691.750    94036613.683  
  19251454.107   102874032.907    19251454.657    19251453.529    80013203.640  
  23866233.339   125417911.549    23866231.249    23866235.693    97728232.664  
 21  8 30  0 48 30.0000000  0 17R14R 6R 4G22R16G 3G32G26G 1R 5G12R21
                                G31G25G10R15G21
  22585843.261   120395365.672    22585843.677    22585844.298    93640863.793  
  21837409.756   116528612.717    21837409.560                                  
  21668784.321   116035411.061    21668784.446    21668783.175    90249786.574  
  22113248.947   116205945.436    22113248.986    22113250.219    90550089.784  
  20506446.264   109541803.186    20506446.863    20506445.566    85199254.465  
  23341139.643   122658530.833    23341139.184    23341144.870    95578094.280  
  21198245.965   111397615.330    21198246.102    21198250.913    86803402.122  
  22448981.403   117970267.497    22448981.296    22448989.136    91924910.936  
  23089894.409   121338229.179    23089893.791    23089899.863    94549279.053  
  19378981.229   103591843.490    19378981.927    19378980.348    80571473.909  
  24742288.717   130021674.186    24742288.260    24742293.042   101315617.700  
  24027474.696   128575874.563    24027475.880    24027476.437   100003473.689  
  19930675.079   104736516.137    19930675.043    19930677.150    81612927.549  
  22358984.499   117497308.961    22358983.908    22358990.150    91556388.575  
  22981694.685   120769658.541    22981694.773    22981700.167    94106259.847  
  19254447.431   102890028.176    19254447.895    19254446.775    80025644.407  
  23871640.190   125446325.322    23871638.239    23871642.543    97750373.220  
 21  8 30  0 49  0.0000000  0 17R14R 6R 4G22R16G 3G32G26G 1R 5G12R21
                                G31G25G10R15G21
  22605207.221   120498585.758    22605207.404    22605208.346    93721146.053  
  21815813.304   116413375.206    21815814.088                                  
  21680590.354   116098634.546    21680590.796    21680589.714    90298960.364  
  22098399.779   116127911.874    22098399.460    22098400.982    90489284.423  
  20485223.249   109428434.194    20485223.928    20485222.917    85111078.628  
  23320149.761   122548228.097    23320150.277    23320155.918    95492144.146  
  21202367.457   111419274.146    21202367.657    21202372.057    86820279.117  
  22426760.147   117853493.698    22426759.791    22426767.049    91833918.387  
  23093211.942   121355659.779    23093210.588    23093217.928    94562861.288  
  19374555.611   103568184.512    19374556.000    19374554.588    80553072.475  
  24755957.997   130093505.123    24755957.504    24755960.860   101371589.821  
  24037846.055   128631361.046    24037846.488    24037845.466   100046629.848  
  19928073.219   104722842.595    19928072.993    19928075.167    81602272.849  
  22366127.968   117534848.660    22366127.659    22366133.200    91585640.295  
  22998748.883   120859279.010    22998749.105    22998754.181    94176093.942  
  19257577.315   102906752.906    19257577.730    19257576.946    80038652.522  
  23877100.574   125475021.632    23877099.094    23877103.138    97772733.954  
 21  8 30  0 49 30.0000000  0 17R14R 6R 4G22R16G 3G32G26G 1R 5G12R21
                                G31G25G10R15G21
  22624611.486   120602024.157    22624612.087    22624612.931    93801598.127  
  21794229.719   116298200.426    21794230.675                                  
  21692464.340   116162219.437    21692464.603    21692463.605    90348415.260  
  22083625.202   116050270.606    22083624.695    22083625.710    90428784.750  
  20464097.835   109315587.050    20464098.828    20464097.210    85023308.667  
  23299203.256   122438156.167    23299203.133    23299209.549    95406373.859  
  21206531.079   111441154.103    21206531.384    21206536.005    86837328.434  
  22404580.145   117736938.416    22404580.184    22404587.896    91743096.137  
  23096624.652   121373595.973    23096624.208    23096631.167    94576837.514  
  19370216.619   103544990.192    19370217.045    19370215.768    80535032.445  
  24769696.497   130165702.898    24769696.153    24769699.877   101427847.830  
  24048294.706   128687274.832    24048294.788    24048294.452   100090118.453  
  19925560.849   104709640.101    19925560.632    19925562.598    81591985.193  
  22373378.571   117572949.858    22373377.823    22373384.359    91615329.539  
  23015848.749   120949140.729    23015849.075    23015855.200    94246116.035  
  19260843.563   102924206.966    19260844.061    19260843.104    80052227.898  
  23882615.779   125504000.790    23882613.727    23882616.747    97795315.058  
 21  8 30  0 50  0.0000000  0 16R14R 6R 4G22R16G 3G32G26G 1R 5G12G31
                                G25G10R15G21
  22644056.022   120705675.277    22644056.556    22644057.827    93882215.612  
  21772658.494   116183088.412    21772658.182                                  
  21704405.706   116226163.065    21704406.163    21704404.436    90398149.166  
  22068925.271   115973021.877    22068924.705    22068926.217    90368590.941  
  20443070.243   109203262.269    20443070.929    20443069.884    84935945.006  
  23278301.702   122328315.537    23278301.146    23278307.185    95320783.798  
  21210736.480   111463253.460    21210736.647    21210741.290    86854548.705  
  22382442.553   117620602.565    22382443.078    22382449.968    91652444.889  
  23100133.239   121392033.722    23100132.983    23100139.520    94591204.565  
  19365964.339   103522260.038    19365964.887    19365963.630    80517353.435  
  24783504.379   130238262.635    24783504.216    24783507.458   101484387.864  
  19923137.573   104696905.628    19923137.310    19923139.413    81582062.229  
  22380734.974   117611608.629    22380734.284    22380740.117    91645453.260  
  23032993.849   121039239.396    23032993.327    23033000.808    94316322.742  
  19264245.714   102942386.092    19264246.110    19264244.979    80066367.212  
  23888182.773   125533258.354    23888180.609    23888184.685    97818113.140  
 21  8 30  0 50 30.0000000  0 16R14R 6R 4G22R16G 3G32G26G 1R 5G12G31
                                G25G10R15G21
  22963332.378   122407596.606    22963332.820    22963333.450    95205932.191  
  22050891.998   117667798.788    22050893.148                                  
  22016205.924   117895840.090    22016206.550    22016205.315    91696786.837  
  22354093.902   117471592.738    22354093.600    22354094.713    91536308.508  
  20721934.561   110692906.299    20721935.189    20721934.544    86094557.094  
  23557237.721   123794134.923    23557238.168    23557243.351    96462980.774  
  21514776.336   113060994.225    21514776.403    21514781.373    88099541.503  
  22660140.880   119079915.441    22660141.316    22660147.530    92789571.839  
  23403529.558   122986392.781    23403528.502    23403536.885    95833562.256  
  19661592.217   105102561.683    19661592.986    19661591.729    81746476.937  
  25097172.939   131886601.618    25097172.371    25097176.604   102768807.797  
  20220596.201   106260060.870    20220595.942    20220598.047    82800105.276  
  22687989.826   119226244.265    22687988.813    22687996.009    92903610.888  
  23349975.937   122704992.131    23349974.663    23349981.825    95614311.843  
  19567575.442   104563289.633    19567576.064    19567575.118    81327069.961  
  24193596.298   127138213.498    24193594.377    24193598.039    99068727.511  
 21  8 30  0 51  0.0000000  0 16R14R 6R 4G22R16G 3G32G26G 1R 5G12G31
                                G25G10R15G21
  22982855.847   122511665.272    22982856.231    22982857.093    95286874.434  
  22029344.565   117552824.136    22029346.397                                  
  22028281.359   117960503.243    22028281.558    22028280.408    91747080.382  
  22339545.278   117395138.914    22339544.629    22339545.802    91476734.102  
  20701105.507   110581638.458    20701105.731    20701104.600    86008015.476  
  23536425.650   123684768.389    23536425.909    23536431.444    96377760.139  
  21519066.141   113083536.971    21519066.161    21519071.072    88117107.263  
  22638088.634   118964031.020    22638088.027    22638095.697    92699272.329  
  23407228.834   123005831.119    23407228.117    23407235.749    95848708.976  
  19657515.594   105080769.385    19657516.085    19657514.988    81729527.371  
  25111117.244   131959880.724    25111116.928    25111120.921   102825908.438  
  20218350.996   106248262.279    20218350.664    20218352.771    82790911.576  
  22695558.164   119266016.234    22695557.501    22695563.513    92934602.028  
  23367210.527   122795561.495    23367210.685    23367216.641    95684885.299  
  19571248.266   104582915.063    19571248.750    19571247.684    81342334.176  
  24199268.618   127168024.657    24199267.557    24199271.056    99091956.930  
 21  8 30  0 51 30.0000000  0 16R14R 6R 4G22R16G 3G32G26G 1R 5G12G31
                                G25G10R15G21
  23002417.166   122615937.339    23002417.491    23002417.689    95367974.925  
  22007813.400   117437921.515    22007813.333                                  
  22040423.502   118025525.658    22040424.006    22040423.055    91797653.349  
  22325072.755   117319085.770    22325072.175    22325073.451    91417471.930  
  20680375.280   110470903.357    20680375.981    20680374.646    85921888.216  
  23515659.839   123575643.052    23515659.852    23515665.786    96292727.456  
  21523398.278   113106302.174    21523398.233    21523403.237    88134846.375  
  22616080.772   118848377.031    22616079.952    22616087.484    92609152.372  
  23411022.539   123025766.776    23411022.909    23411028.886    95864243.213  
  19653527.282   105059449.203    19653527.714    19653526.767    81712945.007  
  25125129.764   132033515.623    25125128.675    25125133.626   102883286.237  
  20216194.609   106236929.974    20216194.273    20216196.445    82782081.218  
  22703231.591   119306342.215    22703231.112    22703237.895    92966024.866  
  23384489.785   122886363.007    23384490.086    23384495.657    95755639.681  
  19575055.524   104603260.278    19575056.142    19575054.984    81358158.227  
  24204993.506   127198109.584    24204991.589    24204996.619    99115399.673  
 21  8 30  0 52  0.0000000  0 16R14R 6R 4G22R16G 3G32G26G 1R 5G12G31
                                G25G10R15G21
  23022015.743   122720410.600    23022016.072    23022016.677    95449231.907  
  21986295.295   117323095.382    21986295.074                                  
  22052633.490   118090908.238    22052633.725    22052632.096    91848506.448  
  22310677.277   117243436.983    22310676.980    22310678.007    91358524.828  
  20659745.764   110360705.608    20659746.555    20659745.408    85836178.899  
  23494940.624   123466763.210    23494940.029    23494945.617    96207886.056  
  21527773.052   113129291.787    21527773.176    21527777.891    88152760.348  
  22594117.350   118732958.130    22594116.877    22594123.196    92519215.599  
  23414910.636   123046199.460    23414910.452    23414917.713    95880164.745  
  19649627.868   105038604.638    19649628.330    19649627.085    81696732.566  
  25139209.409   132107505.354    25139209.081    25139213.433   102940940.563  
  20214126.692   106226064.205    20214126.438    20214128.611    82773614.384  
  22711010.874   119347221.953    22711010.015    22711016.589    92997879.217  
  23401813.317   122977396.018    23401813.056    23401818.899    95826574.450  
  19578997.640   104624324.630    19578998.053    19578996.797    81374541.614  
  24210770.496   127228467.565    24210769.201    24210772.640    99139055.206  
 21  8 30  0 52 30.0000000  0 16R14R 6R 4G22R16G 3G32G26G 1R 5G12G31
                                G25G10R15G21
  23041652.017   122825080.873    23041652.401    23041653.120    95530642.110  
  21964791.343   117208347.547    21964791.615                                  
  22064909.140   118156649.898    22064909.966    22064909.123    91899638.837  
  22296358.929   117168194.009    22296358.571    22296359.839    91299893.943  
  20639217.768   110251047.427    20639218.190    20639216.638    85750889.237  
  23474268.584   123358130.909    23474267.902    23474274.620    96123237.536  
  21532190.424   113152505.558    21532190.454    21532195.159    88170848.992  
  22572198.660   118617776.684    22572197.965    22572204.930    92429463.882  
  23418893.107   123067126.332    23418893.163    23418899.285    95896471.356  
  19645817.865   105018237.247    19645818.338    19645817.075    81680891.265  
  25153356.082   132181846.537    25153355.937    25153360.042   102998868.724  
  20212147.721   106215663.112    20212147.321    20212149.331    82765509.640  
  22718894.803   119388653.047    22718894.534    22718900.648    93030163.189  
  23419179.870   123068657.739    23419180.426    23419185.643    95897687.429  
  19583073.462   104646104.730    19583073.971    19583072.629    81391481.688  
  24216599.693   127259096.145    24216598.058    24216601.544    99162921.586  
 21  8 30  0 53  0.0000000  0 16R14R 6R 4G22R16G 3G32G26G 1R 5G12G31
                                G25G10R15G21
  23061323.819   122929943.164    23061324.238    23061324.672    95612201.643  
  21943302.074   117093679.055    21943303.138                                  
  22077253.587   118222748.851    22077253.789    22077253.164    91951049.073  
  22282117.959   117093357.726    22282117.198    22282119.020    91241579.952  
  20618791.000   110141930.401    20618791.354    20618789.540    85666020.477  
  23453644.009   123249747.515    23453643.781    23453649.459    96038782.960  
  21536650.720   113175942.580    21536650.639    21536655.191    88189111.596  
  22550325.497   118502834.432    22550325.445    22550332.676    92339898.537  
  23422968.815   123088544.063    23422968.430    23422975.155    95913160.476  
  19642097.170   104998347.192    19642097.433    19642096.219    81665421.223  
  25167568.930   132256535.340    25167568.460    25167571.436   103057067.776  
  20210256.338   106205724.584    20210256.002    20210258.173    82757765.338  
  22726883.366   119430632.128    22726882.881    22726888.870    93062874.162  
  23436589.544   123160144.497    23436589.137    23436594.456    95968975.795  
  19587282.735   104668597.133    19587283.165    19587282.013    81408975.774  
  24222477.931   127289991.544    24222476.604    24222479.730    99186995.903  
 21  8 30  0 53 30.0000000  0 16R14R 6R 4G22R16G 3G32G26G 1R 5G12G31
                                G25G10R15G21
  23081030.237   123034991.873    23081030.760    23081031.595    95693906.183  
  21921829.148   116979090.409    21921828.360                                  
  22089663.361   118289202.205    22089663.771    22089662.944    92002734.984  
  22267954.828   117018928.269    22267954.088    22267955.140    91183582.963  
  20598465.009   110033355.373    20598465.464    20598464.351    85581573.270  
  23433066.873   123141613.835    23433066.511    23433073.448    95954522.972  
  21541152.492   113199601.336    21541152.727    21541157.400    88207546.988  
  22528498.603   118388132.528    22528498.441    22528505.600    92250520.500  
  23427136.961   123110448.657    23427136.925    23427143.214    95930228.964  
  19638465.384   104978934.743    19638465.941    19638464.628    81650322.665  
  25181847.135   132331567.175    25181846.832    25181851.009   103115534.192  
  20208452.401   106196245.177    20208452.001    20208454.357    82750378.792  
  22734975.500   119473155.520    22734974.433    22734980.740    93096009.273  
  23454040.934   123251852.290    23454040.684    23454045.812    96040436.389  
  19591624.159   104691797.149    19591624.716    19591623.557    81427020.226  
  24228407.319   127321149.313    24228404.824    24228409.628    99211274.638  
 21  8 30  0 54  0.0000000  0 16R14R 6R 4G22R16G 3G32G26G 1R 5G12G31
                                G25G10R15G21
  23100771.327   123140223.937    23100772.043    23100772.542    95775753.347  
  21900370.377   116864585.094    21900370.816                                  
  22102139.743   118356010.439    22102139.645    22102138.566    92054696.903  
  22253869.034   116944908.793    22253868.981    22253869.980    91125905.446  
  20578241.819   109925325.850    20578242.314    20578241.153    85497550.346  
  23412537.694   123033733.300    23412537.572    23412543.102    95870460.209  
  21545697.054   113223482.946    21545697.104    21545702.054    88226156.029  
  22506717.820   118273674.757    22506717.127    22506725.065    92161332.675  
  23431397.535   123132838.697    23431397.069    23431404.031    95947675.707  
  19634923.751   104960002.584    19634924.230    19634922.981    81635597.661  
  25196190.342   132406939.849    25196190.046    25196193.432   103174266.136  
  20206735.860   106187224.208    20206735.727    20206737.692    82743349.467  
  22743170.516   119516221.899    22743169.679    22743176.446    93129567.500  
  23471533.900   123343779.549    23471533.532    23471540.005    96112067.997  
  19596097.926   104715703.207    19596098.374    19596097.294    81445613.827  
  24234385.937   127352568.176    24234383.471    24234388.490    99235756.812  
 21  8 30  0 54 30.0000000  0 15R14R 6R 4G22R16G 3G32G26G 1R 5G31G25
                                G10R15G21
  23120547.324   123245636.034    23120547.223    23120548.684    95857740.465  
  21878927.853   116750165.782    21878928.870                                  
  22114681.355   118423173.344    22114682.294    22114680.882    92106934.692  
  22239862.246   116871301.554    22239861.809    22239863.080    91068549.149  
  20558121.743   109817845.084    20558121.962    20558120.678    85413954.220  
  23392057.628   122926108.884    23392057.598    23392063.324    95786597.058  
  21550284.029   113247588.083    21550284.050    21550288.986    88244939.242  
  22484984.261   118159464.435    22484984.195    22484991.081    92072337.673  
  23435750.308   123155712.339    23435750.312    23435757.579    95965499.282  
  19631472.116   104941552.791    19631472.783    19631471.471    81621247.836  
  20205106.211   106178660.985    20205106.035    20205108.121    82736676.832  
  22751469.078   119559829.731    22751468.581    22751473.742    93163547.607  
  23489068.067   123435924.307    23489067.997    23489074.327    96183869.056  
  19600703.078   104740312.743    19600703.625    19600702.706    81464754.579  
  24240414.249   127384246.141    24240412.174    24240416.315    99260440.913  
 21  8 30  0 55  0.0000000  0 15R14R 6R 4G22R16G 3G32G26G 1R 5G31G25
                                G10R15G21
  23140354.530   123351222.996    23140354.859    23140355.961    95939863.651  
  21857502.690   116635832.958    21857502.884                                  
  22127290.215   118490688.516    22127290.143    22127288.717    92159446.473  
  22225933.685   116798106.998    22225933.074    22225934.540    91011514.423  
  20538103.598   109710914.189    20538104.273    20538103.266    85330785.775  
  23371626.157   122818741.632    23371626.673    23371630.852    95702934.252  
  21554913.321   113271915.547    21554913.469    21554918.280    88263895.690  
  22463298.265   118045502.971    22463298.236    22463304.985    91983536.573  
  23440194.636   123179065.806    23440194.710    23440200.688    95983696.785  
  19628111.267   104923585.856    19628111.679    19628110.462    81607273.557  
  20203563.094   106170552.507    20203563.033    20203564.998    82730358.541  
  22759869.310   119603975.401    22759869.019    22759875.309    93197946.821  
  23506643.158   123528282.732    23506643.510    23506649.734    96255836.620  
  19605439.277   104765621.796    19605439.855    19605438.850    81484439.403  
  24246491.114   127416179.634    24246489.880    24246493.045    99285324.079  
 21  8 30  0 55 30.0000000  0 15R14R 6R 4G22R16G 3G32G26G 1R 5G31G25
                                G10R15G21
  23160194.822   123456984.117    23160195.728    23160195.497    96022122.294  
  21836094.189   116521592.712    21836093.926                                  
  22139964.237   118558558.156    22139964.403    22139963.007    92212233.925  
  22212084.727   116725329.773    22212084.453    22212085.441    90954804.880  
  20518190.069   109604538.729    20518190.468    20518189.366    85248049.349  
  23351244.738   122711637.285    23351245.280    23351250.494    95619476.334  
  21559585.889   113296468.623    21559585.715    21559590.613    88283027.945  
  22441660.590   117931796.390    22441660.494    22441667.143    91894934.084  
  23444729.624   123202899.942    23444729.418    23444736.354    96002268.814  
  19624841.327   104906106.595    19624841.927    19624840.511    81593678.587  
  20202107.103   106162900.299    20202106.818    20202108.837    82724395.784  
  22768372.297   119648659.829    22768371.405    22768377.567    93232765.865  
  23524258.835   123620855.511    23524258.645    23524265.034    96327971.192  
  19610306.490   104791630.625    19610307.058    19610306.061    81504668.495  
  24252616.912   127448368.919    24252614.943    24252618.754    99310406.597  
 21  8 30  0 56  0.0000000  0 15R14R 6R 4G22R16G 3G32G26G 1R 5G31G25
                                G10R15G21
  23180067.879   123562913.911    23180067.941    23180068.467    96104512.096  
  21814702.565   116407445.333    21814703.253                                  
  22152703.510   118626779.615    22152703.985    22152703.058    92265295.042  
  22198315.179   116652970.331    22198314.478    22198315.540    90898420.893  
  20498380.129   109498719.170    20498380.823    20498379.973    85165745.291  
  23330913.715   122604796.310    23330913.800    23330919.360    95536223.610  
  21564300.459   113321245.546    21564300.593    21564305.493    88302334.629  
  22420071.440   117818345.482    22420071.613    22420078.774    91806530.818  
  23449356.022   123227210.231    23449355.853    23449362.905    96021211.856  
  19621662.366   104889114.006    19621663.049    19621661.678    81580462.138  
  20200737.135   106155700.977    20200736.768    20200738.868    82718785.931  
  22776977.527   119693878.859    22776976.557    22776983.115    93268001.468  
  23541914.964   123713638.215    23541915.289    23541921.996    96400269.314  
  19615303.597   104818334.452    19615304.323    19615303.031    81525438.137  
  24258789.907   127480809.894    24258787.582    24258792.394    99335685.273  
 21  8 30  0 56 30.0000000  0 15R14R 6R 4G22R16G 3G32G26G 1R 5G31G25
                                G10R15G21
  23199971.036   123669008.871    23199971.222    23199972.144    96187030.350  
  21793329.553   116293394.145    21793329.776                                  
  22165509.510   118695352.474    22165509.849    22165508.616    92318629.433  
  22184625.593   116581031.014    22184625.195    22184626.310    90842364.277  
  20478675.386   109393458.539    20478675.715    20478674.929    85083875.948  
  23310633.148   122498221.859    23310632.959    23310639.286    95453178.590  
  21569058.506   113346247.096    21569058.466    21569063.225    88321816.350  
  22398532.069   117705153.727    22398531.664    22398538.699    91718329.499  
  23454072.288   123251994.993    23454071.823    23454078.916    96040524.624  
  19618575.649   104872611.241    19618575.886    19618574.571    81567626.661  
  20199452.985   106148953.800    20199452.837    20199454.887    82713528.397  
  22785683.878   119739630.891    22785683.861    22785689.567    93303652.411  
  23559610.978   123806628.930    23559610.998    23559617.535    96472729.555  
  19620430.759   104845731.070    19620431.226    19620430.205    81546746.614  
  24265011.048   127513500.938    24265008.512    24265012.817    99361158.754  
 21  8 30  0 57  0.0000000  0 15R14R 6R 4G22R16G 3G32G26G 1R 5G31G25
                                G10R15G21
  23219904.150   123775264.094    23219904.379    23219904.608    96269673.333  
  21771974.140   116179439.950    21771974.543                                  
  22178379.710   118764274.939    22178380.417    22178379.351    92372235.765  
  22171016.063   116509512.239    22171015.457    22171016.673    90786635.346  
  20459075.120   109288758.111    20459075.481    20459074.116    85002442.332  
  23290403.931   122391915.332    23290403.755    23290409.652    95370342.337  
  21573858.611   113371472.387    21573858.782    21573863.565    88341472.401  
  22377042.277   117592222.847    22377041.473    22377049.092    91630331.455  
  23458878.274   123277250.635    23458877.989    23458884.971    96060204.354  
  19615579.934   104856598.262    19615580.368    19615579.022    81555172.131  
  20198254.691   106142655.940    20198254.427    20198256.427    82708620.990  
  22794491.157   119785912.608    22794490.324    22794496.339    93339716.074  
  23577345.396   123899824.061    23577345.611    23577351.405    96545349.095  
  19625686.356   104873816.353    19625686.979    19625685.830    81568590.722  
  24271279.587   127546437.888    24271277.040    24271281.054    99386823.847  
 21  8 30  0 57 30.0000000  0 15R14R 6R 4G22R16G 3G32G26G 1R 5G31G25
                                G10R15G21
  23239867.693   123881675.881    23239867.559    23239867.389    96352438.015  
  21750638.510   116065585.326    21750638.469                                  
  22191315.446   118833546.014    22191316.085    22191315.321    92426113.226  
  22157486.763   116438415.968    22157486.436    22157487.989    90731235.649  
  20439580.076   109184620.671    20439580.481    20439580.072    84921446.598  
  23270225.709   122285879.235    23270226.413    23270232.004    95287716.811  
  21578701.397   113396921.597    21578701.589    21578706.459    88361302.949  
  22355602.060   117479555.645    22355601.887    22355608.752    91542538.873  
  23463773.241   123302974.753    23463773.364    23463779.760    96080249.100  
  19612676.206   104841076.847    19612676.710    19612675.368    81543099.925  
  20197141.525   106136805.820    20197141.124    20197143.102    82704062.459  
  22803398.458   119832721.710    22803397.194    22803404.771    93376190.720  
  23595118.783   123993221.227    23595118.298    23595124.807    96618126.061  
  19631070.655   104902587.544    19631071.120    19631069.967    81590968.314  
  24277592.714   127579618.446    24277590.896    24277594.408    99412678.838  
 21  8 30  0 58  0.0000000  0 15R14R 6R 4G22R16G 3G32G26G 1R 5G31G25
                                G10R15G21
  23259858.444   123988242.893    23259858.502    23259859.864    96435323.399  
  21729320.944   115951834.982    21729321.394                                  
  22204316.862   118903167.012    22204317.211    22204316.662    92480262.848  
  22144038.995   116367746.645    22144038.701    22144039.754    90676168.632  
  20420190.816   109081050.358    20420191.860    20420190.814    84840891.956  
  23250100.227   122180118.283    23250099.672    23250105.252    95205305.698  
  21583587.401   113422597.101    21583587.414    21583592.456    88381309.835  
  22334213.315   117367157.142    22334213.469    22334219.946    91454955.673  
  23468757.903   123329167.098    23468757.573    23468763.789    96100658.697  
  19609865.143   104826050.897    19609865.686    19609864.417    81531413.084  
  20196113.494   106131404.120    20196113.295    20196115.131    82699853.355  
  22812406.521   119880058.126    22812405.838    22812411.555    93413076.237  
  23612930.210   124086820.090    23612929.584    23612935.957    96691060.223  
  19636582.881   104932043.675    19636583.485    19636582.182    81613878.637  
  24283953.457   127613042.264    24283951.905    24283955.851    99438723.339  
 21  8 30  0 58 30.0000000  0 15R14R 6R 4G22R16G 3G32G26G 1R 5G31G25
                                G10R15G21
  23279877.836   124094958.887    23279878.377    23279878.768    96518324.744  
  21708023.780   115838188.961    21708024.578                                  
  22217383.114   118973134.710    22217383.485    22217382.655    92534682.109  
  22130671.831   116297502.981    22130671.542    22130673.015    90621433.315  
  20400908.864   108978047.760    20400909.354    20400908.082    84760778.878  
  23230026.955   122074632.691    23230027.076    23230031.335    95123109.142  
  21588515.819   113448496.764    21588515.989    21588520.958    88401491.380  
  22312875.593   117255027.873    22312875.388    22312882.588    91367582.270  
  23473830.380   123355822.806    23473830.276    23473837.045    96121429.361  
  19607146.858   104811519.615    19607147.264    19607146.014    81520110.983  
  20195170.027   106126447.111    20195169.925    20195171.935    82695990.757  
  22821514.010   119927917.295    22821513.744    22821520.055    93450369.090  
  23630778.540   124180615.916    23630778.710    23630784.460    96764147.867  
  19642222.458   104962179.598    19642222.956    19642221.969    81637317.684  
  24290358.943   127646704.595    24290356.467    24290362.212    99464953.681  
 21  8 30  0 59  0.0000000  0 15R14R 6R 4G22R16G 3G32G26G 1R 5G31G25
                                G10R15G21
  23299924.623   124201818.868    23299924.819    23299925.468    96601438.015  
  21686746.180   115724648.617    21686746.426                                  
  22230513.224   119043446.982    22230513.716    22230512.885    92589369.384  
  22117386.548   116227686.083    22117385.850    22117386.822    90567030.528  
  20381732.592   108875613.766    20381733.675    20381732.104    84681108.033  
  23210006.144   121969423.761    23210006.539    23210013.014    95041128.189  
  21593486.765   113474619.548    21593486.835    21593492.061    88421846.784  
  22291588.844   117143169.363    22291588.981    22291596.771    91280419.844  
  23478989.916   123382938.190    23478989.993    23478996.917    96142558.220  
  19604521.157   104797483.136    19604521.493    19604520.238    81509193.724  
  20194310.931   106121931.968    20194310.703    20194312.672    82692472.477  
  22830720.111   119976295.666    22830718.706    22830724.760    93488066.516  
  23648664.042   124274604.962    23648663.997    23648669.833    96837386.040  
  19647988.327   104992991.045    19647988.951    19647987.903    81661282.143  
  24296809.088   127680601.788    24296807.408    24296811.934    99491367.036  
 21  8 30  0 59 30.0000000  0 15R14R 6R 4G22R16G 3G32G26G 1R 5G31G25
                                G10R15G21
  23319998.121   124308825.961    23319998.567    23320000.796    96684665.722  
  21665489.949   115611223.373    21665491.228                                  
  22243709.255   119114109.669    22243709.910    22243708.622    92644329.199  
  22104183.528   116158304.586    22104183.061    22104184.182    90512967.024  
  20362665.969   108773757.449    20362666.017    20362664.352    84601886.487  
  23190039.822   121864500.773    23190040.211    23190045.956    94959370.046  
  21598501.465   113500972.443    21598501.713    21598506.864    88442381.493  
  22270356.540   117031591.318    22270356.496    22270363.616    91193475.969  
  23484238.312   123410517.563    23484238.727    23484245.171    96164048.607  
  19601989.377   104783950.259    19601989.961    19601988.649    81498668.159  
  20193536.971   106117864.199    20193536.567    20193538.520    82689302.803  
  22840025.291   120025197.682    22840024.229    22840031.587    93526171.993  
  23666586.988   124368791.553    23666587.232    23666593.444    96910778.173  
  19653881.506   105024481.881    19653882.105    19653880.864    81685775.018  
  24303305.224   127714738.024    24303303.419    24303306.983    99517966.665  
 21  8 30  1  0  0.0000000  0 16R14R 6G16R 4G22R16G 3G32G26G 1R 5G31
                                G25G10R15G21
  23340100.440   124415976.140    23340100.728    23340100.521    96768004.785  
  21644257.482   115497915.009    21644256.654                                  
  25369546.794   133317871.282    25369546.302    25369551.093   103884075.272  
  22256970.833   119185121.164    22256971.514    22256969.677    92699560.310  
  22091063.664   116089359.432    22091062.949    22091064.373    90459243.530  
  20343706.193   108672481.160    20343707.072    20343705.243    84523116.065  
  23170128.321   121759865.749    23170128.649    23170134.253    94877836.290  
  21603560.013   113527555.043    21603559.932    21603565.174    88463095.196  
  22249178.065   116920295.921    22249178.153    22249184.729    91106752.315  
  23489573.937   123438557.739    23489574.681    23489580.540    96185898.070  
  19599552.038   104770921.849    19599552.633    19599551.382    81488534.949  
  20192847.420   106114241.184    20192847.068    20192849.126    82686479.690  
  22849429.836   120074620.492    22849429.435    22849435.899    93564683.281  
  23684547.597   124463172.600    23684547.142    23684554.031    96984321.778  
  19659900.999   105056648.375    19659901.586    19659900.375    81710793.399  
  24309846.797   127749110.298    24309844.403    24309848.834    99544750.230  
 21  8 30  1  0 30.0000000  0 16R14R 6G16R 4G22R16G 3G32G26G 1R 5G31
                                G25G10R15G21
  23360227.207   124523261.378    23360227.254    23360227.497    96851448.756  
  21623043.796   115384721.665    21623044.874                                  
  25344148.414   133184403.056    25344146.575    25344151.683   103780074.135  
  22270296.087   119256476.550    22270296.559    22270294.586    92755058.948  
  22078026.546   116020848.474    22078026.079    22078027.208    90405858.382  
  20324855.742   108571782.823    20324856.246    20324854.555    84444795.167  
  23150271.833   121655517.048    23150271.669    23150276.888    94796525.634  
  21608661.582   113554363.490    21608661.596    21608666.785    88483984.877  
  22228053.028   116809281.900    22228051.967    22228060.038    91020247.930  
  23494996.570   123467052.225    23494996.329    23495002.947    96208101.544  
  19597208.858   104758395.282    19597209.319    19597208.059    81478792.062  
  20192241.497   106111057.549    20192241.282    20192243.311    82683998.950  
  22858932.989   120124557.638    22858932.773    22858938.224    93603595.330  
  23702542.836   124557741.526    23702543.256    23702549.667    97058011.785  
  19666045.711   105089483.437    19666046.254    19666045.249    81736331.781  
  24316430.753   127783712.064    24316427.995    24316432.525    99571712.597  
 21  8 30  1  1  0.0000000  0 16R14R 6G16R 4G22R16G 3G32G26G 1R 5G31
                                G25G10R15G21
  23380377.915   124630678.945    23380378.194    23380379.011    96934995.747  
  21601854.125   115271647.387    21601854.033                                  
  25318730.443   133050837.380    25318730.287    25318735.180   103675997.046  
  22283685.365   119328175.716    22283685.491    22283684.249    92810824.933  
  22065072.572   115952774.544    22065071.888    22065073.349    90352813.770  
  20306112.970   108471665.213    20306113.947    20306112.302    84366925.947  
  23130470.000   121551458.230    23130470.099    23130476.124    94715440.895  
  21613806.046   113581398.944    21613806.049    21613811.435    88505051.451  
  22206981.964   116698553.113    22206981.603    22206988.782    90933965.807  
  23500505.108   123495999.403    23500505.411    23500512.061    96230657.753  
  19594960.162   104746372.939    19594960.391    19594959.160    81469441.348  
  20191719.173   106108312.382    20191718.810    20191720.923    82681859.875  
  22868533.570   120175007.730    22868532.064    22868539.666    93642907.104  
  23720574.487   124652496.854    23720574.161    23720580.954    97131847.034  
  19672315.070   105122984.901    19672315.479    19672314.523    81762388.476  
  24323058.531   127818541.739    24323057.357    24323060.299    99598852.533  
 21  8 30  1  1 30.0000000  0 16R14R 6G16R 4G22R16G 3G32G26G 1R 5G31
                                G25G10R15G21
  23400554.827   124738228.924    23400554.970    23400555.048    97018645.695  
  21580688.434   115158697.854    21580687.684                                  
  25293297.381   132917179.700    25293295.242    25293303.571   103571848.341  
  22297139.127   119400221.414    22297139.787    22297138.339    92866860.445  
  22052202.319   115885142.941    22052201.920    22052203.493    90300113.844  
  20287480.962   108372134.496    20287481.809    20287480.163    84289513.194  
  23110724.476   121447695.450    23110724.083    23110730.284    94634586.833  
  21618994.871   113608665.178    21618994.485    21619000.031    88526297.857  
  22185966.353   116588115.909    22185966.523    22185973.040    90847910.898  
  23506100.139   123525400.274    23506099.669    23506106.795    96253567.493  
  19592806.190   104734860.311    19592806.915    19592805.426    81460487.076  
  20191280.726   106106007.737    20191280.326    20191282.281    82680064.066  
  22878231.746   120225972.002    22878230.419    22878236.810    93682619.535  
  23738642.183   124747439.658    23738641.595    23738648.427    97205828.379  
  19678709.149   105157153.410    19678709.605    19678708.699    81788963.988  
  24329730.031   127853600.323    24329727.680    24329731.432    99626170.853  
 21  8 30  1  2  0.0000000  0 16R14R 6G16R 4G22R16G 3G32G26G 1R 5G31
                                G25G10R15G21
  23420753.724   124845905.057    23420753.246    23420754.616    97102393.734  
  21559544.584   115045873.604    21559544.652                                  
  25267845.705   132783430.315    25267844.336    25267849.324   103467628.120  
  22310657.440   119472609.942    22310657.589    22310656.362    92923162.610  
  22039416.798   115817953.220    22039416.232    22039417.492    90247758.233  
  20268958.466   108273190.640    20268958.875    20268957.350    84212556.895  
  23091035.383   121344228.603    23091035.105    23091040.735    94553963.375  
  21624227.063   113636159.870    21624226.901    21624231.921    88547722.279  
  22165006.738   116477970.561    22165006.205    22165012.907    90762083.386  
  23511780.259   123555249.732    23511780.525    23511786.606    96276826.779  
  19590747.590   104723856.084    19590748.302    19590746.934    81451928.233  
  20190925.170   106104139.622    20190924.867    20190926.720    82678608.404  
  22888026.838   120277445.506    22888026.361    22888032.457    93722728.754  
  23756743.749   124842564.924    23756743.358    23756750.049    97279951.920  
  19685227.205   105191983.132    19685227.479    19685226.443    81816053.776  
  24336444.078   127888882.501    24336443.127    24336446.737    99653663.415  
 21  8 30  1  2 30.0000000  0 16R14R 6G16R 4G22R16G 3G32G26G 1R 5G31
                                G25G10R15G21
  23440977.261   124953706.875    23440977.664    23440979.115    97186239.601  
  21538424.037   114933180.066    21538425.786                                  
  25242376.534   132649594.817    25242375.839    25242381.952   103363340.801  
  22324239.358   119545343.583    22324239.825    22324238.916    92979733.205  
  22026715.881   115751209.608    22026715.094    22026716.975    90195750.249  
  20250546.635   108174838.922    20250547.321    20250546.215    84136061.153  
  23071403.870   121241063.617    23071403.800    23071409.135    94473575.107  
  21629503.212   113663886.438    21629502.735    21629507.959    88569327.388  
  22144103.527   116368123.130    22144102.915    22144110.164    90676488.018  
  23517545.283   123585548.477    23517545.837    23517552.461    96300436.165  
  19588785.102   104713365.189    19588785.622    19588784.292    81443768.649  
  20190653.042   106102709.731    20190652.628    20190654.803    82677494.216  
  22897918.875   120329429.149    22897917.912    22897923.745    93763235.482  
  23774880.474   124937873.375    23774880.641    23774885.971    97354218.209  
  19691868.404   105227474.255    19691869.078    19691868.299    81843657.994  
  24343201.292   127924389.453    24343199.880    24343203.724    99681331.094  
 21  8 30  1  3  0.0000000  0 16R14R 6G16R 4G22R16G 3G32G26G 1R 5G31
                                G25G10R15G21
  23461223.628   125061628.713    23461223.781    23461222.785    97270178.830  
  21517330.543   114820617.303    21517331.351                                  
  25216893.045   132515673.520    25216891.902    25216898.215   103258986.620  
  22337884.803   119618418.875    22337885.613    22337885.454    93036569.521  
  22014099.824   115684911.902    22014099.440    22014100.558    90144089.718  
  20232246.135   108077079.024    20232246.216    20232244.730    84060025.712  
  23051829.862   121138200.488    23051829.573    23051835.067    94393422.063  
  21634823.043   113691842.670    21634822.968    21634828.234    88591111.457  
  22123256.684   116258573.979    22123256.024    22123263.440    90591125.089  
  23523395.921   123616291.444    23523396.013    23523402.924    96324391.695  
  19586918.436   104703386.408    19586918.962    19586917.556    81436007.369  
  20190463.436   106101713.806    20190463.230    20190465.242    82676718.182  
  22907907.080   120381918.012    22907905.940    22907912.637    93804135.890  
  23793050.786   125033360.135    23793051.313    23793056.651    97428623.450  
  19698633.019   105263621.268    19698633.607    19698632.699    81871772.340  
  24349999.411   127960116.101    24349998.104    24350000.269    99709169.986  
 21  8 30  1  3 30.0000000  0 16R14R 6G16R 4G22R16G 3G32G26G 1R 5G31
                                G25G10R15G21
  23481490.711   125169668.212    23481491.208    23481492.633    97354209.463  
  21496262.964   114708190.222    21496262.774                                  
  25191391.678   132381669.969    25191391.852    25191396.185   103154568.381  
  22351595.667   119691836.619    22351595.523    22351595.882    93093672.148  
  22001569.084   115619063.476    22001568.713    22001569.965    90092779.259  
  20214055.807   107979914.794    20214056.664    20214055.531    83984453.569  
  23032313.785   121035643.373    23032313.514    23032319.193    94313507.463  
  21640187.069   113720030.326    21640186.946    21640191.903    88613075.851  
  22102467.410   116149327.496    22102466.972    22102473.960    90505998.003  
  23529330.823   123647477.592    23529330.037    23529336.933    96348692.550  
  19585148.267   104693923.010    19585148.569    19585147.115    81428646.944  
  20190356.511   106101151.924    20190356.206    20190358.345    82676280.369  
  22917991.311   120434911.275    22917990.811    22917996.626    93845429.362  
  23811255.351   125129024.302    23811254.589    23811261.619    97503166.937  
  19705519.813   105300422.469    19705520.385    19705519.394    81900395.496  
  24356839.573   127996061.239    24356837.877    24356842.043    99737179.136  
 21  8 30  1  4  0.0000000  0 16R14R 6G16R 4G22R16G 3G32G26G 1R 5G31
                                G25G10R15G21
  23501779.671   125277816.594    23501780.010    23501778.718    97438324.921  
  21475218.596   114595895.848    21475218.577                                  
  25165876.662   132247581.814    25165875.498    25165879.618   103050084.182  
  22365368.968   119765589.874    22365369.077    22365368.360    93151035.742  
  21989123.364   115553660.614    21989123.137    21989124.336    90041816.019  
  20195977.944   107883343.050    20195978.082    20195977.054    83909342.260  
  23012855.462   120933389.546    23012855.077    23012860.784    94233829.190  
  21645594.209   113748444.298    21645593.858    21645598.716    88635216.601  
  22081735.635   116040381.191    22081735.037    22081742.578    90421104.838  
  23535348.019   123679098.986    23535347.903    23535354.758    96373332.571  
  19583473.419   104684971.074    19583473.878    19583472.562    81421684.325  
  20190330.901   106101017.159    20190330.449    20190332.650    82676175.369  
  22928170.297   120488401.205    22928170.145    22928175.301    93887109.805  
  23829491.074   125224858.063    23829491.223    23829497.386    97577842.548  
  19712527.373   105337869.063    19712528.023    19712527.044    81929520.626  
  24363720.302   128032217.306    24363717.150    24363722.789    99765352.601  
 21  8 30  1  4 30.0000000  0 16R14R 6G16R 4G22R16G 3G32G26G 1R 5G31
                                G25G10R15G21
  23522087.357   125386074.410    23522087.547    23522090.243    97522525.308  
  21454200.962   114483740.541    21454201.311                                  
  25140345.573   132113415.666    25140343.794    25140351.054   102945539.243  
  22379204.758   119839682.073    22379205.230    22379204.568    93208662.970  
  21976763.365   115488709.217    21976762.342    21976764.553    89991204.557  
  20178011.185   107787370.081    20178011.650    20178010.709    83834696.659  
  22993455.948   120831445.639    22993456.196    22993461.546    94154392.425  
  21651045.037   113777088.948    21651045.143    21651050.003    88657537.109  
  22061062.501   115931741.997    22061062.220    22061068.857    90336450.966  
  23541448.452   123711157.164    23541448.766    23541454.784    96398312.932  
  19581895.463   104676536.299    19581895.974    19581894.649    81415123.939  
  20190386.983   106101312.059    20190386.650    20190388.762    82676405.177  
  22938444.097   120542389.531    22938443.046    22938449.603    93929178.627  
  23847760.267   125320863.055    23847761.246    23847766.732    97652651.583  
  19719656.033   105375962.230    19719656.606    19719655.628    81959148.646  
  24370641.019   128068585.827    24370639.153    24370643.029    99793691.646  
 21  8 30  1  5  0.0000000  0 16R14R 6G16R 4G22R16G 3G32G26G 1R 5G31
                                G25G10R15G21
  23542417.405   125494435.619    23542417.627    23542417.449    97606806.324  
  21433208.115   114371725.427    21433209.209                                  
  25114799.529   131979171.890    25114798.804    25114802.343   102840933.804  
  22393104.682   119914109.825    22393105.170    22393103.943    93266551.162  
  21964489.428   115424208.592    21964488.846    21964490.286    89940944.352  
  20160157.231   107691995.782    20160157.234    20160156.207    83760516.696  
  22974115.625   120729811.910    22974115.968    22974121.215    94075197.333  
  21656539.431   113805962.071    21656539.361    21656544.166    88680035.634  
  22040447.762   115823410.344    22040447.050    22040454.095    90252036.739  
  23547631.416   123743647.059    23547630.543    23547637.187    96423629.718  
  19580414.074   104668617.496    19580414.658    19580413.258    81408964.869  
  20190523.923   106102032.455    20190523.625    20190525.771    82676966.532  
  22948811.285   120596871.312    22948809.868    22948816.846    93971631.976  
  23866061.821   125417034.432    23866061.451    23866066.578    97727590.242  
  19726904.573   105414696.274    19726905.228    19726904.364    81989275.126  
  24377601.013   128105161.903    24377599.548    24377603.573    99822192.395  
 21  8 30  1  5 30.0000000  0 17R14R 6G16R 4G22R16G 3G32G26G 1R 5G31
                                G25R 9G10R15G21
  23562764.290   125602897.568    23562764.594    23562764.348    97691165.532  
  21412242.580   114259852.716    21412244.018                                  
  25089239.408   131844853.306    25089239.736    25089243.361   102736270.119  
  22407065.485   119988872.405    22407065.898    22407065.115    93324699.795  
  21952301.471   115360161.145    21952301.392    21952302.331    89891037.270  
  20142415.272   107597222.721    20142415.831    20142414.238    83686804.345  
  22954835.269   120628491.430    22954835.585    22954840.650    93996246.336  
  21662077.614   113835064.485    21662077.421    21662082.228    88702712.826  
  22019891.918   115715389.631    22019891.481    22019898.384    90167864.807  
  23553895.117   123776566.617    23553894.955    23553902.884    96449281.298  
  19579029.841   104661216.880    19579030.305    19579028.940    81403208.832  
  20190741.925   106103177.520    20190741.568    20190743.700    82677858.797  
  22959272.596   120651844.724    22959271.698    22959278.078    94014468.421  
  24215646.744   129310207.873    24215647.631    24215650.398   100574636.582  
  23884393.941   125513370.306    23884393.533    23884400.036    97802657.108  
  19734272.278   105454068.776    19734273.224    19734272.352    82019898.189  
  24384600.890   128141943.853    24384599.740    24384602.253    99850853.581  
 21  8 30  1  6  0.0000000  0 17R14R 6G16R 4G22R16G 3G32G26G 1R 5G31
                                G25R 9G10R15G21
  23583130.019   125711463.789    23583130.349    23583132.040    97775605.885  
  21391307.361   114148132.778    21391307.374                                  
  25063667.588   131710469.730    25063665.103    25063670.085   102631555.763  
  22421090.774   120063975.833    22421091.209    22421090.276    93383113.521  
  21940201.294   115296575.023    21940200.912    21940202.410    89841489.659  
  20124788.248   107503060.111    20124788.565    20124787.045    83613566.782  
  22935615.861   120527493.747    22935616.096    22935621.463    93917546.864  
  21667660.653   113864403.319    21667660.620    21667665.245    88725574.249  
  21999397.258   115607689.555    21999397.075    21999403.219    90083942.712  
  23560242.428   123809920.122    23560242.321    23560249.670    96475270.991  
  19577744.121   104654342.644    19577744.445    19577742.901    81397862.204  
  20191041.547   106104752.322    20191041.228    20191043.434    82679085.925  
  22969828.032   120707314.247    22969827.114    22969833.641    94057691.404  
  24189171.861   129168826.753    24189172.059    24189172.891   100464673.506  
  23902758.137   125609875.055    23902758.825    23902764.061    97877855.575  
  19741760.815   105494083.129    19741761.322    19741760.339    82051020.465  
  24391639.532   128178935.312    24391637.388    24391641.471    99879678.031  
 21  8 30  1  6 30.0000000  0 17R14R 6G16R 4G22R16G 3G32G26G 1R 5G31
                                G25R 9G10R15G21
  23603514.895   125820123.743    23603514.714    23603515.779    97860119.198  
  21370399.273   114036561.597    21370399.573                                  
  25038081.030   131576016.534    25038079.041    25038085.949   102526787.152  
  22435178.207   120139412.252    22435178.464    22435177.235    93441786.267  
  21928188.240   115233445.593    21928187.850    21928189.448    89792297.914  
  20107274.502   107409502.930    20107274.844    20107272.922    83540800.112  
  22916457.457   120426814.786    22916457.749    22916462.711    93839095.721  
  21673287.488   113893972.199    21673287.623    21673292.226    88748614.930  
  21978962.901   115500306.357    21978962.475    21978969.272    90000267.535  
  23566670.116   123843698.247    23566670.285    23566677.301    96501591.597  
  19576555.490   104647989.871    19576555.923    19576554.559    81392921.171  
  20191421.574   106106748.577    20191421.189    20191423.119    82680641.452  
  22980476.311   120763270.700    22980475.373    22980481.588    94101293.824  
  24162715.606   129027558.928    24162716.224    24162718.318   100354798.562  
  23921153.095   125706539.642    23921152.872    23921159.053    97953178.585  
  19749367.092   105534729.454    19749367.738    19749366.901    82082634.273  
  24398717.180   128216127.377    24398715.112    24398718.799    99908658.757  
 21  8 30  1  7  0.0000000  0 17R14R 6G16R 4G22R16G 3G32G26G 1R 5G31
                                G25R 9G10R15G21
  23623916.718   125928878.548    23623917.340    23623918.859    97944706.209  
  21349519.358   113925146.450    21349519.726                                  
  25012483.210   131441500.965    25012482.724    25012487.856   102421969.978  
  22449328.193   120215185.238    22449328.346    22449327.376    93500720.791  
  21916263.074   115170779.049    21916262.679    21916264.198    89743466.859  
  20089874.817   107316557.844    20089875.281    20089872.886    83468509.515  
  22897360.721   120326461.546    22897361.013    22897366.500    93760898.394  
  21678958.703   113923775.694    21678958.844    21678963.338    88771838.437  
  21958590.029   115393247.154    21958589.850    21958596.563    89916844.828  
  23573178.738   123877902.722    23573178.601    23573185.011    96528244.386  
  19575465.522   104642163.917    19575465.937    19575464.556    81388389.880  
  20191882.010   106109168.775    20191881.748    20191883.870    82682527.327  
  22991216.677   120819715.981    22991216.134    22991223.039    94145277.183  
  24136284.018   128886411.388    24136283.746    24136286.493   100245017.306  
  23939578.262   125803365.969    23939578.182    23939584.271    98028627.650  
  19757092.212   105576009.046    19757092.634    19757091.864    82114740.617  
  24405833.182   128253522.197    24405831.196    24405834.805    99937797.538  
 21  8 30  1  7 30.0000000  0 17R14R 6G16R 4G22R16G 3G32G26G 1R 5G31
                                G25R 9G10R15G21
  23644337.114   126037723.322    23644336.663    23644336.456    98029363.278  
  21328670.238   113813888.194    21328670.072                                  
  24986874.412   131306923.785    24986874.029    24986878.353   102317104.771  
  22463540.460   120291291.643    22463540.609    22463539.727    93559914.641  
  21904426.036   115108575.167    21904425.538    21904427.157    89694996.304  
  20072590.167   107224225.010    20072590.486    20072588.560    83396695.109  
  22878326.403   120226434.774    22878326.331    22878331.664    93682955.453  
  21684674.461   113953812.259    21684674.560    21684679.131    88795243.546  
  21938279.134   115286512.999    21938279.068    21938285.794    89833675.397  
  23579768.108   123912529.047    23579767.989    23579775.178    96555225.934  
  19574474.394   104636864.815    19574474.662    19574473.335    81384268.363  
  20192422.683   106112009.922    20192422.381    20192424.437    82684741.215  
  23002050.535   120876645.884    23002050.345    23002055.726    94189638.137  
  24109875.168   128745385.512    24109875.151    24109876.528   100135330.608  
  23958034.190   125900349.720    23958034.301    23958040.185    98104199.383  
  19764934.401   105617916.446    19764935.031    19764934.312    82147335.263  
  24412986.946   128291115.398    24412985.562    24412989.973    99967090.856  
 21  8 30  1  8  0.0000000  0 17R14R 6G16R 4G22R16G 3G32G26G 1R 5G31
                                G25R 9G10R15G21
  23664770.492   126146653.885    23664770.813    23664773.656    98114086.925  
  21307850.661   113702789.215    21307851.334                                  
  24961253.673   131172287.461    24961252.889    24961259.158   102212193.485  
  22477814.819   120367730.147    22477815.022    22477814.335    93619366.765  
  21892677.403   115046835.410    21892676.941    21892678.455    89646887.416  
  20055419.679   107132506.503    20055420.157    20055418.315    83325358.524  
  22859354.366   120126736.687    22859354.227    22859359.689    93605268.630  
  21690434.190   113984081.710    21690434.172    21690439.621    88818830.126  
  21918030.692   115180106.270    21918030.181    21918037.017    89750761.110  
  23586436.590   123947574.108    23586436.839    23586443.877    96582533.736  
  19573581.436   104632093.175    19573582.028    19573580.545    81380557.096  
  20193043.256   106115269.878    20193042.597    20193044.821    82687281.444  
  23012975.682   120934057.468    23012975.404    23012981.425    94234374.430  
  24083488.935   128604483.283    24083488.671    24083490.022   100025740.036  
  23976518.402   125997488.136    23976518.684    23976524.553    98179891.625  
  19772893.657   105660448.248    19772894.304    19772893.550    82180415.554  
  24420178.483   128328904.136    24420176.337    24420180.046    99996536.527  
 21  8 30  1  8 30.0000000  0 17R14R 6G16R 4G22R16G 3G32G26G 1R 5G31
                                G25R 9G10R15G21
  23685221.138   126255665.386    23685222.108    23685221.983    98198873.801  
  21287060.892   113591851.598    21287060.978                                  
  24935622.340   131037593.425    24935622.123    24935625.870   102107237.192  
  22492150.437   120444498.239    22492150.684    22492150.277    93679075.236  
  21881017.001   114985560.221    21881016.826    21881018.460    89599140.520  
  20038364.631   107041402.649    20038365.307    20038363.782    83254500.003  
  22840445.197   120027368.813    22840445.148    22840450.976    93527839.116  
  21696238.508   114014583.185    21696238.816    21696243.535    88842597.493  
  21897844.663   115074028.682    21897844.231    21897851.043    89668103.286  
  23593184.532   123983034.150    23593184.093    23593192.059    96610164.898  
  19572787.413   104627849.342    19572788.033    19572786.704    81377256.347  
  20193742.505   106118945.752    20193742.078    20193744.374    82690145.766  
  23023991.769   120991947.100    23023990.965    23023996.539    94279483.238  
  24057122.427   128463706.094    24057123.503    24057124.368    99916246.791  
  23995031.559   126094777.538    23995032.090    23995037.849    98255701.513  
  19780968.899   105703599.903    19780969.541    19780968.604    82213977.952  
  24427405.949   128366885.083    24427404.223    24427407.708   100026132.035  
 21  8 30  1  9  0.0000000  0 17R14R 6G16R 4G22R16G 3G32G26G 1R 5G31
                                G25R 9G10R15G21
  23705687.508   126364758.451    23705687.639    23705688.573    98283723.861  
  21266301.281   113481080.746    21266302.006                                  
  24909980.990   130902847.602    24909980.678    24909985.760   102002240.583  
  22506547.468   120521598.276    22506548.011    22506547.804    93739041.904  
  21869446.371   114924754.524    21869446.241    21869447.179    89551759.464  
  20021425.864   106950918.809    20021426.650    20021424.666    83184123.717  
  22821600.127   119928336.990    22821600.332    22821605.637    93450671.450  
  21702087.688   114045320.225    21702087.439    21702092.826    88866548.425  
  21877722.017   114968286.361    21877722.210    21877729.275    89585706.726  
  23600011.889   124018909.741    23600011.866    23600018.119    96638119.876  
  19572093.215   104624137.975    19572093.782    19572092.418    81374369.740  
  20194521.726   106123039.402    20194521.187    20194523.255    82693335.631  
  23035098.821   121050315.566    23035097.986    23035104.528    94324965.178  
  24030787.147   128323060.522    24030786.710    24030787.936    99806855.762  
  24013573.976   126192218.882    24013574.774    24013580.813    98331629.771  
  19789160.142   105747371.285    19789160.696    19789159.829    82248022.358  
  24434670.184   128405058.383    24434667.578    24434671.979   100055877.406  
 21  8 30  1  9 30.0000000  0 17R14R 6G16R 4G22R16G 3G32G26G 1R 5G31
                                G25R 9G10R15G21
  23726166.759   126473930.946    23726167.363    23726168.600    98368635.811  
  21245575.529   113370481.950    21245576.375                                  
  24884331.185   130768054.095    24884330.163    24884334.185   101897206.723  
  22521008.134   120599030.597    22521008.569    22521008.540    93799266.967  
  21857965.092   114864421.308    21857965.045    21857966.153    89504746.568  
  20004603.733   106861058.620    20004604.439    20004603.185    83114232.492  
  22802819.700   119829645.317    22802819.792    22802824.982    93373768.832  
  21707981.896   114076294.564    21707982.179    21707987.108    88890684.265  
  21857664.664   114862883.519    21857664.572    21857671.165    89503574.687  
  23606917.807   124055199.635    23606917.679    23606925.485    96666397.688  
  19571499.429   104620961.989    19571499.794    19571498.223    81371899.538  
  20195379.915   106127550.365    20195379.529    20195381.668    82696850.667  
  23046296.886   121109161.778    23046296.594    23046302.167    94370819.371  
  24004474.365   128182550.628    24004474.495    24004475.792    99697570.274  
  24032145.001   126289811.035    24032144.648    24032151.265    98407675.522  
  19797467.177   105791760.603    19797467.601    19797466.614    82282547.383  
  24441970.594   128443422.778    24441968.095    24441972.882   100085771.686  
 21  8 30  1 10  0.0000000  0 17R14R 6G16R 4G22R16G 3G32G26G 1R 5G31
                                G25R 9G10R15G21
  23746661.733   126583177.676    23746662.000    23746662.156    98453605.497  
  21224882.367   113260055.347    21224881.954                                  
  24858671.838   130633213.846    24858670.432    24858674.954   101792136.509  
  22535529.632   120676792.337    22535530.428    22535529.745    93859748.250  
  21846574.265   114804561.007    21846574.115    21846575.457    89458102.181  
  19987898.260   106771822.075    19987898.935    19987897.847    83044826.330  
  22784104.216   119731294.771    22784103.933    22784109.607    93297132.033  
  21713920.862   114107504.732    21713921.067    21713926.258    88915003.875  
  21837672.390   114757821.376    21837671.740    21837678.647    89421708.132  
  23613901.460   124091899.384    23613900.565    23613907.876    96694994.857  
  19571005.107   104618320.952    19571005.523    19571004.351    81369845.412  
  20196317.315   106132476.016    20196316.999    20196319.006    82700688.839  
  23057585.140   121168481.556    23057584.401    23057590.615    94417042.553  
  23978184.166   128042177.304    23978185.292    23978187.158    99588391.186  
  24050744.513   126387550.006    24050744.333    24050751.279    98483835.674  
  19805888.637   105836762.813    19805889.157    19805888.165    82317549.105  
  24449307.097   128481974.919    24449306.333    24449308.230   100115812.271  
 21  8 30  1 10 30.0000000  0 17R14R 6G16R 4G22R16G 3G32G26G 1R 5G31
                                G25R 9G10R15G21
  23767168.968   126692492.883    23767169.510    23767171.202    98538628.390  
  21204220.051   113149801.929    21204221.076                                  
  24833003.109   130498327.012    24833002.164    24833006.990   101687029.936  
  22550112.432   120754879.660    22550113.076    22550112.121    93920482.783  
  21835272.975   114745172.157    21835272.847    21835273.825    89411825.160  
  19971309.562   106683208.555    19971310.057    19971308.884    82975904.749  
  22765453.516   119633285.285    22765453.892    22765459.330    93220760.996  
  21719904.510   114138948.412    21719904.591    21719909.706    88939505.446  
  21817744.523   114653100.052    21817744.216    21817751.055    89340107.138  
  23620962.283   124129003.755    23620961.509    23620968.977    96723907.321  
  19570610.601   104616213.376    19570611.157    19570609.942    81368206.192  
  20197332.503   106137811.031    20197332.307    20197334.233    82704845.990  
  23068962.482   121228269.734    23068961.398    23068968.130    94463630.754  
  23951924.810   127901940.568    23951924.217    23951923.966    99479318.333  
  24069371.088   126485430.686    24069371.111    24069378.296    98560106.301  
  19814424.111   105882371.726    19814424.396    19814423.172    82353022.688  
  24456677.719   128520708.726    24456675.538    24456680.010   100145994.417  
 21  8 30  1 11  0.0000000  0 17R14R 6G16R 4G22R16G 3G32G26G 1R 5G31
                                G25R 9G10R15G21
  23787687.806   126801869.771    23787688.332    23787687.529    98623699.310  
  21183591.957   113039721.226    21183591.797                                  
  24807325.461   130363392.849    24807326.403    24807329.197   101581886.531  
  22564754.510   120833287.673    22564754.837    22564754.229    93981466.750  
  21824060.941   114686252.863    21824060.572    21824062.127    89365914.023  
  19954836.886   106595216.529    19954837.742    19954836.540    82907466.554  
  22746867.601   119535616.020    22746868.112    22746873.298    93144655.074  
  21725932.013   114170622.326    21725931.887    21725937.166    88964186.419  
  21797881.415   114548718.875    21797881.200    21797887.819    89258771.199  
  23628098.521   124166506.364    23628098.256    23628105.286    96753130.100  
  19570315.801   104614637.175    19570316.180    19570315.294    81366980.262  
  20198424.882   106143550.659    20198424.285    20198426.371    82709318.430  
  23080427.651   121288520.246    23080426.780    23080433.138    94510579.204  
  23925688.780   127761839.936    23925688.678    23925689.329    99370351.093  
  24088023.382   126583447.128    24088023.209    24088029.064    98636482.734  
  19823071.087   105928580.610    19823071.740    19823070.732    82388962.932  
  24464082.514   128559618.929    24464080.666    24464085.526   100176314.010  
 21  8 30  1 11 30.0000000  0 17R14R 6G16R 4G22R16G 3G32G26G 1R 5G31
                                G25R 9G10R15G21
  23808219.066   126911310.519    23808219.250    23808220.303    98708819.919  
  21162997.340   112929821.561    21162996.361                                  
  24781641.389   130228420.105    24781640.160    24781644.540   101476713.023  
  22579458.108   120912021.369    22579458.140    22579457.087    94042704.010  
  21812939.808   114627810.862    21812939.419    21812940.640    89320374.799  
  19938482.892   106507853.109    19938483.070    19938482.079    82839517.264  
  22728348.300   119438295.371    22728348.116    22728353.841    93068820.802  
  21732004.192   114202532.511    21732004.264    21732009.464    88989051.489  
  21778084.639   114444686.396    21778084.753    21778091.339    89177706.977  
  23635311.516   124204410.381    23635311.628    23635318.814    96782665.660  
  19570121.643   104613599.529    19570122.198    19570120.940    81366173.204  
  20199594.648   106149698.963    20199594.649    20199596.541    82714109.322  
  23091981.189   121349236.351    23091981.188    23091987.616    94557890.457  
  23899476.939   127621883.523    23899477.981    23899480.261    99261496.278  
  24106701.589   126681602.604    24106701.144    24106706.963    98712967.511  
  19831831.341   105975391.772    19831831.750    19831830.655    82425371.612  
  24471520.446   128598708.604    24471518.533    24471522.965   100206773.467  
 21  8 30  1 12  0.0000000  0 17R14R 6G16R 4G22R16G 3G32G26G 1R 5G31
                                G25R 9G10R15G21
  23828760.815   127020811.190    23828761.221    23828762.147    98793987.036  
  21142435.929   112820104.710    21142436.015                                  
  24755950.147   130093409.805    24755948.692    24755953.740   101371510.241  
  22594221.454   120991078.152    22594221.635    22594220.365    94104192.599  
  21801909.776   114569846.426    21801909.331    21801910.583    89275207.713  
  19922246.073   106421119.625    19922246.423    19922245.553    82772057.927  
  22709895.468   119341324.736    22709895.025    22709900.411    92993259.276  
  21738121.311   114234678.051    21738121.713    21738126.568    89014099.963  
  21758354.740   114341004.267    21758354.536    21758360.783    89096915.735  
  23642599.778   124242711.753    23642599.974    23642607.268    96812510.868  
  19570028.126   104613100.343    19570028.814    19570027.805    81365784.960  
  20200842.215   106156253.304    20200841.736    20200843.837    82719216.602  
  23103623.508   121410414.317    23103622.780    23103628.772    94605561.584  
  23873296.058   127482073.141    23873296.253    23873297.314    99152755.160  
  24125405.478   126779893.538    24125405.312    24125412.242    98789557.840  
  19840703.219   106022800.618    19840703.772    19840702.485    82462245.157  
  24478992.561   128637973.883    24478991.281    24478994.382   100237369.742  
 21  8 30  1 12 30.0000000  0 17R14R 6G16R 4G22R16G 3G32G26G 1R 5G31
                                G25R 9G10R15G21
  23849312.935   127130367.270    23849313.114    23849314.551    98879197.374  
  21121909.719   112710572.352    21121909.695                                  
  24730251.329   129958363.971    24730251.738    24730255.660   101266279.770  
  22609044.740   121070455.929    22609044.921    22609043.826    94165930.826  
  21790970.340   114512360.123    21790970.090    21790970.929    89230413.207  
  19906127.839   106335016.333    19906127.901    19906126.602    82705088.733  
  22691509.290   119244705.781    22691509.368    22691514.782    92917971.780  
  21744283.018   114267058.183    21744283.229    21744288.215    89039331.234  
  21738691.586   114237674.252    21738691.594    21738697.694    89016398.876  
  23649963.434   124281406.854    23649963.137    23649970.616    96842662.862  
  19570035.834   104613139.792    19570036.208    19570035.179    81365815.640  
  20202165.974   106163210.682    20202165.687    20202167.620    82724637.936  
  23115352.110   121472050.519    23115351.249    23115358.244    94653589.805  
  23847142.552   127342410.844    23847142.292    23847141.430    99044128.929  
  24144134.907   126878316.588    24144134.392    24144141.394    98866251.099  
  19849686.330   106070802.720    19849686.710    19849685.553    82499580.121  
  24486497.215   128677411.151    24486495.282    24486500.463   100268100.073  
 21  8 30  1 13  0.0000000  0 17R14R 6G16R 4G22R16G 3G32G26G 1R 5G31
                                G25R 9G10R15G21
  23869874.418   127239974.951    23869875.553    23869876.655    98964447.750  
  21101419.465   112601227.536    21101418.858                                  
  24704547.465   129823284.586    24704547.262    24704550.433   101161023.162  
  22623927.203   121150152.779    22623926.957    22623926.423    94227917.247  
  21780122.220   114455352.903    21780121.974    21780123.036    89185992.001  
  19890127.039   106249544.691    19890127.528    19890126.256    82638610.825  
  22673190.840   119148440.463    22673191.021    22673195.725    92842959.862  
  21750489.272   114299672.567    21750489.284    21750494.455    89064745.026  
  21719095.937   114134698.520    21719095.579    21719102.206    88936158.070  
  23657401.343   124320492.151    23657400.436    23657407.704    96873118.905  
  19570144.025   104613718.920    19570144.580    19570143.537    81366266.073  
  20203566.374   106170569.099    20203565.923    20203568.011    82730371.773  
  23127167.766   121534141.776    23127167.493    23127174.003    94701972.613  
  23821015.466   127202898.212    23821015.360    23821017.444    98935619.205  
  24162888.662   126976868.625    24162888.688    24162895.139    98943044.874  
  19858779.477   106119393.808    19858779.885    19858778.768    82537373.183  
  24494034.209   128717017.439    24494032.951    24494036.731   100298962.075  
 21  8 30  1 13 30.0000000  0 17R14R 6G16R 4G22R16G 3G32G26G 1R 5G31
                                G25R 9G10R15G21
  23890446.697   127349634.701    23890447.339    23890447.708    99049738.721  
  21080963.343   112492076.717    21080963.876                                  
  24678837.078   129688178.489    24678835.987    24678840.428   101055745.729  
  22638869.650   121230171.362    22638870.013    22638869.231    94290153.876  
  21769366.334   114398830.098    21769366.024    21769367.092    89141948.267  
  19874246.072   106164710.166    19874246.267    19874244.986    82572628.447  
  22654940.644   119052535.157    22654940.973    22654946.049    92768228.473  
  21756741.019   114332525.220    21756741.137    21756745.981    89090344.493  
  21699568.787   114032083.615    21699568.366    21699574.872    88856198.441  
  23664913.317   124359968.693    23664914.075    23664921.055    96903879.818  
  19570354.372   104614842.335    19570354.765    19570353.620    81367139.840  
  20205043.140   106178330.707    20205042.943    20205044.980    82736419.786  
  23139070.282   121596689.321    23139069.399    23139075.987    94750710.951  
  23794918.389   127063542.010    23794918.360    23794920.282    98827231.257  
  24181666.928   127075551.047    24181667.049    24181674.077    99019940.237  
  19867982.938   106168574.485    19867983.390    19867982.194    82575624.818  
  24501603.268   128756793.772    24501600.831    24501605.288   100329956.598  
 21  8 30  1 14  0.0000000  0 17R14R 6G16R 4G22R16G 3G32G26G 1R 5G31
                                G25R 9G10R15G21
  23911028.619   127459345.104    23911028.915    23911029.820    99135068.971  
  21060546.081   112383124.468    21060546.636                                  
  24653123.271   129553049.882    24653122.210    24653127.253   100950450.773  
  22653872.894   121310512.310    22653873.205    22653872.610    94352641.241  
  21758703.212   114342794.911    21758702.928    21758704.068    89098284.502  
  19858484.561   106080516.033    19858485.278    19858483.309    82507144.147  
  22636759.646   118956994.130    22636759.866    22636765.093    92693780.936  
  21763038.368   114365617.983    21763038.470    21763043.331    89116131.063  
  21680110.977   113929833.788    21680110.766    21680117.250    88776523.296  
  23672499.598   124399835.300    23672498.941    23672507.360    96934944.688  
  19570666.896   104616512.908    19570667.338    19570666.230    81368439.174  
  20206596.920   106186495.158    20206596.629    20206598.539    82742781.702  
  23151059.360   121659692.039    23151058.655    23151065.301    94799803.991  
  23768851.632   126924346.683    23768851.704    23768852.350    98718968.332  
  24200469.517   127174362.961    24200469.945    24200476.235    99096936.466  
  19877296.487   106218342.871    19877296.764    19877295.454    82614333.560  
  24509204.659   128796739.566    24509203.259    24509207.947   100361083.175  
 21  8 30  1 14 30.0000000  0 17R14R 6G16R 4G22R16G 3G32G26G 1R 5G31
                                G25R 9G10R15G21
  23931617.964   127569098.314    23931618.252    23931619.006    99220432.618  
  21040165.005   112274369.329    21040165.525                                  
  24627404.202   129417896.952    24627403.206    24627407.849   100845136.850  
  22668934.567   121391169.441    22668934.840    22668934.555    94415374.520  
  21748132.309   114287244.295    21748132.008    21748133.054    89054998.317  
  19842842.931   105996959.700    19842843.299    19842841.171    82442155.912  
  22618647.882   118861815.485    22618648.022    22618653.598    92619615.776  
  21769380.954   114398946.655    21769381.098    21769385.463    89142101.449  
  21660722.560   113827947.582    21660722.382    21660729.395    88697131.494  
  23680158.434   124440084.682    23680158.445    23680165.250    96966307.824  
  19571081.084   104618727.454    19571081.636    19571080.488    81370161.593  
  20208226.202   106195056.469    20208225.988    20208227.782    82749452.862  
  23163133.274   121723142.928    23163132.503    23163139.277    94849246.232  
  23742814.180   126785310.295    23742814.686    23742815.201    98610829.015  
  24219296.395   127273297.502    24219296.614    24219303.701    99174028.237  
  19886718.247   106268690.790    19886718.724    19886717.642    82653493.045  
  24516837.015   128836847.589    24516836.037    24516839.530   100392336.145  
 21  8 30  1 15  0.0000000  0 17R14R 6G16R 4G22R16G 3G32G26G 1R 5G31
                                G25R 9G10R15G21
  23952214.467   127678887.018    23952214.266    23952215.115    99305823.796  
  21019820.433   112165809.899    21019821.623                                  
  24601680.064   129282718.076    24601678.722    24601685.531   100739802.740  
  22684054.826   121472137.236    22684055.383    22684055.177    94478349.410  
  21737652.851   114232175.538    21737652.386    21737653.796    89012087.622  
  19827319.376   105914038.359    19827319.926    19827318.238    82377661.572  
  22600604.339   118766997.465    22600605.048    22600609.912    92545731.624  
  21775767.281   114432507.065    21775767.309    21775772.009    89168252.422  
  21641403.264   113726423.271    21641402.999    21641409.660    88618021.691  
  23687889.249   124480709.732    23687889.278    23687895.751    96997963.646  
  19571596.591   104621482.339    19571596.959    19571595.880    81372304.278  
  20209929.723   106204008.328    20209929.239    20209931.289    82756428.343  
  23175291.513   121787034.981    23175291.223    23175297.658    94899032.248  
  23716807.028   126646431.042    23716806.761    23716807.915    98502811.910  
  24238146.110   127372347.764    24238145.795    24238151.699    99251210.214  
  19896247.104   106319610.602    19896247.637    19896246.590    82693097.344  
  24524499.338   128877111.106    24524498.220    24524501.399   100423710.282  
 21  8 30  1 15 30.0000000  0 17R14R 6G16R 4G22R16G 3G32G26G 1R 5G31
                                G25R 9G10R15G21
  23972817.754   127788719.127    23972818.201    23972818.595    99391248.828  
  20999516.065   112057460.842    20999516.507                                  
  24575953.944   129147527.374    24575953.375    24575957.141   100634459.418  
  22699236.082   121553425.638    22699235.983    22699235.378    94541573.663  
  21727267.657   114177601.228    21727267.422    21727268.602    88969562.205  
  19811917.607   105831764.441    19811917.991    19811916.317    82313670.785  
  22582632.421   118672553.759    22582632.126    22582637.517    92472139.154  
  21782199.913   114466310.639    21782199.675    21782204.507    89194592.870  
  21622155.505   113625274.663    21622154.958    21622161.603    88539204.635  
  23695693.598   124521718.539    23695693.254    23695699.677    97029918.526  
  19572215.479   104624790.285    19572215.874    19572214.570    81374877.122  
  20211709.250   106213360.303    20211708.830    20211710.884    82763715.602  
  23187535.540   121851376.723    23187535.403    23187540.784    94949168.651  
  23690830.222   126507723.060    23690831.174    23690832.024    98394928.037  
  24257018.433   127471522.432    24257018.471    24257024.136    99328489.124  
  19905884.513   106371109.770    19905884.812    19905883.619    82733152.256  
  24532192.278   128917538.533    24532190.361    24532195.033   100455212.150  
 21  8 30  1 16  0.0000000  0 17R14R 6G16R 4G22R16G 3G32G26G 1R 5G31
                                G25R 9G10R15G21
  23993428.660   127898584.784    23993429.000    23993429.596    99476699.898  
  20979250.444   111949318.004    20979250.620                                  
  24550224.908   129012320.728    24550224.333    24550229.280   100529103.701  
  22714474.052   121635026.432    22714474.513    22714473.712    94605040.914  
  21716975.754   114123515.980    21716975.364    21716976.784    88927417.879  
  19796635.875   105750133.320    19796636.820    19796634.863    82250179.933  
  22564730.697   118578480.240    22564731.030    22564736.236    92398835.128  
  21788677.495   114500350.834    21788677.284    21788681.891    89221117.696  
  21602978.255   113524497.824    21602978.487    21602984.525    88460677.273  
  23703568.866   124563101.614    23703568.555    23703575.671    97062165.054  
  19572936.619   104628645.630    19572936.978    19572935.933    81377875.717  
  20213563.423   106223103.933    20213562.947    20213565.021    82771308.049  
  23199862.939   121916158.685    23199862.558    23199869.106    94999648.109  
  23664886.157   126369182.265    23664886.438    23664888.095    98287174.202  
  24275912.888   127570812.300    24275913.357    24275918.348    99405857.840  
  19915628.050   106423177.700    19915628.647    19915627.833    82773649.533  
  24539914.771   128958120.593    24539911.876    24539918.198   100486834.489  
 21  8 30  1 16 30.0000000  0 17R14R 6G16R 4G22R16G 3G32G26G 1R 5G31
                                G25R 9G10R15G21
  24014045.188   128008479.621    24014045.098    24014045.083    99562173.722  
  20959024.845   111841383.643    20959024.007                                  
  24524493.689   128877099.908    24524491.706    24524497.328   100423736.862  
  22729770.510   121716937.386    22729771.073    22729769.764    94668749.393  
  21706776.832   114069920.426    21706776.363    21706777.576    88885655.130  
  19781474.474   105669145.043    19781474.970    19781473.389    82187189.089  
  22546899.682   118484778.447    22546899.875    22546905.153    92325820.763  
  21795199.893   114534626.850    21795200.158    21795204.637    89247826.275  
  21583872.153   113424094.384    21583871.930    21583878.702    88382440.860  
  23711513.723   124604855.066    23711513.715    23711521.494    97094700.186  
  19573760.207   104633048.400    19573760.652    19573759.541    81381300.093  
  20215491.401   106233236.435    20215491.248    20215493.215    82779203.513  
  23212274.105   121981377.198    23212273.800    23212279.790    95050467.731  
  23638974.403   126230810.385    23638974.310    23638975.691    98179551.666  
  24294828.493   127670213.964    24294829.087    24294832.608    99483313.696  
  19925477.545   106475810.320    19925478.164    19925477.261    82814586.007  
  24547666.252   128998853.704    24547664.494    24547668.608   100518574.546  
 21  8 30  1 17  0.0000000  0 17R14R 6G16R 4G22R16G 3G32G26G 1R 5G31
                                G25R 9G10R15G21
  24034666.572   128118405.371    24034667.049    24034667.897    99647671.515  
  20938837.590   111733665.221    20938837.829                                  
  24498760.424   128741873.030    24498759.761    24498764.272   100318365.277  
  22745125.821   121799162.213    22745126.128    22745124.516    94732702.008  
  21696672.197   114016821.011    21696671.875    21696673.118    88844278.984  
  19766435.083   105588806.333    19766435.425    19766433.649    82124703.450  
  22529141.065   118391455.772    22529140.732    22529146.252    92253101.819  
  21801768.387   114569143.758    21801768.420    21801773.226    89274722.567  
  21564838.527   113324071.881    21564838.325    21564844.546    88304501.279  
  23719529.800   124646980.915    23719529.686    23719537.243    97127525.460  
  19574687.269   104638004.245    19574687.857    19574686.684    81385154.634  
  20217494.003   106243760.915    20217493.902    20217495.877    82787404.411  
  23224768.257   122047034.424    23224767.902    23224773.731    95101629.211  
  23613094.989   126092614.767    23613094.657    23613095.422    98072066.285  
  24313765.735   127769729.816    24313765.710    24313770.485    99560858.558  
  19935433.078   106529008.696    19935433.453    19935432.690    82855962.516  
  24555446.531   129039740.087    24555445.783    24555448.391   100550434.052  
 21  8 30  1 17 30.0000000  0 17R14R 6G16R 4G22R16G 3G32G26G 1R 5G31
                                G25R 9G10R15G21
  24055293.084   128228353.756    24055293.124    24055293.557    99733186.982  
  20918690.830   111626160.224    20918691.277                                  
  24473026.255   128606636.412    24473027.613    24473029.645   100212986.148  
  22760537.845   121881693.217    22760538.077    22760537.305    94796892.776  
  21686661.627   113964213.165    21686660.810    21686662.455    88803285.882  
  19751516.106   105509112.754    19751516.608    19751515.260    82062719.591  
  22511454.137   118298509.053    22511453.570    22511459.296    92180675.823  
  21808381.038   114603895.975    21808381.279    21808386.163    89301802.214  
  21545876.805   113224427.259    21545876.471    21545882.955    88226856.165  
  23727615.000   124689470.441    23727615.675    23727622.278    97160634.138  
  19575717.095   104643508.653    19575717.565    19575716.337    81389435.830  
  20219569.951   106254669.877    20219569.891    20219571.847    82795904.909  
  23237344.538   122113121.883    23237343.961    23237350.063    95153125.933  
  23587247.489   125954592.666    23587247.726    23587248.337    97964715.793  
  24332722.644   127869351.542    24332722.376    24332728.103    99638485.916  
  19945492.333   106582763.391    19945493.056    19945492.147    82897771.715  
  24563253.826   129080771.633    24563251.525    24563256.274   100582406.635  
 21  8 30  1 18  0.0000000  0 17R14R 6G16R 4G22R16G 3G32G26G 1R 5G31
                                G25R 9G10R15G21
  24075922.584   128338326.138    24075923.137    24075924.141    99818721.134  
  20898585.801   111518876.672    20898586.146                                  
  24447291.221   128471398.387    24447290.903    24447294.383   100107605.847  
  22776007.956   121964534.557    22776008.100    22776007.279    94861324.907  
  21676744.908   113912103.605    21676744.562    21676746.144    88762681.046  
  19736719.236   105430070.997    19736719.911    19736718.734    82001242.705  
  22493839.629   118205945.869    22493839.736    22493845.458    92108548.677  
  21815040.134   114638888.795    21815040.124    21815045.000    89329069.328  
  21526988.646   113125168.231    21526988.272    21526994.449    88149511.511  
  23735770.603   124732325.772    23735770.726    23735777.325    97194027.855  
  19576850.657   104649567.446    19576850.938    19576849.938    81394148.222  
  20221719.744   106265966.542    20221719.451    20221721.475    82804707.511  
  23250002.605   122179641.908    23250001.280    23250008.377    95204959.703  
  23561434.154   125816751.465    23561434.031    23561435.192    97857506.055  
  24351700.747   127969081.804    24351700.942    24351705.815    99716197.781  
  19955656.341   106637076.128    19955656.941    19955655.900    82940014.953  
  24571089.824   129121950.561    24571088.514    24571093.506   100614494.068  
 21  8 30  1 18 30.0000000  0 17R14R 6G16R 4G22R16G 3G32G26G 1R 5G31
                                G25R 9G10R15G21
  24096557.370   128448317.745    24096557.663    24096558.556    99904270.168  
  20878522.706   111411816.054    20878522.822                                  
  24421556.287   128336159.551    24421554.977    24421560.180   100002225.036  
  22791534.745   122047682.876    22791535.341    22791534.483    94925995.797  
  21666923.700   113860491.044    21666923.182    21666924.530    88722463.483  
  19722044.597   105351680.061    19722045.127    19722043.696    81940272.005  
  22476298.665   118113766.922    22476298.676    22476304.539    92036720.950  
  21821744.643   114674120.517    21821744.201    21821749.405    89356522.615  
  21508173.546   113026295.575    21508173.558    21508179.533    88072467.916  
  23743994.821   124775542.147    23743994.226    23744001.663    97227702.915  
  19578087.775   104656179.800    19578088.040    19578086.819    81399291.160  
  20223942.336   106277647.274    20223942.298    20223944.297    82813809.394  
  23262742.603   122246589.938    23262742.207    23262747.792    95257127.015  
  23535654.590   125679092.115    23535654.979    23535655.821    97750437.746  
  24370697.891   128068916.263    24370697.723    24370704.867    99793990.815  
  19965923.861   106691941.041    19965924.299    19965923.190    82982687.655  
  24578953.357   129163272.489    24578953.033    24578956.370   100646692.902  
 21  8 30  1 19  0.0000000  0 17R14R 6G16R 4G22R16G 3G32G26G 1R 5G31
                                G25R 9G10R15G21
  24117194.281   128558328.777    24117195.133    24117195.948    99989834.336  
  20858502.967   111304984.947    20858502.953                                  
  24395821.846   128200926.314    24395821.053    24395826.096    99896848.512  
  22807119.085   122131140.220    22807119.748    22807119.720    94990907.033  
  21657197.716   113809380.784    21657197.349    21657198.563    88682637.325  
  19707492.286   105273945.675    19707493.143    19707491.551    81879811.961  
  22458831.780   118021978.146    22458832.085    22458837.241    91965197.246  
  21828494.816   114709594.800    21828494.675    21828499.767    89384164.906  
  21489433.188   112927815.429    21489433.090    21489439.318    87995730.181  
  23752287.665   124819120.135    23752287.484    23752293.919    97261659.736  
  19579429.124   104663350.441    19579429.525    19579428.242    81404868.320  
  20226238.491   106289714.036    20226238.424    20226240.466    82823212.072  
  23275563.687   122313966.695    23275563.480    23275569.566    95309628.367  
  23509910.657   125541620.722    23509911.050    23509912.022    97643515.606  
  24389715.764   128168855.884    24389716.920    24389723.096    99871865.782  
  19976294.279   106747358.326    19976294.856    19976293.844    83025789.983  
  24586844.695   129204738.552    24586841.641    24586847.253   100679004.030  
 21  8 30  1 19 30.0000000  0 18R14R 6G16R 4G22R16G 3G32G26G 1R 5G 4
                                G31G25R 9G10R15G21
  24137835.155   128668351.846    24137835.300    24137835.990   100075407.871  
  20838524.044   111198381.774    20838525.629                                  
  24370087.960   128065696.740    24370087.686    24370091.165    99791474.938  
  22822761.180   122214900.688    22822761.108    22822761.302    95056054.028  
  21647566.769   113758769.942    21647566.554    21647567.438    88643200.329  
  19693062.386   105196863.925    19693063.273    19693062.116    81819859.523  
  22441439.083   117930577.648    22441438.725    22441444.557    91893976.100  
  21835290.514   114745307.362    21835290.781    21835295.793    89411992.874  
  21470767.300   112829725.924    21470766.717    21470773.811    87919296.845  
  23760647.423   124863052.247    23760647.004    23760655.190    97295892.467  
  19580874.391   104671075.585    19580874.692    19580873.615    81410876.766  
  25314146.989   133026748.712    25314145.824    25314150.291   103657219.690  
  20228607.222   106302160.342    20228606.781    20228608.879    82832910.496  
  23288465.488   122381764.985    23288464.491    23288470.867    95362458.209  
  23484201.395   125404335.653    23484201.783    23484203.120    97536738.442  
  24408753.085   128268893.698    24408752.756    24408758.850    99949817.260  
  19986766.558   106803319.460    19986767.195    19986765.961    83069315.309  
  24594760.283   129246341.067    24594758.965    24594764.315   100711421.511  
 21  8 30  1 20  0.0000000  0 17R 6G16R 4G22R16G 3G32G26G 1R 5G 4G31
                                G25R 9G10R15G21
  20818591.331   111092005.941    20818590.555                                  
  24344355.587   127930470.129    24344354.366    24344359.292    99686103.708  
  22838457.519   122298958.855    22838458.399    22838458.674    95121432.534  
  21638030.634   113708656.300    21638030.319    21638031.408    88604150.759  
  19678754.660   105120432.540    19678755.222    19678753.554    81760412.922  
  22424119.471   117839564.096    22424119.362    22424124.709    91823056.478  
  21842131.101   114781254.505    21842131.053    21842136.530    89440003.619  
  21452175.297   112732025.848    21452175.287    21452181.929    87843166.967  
  23769073.103   124907331.678    23769073.391    23769081.687    97330395.848  
  19582422.437   104679352.262    19582422.786    19582421.896    81417314.184  
  25295229.988   132927339.237    25295228.804    25295234.952   103579757.845  
  20231046.736   106314980.520    20231046.489    20231048.535    82842900.253  
  23301446.249   122449978.169    23301445.534    23301451.395    95415611.348  
  23458526.052   125267235.393    23458526.743    23458528.146    97430105.091  
  24427807.308   128369023.361    24427807.144    24427814.071   100027840.272  
  19997339.598   106859816.989    19997339.910    19997338.939    83113257.828  
  24602702.938   129288073.757    24602700.716    24602705.492   100743940.384  
 21  8 30  1 20 30.0000000  0 17R 6G16R 4G22R16G 3G32G26G 1R 5G 4G31
                                G25R 9G10R15G21
  20798700.487   110985868.063    20798700.465                                  
  24318625.469   127795256.642    24318624.948    24318628.165    99580742.651  
  22854212.944   122383321.037    22854213.150    22854212.655    95187047.508  
  21628590.312   113659047.720    21628589.796    21628591.088    88565494.736  
  19664569.981   105044660.056    19664570.440    19664568.651    81701478.801  
  22406875.999   117748947.428    22406875.479    22406880.848    91752446.106  
  21849017.655   114817443.858    21849017.599    21849023.242    89468203.105  
  21433659.741   112634725.259    21433659.554    21433666.351    87767348.369  
  23777566.404   124951962.948    23777566.441    23777573.009    97365173.380  
  19584075.570   104688188.721    19584075.945    19584074.707    81424186.987  
  25276301.799   132827880.313    25276302.853    25276308.811   103502257.552  
  20233558.575   106328180.330    20233558.314    20233560.290    82853185.821  
  23314505.804   122518610.921    23314506.039    23314511.664    95469091.413  
  23432888.977   125130330.154    23432889.025    23432889.714    97323623.289  
  24446879.875   128469249.801    24446880.224    24446886.263   100105938.754  
  20008013.274   106916854.925    20008013.916    20008012.713    83157620.661  
  24610669.742   129329941.676    24610667.415    24610672.561   100776564.648  
 21  8 30  1 21  0.0000000  0 17R 6G16R 4G22R16G 3G32G26G 1R 5G 4G31
                                G25R 9G10R15G21
  20778854.017   110879965.723    20778853.937                                  
  24292897.070   127660054.105    24292895.260    24292901.321    99475390.136  
  22870022.066   122467980.457    22870022.860    22870021.923    95252893.684  
  21619245.677   113609940.624    21619244.965    21619246.123    88527229.473  
  19650507.587   104969542.979    19650508.173    19650506.710    81643054.432  
  22389707.084   117658725.106    22389706.735    22389712.572    91682143.019  
  21855949.530   114853870.504    21855949.616    21855954.771    89496587.484  
  21415219.594   112537821.692    21415219.449    21415225.960    87691839.140  
  23786125.371   124996937.989    23786126.395    23786131.329    97400218.813  
  19585832.479   104697580.790    19585833.011    19585831.688    81431491.925  
  25257366.444   132728367.448    25257367.542    25257372.107   103424714.970  
  20236141.232   106341752.845    20236141.034    20236143.138    82863761.813  
  23327645.065   122587655.431    23327644.332    23327650.854    95522892.339  
  23407287.195   124993617.545    23407287.124    23407288.338    97217291.334  
  24465969.605   128569565.453    24465968.581    24465975.761   100184106.795  
  20018786.623   106974424.281    20018787.000    20018786.180    83202396.818  
  24618661.420   129371937.387    24618661.374    24618664.964   100809288.510  
 21  8 30  1 21 30.0000000  0 17R 6G16R 4G22R16G 3G32G26G 1R 5G 4G31
                                G25R 9G10R15G21
  20759052.881   110774304.504    20759052.939                                  
  24267171.756   127524866.985    24267171.474    24267174.701    99370049.611  
  22885887.855   122552937.500    22885888.126    22885887.163    95318971.366  
  21609996.703   113561338.538    21609996.587    21609997.595    88489357.729  
  19636569.278   104895084.185    19636569.676    19636567.635    81585142.070  
  22372613.847   117568901.407    22372613.555    22372619.425    91612150.565  
  21862927.031   114890536.456    21862927.053    21862932.065    89525158.342  
  21396855.948   112441319.539    21396855.958    21396862.280    87616642.700  
  23794748.494   125042255.608    23794749.342    23794755.139    97435531.210  
  19587693.873   104707531.128    19587694.438    19587693.109    81439231.080  
  25238419.254   132628802.472    25238419.090    25238424.843   103347132.001  
  20238794.973   106355697.905    20238794.791    20238796.780    82874628.102  
  23340861.646   122657110.672    23340861.644    23340867.382    95577013.285  
  23381721.696   124857101.787    23381722.081    23381722.965    97111112.530  
  24485075.399   128669969.775    24485075.510    24485081.818   100262343.912  
  20029659.163   107032523.396    20029659.549    20029658.632    83247585.014  
  24626677.152   129414059.801    24626674.748    24626680.576   100842111.071  
 21  8 30  1 22  0.0000000  0 17R 6G16R 4G22R16G 3G32G26G 1R 5G 4G31
                                G25R 9G10R15G21
  20739297.780   110668889.160    20739299.157                                  
  24241449.949   127389700.260    24241449.309    24241454.377    99264724.946  
  22901808.634   122638192.507    22901808.979    22901807.944    95385280.795  
  21600844.798   113513244.701    21600844.348    21600845.562    88451882.021  
  19622754.363   104821286.698    19622754.578    19622752.604    81527744.058  
  22355597.886   117479480.694    22355598.100    22355602.983    91542472.101  
  21869950.423   114927443.637    21869950.250    21869955.417    89553917.169  
  21378569.407   112345223.168    21378569.121    21378575.777    87541762.459  
  23803437.396   125087914.700    23803436.895    23803445.210    97471109.664  
  19589660.676   104718042.490    19589660.774    19589659.478    81447406.578  
  25219463.480   132529187.597    25219462.756    25219467.988   103269510.067  
  20241519.597   106370015.676    20241519.343    20241521.430    82885784.812  
  23354156.817   122726975.711    23354155.901    23354162.144    95631453.579  
  23356195.399   124720787.683    23356195.030    23356195.602    97005090.480  
  24504198.252   128770461.987    24504198.474    24504205.149   100340649.517  
  20040630.374   107091150.104    20040630.757    20040629.721    83293183.567  
  24634717.059   129456308.454    24634714.025    24634720.595   100875032.028  
 21  8 30  1 22 30.0000000  0 17R 6G16R 4G22R16G 3G32G26G 1R 5G 4G31
                                G25R 9G10R15G21
  20719589.570   110563720.615    20719589.841                                  
  24215733.153   127254554.043    24215731.860    24215735.552    99159416.259  
  22917784.285   122723741.556    22917784.860    22917783.681    95451818.899  
  21591789.191   113465657.281    21591788.715    21591789.962    88414800.923  
  19609062.271   104748149.535    19609062.938    19609061.170    81470859.629  
  22338658.390   117390463.021    22338658.653    22338663.852    91473107.706  
  21877019.152   114964589.903    21877019.184    21877023.880    89582862.306  
  21360360.324   112249532.848    21360360.158    21360366.371    87467198.609  
  23812190.939   125133909.892    23812189.364    23812196.921    97506949.993  
  19591731.441   104729113.258    19591731.840    19591730.379    81456017.182  
  25200497.864   132429520.728    25200497.795    25200501.827   103191847.630  
  20244314.322   106384702.057    20244314.066    20244316.070    82897228.752  
  23367528.221   122797245.349    23367527.939    23367534.592    95686209.133  
  23330704.808   124584675.192    23330704.886    23330705.976    96899225.336  
  24523337.522   128871037.341    24523337.808    24523343.843   100419019.907  
  20051698.966   107150298.516    20051699.514    20051698.587    83339187.887  
  24642779.794   129498677.916    24642777.306    24642783.195   100908047.103  
 21  8 30  1 23  0.0000000  0 17R 6G16R 4G22R16G 3G32G26G 1R 5G 4G31
                                G25R 9G10R15G21
  20699927.921   110458806.074    20699928.968                                  
  24190020.170   127119435.955    24190019.113    24190024.635    99054129.521  
  22933815.363   122809587.548    22933815.852    22933815.132    95518587.954  
  21582831.063   113418582.211    21582830.749    21582831.678    88378119.055  
  19595495.503   104675678.197    19595496.112    19595494.503    81414493.065  
  22321796.985   117301855.494    22321797.248    22321802.549    91404062.904  
  21884134.142   115001979.942    21884134.281    21884139.190    89611997.393  
  21342229.462   112154255.627    21342229.362    21342235.231    87392956.657  
  23821007.620   125180242.617    23821007.118    23821015.273    97543053.339  
  19593907.972   104740748.775    19593908.416    19593907.060    81465067.029  
  25181522.308   132329806.678    25181520.841    25181526.754   103114148.476  
  20247179.816   106399759.778    20247179.339    20247181.375    82908962.048  
  23380978.367   122867921.379    23380977.483    23380983.185    95741281.359  
  23305254.865   124448771.657    23305255.062    23305255.615    96793522.693  
  24542492.261   128971697.844    24542491.540    24542498.609   100497456.656  
  20062865.482   107209969.351    20062866.053    20062865.143    83385598.534  
  24650865.706   129541170.267    24650863.925    24650869.437   100941157.943  
 21  8 30  1 23 30.0000000  0 17R 6G16R 4G22R16G 3G32G26G 1R 5G 4G31
                                G25R 9G10R15G21
  20680315.440   110354144.445    20680315.554                                  
  24164313.253   126984343.784    24164312.086    24164316.409    98948862.997  
  22949900.585   122895724.385    22949900.956    22949900.652    95585583.248  
  21573970.013   113372016.003    21573969.339    21573970.819    88341833.699  
  19582052.520   104603869.031    19582053.177    19582051.234    81358641.517  
  22305013.193   117213655.707    22305013.620    22305018.573    91335335.828  
  21891294.862   115039609.040    21891294.752    21891299.894    89641318.752  
  21324176.727   112059389.251    21324176.887    21324183.175    87319034.850  
  23829886.716   125226905.090    23829887.851    23829893.501    97579413.660  
  19596189.712   104752945.098    19596190.051    19596188.429    81474553.052  
  25162538.055   132230040.933    25162536.679    25162540.300   103036408.948  
  20250114.492   106415182.051    20250114.406    20250116.184    82920979.407  
  23394502.977   122938996.124    23394501.953    23394508.415    95796664.270  
  23279842.219   124313074.935    23279842.653    23279844.535    96687980.937  
  24561661.854   129072436.060    24561662.704    24561668.370   100575953.934  
  20074128.332   107270154.206    20074128.834    20074127.977    83432408.971  
  24658973.128   129583778.003    24658971.080    24658975.820   100974358.733  
 21  8 30  1 24  0.0000000  0 17R 6G16R 4G22R16G 3G32G26G 1R 5G 4G31
                                G25R 9G10R15G21
  20660750.210   110249743.602    20660750.685                                  
  24138612.435   126849285.463    24138610.528    24138615.885    98843622.868  
  22966041.408   122982155.433    22966041.266    22966041.362    95652807.315  
  21565206.386   113325964.976    21565206.099    21565207.705    88305949.779  
  19568734.553   104532728.269    19568735.254    19568733.614    81303309.850  
  22288308.037   117125871.119    22288308.202    22288313.526    91266932.292  
  21898502.136   115077482.343    21898502.241    21898506.860    89670830.401  
  21306203.889   111964941.212    21306203.948    21306209.991    87245439.025  
  23838829.732   125273899.312    23838829.212    23838836.458    97616032.516  
  19598577.013   104765707.800    19598577.537    19598576.255    81484479.602  
  25143543.963   132130228.698    25143543.657    25143548.975   102958633.228  
  20253119.296   106430971.942    20253119.021    20253120.908    82933283.224  
  23408104.586   123010471.796    23408103.876    23408109.795    95852359.595  
  23254471.610   124177592.367    23254471.313    23254472.046    96582605.793  
  24580847.837   129173254.624    24580847.008    24580853.083   100654513.824  
  20085487.431   107330854.214    20085488.033    20085487.377    83479620.084  
  24667104.673   129626503.526    24667102.842    24667106.388   101007651.241  
 21  8 30  1 24 30.0000000  0 17R 6G16R 4G22R16G 3G32G26G 1R 5G 4G31
                                G25R 9G10R15G21
  20641235.995   110145609.460    20641236.344                                  
  24112918.877   126714266.409    24112918.274    24112922.352    98738413.345  
  22982235.701   123068881.550    22982236.621    22982236.811    95720260.893  
  21556542.015   113280432.383    21556541.680    21556542.830    88270469.838  
  19555542.656   104462258.826    19555543.206    19555541.561    81248500.313  
  22271683.136   117038506.616    22271683.107    22271688.659    91198856.081  
  21905756.166   115115602.441    21905756.151    21905761.083    89700534.365  
  21288311.788   111870916.465    21288311.621    21288317.575    87172173.025  
  23847834.857   125321224.650    23847834.187    23847841.197    97652909.350  
  19601071.290   104779040.058    19601071.547    19601069.986    81494849.134  
  25124542.240   132030372.784    25124541.442    25124546.195   102880823.441  
  20256194.071   106447130.288    20256193.839    20256195.675    82945874.154  
  23421781.574   123082347.942    23421780.461    23421787.685    95908366.996  
  23229140.294   124042329.364    23229140.424    23229142.120    96477401.406  
  24600047.484   129274153.477    24600047.959    24600055.034   100733136.267  
  20096942.645   107392068.224    20096943.424    20096942.581    83527230.978  
  24675257.632   129669346.813    24675255.132    24675260.822   101041035.546  
 21  8 30  1 25  0.0000000  0 17R 6G16R 4G22R16G 3G32G26G 1R 5G 4G31
                                G25R 9G10R15G21
  20621771.451   110041739.675    20621771.257                                  
  24087232.533   126579283.863    24087232.789    24087236.612    98633232.227  
  22998484.585   123155895.917    22998485.403    22998485.606    95787938.653  
  21547975.433   113235414.322    21547975.001    21547976.015    88235390.835  
  19542475.558   104392456.802    19542475.853    19542474.402    81194209.871  
  22255137.753   116951559.202    22255137.684    22255143.136    91131104.878  
  21913055.990   115153963.985    21913056.088    21913060.900    89730426.472  
  21270499.516   111777312.089    21270498.809    21270505.090    87099234.593  
  23856902.185   125368872.601    23856902.364    23856910.038    97690037.569  
  19603670.956   104792936.873    19603671.247    19603669.712    81505657.771  
  25105530.916   131930468.011    25105530.666    25105534.816   102802975.658  
  20259337.800   106463649.709    20259337.369    20259339.237    82958746.437  
  23435534.228   123154616.259    23435533.515    23435539.211    95964679.949  
  23203851.394   123907282.560    23203851.057    23203851.161    96372365.169  
  24619261.930   129375124.629    24619261.551    24619269.923   100811815.060  
  20108492.955   107453786.834    20108493.231    20108492.362    83575234.334  
  24683431.375   129712299.631    24683428.594    24683433.925   101074505.204  
 21  8 30  1 25 30.0000000  0 17R 6G16R 4G22R16G 3G32G26G 1R 5G 4G31
                                G25R 9G10R15G21
  20602355.812   109938136.339    20602356.111                                  
  24061554.010   126444339.735    24061552.801    24061556.652    98528081.099  
  23014788.778   123243195.764    23014789.099    23014788.842    95855838.432  
  21539506.704   113190910.518    21539506.020    21539507.426    88200712.544  
  19529533.238   104323321.907    19529533.692    19529532.316    81140438.310  
  22238671.982   116865030.329    22238671.470    22238677.495    91063679.810  
  21920401.808   115192566.148    21920402.144    21920406.489    89760506.069  
  21252767.237   111684129.566    21252766.713    21252773.432    87026624.883  
  23866030.785   125416839.119    23866030.650    23866037.632    97727414.027  
  19606376.090   104807397.955    19606376.584    19606375.093    81516905.282  
  25086509.942   131830513.866    25086509.411    25086514.883   102725089.381  
  20262549.446   106480527.158    20262548.877    20262550.915    82971897.705  
  23449360.217   123227272.983    23449359.235    23449365.427    96021295.584  
  23178601.693   123772453.890    23178601.769    23178602.000    96267498.605  
  24638489.370   129476164.617    24638489.273    24638495.468   100890547.499  
  20120136.137   107516005.267    20120136.687    20120135.804    83623626.445  
  24691625.122   129755357.988    24691623.322    24691626.827   101108057.113  
 21  8 30  1 26  0.0000000  0 17R 6G16R 4G22R16G 3G32G26G 1R 5G 4G31
                                G25R 9G10R15G21
  20582991.162   109834804.197    20582991.302                                  
  24035882.309   126309438.412    24035882.463    24035886.702    98422963.285  
  23031144.671   123330780.843    23031145.230    23031144.182    95923960.126  
  21531136.268   113146923.817    21531135.837    21531136.774    88166437.193  
  19516716.337   104254856.424    19516716.891    19516715.050    81087187.405  
  22222285.977   116778923.840    22222286.109    22222291.179    90996583.873  
  21927793.555   115231410.422    21927793.710    21927798.226    89790774.330  
  21235115.995   111591372.770    21235115.823    21235122.077    86954346.897  
  23875218.027   125465122.520    23875217.825    23875224.897    97765037.441  
  19609187.260   104822425.633    19609187.696    19609186.222    81528593.478  
  25067479.967   131730511.889    25067480.012    25067484.201   102647165.784  
  20265829.023   106497762.575    20265828.704    20265830.671    82985327.907  
  23463260.053   123300316.585    23463259.261    23463265.776    96078212.661  
  23153393.925   123637847.409    23153393.999    23153393.710    96162804.771  
  24657729.869   129577272.319    24657729.287    24657736.178   100969332.675  
  20131872.757   107578721.342    20131873.331    20131872.279    83672405.614  
  24699838.463   129798520.998    24699837.287    24699840.954   101141690.562  
 21  8 30  1 26 30.0000000  0 17R 6G16R 4G22R16G 3G32G26G 1R 5G 4G31
                                G25R 9G10R15G21
  20563678.585   109731747.803    20563678.726                                  
  24010220.915   126174584.255    24010219.545    24010223.103    98317882.208  
  23047553.691   123418651.194    23047554.239    23047553.603    95992303.730  
  21522864.809   113103456.842    21522864.500    21522865.404    88132566.820  
  19504025.310   104187063.060    19504025.996    19504024.374    81034459.254  
  22205981.705   116693243.652    22205982.037    22205987.179    90929820.120  
  21935231.780   115270498.487    21935231.865    21935236.868    89821232.546  
  21217546.785   111499045.668    21217546.385    21217553.024    86882403.744  
  23884466.424   125513721.258    23884465.716    23884472.770    97802906.536  
  19612104.926   104838022.046    19612105.216    19612103.773    81540724.025  
  25048441.485   131630463.955    25048441.061    25048447.001   102569206.395  
  20269176.824   106515355.696    20269176.453    20269178.526    82999036.837  
  23477233.154   123373745.768    23477232.033    23477238.057    96135430.223  
  23128228.675   123503466.909    23128228.813    23128229.205    96058286.744  
  24676982.777   129678446.810    24676982.486    24676989.401   101048169.920  
  20143701.633   107641932.431    20143702.167    20143701.243    83721569.792  
  24708071.906   129841788.279    24708069.704    24708075.091   101175405.241  
 21  8 30  1 27  0.0000000  0 17R 6G16R 4G22R16G 3G32G26G 1R 5G 4G31
                                G25R 9G10R15G21
  20544418.001   109628971.745    20544418.756                                  
  23984568.698   126039781.599    23984567.661    23984571.919    98212841.230  
  23064016.811   123506806.467    23064017.139    23064015.931    96060868.946  
  21514692.743   113060512.120    21514692.262    21514693.442    88099103.397  
  19491460.631   104119944.017    19491460.982    19491459.279    80982255.575  
  22189759.254   116607993.639    22189759.443    22189764.946    90863391.569  
  21942716.565   115309831.864    21942716.871    21942721.087    89851881.924  
  21200060.109   111407152.203    21200060.017    21200066.237    86810798.494  
  23893773.596   125562633.777    23893773.088    23893779.795    97841020.158  
  19615129.068   104854188.630    19615129.473    19615127.959    81553298.040  
  25029395.076   131530371.814    25029394.184    25029399.337   102491212.623  
  20272592.761   106533305.942    20272592.342    20272594.133    83013024.046  
  23491279.157   123447559.097    23491277.867    23491284.664    96192947.121  
  23103107.009   123369316.457    23103107.150    23103107.104    95953947.590  
  24696248.206   129779687.055    24696248.521    24696255.203   101127058.424  
  20155623.189   107705636.522    20155623.615    20155622.713    83771117.419  
  24716325.531   129885157.703    24716323.595    24716327.900   101209199.496  
 21  8 30  1 27 30.0000000  0 17R 6G16R 4G22R16G 3G32G26G 1R 5G 4G31
                                G25R 9G10R15G21
  20525209.892   109526471.992    20525210.360                                  
  23958925.746   125905025.206    23958924.932    23958927.510    98107836.338  
  23080530.473   123595237.063    23080530.726    23080530.272    96129648.299  
  21506618.720   113018082.456    21506618.134    21506619.240    88066041.322  
  19479020.425   104053492.056    19479021.011    19479019.123    80930570.746  
  22173617.423   116523168.299    22173617.695    22173622.719    90797293.926  
  21950246.467   115349402.761    21950246.815    21950251.736    89882716.383  
  21182655.235   111315686.883    21182654.719    21182661.063    86739526.854  
  23903139.874   125611848.978    23903139.541    23903146.608    97879369.629  
  19618258.859   104870918.765    19618259.079    19618257.816    81566310.371  
  25010338.497   131430228.020    25010337.525    25010343.319   102413178.474  
  20276074.409   106551603.341    20276074.143    20276076.117    83027281.765  
  23505396.111   123521745.849    23505396.576    23505401.987    96250754.945  
  23078026.734   123235390.675    23078026.750    23078027.308    95849783.230  
  24715523.601   129880982.757    24715524.234    24715530.158   101205990.119  
  20167634.147   107769821.722    20167634.726    20167633.924    83821039.244  
  24724595.154   129928618.846    24724593.399    24724599.042   101243065.298  
 21  8 30  1 28  0.0000000  0 17R 6G16R 4G22R16G 3G32G26G 1R 5G 4G31
                                G25R 9G10R15G21
  20506055.984   109424258.451    20506055.410                                  
  23933292.486   125770325.586    23933291.934    23933295.552    98002875.639  
  23097096.039   123683949.013    23097096.735    23097096.102    96198646.492  
  21498644.160   112976176.373    21498643.772    21498644.689    88033387.239  
  19466707.077   103987715.534    19466707.825    19466705.956    80879411.246  
  22157558.798   116438777.396    22157558.519    22157563.726    90731534.816  
  21957823.030   115389218.678    21957823.320    21957828.612    89913741.752  
  21165332.872   111224659.510    21165332.651    21165338.982    86668596.468  
  23912563.014   125661371.200    23912563.136    23912570.470    97917958.364  
  19621494.811   104888219.861    19621495.563    19621494.266    81579766.777  
  24991272.604   131330040.165    24991271.498    24991278.182   102335110.102  
  20279623.689   106570253.565    20279623.158    20279625.188    83041814.415  
  23519585.936   123596310.427    23519585.133    23519590.725    96308857.225  
  23052989.792   123101699.786    23052990.208    23052990.796    95745801.588  
  24734811.156   129982338.848    24734810.325    24734816.725   101284968.863  
  20179736.396   107834491.780    20179736.951    20179736.188    83871338.180  
  24732884.323   129972176.847    24732882.804    24732886.328   101277006.523  
 21  8 30  1 28 30.0000000  0 17R 6G16R 4G22R16G 3G32G26G 1R 5G 4G31
                                G25R 9G10R15G21
  20486954.321   109322332.739    20486954.640                                  
  23907671.338   125635683.774    23907669.889    23907673.526    97897960.050  
  23113714.650   123772938.667    23113714.781    23113714.368    96267860.634  
  21490769.173   112934793.311    21490768.895    21490770.019    88001140.708  
  19454519.605   103922613.247    19454520.439    19454518.444    80828776.156  
  22141581.980   116354821.433    22141582.373    22141587.847    90666114.607  
  21965446.078   115429277.833    21965446.101    21965451.544    89944956.677  
  21148094.271   111134070.621    21148094.034    21148100.633    86598007.764  
  23922044.258   125711195.300    23922044.341    23922052.527    97956782.302  
  19624837.930   104906090.731    19624838.638    19624837.305    81593666.345  
  24972199.455   131229806.881    24972198.294    24972203.323   102257006.278  
  20283238.948   106589252.990    20283238.751    20283240.798    83056619.164  
  23533846.108   123671248.135    23533845.144    23533851.270    96367250.241  
  23027997.308   122968244.045    23027997.566    23027999.130    95642002.876  
  24754108.133   130083751.015    24754106.593    24754115.738   101363991.270  
  20191928.285   107899640.654    20191928.725    20191928.031    83922009.525  
  24741191.415   130015826.843    24741188.879    24741193.468   101311019.411  
 21  8 30  1 29  0.0000000  0 17R 6G16R 4G22R16G 3G32G26G 1R 5G 4G31
                                G25R 9G10R15G21
  20467907.572   109220698.455    20467908.528                                  
  23882060.527   125501103.014    23882060.689    23882063.161    97793092.008  
  23130384.231   123862204.826    23130384.472    23130384.467    96337289.860  
  21482994.254   112893934.566    21482993.710    21482994.766    87969302.736  
  19442458.948   103858186.421    19442459.583    19442457.887    80778666.426  
  22125689.144   116271303.263    22125689.270    22125694.494    90601035.544  
  21973115.127   115469580.768    21973115.540    21973121.024    89976361.550  
  21130939.739   111043923.109    21130939.604    21130945.951    86527762.994  
  23931582.297   125761318.867    23931582.303    23931590.450    97995839.574  
  19628288.118   104924532.180    19628288.474    19628287.286    81608009.685  
  24953115.799   131129528.885    24953116.840    24953120.907   102178867.571  
  20286920.605   106608600.155    20286920.316    20286922.367    83071694.881  
  23548176.127   123746556.544    23548175.736    23548181.868    96425932.126  
  23003050.784   122835026.588    23003050.349    23003051.707    95538389.451  
  24773417.141   130185216.910    24773416.620    24773421.849   101443055.549  
  20204208.775   107965265.325    20204209.526    20204208.631    83973050.935  
  24749513.780   130059566.691    24749511.573    24749516.677   101345102.391  
 21  8 30  1 29 30.0000000  0 17R 6G16R 4G22R16G 3G32G26G 1R 5G 4G31
                                G25R 9G10R15G21
  20448917.695   109119360.715    20448917.451                                  
  23856463.616   125366587.382    23856462.988    23856466.120    97688274.732  
  23147106.295   123951747.103    23147105.919    23147106.169    96406933.819  
  21475318.811   112853602.439    21475318.904    21475319.784    87937875.119  
  19430525.139   103794437.083    19430525.512    19430523.718    80729083.630  
  22109880.359   116188226.503    22109880.263    22109885.236    90536300.423  
  21980831.564   115510128.822    21980831.486    21980837.168    90007957.428  
  21113870.049   110954220.530    21113869.470    21113876.200    86457864.915  
  23941177.902   125811739.944    23941177.622    23941185.012    98035128.695  
  19631844.807   104943546.156    19631845.337    19631844.029    81622798.335  
  24934027.049   131029207.889    24934026.744    24934029.474   102100695.475  
  20290668.366   106628294.475    20290668.107    20290670.120    83087041.109  
  23562577.393   123822234.015    23562576.832    23562583.795    96484901.589  
  22978149.357   122702051.321    22978148.883    22978149.427    95434964.343  
  24792736.127   130286735.407    24792736.449    24792741.087   101522160.970  
  20216578.105   108031363.251    20216578.747    20216577.800    84024460.440  
  24757854.501   130103395.261    24757852.922    24757856.067   101379254.427  
 21  8 30  1 30  0.0000000  0 17R 6G16R 4G22R16G 3G32G26G 1R 5G 4G31
                                G25R 9G10R15G21
  20429982.425   109018322.360    20429982.745                                  
  23830878.645   125232139.794    23830877.400    23830881.818    97583510.469  
  23163876.872   124041563.607    23163877.959    23163878.363    96476791.034  
  21467744.430   112813797.464    21467744.084    21467745.115    87906858.270  
  19418717.823   103731365.729    19418718.392    19418716.685    80680028.158  
  22094155.583   116105593.475    22094155.765    22094161.088    90471911.076  
  21988594.158   115550922.072    21988594.294    21988599.523    90039744.363  
  21096884.920   110864965.275    21096884.732    21096891.552    86388315.410  
  23950828.439   125862455.353    23950827.975    23950835.023    98074647.153  
  19635508.998   104963132.934    19635509.478    19635508.262    81638032.492  
  24914927.006   130928844.094    24914924.834    24914929.003   102022490.028  
  20294481.849   106648333.887    20294481.441    20294483.478    83102656.235  
  23577048.124   123898277.571    23577047.335    23577053.711    96544156.296  
  22953292.517   122569320.638    22953292.959    22953293.090    95331729.475  
  24812064.028   130388303.938    24812063.098    24812070.419   101601305.346  
  20229035.420   108097930.631    20229035.986    20229034.913    84076235.064  
  24766210.957   130147309.701    24766208.478    24766214.241   101413473.405  
 21  8 30  1 30 30.0000000  0 17R 6G16R 4G22R16G 3G32G26G 1R 5G 4G31
                                G25R 9G10R15G21
  20411105.018   108917586.570    20411105.218                                  
  23805307.758   125097763.001    23805306.882    23805310.823    97478801.315  
  23180701.268   124131652.633    23180702.229    23180702.328    96546860.168  
  21460270.347   112774520.818    21460270.006    21460270.851    87876253.112  
  19407037.858   103668973.129    19407038.159    19407036.870    80631500.611  
  22078516.148   116023406.462    22078515.865    22078521.210    90407869.265  
  21996403.655   115591960.462    21996403.361    21996408.597    90071722.314  
  21079985.998   110776159.643    21079985.588    21079992.273    86319116.254  
  23960534.464   125913461.907    23960535.646    23960541.758    98114392.522  
  19639280.231   104983292.726    19639280.860    19639279.809    81653712.328  
  24895821.769   130828438.051    24895820.372    24895826.049   101944251.480  
  20298360.230   106668716.505    20298360.111    20298362.087    83118538.796  
  23591588.008   123974684.209    23591588.108    23591593.552    96603693.925  
  22928483.026   122436837.015    22928482.888    22928482.708    95228686.729  
  24831400.595   130489920.039    24831400.055    24831407.191   101680486.757  
  20241579.725   108164963.345    20241580.307    20241579.337    84128371.625  
  24774583.903   130191307.184    24774582.315    24774586.020   101447757.099  
 21  8 30  1 31  0.0000000  0 17R 6G16R 4G22R16G 3G32G26G 1R 5G 4G31
                                G25R 9G10R15G21
  20392284.588   108817155.932    20392284.486                                  
  23779750.576   124963459.526    23779750.322    23779754.576    97374149.348  
  23197575.809   124222011.579    23197576.838    23197575.851    96617139.277  
  21452896.654   112735772.716    21452896.413    21452897.382    87846059.814  
  19395484.722   103607259.032    19395485.552    19395483.466    80583500.778  
  22062961.484   115941667.019    22062961.186    22062966.376    90344176.219  
  22004259.716   115633243.356    22004259.438    22004264.888    90103890.793  
  21063172.477   110687805.161    21063172.097    21063178.759    86250268.651  
  23970295.254   125964755.693    23970294.579    23970303.406    98154361.652  
  19643158.937   105004025.369    19643159.429    19643158.220    81669837.711  
  24876705.486   130727989.123    24876705.644    24876710.922   101865979.769  
  20302303.976   106689439.958    20302303.617    20302305.822    83134686.947  
  23606195.703   124051450.374    23606195.441    23606202.131    96663511.721  
  22903719.431   122304602.030    22903719.344    22903719.294    95125837.368  
  24850746.056   130591580.339    24850745.971    24850752.426   101759702.591  
  20254210.088   108232456.867    20254210.774    20254209.862    84180866.586  
  24782971.513   130235384.500    24782970.790    24782975.010   101482103.044  
 21  8 30  1 31 30.0000000  0 17R 6G16R 4G22R16G 3G32G26G 1R 5G 4G31
                                G25R 9G10R15G21
  20373521.560   108717033.892    20373521.475                                  
  23754208.191   124829232.233    23754206.693    23754211.498    97269556.724  
  23214500.169   124312639.018    23214500.914    23214499.503    96687627.261  
  21445623.941   112697553.642    21445623.482    21445624.691    87816278.746  
  19384058.971   103546224.229    19384059.263    19384057.844    80536029.290  
  22047492.730   115860377.558    22047492.394    22047497.618    90280833.807  
  22012162.105   115674770.895    22012162.253    22012167.205    90136249.911  
  21046445.819   110599904.280    21046445.136    21046451.751    86181774.498  
  23980110.706   126016333.703    23980110.297    23980117.155    98194552.277  
  19647144.535   105025331.250    19647145.030    19647143.981    81686408.954  
  24857583.322   130627497.982    24857582.340    24857584.902   101787674.978  
  20306312.000   106710502.299    20306311.597    20306313.614    83151099.166  
  23620872.236   124128573.121    23620871.606    23620877.354    96723607.346  
  22879002.691   122172618.291    22879002.598    22879002.564    95023183.447  
  24870099.356   130693282.612    24870099.565    24870106.394   101838951.111  
  20266926.296   108300407.387    20266926.824    20266925.822    84233716.995  
  24791373.404   130279538.678    24791370.530    24791377.104   101516508.822  
 21  8 30  1 32  0.0000000  0 17R 6G16R 4G22R16G 3G32G26G 1R 5G 4G31
                                G25R 9G10R15G21
  20354817.930   108617222.961    20354817.057                                  
  23728680.250   124695083.310    23728679.571    23728682.614    97165025.190  
  23231473.968   124403532.362    23231474.322    23231473.451    96758322.091  
  21438451.782   112659864.153    21438451.564    21438452.520    87786910.351  
  19372760.077   103485868.209    19372760.447    19372758.780    80489085.752  
  22032109.528   115779539.709    22032109.427    22032114.723    90217843.297  
  22020111.085   115716542.447    22020111.023    22020116.076    90168799.142  
  21029805.446   110512458.658    21029805.026    21029811.451    86113635.091  
  23989978.448   126068192.097    23989977.609    23989986.332    98234961.394  
  19651237.353   105047210.179    19651237.879    19651236.590    81703425.893  
  24838452.828   130526964.422    24838451.094    24838458.098   101709337.113  
  20310384.065   106731900.894    20310383.602    20310385.752    83167773.398  
  23635614.926   124206048.943    23635614.511    23635620.482    96783978.128  
  22854333.104   122040887.786    22854333.003    22854334.103    94920726.489  
  24889460.819   130795023.662    24889460.607    24889466.321   101918229.838  
  20279727.033   108368810.578    20279727.597    20279726.769    84286919.476  
  24799790.048   130323767.040    24799787.882    24799792.074   101550972.412  
 21  8 30  1 32 30.0000000  0 17R 6G16R 4G22R16G 3G32G26G 1R 5G 4G31
                                G25R 9G10R15G21
  20336171.206   108517725.919    20336171.672                                  
  23703167.850   124561015.450    23703167.422    23703171.466    97060556.814  
  23248496.781   124494689.721    23248496.976    23248496.738    96829222.285  
  21431380.472   112622705.124    21431380.184    21431381.416    87757955.290  
  19361588.062   103426191.546    19361588.926    19361587.102    80442670.595  
  22016813.019   115699155.566    22016813.089    22016818.384    90155206.333  
  22028106.456   115758557.850    22028106.692    22028111.302    90201538.413  
  21013251.811   110425470.273    21013251.681    21013258.037    86045851.974  
  23999900.283   126120327.614    23999899.074    23999906.636    98275586.436  
  19655437.668   105069662.007    19655438.083    19655436.851    81720888.421  
  24819312.909   130426388.287    24819311.784    24819317.446   101630966.303  
  20314519.536   106753633.745    20314519.230    20314521.176    83184708.096  
  23650424.774   124283874.640    23650423.895    23650430.842    96844621.517  
  22829710.880   121909412.520    22829711.478    22829712.830    94818468.098  
  24908826.725   130896800.709    24908826.489    24908833.444   101997536.608  
  20292611.902   108437662.268    20292612.183    20292611.236    84340470.800  
  24808220.309   130368066.464    24808218.057    24808223.884   101585491.442  
 21  8 30  1 33  0.0000000  0 17R 6G16R 4G22R16G 3G32G26G 1R 5G 4G31
                                G25R 9G10R15G21
  20317584.941   108418548.794    20317585.731                                  
  23677672.201   124427033.184    23677671.089    23677674.384    96956155.146  
  23265568.922   124586111.005    23265569.446    23265568.472    96900327.782  
  21424411.024   112586079.195    21424410.512    21424411.715    87729415.634  
  19350544.244   103367196.022    19350544.843    19350543.354    80396785.205  
  22001603.585   115619229.119    22001603.718    22001608.788    90092925.995  
  22036148.432   115800818.889    22036148.729    22036153.454    90234469.079  
  20996786.222   110338943.153    20996786.235    20996792.432    85978428.282  
  24009873.795   126172738.663    24009873.878    24009880.501    98316426.178  
  19659745.543   105092688.589    19659745.883    19659744.347    81738797.975  
  24800167.438   130325772.157    24800166.808    24800169.787   101552564.087  
  20318718.830   106775700.448    20318718.274    20318720.605    83201902.930  
  23665300.813   124362048.931    23665300.808    23665306.321    96905536.570  
  22805139.956   121778197.053    22805140.037    22805140.076    94716411.705  
  24928201.471   130998613.203    24928201.138    24928209.910   102076870.941  
  20305579.927   108506960.047    20305580.408    20305579.314    84394369.071  
  24816663.541   130412436.295    24816661.464    24816664.991   101620065.247  
 21  8 30  1 33 30.0000000  0 17R 6G16R 4G22R16G 3G32G26G 1R 5G 4G31
                                G25R 9G10R15G21
  20299060.079   108319693.540    20299060.356                                  
  23652192.971   124293139.387    23652192.235    23652195.912    96851822.381  
  23282689.894   124677793.758    23282690.388    23282689.791    96971636.616  
  21417542.800   112549986.276    21417542.429    21417543.410    87701291.316  
  19339627.890   103308882.211    19339628.358    19339626.790    80351430.045  
  21986481.451   115539762.242    21986481.346    21986486.885    90031003.769  
  22044237.000   115843325.074    22044237.074    22044241.847    90267590.785  
  20980408.859   110252879.154    20980408.855    20980414.866    85911365.460  
  24019898.806   126225421.635    24019899.220    24019905.244    98357477.814  
  19664160.517   105116289.786    19664160.929    19664159.997    81757154.458  
  24781011.645   130225115.486    24781011.970    24781018.017   101474130.448  
  20322981.199   106798099.156    20322980.702    20322982.738    83219356.475  
  23680242.709   124440568.513    23680242.041    23680248.669    96966720.640  
  22780616.395   121647242.973    22780616.687    22780616.434    94614558.635  
  24947582.714   131100458.105    24947582.154    24947590.118   102156230.441  
  20318630.831   108576699.870    20318631.171    20318630.263    84448611.167  
  24825119.449   130456872.736    24825117.355    24825122.117   101654690.998  
 21  8 30  1 34  0.0000000  0 17R 6G16R 4G22R16G 3G32G26G 1R 5G 4G31
                                G25R 9G10R15G21
  20280594.913   108221162.066    20280595.573                                  
  23626729.711   124159334.512    23626729.533    23626734.323    96747558.937  
  23299859.416   124769734.551    23299859.714    23299858.998    97043146.158  
  21410775.699   112514425.320    21410775.292    21410776.228    87673581.510  
  19328839.153   103251248.226    19328839.139    19328837.473    80306603.644  
  21971447.038   115460755.289    21971446.909    21971452.456    89969439.923  
  22052371.915   115886074.712    22052371.917    22052377.080    90300902.164  
  20964119.752   110167278.670    20964119.552    20964125.789    85844663.815  
  24029974.895   126278371.554    24029973.704    24029980.952    98398737.489  
  19668682.762   105140464.356    19668683.352    19668682.050    81775956.894  
  24761850.729   130124417.393    24761850.601    24761855.199   101395664.444  
  20327305.794   106820825.646    20327305.507    20327307.430    83237065.429  
  23695249.509   124519428.584    23695248.787    23695254.270    97028170.060  
  22756142.450   121516551.189    22756142.531    22756142.484    94512909.549  
  24966967.562   131202331.052    24966967.709    24966974.176   102235611.928  
  20331763.180   108646876.096    20331763.713    20331762.804    84503192.676  
  24833586.818   130501371.491    24833585.865    24833590.060   101689365.311  
 21  8 30  1 34 30.0000000  0 17R 6G16R 4G22R16G 3G32G26G 1R 5G 4G31
                                G25R 9G10R15G21
  20262192.070   108122956.131    20262191.914                                  
  23601284.808   124025620.734    23601285.043    23601288.501    96643366.500  
  23317075.750   124861930.192    23317076.362    23317076.292    97114853.908  
  21404109.698   112479395.792    21404109.361    21404110.440    87646285.813  
  19318176.865   103194293.537    19318177.302    19318175.476    80262305.566  
  21956499.873   115382209.408    21956500.232    21956505.391    89908235.354  
  22060553.102   115929066.527    22060553.021    22060557.990    90334402.270  
  20947918.990   110082142.717    20947918.698    20947924.744    85778324.150  
  24040100.346   126331584.036    24040100.451    24040107.921    98440201.769  
  19673312.509   105165211.037    19673312.950    19673311.658    81795204.305  
  24742678.818   130023676.616    24742676.521    24742682.689   101317165.143  
  20331692.308   106843877.178    20331692.094    20331693.853    83255027.664  
  23710320.048   124598625.017    23710319.600    23710325.419    97089881.566  
  22731716.833   121386122.760    22731717.402    22731717.378    94411465.343  
  24986358.693   131304228.347    24986358.232    24986365.512   102315012.450  
  20344976.187   108717483.595    20344976.767    20344975.895    84558109.621  
  24842066.817   130545929.464    24842064.719    24842070.057   101724085.759  
 21  8 30  1 35  0.0000000  0 16R 6G16R 4G22R16G 3G32G26G 1R 5G 4G31
                                G25R 9R15G21
  20243849.934   108025085.211    20243850.757                                  
  23575859.374   123892006.616    23575859.182    23575862.612    96539251.690  
  23334340.658   124954384.878    23334340.572    23334341.497    97186763.035  
  21397546.278   112444904.515    21397545.866    21397546.808    87619409.515  
  19307642.904   103138024.025    19307643.462    19307641.532    80218540.413  
  21941642.486   115304132.506    21941642.502    21941647.642    89847396.228  
  22068781.290   115972306.312    22068781.907    22068786.379    90368095.596  
  20931807.918   109997479.234    20931807.898    20931813.902    85712352.640  
  24050277.722   126385061.623    24050277.270    24050283.893    98481872.591  
  19678050.330   105190535.729    19678050.527    19678049.007    81814901.285  
  24723502.539   129922899.519    24723501.730    24723506.619   101238637.604  
  20336141.601   106867257.496    20336141.293    20336143.000    83273246.098  
  23725454.394   124678160.556    23725453.883    23725460.874    97151857.299  
  22707342.755   121255965.677    22707342.987    22707342.886    94310232.152  
  20358270.560   108788524.177    20358271.203    20358270.194    84613363.405  
  24850557.552   130590549.317    24850555.018    24850560.389   101758854.427  
 21  8 30  1 35 30.0000000  0 16R 6G16R 4G22R16G 3G32G26G 1R 5G 4G31
                                G25R 9R15G21
  20225572.112   107927550.982    20225572.467                                  
  23550452.706   123758493.309    23550452.250    23550455.027    96435215.413  
  23351652.738   125047094.845    23351654.189    23351654.660    97258870.773  
  21391084.819   112410950.002    21391084.244    21391085.547    87592951.481  
  19297237.346   103082438.278    19297237.615    19297235.753    80175307.080  
  21926874.399   115226524.984    21926874.249    21926879.094    89786922.845  
  22077056.641   116015792.315    22077056.422    22077061.365    90401980.777  
  20915787.071   109913288.570    20915786.979    20915793.028    85646749.559  
  24060503.268   126438799.260    24060503.200    24060509.827    98523746.077  
  19682895.728   105216436.657    19682895.929    19682894.549    81835046.444  
  24704317.335   129822084.947    24704315.268    24704323.049   101160080.858  
  20340652.312   106890962.772    20340652.289    20340654.031    83291717.747  
  23740654.076   124758030.455    23740653.533    23740658.818    97214093.606  
  22683019.499   121126080.742    22683019.498    22683019.801    94209210.658  
  20371644.703   108859992.238    20371645.379    20371644.484    84668949.676  
  24859058.738   130635226.055    24859057.284    24859062.173   101793667.394  
 21  8 30  1 36  0.0000000  0 16R 6G16R 4G22R16G 3G32G26G 1R 5G 4G31
                                G25R 9R15G21
  20207357.898   107830356.546    20207358.616                                  
  23525066.111   123625084.325    23525064.437    23525068.797    96331260.410  
  23369015.207   125140058.770    23369015.557    23369014.713    97331176.013  
  21384726.132   112377533.847    21384725.637    21384726.726    87566912.947  
  19286959.371   103027536.860    19286959.930    19286958.202    80132606.010  
  21912195.709   115149389.635    21912195.944    21912200.460    89726817.394  
  22085378.508   116059525.073    22085378.701    22085383.543    90436058.236  
  20899856.617   109829573.498    20899856.495    20899862.275    85581517.057  
  24070778.130   126492794.355    24070778.556    24070785.886    98565820.155  
  19687848.757   105242914.705    19687849.143    19687847.840    81855640.476  
  24685127.291   129721233.571    24685127.678    24685128.158   101081495.392  
  20345225.212   106914991.630    20345224.600    20345226.609    83310441.536  
  23755915.118   124838232.304    23755915.132    23755921.571    97276588.551  
  22658747.001   120996470.911    22658747.240    22658747.446    94108403.139  
  20385098.812   108931884.703    20385099.139    20385098.201    84724866.033  
  24867571.583   130679958.366    24867569.168    24867575.324   101828523.695  
 21  8 30  1 36 30.0000000  0 16R 6G16R 4G22R16G 3G32G26G 1R 5G 4G31
                                G25R 9R15G21
  20189208.420   107733505.015    20189208.417                                  
  23499699.646   123491781.633    23499698.845    23499701.508    96227388.271  
  23386422.595   125233273.835    23386423.278    23386422.221    97403676.629  
  21378469.381   112344655.735    21378469.210    21378470.383    87541293.659  
  19276809.887   102973319.437    19276810.518    19276808.413    80090436.927  
  21897607.545   115072727.784    21897607.451    21897612.448    89667080.899  
  22093747.506   116103503.703    22093747.249    22093752.284    90470327.263  
  20884016.675   109746335.271    20884016.473    20884022.354    85516656.137  
  24081101.449   126547042.827    24081101.931    24081109.379    98608091.671  
  19692910.016   105269969.005    19692910.353    19692908.915    81876682.706  
  24665928.590   129620345.270    24665926.936    24665933.460   101002881.158  
  20349858.650   106939341.725    20349858.458    20349860.159    83329415.642  
  23771240.222   124918762.284    23771240.289    23771244.857    97339339.171  
  22634527.194   120867137.633    22634527.055    22634527.082    94007810.723  
  20398630.969   109004196.696    20398631.393    20398630.280    84781108.695  
  24876093.303   130724742.147    24876090.179    24876097.871   101863420.109  
 21  8 30  1 37  0.0000000  0 16R 6G16R 4G22R16G 3G32G26G 1R 5G 4G31
                                G25R 9R15G21
  20171123.300   107636997.479    20171122.824                                  
  23474353.186   123358586.181    23474353.517    23474355.550    96123599.675  
  23403875.651   125326736.025    23403876.056    23403875.371    97476369.478  
  21372314.984   112312313.930    21372314.463    21372315.558    87516092.276  
  19266787.907   102919783.716    19266788.411    19266786.584    80048798.047  
  21883109.253   114996539.271    21883109.350    21883114.638    89607713.243  
  22102162.405   116147725.915    22102162.339    22102167.371    90504786.104  
  20868267.836   109663573.761    20868267.358    20868273.436    85452166.680  
  24091471.376   126601539.126    24091471.869    24091477.294    98650556.330  
  19698078.225   105297597.488    19698078.715    19698077.473    81898171.525  
  24646722.388   129519417.899    24646721.498    24646723.669   100924236.558  
  20354552.820   106964008.706    20354552.413    20354554.214    83348636.671  
  23786625.257   124999615.064    23786624.698    23786631.242    97402341.370  
  22610358.323   120738081.009    22610358.619    22610358.282    93907433.474  
  20412240.496   109076921.898    20412240.922    20412239.858    84837672.745  
  24884625.123   130769572.696    24884622.823    24884626.899   101898352.905  
 21  8 30  1 37 30.0000000  0 16R 6G16R 4G22R16G 3G32G26G 1R 5G 4G31
                                G25R 9R15G21
  20153102.507   107540837.568    20153102.524                                  
  23449028.211   123225501.097    23449028.133    23449029.503    96019897.108  
  23421375.439   125420443.836    23421375.651    23421374.737    97549253.341  
  21366262.829   112280510.101    21366262.461    21366263.497    87491310.084  
  19256894.028   102866930.364    19256894.090    19256892.101    80007689.912  
  21868701.734   114920826.837    21868701.537    21868706.810    89548716.558  
  22110624.009   116192192.151    22110624.275    22110629.242    90539435.109  
  20852609.546   109581291.533    20852609.401    20852615.533    85388050.696  
  24101888.631   126656280.638    24101888.328    24101896.224    98693212.032  
  19703354.089   105325800.335    19703354.466    19703353.464    81920107.070  
  24627510.648   129418452.732    24627508.926    24627512.967   100845562.319  
  20359306.767   106988990.949    20359306.564    20359308.247    83368103.359  
  23802072.489   125080788.174    23802071.689    23802078.121    97465593.126  
  22586242.990   120609304.079    22586243.099    22586242.874    93807273.699  
  20425926.466   109150056.771    20425927.035    20425926.111    84894555.425  
  24893164.010   130814447.635    24893160.970    24893167.197   101933320.363  
 21  8 30  1 38  0.0000000  0 16R 6G16R 4G22R16G 3G32G26G 1R 5G 4G31
                                G25R 9R15G21
  20135148.213   107445031.740    20135148.591                                  
  23423724.140   123092532.734    23423723.834    23423727.582    95916285.490  
  23438919.896   125514398.459    23438920.360    23438920.463    97622329.191  
  21360313.798   112249247.318    21360313.346    21360314.261    87466949.489  
  19247127.826   102814762.646    19247128.063    19247126.165    79967115.039  
  21854385.503   114845595.867    21854385.723    21854390.952    89490095.033  
  22119132.438   116236905.622    22119133.061    22119137.805    90574276.766  
  20837044.071   109499493.974    20837043.626    20837049.933    85324312.368  
  24112351.917   126711267.335    24112351.780    24112360.294    98736058.772  
  19708738.162   105354581.250    19708738.541    19708737.406    81942492.220  
  24608288.467   129317453.194    24608288.123    24608294.617   100766861.521  
  20364120.686   107014289.632    20364120.534    20364122.384    83387816.630  
  23817580.216   125162281.933    23817579.817    23817585.701    97529094.783  
  22562180.635   120480812.204    22562180.951    22562180.434    93707335.650  
  20439689.611   109223600.963    20439689.988    20439688.810    84951756.460  
  24901711.682   130859367.908    24901709.671    24901714.170   101968323.131  
 21  8 30  1 38 30.0000000  0 16R 6G16R 4G22R16G 3G32G26G 1R 5G 4G31
                                G25R 9R15G21
  20117261.894   107349583.162    20117261.594                                  
  23398443.675   122959683.536    23398443.559    23398447.499    95812766.731  
  23456510.977   125608597.645    23456511.360    23456511.121    97695595.235  
  21354467.628   112218526.017    21354467.177    21354468.311    87443010.839  
  19237489.691   102763280.355    19237490.516    19237488.542    79927073.282  
  21840161.868   114770847.991    21840161.620    21840166.861    89431849.948  
  22127688.663   116281865.896    22127688.848    22127693.131    90609310.720  
  20821571.095   109418182.692    20821570.539    20821576.991    85260952.958  
  24122861.702   126766495.508    24122861.237    24122869.536    98779093.685  
  19714230.250   105383939.560    19714230.729    19714229.617    81965326.456  
  24589063.917   129216419.542    24589064.480    24589067.009   100688133.997  
  20368994.571   107039902.670    20368994.545    20368996.432    83407774.850  
  23833148.837   125244092.827    23833148.271    23833154.526    97592843.497  
  22538172.497   120352607.237    22538172.382    22538171.980    93607620.725  
  20453527.618   109297550.027    20453528.437    20453527.185    85009272.402  
  24910268.389   130904330.393    24910265.727    24910272.012   102003358.742  
 21  8 30  1 39  0.0000000  0 16R 6G16R 4G22R16G 3G32G26G 1R 5G 4G31
                                G25R 9R15G21
  20099443.413   107254495.896    20099442.169                                  
  23373186.138   122826957.398    23373186.805    23373190.091    95709343.915  
  23474148.381   125703040.521    23474148.189    23474147.747    97769050.777  
  21348724.899   112188347.740    21348724.486    21348725.678    87419495.298  
  19227980.558   102712484.491    19227981.640    19227979.563    79887565.405  
  21826030.347   114696586.324    21826030.080    21826035.387    89373983.727  
  22136291.327   116327073.861    22136291.532    22136296.715    90644537.690  
  20806191.117   109337360.735    20806190.793    20806197.010    85197974.844  
  24133416.449   126821962.886    24133416.718    24133424.367    98822314.968  
  19719830.350   105413876.021    19719830.808    19719829.710    81988610.366  
  24569830.855   129115353.080    24569829.356    24569835.435   100609380.876  
  20373928.355   107065829.249    20373928.182    20373929.920    83427977.383  
  23848775.839   125326218.864    23848775.061    23848781.356    97656837.812  
  22514217.907   120224692.730    22514218.089    22514217.638    93508131.739  
  20467441.854   109371901.328    20467442.456    20467441.158    85067101.187  
  24918831.987   130949332.944    24918830.804    24918834.716   102038425.621  
